TimeUS,CAN,CAE,CAD,CAe
 230219551, -0.0203772, 0.0005699405, 0.0005991918, 0.01112744
 230310446, -0.03230359, 0.001454062, 0.000670516, 0.016875
 230375632, -0.01633523, 0.0005363564, 0.001439055, 0.008368878
 230430585, -0.0196495, 0.001394951, 0.001709718, 0.01022863
 230486049, -0.01950462, 0.0008584663, 0.00100798, 0.01022844
 230540600, -0.01963048, 8.602155E-05, 0.001024929, 0.01023067
 230600632, -0.02134072, 0.0004100527, 0.0006159869, 0.01116167
 230650605, -0.01762955, 0.0002847321, 0.0003171232, 0.009293918
 230705589, -0.01921052, 0.0003358292, 0.0008076108, 0.01022844
 230761476, -0.01921997, 0.0005207886, 0.0004136598, 0.01022937
 230815605, -0.0195627, 0.0002649607, 0.0005640569, 0.01023012
 230875587, -0.02166815, 0.0004251705, 0.001078465, 0.01115627
 230925619, -0.01813343, 0.0005068803, 0.001297252, 0.009299124
 230980666, -0.01946936, 0.0004155137, 0.0009798122, 0.01022807
 231035955, -0.02019216, 5.222808E-05, 0.0005765583, 0.01022881
 231090615, -0.01980543, 0.0003533189, 0.0005243158, 0.0102303
 231150637, -0.02108302, 0.000447473, 0.0008929792, 0.01115683
 231200654, -0.01810409, 0.0008425105, 7.217473E-05, 0.009299125
 231255584, -0.01993245, 0.0008397865, 0.001154906, 0.01022919
 231311253, -0.01959498, 0.0007116272, 0.0001450483, 0.01022937
 231365621, -0.01945291, 0.0002955428, 0.0006022977, 0.01022695
 231420596, -0.01977945, 0.0008096201, 0.0006578175, 0.01022863
 231480567, -0.0213677, 0.0004568883, 0.0004147878, 0.0111585
 231535922, -0.02005449, 0.000479674, 0.000846796, 0.01022863
 231590594, -0.019742, 0.0007097307, 0.0005659922, 0.01023012
 231645616, -0.01961705, 0.0004714393, 0.001026224, 0.01022695
 231700695, -0.01950497, 3.647897E-05, 0.001278981, 0.01022882
 231755634, -0.02006192, 0.0003468061, 0.0008504866, 0.01022863
 231811283, -0.01973625, 0.0002210251, 0.0007946332, 0.01022863
 231865575, -0.01964076, 0.0003845991, 0.00102816, 0.01022844
 231920604, -0.01955131, 0.0005957085, 0.001283178, 0.01022882
 231975604, -0.01952429, 0.0003857191, 0.0009907206, 0.01022863
 232030620, -0.0201059, 0.000178172, 0.0005110569, 0.01022881
 232085974, -0.0194224, 0.0002679603, 0.0003075177, 0.01022844
 232140581, -0.0193159, 0.0006366053, 0.0008945519, 0.01022919
 232195681, -0.01995515, -0.0003285625, 0.001209789, 0.01022807
 232255601, -0.02150341, 0.0003148622, 0.001302766, 0.01115906
 232305582, -0.01764387, 0.0003370114, 0.001217921, 0.009302286
 232361491, -0.02004924, 0.0007199442, 0.0005822422, 0.01022472
 232415626, -0.02000693, 0.0004676079, 0.001249572, 0.01023012
 232470621, -0.01967657, 0.0007083982, 0.0007330392, 0.01022714
 232520668, -0.01810127, 7.833193E-05, 0.0003423401, 0.009299497
 232570593, -0.01775421, 0.0007081442, 0.001475877, 0.00929801
 232625637, -0.01987809, 0.000758227, 0.001366729, 0.01022844
 232680604, -0.01964909, 0.0004635143, 0.0006095069, 0.01022863
 232736069, -0.01953908, 0.000500001, 0.000890266, 0.01022993
 232790577, -0.01925569, 0.0006839818, 0.0005041703, 0.01022714
 232850651, -0.02131637, 0.0002239316, 0.0008488205, 0.01115906
 232905589, -0.02003675, 0.0003596317, 0.0001687458, 0.01022826
 232961583, -0.01961767, 0.0001619671, 0.0007258952, 0.01022863
 233015645, -0.01989871, 0.0005839681, 0.0005238094, 0.01022993
 233070586, -0.01970446, 0.0005416219, 0.0007446062, 0.01022788
 233125627, -0.01914296, 0.0004234861, 0.0009959234, 0.01022807
 233180634, -0.01992497, 0.0004766302, 0.0001053699, 0.01022974
 233235944, -0.01966837, 0.0003640714, 0.001799774, 0.01022751
 233290614, -0.01921795, 0.0002721132, 0.001424987, 0.010229
 233345609, -0.01958427, 1.800349E-05, 0.0007763051, 0.01022826
 233400617, -0.01900113, 0.0006295424, 0.0003670212, 0.01022863
 233455667, -0.01958857, 0.0003138187, 0.0004955404, 0.01022863
 233511456, -0.01987595, 0.0003889363, 0.0009943985, 0.010229
 233565625, -0.01906022, 0.00010971, 0.0008551289, 0.01022825
 233625618, -0.02175728, 0.0003592961, 0.0007736287, 0.01116018
 233680675, -0.01932865, 0.0006874571, 0.001304598, 0.01022751
 233735922, -0.01992322, 0.0002151785, 0.0006866491, 0.01022826
 233790629, -0.01975189, 0.0001360524, 0.0003503068, 0.01022919
 233845628, -0.0196011, 0.0004128931, 0.000832382, 0.01022788
 233900606, -0.01985369, 0.0007576099, 9.366437E-05, 0.01023086
 233961460, -0.0210725, 0.0009413433, 0.001249172, 0.01115627
 234015617, -0.01947497, 0.0001219817, 0.0005334259, 0.01023068
 234065638, -0.01799182, 8.675098E-05, 0.0008436635, 0.009297265
 234125682, -0.021356, 0.0005022426, 0.001118806, 0.01115795
 234180621, -0.01651077, 0.003894282, -0.0001955281, 0.01022844
 234235939, -0.02144821, -0.003629449, 0.002013752, 0.01022937
 234290587, -0.02224494, 0.000963195, 0.0009400586, 0.01022956
 234345637, -0.01841056, 0.001400742, 0.00032176, 0.01022844
 234400659, -0.02017248, 0.0001164073, 0.00104722, 0.01022881
 234455656, -0.01904695, 0.001215878, 0.0006433318, 0.01022863
 234511265, -0.02017751, 5.013931E-05, 0.0008136418, 0.01022863
 234565641, -0.01932051, -9.24295E-05, 0.001347543, 0.01022863
 234620614, -0.01984384, 0.0009884811, 0.0004781762, 0.01022863
 234675628, -0.02523074, -0.001615655, -0.001337543, 0.01022844
 234730654, -0.01706964, 0.00133487, -0.001564168, 0.01022881
 234785964, -0.0181621, 0.003151265, 0.0003397273, 0.01022863
 234840590, -0.02206468, -0.002149838, 0.003265123, 0.01023068
 234895681, -0.01733471, 0.0002847023, 0.003705714, 0.01022658
 234950622, -0.01754915, 0.001378841, -0.001487441, 0.010229
 235005594, -0.02017626, -0.0009174641, 0.001204876, 0.01022826
 235060988, -0.01902753, -0.0004565282, 0.0005470333, 0.01022863
 235115601, -0.02093494, 0.0004160929, -0.000391796, 0.01022974
 235170634, -0.01863588, 0.001169289, -0.0008818536, 0.01022733
 235225606, -0.02056441, 0.0003645699, 0.0002023892, 0.01022881
 235280592, -0.01973931, 0.0009775945, 0.000895677, 0.01022863
 235335965, -0.01944245, 0.001051674, 0.0009213564, 0.01022863
 235390676, -0.01943489, -0.001983396, 0.001125594, 0.01022863
 235445637, -0.01946799, 6.752316E-05, -0.00029971, 0.01022863
 235505637, -0.02148056, 0.0002084015, 0.0008193745, 0.0111585
 235555627, -0.0170754, -0.0006597196, 0.0006691331, 0.009298567
 235611553, -0.01943423, 0.0009425029, -0.0005123334, 0.01022881
 235665661, -0.02028911, 0.001069681, 0.0006710431, 0.01023123
 235720735, -0.02056734, 0.0007415704, 0.0005618513, 0.01022844
 235770582, -0.01685246, 0.0002080086, 0.0004976251, 0.009296335
 235820631, -0.01814398, -0.00127334, 0.001008323, 0.009298753
 235875657, -0.02019039, -1.793858E-05, 0.0003722637, 0.0102316
 235930652, -0.0197312, 0.001069628, -0.0003264351, 0.01022714
 235985935, -0.0197799, 0.0009022199, -0.0001159481, 0.01022714
 236040591, -0.01981486, 0.0008683152, 0.000289222, 0.01022919
 236100652, -0.0216508, 0.001426776, 6.611966E-05, 0.01115795
 236155704, -0.01977469, 0.0002868124, 0.00118877, 0.01022863
 236205593, -0.01846717, -0.002121055, 0.000826215, 0.009298754
 236265614, -0.02198951, 0.0003275753, 0.0003712552, 0.0111585
 236320689, -0.01940401, -0.0009183257, -2.167953E-05, 0.01022863
 236370613, -0.01704677, 0.001024112, 0.0005717021, 0.009298754
 236425642, -0.02032458, 1.097347E-05, -0.0001603364, 0.01022863
 236480613, -0.02044007, -0.0004000785, 0.0008783528, 0.01022863
 236540600, -0.02171765, -9.035287E-05, -2.248327E-05, 0.01115906
 236590604, -0.01848858, 0.0004318565, 0.0004742586, 0.009298195
 236640635, -0.01735582, 0.00307503, 0.000223235, 0.009298754
 236695689, -0.01932256, 0.0003062155, 0.0004514217, 0.01022881
 236750598, -0.02151554, -0.001267993, 0.0006363122, 0.01022844
 236805609, -0.01922001, 0.0005872623, 0.000103605, 0.01022863
 236860959, -0.01917833, -0.0003109811, 0.0008036363, 0.01022919
 236915650, -0.01919537, 0.001193905, -0.001297818, 0.0102303
 236970604, -0.01993834, 0.001026068, 0.001713472, 0.0102264
 237025609, -0.02154537, -0.001409554, 0.0009839574, 0.01022863
 237080655, -0.01922571, 0.0008578369, 0.0003787147, 0.01022919
 237140618, -0.02324083, 3.805259E-05, 0.0004080281, 0.01115795
 237195631, -0.01907522, 0.0001152299, 0.001140207, 0.01023123
 237250583, -0.01762285, 0.0005619474, 0.0003253591, 0.01022584
 237305607, -0.01933342, 0.0001160722, 0.0008326558, 0.01022881
 237361472, -0.02045461, 0.0005468071, 0.0007558094, 0.01022863
 237420609, -0.02056821, 0.0007575111, 0.0004030025, 0.0111585
 237475625, -0.0196414, 0.0002533447, 0.0006011994, 0.01022863
 237530586, -0.02036117, -0.001082898, 0.0002332527, 0.01022863
 237585972, -0.01941726, 0.0008564844, -0.0003895322, 0.01022863
 237640671, -0.01911484, 0.0003859314, 0.0005617778, 0.010229
 237700628, -0.02203002, 0.001272112, -0.0004870098, 0.01115869
 237755607, -0.01937975, 0.001176794, 0.0002046725, 0.01022807
 237811227, -0.01988019, 0.0002312767, 0.0009755465, 0.01022937
 237865668, -0.02084329, -0.001190383, 0.0008489452, 0.01022844
 237920644, -0.01885961, -0.0001418741, 0.0002360112, 0.01022863
 237975646, -0.01881165, 0.0001961101, -0.000406044, 0.01022863
 238030613, -0.01873669, 0.001617459, 0.000247031, 0.01022807
 238085965, -0.02061099, 0.0001431748, 0.001040437, 0.01022863
 238140632, -0.01942038, 0.0007215021, -4.287435E-05, 0.01022919
 238195625, -0.0200319, -0.0009610695, 6.770558E-05, 0.01022863
 238255638, -0.02276412, -0.001028543, 0.0004714966, 0.01115795
 238311233, -0.01914058, 0.0008755992, 5.067105E-05, 0.0102303
 238365594, -0.01820972, 0.0009097887, 0.0005300149, 0.01022733
 238420617, -0.01878103, 0.0002185663, 0.0004930462, 0.01022826
 238475630, -0.02050832, 0.001712459, -0.0008803777, 0.01022863
 238530632, -0.02363205, -0.001636255, 0.001450832, 0.01022919
 238586211, -0.01798526, 0.001004309, 0.0008242864, 0.01022863
 238640627, -0.01669656, 0.001384548, -0.001160269, 0.01022863
 238695620, -0.02049181, 0.0001957061, -0.0001528008, 0.01022807
 238750607, -0.02064413, 0.0008697925, 0.001150686, 0.01022974
 238800636, -0.0203028, -0.001550905, 0.001069884, 0.009299311
 238855680, -0.0168846, 0.001031749, -0.0004509506, 0.01022695
 238911280, -0.01808585, 0.001436724, -0.0006063301, 0.01022714
 238965606, -0.02100726, -0.0001605958, 0.0004456531, 0.01022993
 239025628, -0.01980738, -0.0001263993, 0.001012319, 0.01115906
 239075637, -0.02010609, -0.0002935289, 0.0007045224, 0.009299868
 239130636, -0.01937119, 0.001475823, 0.0002523469, 0.01022714
 239185974, -0.01774658, -0.0003271164, 0.001220129, 0.01022919
 239240606, -0.01981087, 0.0004106394, -0.0009076933, 0.01022807
 239300686, -0.02052494, 0.0007453664, 0.00195194, 0.01115832
 239350632, -0.01764585, 0.0001477161, -0.0005773486, 0.009299869
 239405581, -0.02230617, -0.0005595301, 0.0005902915, 0.0102277
 239460971, -0.01935836, 0.0001487233, 0.0007806027, 0.01022844
 239515660, -0.01756852, 0.0005320446, -0.0003103307, 0.01022863
 239575639, -0.02340479, 0.00052858, -0.0006868157, 0.01115925
 239625650, -0.01513258, 0.0007607195, 0.0001607699, 0.009298939
 239680602, -0.02085423, -0.0007079422, -0.0002446818, 0.01022844
 239735961, -0.02257388, -9.009145E-05, 0.0002922429, 0.01022807
 239790638, -0.01744225, 5.677844E-05, 0.0007149945, 0.01022919
 239845668, -0.02174899, -0.0001458948, -0.0007663855, 0.01022807
 239900616, -0.01688296, 0.001106479, 0.001646411, 0.01022863
 239955628, -0.01844491, 0.001621912, -0.001777672, 0.01022956
 240011264, -0.02193391, -0.0005206299, 0.001893701, 0.0102277
 240065646, -0.02076902, -0.0006074671, 0.0003873325, 0.01022937
 240125685, -0.01987507, -0.0001975491, 0.001257804, 0.01115832
 240175619, -0.01750426, 0.0009848787, -0.001128831, 0.009298567
 240230618, -0.01909655, 0.0002496078, -0.0002335067, 0.01022826
 240285954, -0.02029358, -0.001534502, 0.0006371225, 0.01022863
 240340652, -0.02178449, -0.00108131, -6.464551E-05, 0.01023067
 240395612, -0.01723411, 0.002449878, 5.954795E-05, 0.01022658
 240445642, -0.01861634, -0.0002588227, -0.001075219, 0.009299311
 240500613, -0.01856991, -0.001201384, 0.002147733, 0.01022937
 240555605, -0.02075404, 0.001265387, -0.001205983, 0.01022733
 240611395, -0.01660758, 0.003096742, -0.001260133, 0.01022919
 240670652, -0.02130513, 0.0001516754, 0.0006397045, 0.0111585
 240725627, -0.01973073, -0.0008106642, 0.0007380793, 0.01022956
 240780601, -0.02138637, -0.001780562, 0.001583608, 0.01022696
 240836081, -0.01902486, 0.001030135, 7.750207E-05, 0.01022881
 240890589, -0.01904087, 0.001517076, 6.244519E-05, 0.01022863
 240945635, -0.02191664, -0.001236504, 0.0004901718, 0.01022863
 241005608, -0.02152221, -0.0009845491, 0.000916909, 0.0111585
 241055618, -0.01648088, 0.001851883, -0.001142343, 0.009299311
 241111264, -0.0172724, 0.001914937, -0.001919785, 0.01022826
 241170642, -0.02402852, -0.002112441, 0.001657796, 0.01115832
 241225602, -0.01975939, -0.0004710669, 0.001015581, 0.01022937
 241286070, -0.02013835, 0.001299526, 0.0002428289, 0.01115776
 241335966, -0.01654052, 0.0002266753, -0.0008776263, 0.009299311
 241390620, -0.02111963, -0.001652063, 0.0008178712, 0.01022807
 241450614, -0.01956899, 0.001395313, -0.0009570817, 0.0111585
 241505615, -0.01988398, -0.001388173, 0.0006390032, 0.01022863
 241561464, -0.01924327, 0.0007657559, -0.0008753694, 0.01023012
 241615622, -0.01900869, 0.0002338994, -0.0008876298, 0.01022714
 241670619, -0.01900996, -0.0004982525, 0.0005475926, 0.01022956
 241725618, -0.02065154, -0.0002531713, -0.0004074119, 0.0102277
 241785932, -0.02198437, 0.00135135, 0.002335181, 0.0111585
 241840588, -0.01637058, 0.002103321, -0.002166147, 0.01022863
 241895607, -0.01808487, 0.0008485975, -0.002697635, 0.01022863
 241950618, -0.02289815, -0.003984147, 0.002860868, 0.01022956
 242005670, -0.01924146, 0.001071902, 0.0003791664, 0.0102277
 242055638, -0.01581788, 0.001771746, -0.00230395, 0.009299682
 242111269, -0.02117673, -0.001415691, 0.002279743, 0.0102277
 242165646, -0.01460269, 0.001724425, -0.0009638508, 0.01022863
 242220607, -0.02089848, -0.0001059471, 0.0004002076, 0.01022863
 242275640, -0.02161935, -0.002639266, 0.002436706, 0.01022863
 242330631, -0.016107, 0.00139737, -0.003690889, 0.01022863
 242385958, -0.02208946, -0.001877761, 0.001883115, 0.01022863
 242440605, -0.02282739, -0.00241186, 0.001858371, 0.010229
 242495618, -0.01113398, 0.006020948, -0.0061611, 0.01022826
 242550629, -0.02539261, -0.00231422, 0.001483006, 0.01022956
 242600650, -0.02062287, -0.004311856, 0.003009295, 0.009297824
 242660972, -0.01555167, 0.005379203, -0.004357235, 0.01115888
 242711254, -0.0196635, -0.002897373, 0.0005878152, 0.009298753
 242770682, -0.0198064, -0.0008501087, -0.001958051, 0.01115813
 242825595, -0.01926383, 0.001799947, -0.0008464073, 0.01022863
 242875616, -0.01801598, 0.000102636, 0.00127243, 0.009298753
 242930598, -0.01438669, 0.004300867, -0.002121591, 0.01022863
 242985962, -0.02505767, 0.0004342424, 0.003344007, 0.01022863
 243040640, -0.02116002, -0.0001661747, -0.0003026563, 0.01022974
 243095618, -0.02180783, -0.002551225, 0.002640215, 0.01022751
 243155599, -0.01967235, 0.0006599163, -0.002927889, 0.0111585
 243215597, -0.01283412, 0.001353589, -0.007437537, 0.01115906
 243265683, -0.02583405, -0.005107565, 0.008173861, 0.009298753
 243315642, -0.01849673, -0.0002402609, 0.004574553, 0.009299869
 243370604, -0.0138953, 0.00293991, -0.007175014, 0.01022677
 243420608, -0.02266465, -0.00265428, 0.004434627, 0.009298938
 243475617, -0.01582592, 0.002667173, -0.003511528, 0.01023477
 243530583, -0.01974399, 0.003254146, -0.001994757, 0.01022435
 243585999, -0.02340779, -0.003682595, -0.001234797, 0.0102277
 243635979, -0.01795051, -0.002733549, 0.000553244, 0.009298195
 243690630, -0.01638171, -0.0003458586, -0.006567451, 0.01022881
 243745641, -0.01965131, -0.001465205, 0.001272273, 0.01022807
 243800667, -0.02183484, -0.00245369, 0.003275381, 0.01022844
 243855591, -0.01313689, 0.0004421485, -0.004224991, 0.0102303
 243911276, -0.01417648, 0.006973365, -0.004861325, 0.01022714
 243961499, -0.02267756, -0.004236727, 0.001379275, 0.009298753
 244015615, -0.01923597, 0.001096503, 0.001889564, 0.01022695
 244070582, -0.01614664, 0.01386277, -0.006361349, 0.01022881
 244120759, -0.01925479, -0.001584704, -0.01076807, 0.009299126
 244175621, -0.02189782, -0.02246479, 0.009204656, 0.01022974
 244230597, -0.01796405, 0.02063646, 0.001465388, 0.01022863
 244290626, -0.01421511, 0.03946322, -0.01687782, 0.01115981
 244340612, 0.002802989, -0.03730348, 0.01165839, 0.009297451
 244395594, -0.03757684, 0.008320017, -0.02509833, 0.01022863
 244450611, 0.02979206, 0.03584557, -0.06475531, 0.01022863
 244500634, 0.0110821, -0.03365764, -0.01102801, 0.009297079
 244555602, 0.01111953, 0.04726051, -0.07151234, 0.0102303
 244611270, 0.07829306, 0.008926421, -0.0431226, 0.01022863
 244665654, 0.0337068, -0.004359063, -0.03703062, 0.01022863
 244720650, 0.06190237, 0.05299, -0.02452883, 0.01022956
 244775620, 0.07859264, 0.01144527, 0.01680601, 0.01022826
 244830595, 0.0384933, -0.01008823, 0.0182764, 0.010229
 244886072, 0.06076328, 0.07574662, -0.03783033, 0.01022751
 244940607, 0.05249354, -0.007197236, 0.03842175, 0.01023086
 244990633, 0.01307115, 0.04447331, -0.008446455, 0.009296707
 245045624, 0.05083873, 0.04864198, -0.01808258, 0.01022863
 245100653, -0.01171907, -0.005695205, 0.02489977, 0.01022863
 245155665, 0.009635373, 0.09086426, -0.04105678, 0.01023049
 245211231, -0.006478009, -0.004114219, 0.04500567, 0.01022677
 245265647, -0.04178404, 0.03977471, -0.005087697, 0.01022919
 245320720, -0.007554504, 0.04447601, -0.0276061, 0.01022807
 245375661, -0.04981022, -0.0349266, 0.04510375, 0.01022863
 245430610, -0.04543827, 0.04004898, -0.03694352, 0.01023012
 245480632, -0.02020147, -0.0461437, 0.05875213, 0.009298381
 245535913, -0.06183889, -0.02709167, -0.004239758, 0.01023365
 245590600, -0.04342867, -0.02053876, -0.02887344, 0.01022249
 245645674, -0.04244843, -0.09230186, 0.07362261, 0.01022863
 245700642, -0.0723291, -0.03621879, -0.005072047, 0.01022919
 245755629, -0.03060785, -0.06635557, 0.02048931, 0.01022844
 245811250, -0.07447648, -0.1013252, 0.06088071, 0.01023235
 245865623, -0.07594025, -0.04507221, -0.04264819, 0.01022454
 245920764, -0.0432801, -0.1096636, 0.02991902, 0.01022863
 245970623, -0.1151984, -0.05847643, -0.01726837, 0.009299311
 246025611, -0.04412013, -0.07818972, -0.01216523, 0.01022807
 246080629, -0.1239363, -0.08943261, 0.02105798, 0.01022863
 246135979, -0.08055599, -0.03617245, -0.04149428, 0.01022863
 246190689, -0.08714695, -0.09510537, 0.04103202, 0.01022844
 246245636, -0.1421602, -0.03004648, -0.02209332, 0.01022881
 246300607, -0.06950898, -0.04434515, -0.0160107, 0.01022863
 246355638, -0.1415458, -0.05257313, 0.02898594, 0.01022919
 246405601, -0.07555026, 0.00945518, -0.05049167, 0.009298195
 246461107, -0.1035611, -0.05868518, 0.05642653, 0.01022863
 246515617, -0.1022366, 0.03404102, -0.03702884, 0.01022863
 246570631, -0.05146457, -0.02063025, 0.02283233, 0.01022937
 246625634, -0.1019432, 0.009003236, 0.0101285, 0.01022844
 246680630, -0.02158701, 0.03882063, -0.01438105, 0.01022807
 246735964, -0.05644052, -0.01909914, 0.04167665, 0.01022919
 246790635, -0.0306494, 0.06871425, -0.04942302, 0.01022807
 246845679, 0.01218694, -0.003120296, 0.01899967, 0.01022863
 246895606, -0.03450029, 0.03902052, -0.01793879, 0.009298753
 246950650, 0.05020218, 0.03813039, 0.0002348255, 0.01022844
 247005628, -0.007482111, 0.004867298, 0.02377021, 0.01022881
 247060965, 0.0480167, 0.07258488, -0.027957, 0.01022881
 247115608, 0.04845118, -0.01201421, 0.0428235, 0.01023049
 247170639, 0.03054581, 0.04590309, -0.02609594, 0.01022658
 247225661, 0.08602029, 0.0346513, -0.01168185, 0.010229
 247280596, 0.02935561, -0.01507111, 0.02418548, 0.01022826
 247335968, 0.06296521, 0.06203381, -0.03655704, 0.01022956
 247390634, 0.05757883, -0.02058914, 0.0404594, 0.0102277
 247440619, 0.01545995, 0.02276809, -0.02685484, 0.009299125
 247495669, 0.06259929, 0.01875989, -0.03360148, 0.01022826
 247550627, 0.01117761, -0.03661074, 0.009647211, 0.01022863
 247605620, 0.01950374, 0.03652056, -0.07467055, 0.01022863
 247660991, 0.02778464, -0.03026347, -0.00920485, 0.01022937
 247715592, -0.02227218, -0.02925218, -0.02626751, 0.010229
 247770625, 0.004616762, 0.01406605, -0.07356029, 0.01022844
 247825631, -0.01024501, -0.06752038, 0.01879687, 0.01022807
 247880589, -0.04590854, -0.0159507, -0.04474462, 0.01022826
 247930616, -0.002186798, -0.02671118, -0.03204453, 0.009298753
 247985962, -0.04752744, -0.06953175, 0.01929837, 0.01022956
 248040603, -0.04222836, -0.01109819, -0.05827193, 0.0102277
 248095657, -0.01987048, -0.07261353, 0.01988044, 0.01022863
 248150673, -0.07611561, -0.05298781, -0.009770906, 0.01022919
 248205595, -0.02866058, -0.02803295, -0.05048828, 0.01022807
 248261108, -0.05579109, -0.08930296, 0.03076099, 0.01023272
 248315686, -0.07437681, -0.015637, -0.0548559, 0.01022454
 248370608, -0.02848238, -0.05954705, -0.005459415, 0.01022881
 248420626, -0.09134197, -0.04292527, -0.007201514, 0.009298568
 248475654, -0.02926444, -0.01896807, -0.05179871, 0.01022956
 248530656, -0.07252966, -0.06987596, 0.01929052, 0.0102277
 248585984, -0.0674498, 0.01457816, -0.07741992, 0.010229
 248640632, -0.03314276, -0.05344668, 0.006919263, 0.01022881
 248695634, -0.09569795, -0.007282098, -0.02639328, 0.01022807
 248750609, -0.02135199, 0.006047755, -0.02258773, 0.01022956
 248805603, -0.06774626, -0.03708333, 0.04637256, 0.0102277
 248860977, -0.05312433, 0.04192341, -0.01588233, 0.01022863
 248911261, -0.02358856, -0.03104457, 0.05553517, 0.009298753
 248965583, -0.07140104, 0.0273337, 0.01497607, 0.01022863
 249020635, -0.0009360664, 0.01548126, 0.02018954, 0.01022863
 249075643, -0.05777759, -0.01605435, 0.05217214, 0.01022863
 249130633, -0.02424005, 0.04848126, 0.004905262, 0.01022863
 249185978, -0.01480062, -0.02307024, 0.07052159, 0.01022863
 249240596, -0.0506902, 0.02195759, 0.03025324, 0.01023105
 249295677, 0.01309022, 0.01831789, 0.03552008, 0.01022603
 249350625, -0.03389609, -0.02263286, 0.07078332, 0.01022882
 249400628, -0.001841638, 0.03480294, 0.007918907, 0.009298753
 249455631, 0.0005287607, -0.03348504, 0.07487919, 0.01022863
 249511247, -0.0261515, 0.006904736, 0.03209045, 0.01022863
 249565696, 0.02215757, -0.001573253, 0.04451694, 0.01023012
 249620596, -0.01883996, -0.0478896, 0.09372071, 0.01022695
 249675637, -0.00156674, 0.007701487, 0.0270134, 0.01022919
 249730594, 0.0115725, -0.04233851, 0.08148534, 0.01022826
 249786328, -0.01730645, -0.04074965, 0.07945651, 0.01022863
 249836183, 0.01087395, -0.00535768, 0.03345619, 0.009298753
 249890660, -0.00577246, -0.06605741, 0.1052134, 0.01022956
 249945623, -0.01024165, -0.02486432, 0.04323862, 0.0102277
 250000631, 0.00465815, -0.03782367, 0.06269798, 0.01023365
 250055625, -0.01053017, -0.06999125, 0.09136427, 0.01022361
 250111264, -0.008864325, -0.01945356, 0.02507443, 0.01022919
 250165625, 0.003844085, -0.06124276, 0.08198766, 0.01022788
 250220609, -0.01813569, -0.05498949, 0.06764378, 0.01022881
 250275613, -0.007299346, -0.02482869, 0.02500833, 0.01023012
 250330654, 0.0006927585, -0.06737299, 0.08795445, 0.01022714
 250380634, -0.02735244, -0.03115574, 0.02210203, 0.009298753
 250435970, -0.003703102, -0.05798155, -0.01805042, 0.01022863
 250490595, -0.01757702, -0.0741445, -0.07290122, 0.01023365
 250545636, -0.03116587, -0.0448606, -0.1389805, 0.01022342
 250600667, -0.009937149, -0.07485192, -0.08821634, 0.01022881
 250655627, -0.03782712, -0.05224355, -0.1545823, 0.01022919
 250711275, -0.02838093, -0.04758772, -0.2503338, 0.01022844
 250761495, -0.02224224, -0.06164772, -0.2177163, 0.00929838
 250815628, -0.04893977, -0.02383909, -0.2954403, 0.01023383
 250870714, -0.02962264, -0.03370154, -0.2586398, 0.01022342
 250925644, -0.04012302, -0.02562344, -0.2543578, 0.01022844
 250980590, -0.04718651, 0.004406794, -0.2730119, 0.01022937
 251035975, -0.03330044, 0.003322164, -0.2519354, 0.01022807
 251090656, -0.04319967, 0.01538513, -0.2345615, 0.01022919
 251145651, -0.04962384, 0.05774258, -0.2492071, 0.01022807
 251200655, -0.03813196, 0.05622619, -0.2143049, 0.01022863
 251255626, -0.0434004, 0.08346809, -0.2103722, 0.01023458
 251305623, -0.03760501, 0.08235456, -0.1079115, 0.009292802
 251361747, -0.02425222, 0.06029415, 0.008446877, 0.01022863
 251415592, -0.02861452, 0.07271596, 0.02461041, 0.01022919
 251470638, -0.02155619, 0.07191996, 0.03682568, 0.01022919
 251525623, -0.01092325, 0.03096213, 0.06991576, 0.01022807
 251580615, -0.01878348, 0.04758506, 0.04112384, 0.01022807
 251636235, -0.008169424, 0.0379772, 0.04346276, 0.01022863
 251690644, 0.001155545, -0.00270172, 0.08050378, 0.01023067
 251740601, -0.008292768, 0.01958375, 0.03343469, 0.009297265
 251795583, 0.002521845, -0.007259335, 0.03616608, 0.01022788
 251850630, 0.01034254, -0.03005262, -0.06904881, 0.01022881
 251905677, 0.003705878, -0.01770532, -0.155111, 0.01022863
 251961708, 0.01371634, -0.03715443, -0.1474107, 0.01022844
 252015646, 0.01303209, -0.03764278, -0.1460915, 0.0102277
 252070610, 0.009106126, -0.0155734, -0.1639089, 0.01023067
 252125651, 0.01540703, -0.02012682, -0.1423175, 0.0102277
 252175669, 0.01308107, -0.01450856, -0.1218028, 0.009298753
 252230629, 0.01026704, 0.004474166, -0.12436, 0.01022863
 252285990, 0.01376641, 0.00075552, -0.09572726, 0.01022863
 252340614, 0.01382159, 0.01102481, -0.09075832, 0.01022919
 252395621, 0.007366295, 0.01986972, -0.08164245, 0.01022919
 252450636, 0.01550068, 0.02473333, -0.07075422, 0.01022807
 252505598, 0.01348922, 0.02727111, -0.05955804, 0.01022807
 252555626, 0.006876197, 0.03324128, -0.02552202, 0.009298754
 252605661, 0.01233323, 0.03035013, -0.001705409, 0.009298753
 252660968, 0.00742224, 0.03347773, 0.01029345, 0.01022919
 252715665, 0.006690263, 0.03954887, 0.01123208, 0.0102264
 252770636, 0.00637613, 0.03286248, 0.02220336, 0.01023086
 252825624, 0.0008161917, 0.02886277, 0.0713039, 0.01022788
 252885956, 0.002435831, 0.03500804, 0.148818, 0.01115869
 252945625, 0.002081, 0.0235671, 0.1771756, 0.0111585
 252995616, 0.000309058, 0.01285096, 0.1541723, 0.009298752
 253045640, 0.0002331635, 0.02056221, 0.1394182, 0.009300241
 253095618, 0.0002814449, 0.006092751, 0.1461858, 0.009297264
 253150628, -0.0008968097, 0.009583165, 0.1473589, 0.01023253
 253205602, -0.003934342, 0.01197989, 0.1389119, 0.01022472
 253260982, -0.003279243, -0.002613166, 0.1461303, 0.01022863
 253315627, -0.002928155, 2.566382E-05, 0.1300383, 0.01022751
 253365618, -0.008531893, 0.002410402, 0.07010466, 0.009299683
 253420584, -0.00792264, -0.01386711, 0.03734859, 0.01022881
 253475604, -0.01106466, -0.002824721, 0.003589768, 0.01022863
 253530603, -0.01560515, -0.001048596, -0.005033616, 0.01022863
 253585994, -0.01565361, -0.01003652, 0.004351698, 0.01022863
 253635998, -0.01500854, 0.005206965, -0.009931643, 0.009298567
 253690622, -0.02086514, 0.006447086, -0.007626927, 0.01023123
 253745619, -0.02023193, -0.0001721139, 0.003475745, 0.01022621
 253800634, -0.0236752, 0.01483983, -0.01321365, 0.01022919
 253855661, -0.02817457, 0.01897453, -0.01235807, 0.01022807
 253912195, -0.02725514, 0.01274557, -0.0006595636, 0.01022844
 253961710, -0.02556977, 0.02305508, -0.01086684, 0.009298938
 254020658, -0.03779776, 0.03118045, -0.01042291, 0.01116018
 254070606, -0.02912982, 0.01939558, -0.00173787, 0.009297078
 254125654, -0.03253366, 0.03303904, -0.01107577, 0.01022863
 254180622, -0.03969447, 0.0387524, -0.009407691, 0.01022863
 254230588, -0.03103772, 0.02668681, 0.0005429935, 0.009298752
 254285990, -0.03570963, 0.03910975, -0.009328778, 0.01022844
 254340736, -0.04184197, 0.04156544, -0.00869548, 0.01022881
 254395626, -0.03564877, 0.03576142, 0.0001034903, 0.01022844
 254450630, -0.03494941, 0.03878604, -0.0009946713, 0.01022881
 254500623, -0.037896, 0.04236362, -0.005036674, 0.009298754
 254555649, -0.03285506, 0.03547965, 0.005297593, 0.01022863
 254612238, -0.03552797, 0.03909828, -0.002268421, 0.01022863
 254665610, -0.03709675, 0.04542108, -0.009830171, 0.01022993
 254720644, -0.03301484, 0.03665673, -0.001991601, 0.01022733
 254775632, -0.02892462, 0.03647138, -0.002057895, 0.01023514
 254825665, -0.03077471, 0.03886712, -0.006871229, 0.009298381
 254880662, -0.02632322, 0.03340099, 0.001286938, 0.01022286
 254935982, -0.0278431, 0.03211677, 5.279609E-05, 0.01022844
 254990597, -0.02524101, 0.03793703, -0.007218336, 0.01022844
 255045631, -0.02270698, 0.02906587, 0.00329213, 0.01022863
 255095657, -0.02063599, 0.02238019, 0.001975899, 0.009298569
 255150651, -0.02128361, 0.0338985, -0.006450793, 0.01023105
 255205613, -0.02031123, 0.0215089, 0.003201226, 0.0102264
 255260999, -0.01851961, 0.02121339, 0.0003468889, 0.01022863
 255315629, -0.0189801, 0.03127049, -0.01187842, 0.01022733
 255370686, -0.0173958, 0.01475865, 0.003988803, 0.01023012
 255420595, -0.01599431, 0.01478119, -0.0002527246, 0.009299126
 255475604, -0.01747784, 0.02881355, -0.01321021, 0.01022788
 255530616, -0.01653928, 0.009208828, 0.009384381, 0.01022881
 255586002, -0.01751467, 0.01460351, -0.0007123323, 0.01022919
 255640677, -0.01825748, 0.02592673, -0.01584659, 0.01023049
 255695595, -0.01612882, 0.006228177, 0.007624019, 0.01022677
 255745628, -0.0144352, 0.009661998, 0.0003731409, 0.009298195
 255800643, -0.01644746, 0.02104575, -0.0112359, 0.01022863
 255855637, -0.01663622, 0.0007653666, 0.008031478, 0.01022863
 255912353, -0.01537294, 0.009427737, -0.001368055, 0.01022863
 255965607, -0.01833879, 0.02093505, -0.01617437, 0.01022863
 256020642, -0.0173847, 0.002012185, 0.006039604, 0.01022863
 256070617, -0.01560922, 0.008731456, -0.00314472, 0.009301913
 256125625, -0.01809996, 0.02068854, -0.01402323, 0.01022547
 256180673, -0.01621784, -0.0005328244, 0.0145175, 0.01022863
 256235985, -0.01610386, 0.009026352, -0.002356717, 0.01022956
 256285976, -0.01576227, 0.0206323, -0.01112255, 0.009297823
 256340782, -0.01581368, -0.003562452, 0.01774395, 0.01023011
 256395647, -0.01540962, 0.01128735, 0.001366621, 0.01022714
 256450686, -0.01851394, 0.01811739, 0.01963182, 0.01022881
 256505719, -0.01543494, -0.002290661, 0.06711386, 0.01022844
 256555681, -0.01335049, 0.008417299, 0.05873394, 0.009298753
 256612560, -0.0148749, 0.01810561, 0.07775614, 0.01022863
 256665685, -0.006837238, -0.005777621, 0.1187055, 0.01022993
 256720684, -0.009555663, 0.004707669, 0.1111012, 0.01022733
 256775664, -0.01440031, 0.02384345, 0.1102667, 0.01022863
 256830651, 0.0003666389, -0.01027438, 0.1561425, 0.01022844
 256880661, -0.007157221, 0.007490139, 0.1215292, 0.009298753
 256936089, -0.01098756, 0.01569806, 0.1341769, 0.01023049
 256990692, 0.003859063, -0.01516334, 0.1591658, 0.01022677
 257045673, -0.0159657, 0.01730379, 0.1288803, 0.01022807
 257100681, -0.01007611, 0.009411072, 0.143304, 0.01022844
 257150707, -0.002062484, -0.009587574, 0.1464571, 0.009299682
 257205635, -0.02011347, 0.02525873, 0.1213609, 0.01022863
 257261249, -0.007014783, 0.001075109, 0.1387521, 0.01022863
 257315630, -0.008372831, -0.0001906337, 0.1194083, 0.01022863
 257370699, -0.02535591, 0.02977254, 0.08010711, 0.01022714
 257425664, -0.007931818, -0.005452557, 0.1076205, 0.01022863
 257475683, -0.01944884, 0.01682661, 0.05461282, 0.009302658
 257530713, -0.02812369, 0.02691697, 0.05673571, 0.01022621
 257586122, -0.008571515, -0.008989613, 0.07163792, 0.01022937
 257640645, -0.03735775, 0.04443767, 0.02477706, 0.01023067
 257695689, -0.01665554, 0.01458754, 0.05211155, 0.01022602
 257745668, -0.02169765, 0.01773407, 0.03494773, 0.009298938
 257800695, -0.03299502, 0.05017658, 0.01459311, 0.01022881
 257855685, -0.01463429, -0.0005154316, 0.05425286, 0.01022807
 257912252, -0.04054925, 0.05446616, 0.002226162, 0.01022863
 257965636, -0.02160906, 0.03553845, 0.0221877, 0.0102303
 258020675, -0.02170414, 0.01602667, 0.03199563, 0.01022863
 258070690, -0.03476819, 0.06759185, -0.01092935, 0.009300427
 258125692, -0.01177499, 0.01303491, 0.03819874, 0.01022528
 258180708, -0.03988542, 0.05143233, -0.003009391, 0.01022863
 258236093, -0.02794432, 0.05488188, -0.0006105858, 0.01022919
 258286003, -0.0146042, 0.01158704, 0.02899674, 0.009298939
 258340983, -0.04399781, 0.07188133, -0.01255541, 0.01022807
 258395732, -0.01216557, 0.03126758, 0.01786187, 0.01022844
 258450671, -0.02925286, 0.0408653, 0.006148382, 0.01022937
 258505674, -0.03282563, 0.07267431, -0.01771564, 0.01022789
 258561104, -0.009481913, 0.02223662, 0.02685814, 0.01022863
 258612440, -0.03908933, 0.05275091, -0.01004998, 0.009299311
 258665685, -0.01655545, 0.05122096, -0.006344975, 0.01022844
 258720665, -0.01240213, 0.02015566, 0.01598461, 0.01022826
 258775653, -0.03730758, 0.05915974, -0.02076918, 0.01022937
 258830671, -0.008007208, 0.02966077, 0.005422759, 0.01022937
 258880710, -0.01764402, 0.01630883, 0.006899911, 0.009297264
 258935655, -0.02329547, 0.04816628, -0.02321729, 0.01022844
 258990682, -0.002397706, 0.001050836, 0.0210231, 0.01022974
 259046113, -0.0254097, 0.01858886, -0.005462184, 0.0102277
 259100667, -0.01439345, 0.02848329, -0.0199734, 0.01023235
 259155680, -0.002911318, -0.01691754, 0.02144988, 0.01022491
 259205659, -0.03075024, 0.01629132, -0.02394962, 0.009298567
 259260654, -0.004992253, -0.004958162, 0.0008186938, 0.01022881
 259318247, -0.0119829, -0.02726458, 0.01565822, 0.01069357
 259368270, -0.0296992, 0.00967642, -0.02587092, 0.009299312
 259423237, -0.003709887, -0.02742548, 0.01470313, 0.01022807
 259478234, -0.0265696, -0.02750758, 0.008077741, 0.01022863
 259533714, -0.02502812, -0.003612319, -0.02037373, 0.01022863
 259588244, -0.006458618, -0.04013456, 0.02302196, 0.01023086
 259638247, -0.03173761, -0.02564074, 7.290882E-05, 0.00929708
 259693243, -0.01578255, -0.01646157, -0.009708964, 0.01022807
 259748206, -0.01093272, -0.05205894, 0.02508869, 0.01022863
 259803384, -0.03764053, -0.02236526, -0.01601237, 0.01022844
 259858518, -0.01314262, -0.02960597, -0.003335779, 0.01022881
 259909641, -0.02082073, -0.04752867, 0.0197438, 0.009298753
 259963234, -0.03240659, -0.01012642, -0.02921877, 0.01022974
 260018216, -0.006551648, -0.04916796, 0.02336521, 0.01022733
 260073400, -0.03644941, -0.03040486, 0.003092872, 0.01022956
 260128440, -0.02166852, -0.01110004, -0.01676374, 0.01023049
 260183575, -0.01145237, -0.04902797, 0.02818465, 0.01022602
 260233902, -0.04071458, -0.003904544, -0.02375081, 0.009298753
 260288225, -0.01024986, -0.02512198, 0.003581999, 0.01022863
 260343237, -0.02927562, -0.03135243, 0.00674982, 0.01022863
 260398253, -0.03511368, 0.009287522, -0.03149058, 0.01022844
 260453223, -0.009858216, -0.02721008, 0.01686439, 0.01022881
 260503216, -0.03888461, -0.004625455, -0.00381254, 0.009298753
 260558557, -0.01799862, 0.007656219, -0.01441312, 0.01022863
 260618268, -0.01813898, -0.02067004, 0.01905504, 0.0111585
 260668256, -0.03897964, 0.0118312, -0.01549535, 0.009298567
 260723229, -0.01296349, 0.006458389, -0.004889392, 0.01022956
 260773226, -0.02305147, -0.01342264, 0.0167836, 0.009298937
 260828239, -0.0306317, 0.02726915, -0.0244422, 0.01023049
 260883730, -0.01022565, -0.008265718, 0.01926159, 0.01022584
 260938202, -0.03049105, 0.0009769489, 0.00487723, 0.01023235
 260993216, -0.02455733, 0.02927867, -0.02759893, 0.01022491
 261043220, -0.008708802, -0.01658856, 0.02176136, 0.009298753
 261098218, -0.03468994, 0.01710973, -0.01301226, 0.01022956
 261153396, -0.01675051, 0.0174332, -0.009193207, 0.01022751
 261209701, -0.0194992, -0.01476622, 0.02211805, 0.01022881
 261263255, -0.03819741, 0.02288417, -0.0184792, 0.01023012
 261318223, -0.011708, 0.007206717, 0.00604096, 0.01022714
 261368246, -0.02459503, -0.01423082, 0.0161769, 0.009298567
 261423273, -0.02602502, 0.0233092, -0.0342379, 0.01022956
 261478260, -0.01268136, -0.008832997, 0.00674025, 0.010229
 261533583, -0.02132073, -0.01121653, 0.004895253, 0.01022751
 261583621, -0.01629867, 0.01901726, -0.02533626, 0.009298753
 261638262, -0.01204097, -0.01903622, 0.02113389, 0.01022863
 261693372, -0.02300033, -0.003642199, 0.001680228, 0.01022863
 261748258, -0.0163355, 0.01121142, -0.01267857, 0.01022974
 261803261, -0.01555322, -0.0211256, 0.0253728, 0.01022751
 261858548, -0.02517586, -0.001643086, -0.0008245006, 0.01022863
 261909703, -0.01862006, 0.0065135, -0.003038637, 0.009300427
 261963383, -0.01964748, -0.02177651, 0.02685656, 0.01022844
 262018402, -0.02963451, 0.006957293, -0.006505683, 0.01022714
 262073250, -0.02258041, -0.0011202, 0.00493584, 0.01023086
 262128323, -0.02411873, -0.01772258, 0.02366912, 0.0102264
 262178246, -0.02911078, 0.0112189, -0.01714083, 0.009299125
 262233723, -0.02802152, -0.006495371, 0.006562009, 0.01023272
 262288248, -0.02954779, -0.009502416, 0.007301037, 0.01022454
 262343217, -0.03527679, 0.01642415, -0.01543601, 0.01023142
 262398237, -0.03025824, -0.007344263, 0.0183058, 0.01022658
 262448207, -0.02920654, 0.003589926, -0.0005499129, 0.009297636
 262503379, -0.03591915, 0.01730541, -0.01010289, 0.01022863
 262558538, -0.03115076, -0.008325387, 0.0208875, 0.01022863
 262613232, -0.03886067, 0.01684531, -0.006872091, 0.01022937
 262668218, -0.03589962, 0.0175295, 0.001198041, 0.01023253
 262718243, -0.03167267, -0.007787368, 0.02300192, 0.009294104
 262773261, -0.04316019, 0.0252404, -0.01293079, 0.01022863
 262828249, -0.03581272, 0.005685139, 0.01153328, 0.01023086
 262883603, -0.03609958, -0.004084806, 0.01174248, 0.0102264
 262938247, -0.04376951, 0.02779747, -0.02226729, 0.010229
 262993230, -0.0342903, -0.003932644, 0.01954968, 0.01022826
 263043384, -0.03756384, 0.001719306, 0.006369156, 0.009298753
 263098224, -0.04175268, 0.02381751, -0.01425689, 0.01022919
 263153249, -0.03433456, -0.01622015, 0.0258889, 0.01022807
 263209699, -0.04476877, 0.008324757, -0.004290334, 0.01022919
 263263256, -0.03917122, 0.01848715, -0.00807749, 0.0102303
 263318248, -0.03066168, -0.02276305, 0.03691127, 0.01022826
 263368246, -0.04439933, 0.01817572, -0.01367938, 0.009297451
 263423244, -0.03047445, 0.0009717832, 0.007224382, 0.01022807
 263478220, -0.03273802, -0.0202441, 0.02171803, 0.01022844
 263533576, -0.04519946, 0.02270564, -0.0296267, 0.01022881
 263588270, -0.03040482, -0.0115604, 0.01174397, 0.01022882
 263638247, -0.03506085, -0.01084097, 0.007960789, 0.009300055
 263693217, -0.04160318, 0.0228245, -0.0259722, 0.0102277
 263748245, -0.02828707, -0.02491357, 0.02566514, 0.01022807
 263803399, -0.04611161, 0.003421724, -0.009799078, 0.01022863
 263858532, -0.03914775, 0.01827639, -0.0183015, 0.01022844
 263909967, -0.02743429, -0.02401215, 0.02546114, 0.009298752
 263963215, -0.04886383, 0.01785777, -0.02350114, 0.01022881
 264018248, -0.03674966, 0.007495183, 0.000565917, 0.01022844
 264073233, -0.03291162, -0.01803647, 0.02608944, 0.01022993
 264128266, -0.04970658, 0.01990261, -0.01254844, 0.01022881
 264183634, -0.03611523, 0.004142982, 0.002217623, 0.01022733
 264233581, -0.03143475, -0.01550259, 0.0154957, 0.009298753
 264288249, -0.0476266, 0.02485935, -0.02495472, 0.01022863
 264343225, -0.02890304, -0.01052661, 0.01830376, 0.01022863
 264398251, -0.03779102, -0.004970062, 0.009180521, 0.01022863
 264453247, -0.04128834, 0.02458102, -0.02113381, 0.01022863
 264509659, -0.02501739, -0.009104457, 0.0168637, 0.01022863
 264558550, -0.03291565, 0.001862891, 0.003133921, 0.009298753
 264618404, -0.0344127, 0.02470073, -0.0145124, 0.0111598
 264668227, -0.009364041, -0.01694951, 0.03091189, 0.009298009
 264723260, -0.03529247, 0.01750253, -0.00279888, 0.01023012
 264778233, -0.01073769, 0.01769863, 0.0004701869, 0.0102264
 264828235, -0.008299413, -0.01167881, 0.02778172, 0.009298939
 264883588, -0.02176057, 0.03299905, -0.02024834, 0.01022844
 264938277, 0.002798716, 0.001644174, 0.01758598, 0.01022863
 264993254, -0.01330132, 0.001636485, 0.01358351, 0.01022881
 265048242, -0.01003971, 0.03559812, -0.019838, 0.010229
 265098235, 0.007608595, -0.01115206, 0.02445757, 0.009298195
 265153245, -0.01295925, 0.01932428, -0.01140885, 0.01022919
 265209709, 0.006366326, 0.02550019, -0.01605789, 0.01022826
 265263237, 0.004674523, -0.008119853, 0.02061837, 0.01023123
 265318232, -0.005646479, 0.02517515, -0.02072217, 0.01022603
 265373251, 0.01071591, 0.01634126, -0.0002883552, 0.01022844
 265423225, 0.002581365, -0.008395508, 0.01799574, 0.009298753
 265478253, -0.001443892, 0.03233214, -0.02191226, 0.01023105
 265533585, 0.01040501, -2.902024E-05, 0.01687553, 0.01022695
 265588424, -0.001967447, 0.0003926035, 0.008926374, 0.01023067
 265643239, -3.413204E-05, 0.02995714, -0.01937235, 0.01022677
 265698263, 0.008006385, -0.008377104, 0.02186621, 0.01022881
 265748235, -0.003441849, 0.003027923, 0.0002078083, 0.009298381
 265803229, 0.004529358, 0.01851826, -0.01204151, 0.01022844
 265858528, 0.008203143, -0.01624707, 0.02316637, 0.01022825
 265913206, -0.0006897547, 0.005475808, -0.01237155, 0.01023012
 265968388, 0.005526817, 0.01177583, -0.01202171, 0.01022714
 266018252, 0.007320184, -0.02058029, 0.01933578, 0.009299682
 266073250, -0.001895442, 0.008134367, -0.01380754, 0.01022974
 266128210, 0.005892558, -0.001791856, 0.0005955282, 0.01022863
 266183604, -0.0002291686, -0.02024993, 0.02004968, 0.01022714
 266238386, -0.005197316, 0.004049983, -0.01415154, 0.01023198
 266288221, -0.0004410905, -0.01010178, 0.004056945, 0.009294848
 266343216, -0.004391662, -0.02035983, 0.005818909, 0.01022956
 266398224, -0.004995228, 0.00121009, -0.02280335, 0.01022751
 266453199, -0.004009394, -0.02085773, 0.009395963, 0.01022881
 266509877, -0.00345443, -0.02365788, 0.006596726, 0.01023551
 266563244, -0.004586341, -0.005522299, -0.014456, 0.01022212
 266618246, -0.003424987, -0.0227736, 0.01082285, 0.01022826
 266668216, -0.002576241, -0.02101921, 0.003796567, 0.009300984
 266723228, -0.005309409, -0.008651338, -0.007692859, 0.01022695
 266778378, -0.003572574, -0.02426663, 0.01811021, 0.01022807
 266828237, -0.00344653, -0.01479406, 0.00403249, 0.009300053
 266883596, -0.005932454, -0.006717637, -0.003848153, 0.01022733
 266938191, -0.00295373, -0.02218034, 0.01796781, 0.010229
 266993193, -0.005636165, -0.01168817, -0.0007736892, 0.01022937
 267048265, -0.00487287, -0.004757529, -0.004788908, 0.01022733
 267103356, -0.004852725, -0.01893169, 0.009982162, 0.01022881
 267153341, -0.01828264, -0.008105997, 0.004541024, 0.009299311
 267209858, -0.01432772, -0.0004201671, -0.002694258, 0.01022863
 267263339, -0.03617229, -0.03799473, 0.03721302, 0.01022993
 267318490, -0.04856911, -0.004561052, -0.0102583, 0.01022788
 267373578, -0.05091732, -0.01445704, 0.007615116, 0.01022751
 267423341, -0.06552579, -0.05400908, 0.0534136, 0.009298753
 267478509, -0.07229163, 0.01737449, -0.04401872, 0.01022881
 267533699, -0.07380822, -0.06287869, 0.06918813, 0.010229
 267588498, -0.08167806, -0.007187395, -0.02267253, 0.01022807
 267643314, -0.07172873, -0.002006877, -0.01212072, 0.01023253
 267693342, -0.06738648, -0.05433102, 0.04109389, 0.009297266
 267748334, -0.06958466, 0.04169069, -0.07113878, 0.01022621
 267803295, -0.06472749, -0.05548099, 0.05935311, 0.010229
 267858766, -0.06359547, 0.02084024, -0.05178533, 0.01022993
 267913343, -0.05938676, 0.01377639, -0.02567433, 0.01022565
 267968316, -0.0535835, -0.03366969, 0.02676032, 0.01023291
 268018290, -0.04942583, 0.06149346, -0.06946629, 0.009295777
 268073345, -0.05077827, -0.0378048, 0.04933802, 0.01022863
 268128504, -0.03938589, 0.0441665, -0.05307043, 0.01023179
 268183705, -0.05414312, 0.01575034, -0.01048409, 0.01022528
 268238344, -0.02630028, -0.02008454, 0.01979781, 0.0102303
 268288311, -0.03572386, 0.0484391, -0.05468396, 0.009298938
 268343282, -0.03631494, -0.03844184, 0.03701853, 0.01022695
 268398471, -0.006024575, 0.01756349, -0.05050856, 0.01022863
 268453302, -0.04899636, -0.009925212, -0.006807175, 0.010229
 268509742, 0.009360222, -0.04188781, 0.01491259, 0.01022826
 268558629, -0.03424263, 0.01018345, -0.04127213, 0.009298753
 268618318, -0.01376664, -0.06289656, 0.03297185, 0.01115943
 268668483, 0.007287367, -0.01243101, -0.03496499, 0.009298566
 268723348, -0.04059315, -0.04351475, 0.02181487, 0.01022789
 268778329, 0.01431505, -0.06004285, 0.0165233, 0.01022863
 268828308, -0.03295173, -0.01079756, -0.03036582, 0.009300427
 268883676, -0.005957674, -0.07369964, 0.0589262, 0.01022695
 268938485, -0.01134084, -0.02059212, -0.02323348, 0.01022919
 268993300, -0.03865378, -0.04954475, 0.03978856, 0.01022807
 269048312, 0.007041451, -0.05501501, 0.04140694, 0.01022844
 269103390, -0.04056703, -0.01499595, -0.005189689, 0.01022863
 269153321, -0.01165276, -0.0659743, 0.06015349, 0.009298939
 269210006, -0.01656278, -0.01607816, -0.01378453, 0.01022937
 269263552, -0.0451198, -0.04361836, 0.04198571, 0.01023086
 269318306, -0.0004790435, -0.04739336, 0.03970589, 0.01022547
 269373321, -0.04406801, -0.001254584, -0.0006770537, 0.01022974
 269423329, -0.01498924, -0.05342903, 0.06047782, 0.009297824
 269478474, -0.02875852, 0.001081786, -0.01756637, 0.010229
 269535771, -0.0523657, -0.03347237, 0.0327141, 0.01069412
 269585760, 0.0034526, -0.01847366, 0.001284077, 0.009297824
 269640806, -0.06363464, 0.003717011, -0.005161135, 0.01022844
 269695772, -0.009605953, -0.03759119, 0.03410785, 0.01022881
 269750733, -0.04361122, 0.03122742, -0.03786051, 0.01022863
 269807355, -0.04554601, -0.02440543, 0.03916656, 0.01022863
 269856185, -0.008363865, 0.02913859, -0.02555739, 0.009299311
 269915769, -0.06848954, 0.01498079, 0.01558885, 0.01115795
 269965757, -0.00648868, -0.009713764, 0.01203492, 0.009298753
 270020762, -0.04970519, 0.05369836, -0.03552805, 0.01022863
 270075864, -0.03563005, -0.01519794, 0.0388828, 0.01022863
 270125848, -0.01577893, 0.04839949, -0.04118393, 0.009301357
 270181217, -0.05151995, 0.004792707, 0.01432458, 0.01022658
 270235755, 0.007206456, 0.01851065, -0.01570264, 0.010229
 270290750, -0.04941335, 0.03699833, -0.02222532, 0.0102277
 270345762, -0.001507094, -0.0138902, 0.02789083, 0.01023216
 270395862, -0.01307637, 0.03781412, -0.03232272, 0.00929522
 270450778, -0.02712174, -0.01532413, 0.02310679, 0.01023012
 270507354, 0.01807398, 0.001510264, -0.01327083, 0.01022789
 270560858, -0.03729172, 0.01570368, -0.03201612, 0.01022844
 270615777, 0.01219586, -0.03570288, 0.02479133, 0.01022807
 270671003, -0.009025693, 0.01652265, -0.03898415, 0.01022863
 270720860, -0.02322861, -0.02993919, 0.03189474, 0.009298752
 270775735, 0.01351827, -0.01094622, 0.009901158, 0.01023142
 270831194, -0.02893578, 0.003166954, -0.005676609, 0.01022584
 270885840, -0.002397389, -0.04373832, 0.05420535, 0.01022919
 270941158, -0.01059865, 0.007061358, -0.01077058, 0.01022807
 270990739, -0.03086352, -0.02478438, 0.03957172, 0.009298567
 271045867, -5.686528E-05, -0.02172394, 0.01535755, 0.01022881
 271101015, -0.03409907, 0.00516398, -0.009273047, 0.01023049
 271156213, -0.02296505, -0.03793608, 0.04952256, 0.01022714
 271210973, -0.01523121, -0.00411824, -0.003662556, 0.01027066
 271265768, -0.04905487, -0.0004323216, 0.006723618, 0.01018716
 271315805, -0.01724245, -0.03856238, 0.03438123, 0.009297824
 271370870, -0.04411076, 0.01165573, -0.02238401, 0.01022863
 271425761, -0.04471148, -0.02177392, 0.02812777, 0.01023011
 271481324, -0.02788618, -0.02257366, 0.02434964, 0.0102277
 271535739, -0.05622467, 0.01548649, -0.01181083, 0.01022863
 271585785, -0.03430292, -0.02970059, 0.04239751, 0.009300056
 271640888, -0.04683948, 0.001521792, 0.002349373, 0.01022844
 271695839, -0.05309083, 0.01759742, 0.006809401, 0.01022695
 271750975, -0.03596072, -0.0259394, 0.05110482, 0.01023198
 271807349, -0.0556713, 0.01474152, 0.01379405, 0.01022528
 271856200, -0.04287747, 0.008411728, 0.0267371, 0.009299311
 271915779, -0.04645927, -0.01266326, 0.05129121, 0.01115999
 271965773, -0.06681412, 0.03087533, -0.008677613, 0.009301171
 272020997, -0.04930962, -0.003669322, 0.04517629, 0.01022565
 272075767, -0.06473696, 0.01707365, 0.01858531, 0.01022937
 272131237, -0.06051794, 0.02147988, 0.02828797, 0.01024109
 272181201, -0.04093307, 0.009591902, 0.04122533, 0.009286293
 272235774, -0.04231963, 0.02370867, 0.04783476, 0.0102264
 272290981, -0.02949095, 0.02130394, 0.05736432, 0.01022863
 272345840, -0.03246761, 0.01678681, 0.05674293, 0.01022863
 272395769, -0.03297838, 0.02287835, 0.03861019, 0.009298752
 272450754, -0.03191894, 0.01710123, 0.04170723, 0.01022863
 272507334, -0.03589223, 0.0164988, 0.04991013, 0.01022993
 272560994, -0.03458919, 0.02154964, 0.03671314, 0.01022788
 272615757, -0.03027931, 0.01000088, 0.0422197, 0.01022863
 272670848, -0.03797276, 0.0194725, 0.03193251, 0.01022807
 272720949, -0.0295456, 0.02410936, 0.02639171, 0.009298753
 272775735, -0.0262606, 0.009774636, 0.0378813, 0.01023216
 272831345, -0.03406463, 0.0363109, 0.0406149, 0.01022509
 272885988, -0.01621946, 0.02610707, 0.04185363, 0.01022937
 272940946, -0.01840686, 0.015175, 0.0505691, 0.0102277
 272990994, -0.01331395, 0.05036278, 0.02488282, 0.009298939
 273045743, 0.002360382, 0.01957455, 0.03930208, 0.01023309
 273100992, -0.01041465, 0.04504921, 0.04394357, 0.01022491
 273156213, 0.02549827, 0.04980711, 0.0174136, 0.01022788
 273210783, 0.02007894, 0.02488642, 0.05021078, 0.01022826
 273265844, 0.02550206, 0.0389376, 0.0465814, 0.010229
 273315762, 0.04550399, 0.02806396, 0.02300823, 0.009298753
 273370983, 0.03347228, 0.03559483, 0.04863663, 0.01022863
 273425730, 0.03934811, 0.05203667, 0.04718455, 0.01022863
 273481206, 0.05085291, 0.05501405, 0.03435298, 0.01022863
 273535782, 0.04852791, 0.05304454, 0.0417456, 0.01023086
 273585749, 0.04066123, 0.05467298, 0.0375851, 0.009297637
 273640991, 0.03970948, 0.06863685, 0.03637817, 0.01023012
 273695845, 0.03085512, 0.06036817, 0.02665051, 0.01022621
 273750780, 0.02726173, 0.06687713, 0.02163561, 0.01022974
 273807371, 0.02097717, 0.06694646, 0.03273226, 0.010229
 273856218, 0.01702465, 0.04012214, 0.01955553, 0.009297079
 273915779, 0.004958513, 0.05362605, 0.02892358, 0.01115869
 273965781, 0.01079728, 0.04032921, 0.002938582, 0.009299126
 274020868, -0.003387899, 0.01892194, 0.01414516, 0.01022807
 274075776, -0.01525582, 0.01749444, 0.01180233, 0.01022956
 274131214, -0.01370568, 0.007840562, 0.01259742, 0.0102277
 274181365, -0.03402141, -0.0143083, 0.03236261, 0.009300613
 274235849, -0.04198674, -0.01532389, -0.004877842, 0.01022658
 274290771, -0.05360757, -0.03164392, -0.01304954, 0.01022881
 274345846, -0.06230236, -0.0438722, -0.004784482, 0.01022863
 274400753, -0.07436815, -0.03572138, -0.001328103, 0.01022844
 274450990, -0.05944528, -0.05126405, -0.009637379, 0.009300613
 274507348, -0.08434609, -0.06169394, 0.01486481, 0.01022993
 274560860, -0.07502802, -0.05710571, -0.01189396, 0.01022565
 274615771, -0.07598434, -0.07420124, 0.003891863, 0.01022863
 274671002, -0.08667132, -0.07310056, 0.0102575, 0.01022863
 274720976, -0.0730332, -0.05710147, -0.02468553, 0.009299496
 274775984, -0.08147547, -0.08408169, -0.01628652, 0.01022789
 274831165, -0.08019786, -0.06976235, -0.01039257, 0.01022863
 274885756, -0.06165409, -0.05685473, -0.04253982, 0.01022863
 274940763, -0.06501687, -0.07538752, -0.00451872, 0.01022863
 274990970, -0.05249493, -0.04265428, -0.01684611, 0.009300427
 275045775, -0.03907772, -0.04584439, -0.02760611, 0.0102303
 275100843, -0.04125113, -0.05934722, -0.004455379, 0.01022826
 275156229, -0.02786317, -0.02213852, -0.02968069, 0.01022565
 275210806, -0.006604757, -0.02656714, -0.03999814, 0.01022714
 275265771, -0.006387639, -0.03148062, -0.01753394, 0.01023012
 275315750, 0.01982045, 0.004415579, -0.02478991, 0.009299869
 275370773, 0.03108254, -0.008612733, -0.01829085, 0.01022863
 275425735, 0.03464197, 0.002930979, 0.01274718, 0.01022788
 275481194, 0.06481419, 0.02053632, -0.01480175, 0.01022826
 275535781, 0.05688295, 0.01433792, 0.01058623, 0.01022844
 275585761, 0.05729726, 0.01605531, 0.01231629, 0.009300055
 275640861, 0.0844263, 0.02889946, -0.01064572, 0.01022863
 275695847, 0.07109563, 0.03277272, 0.001153576, 0.010229
 275750777, 0.08048307, 0.02680485, -0.008917867, 0.01022863
 275807383, 0.08782282, 0.04966649, -0.001741872, 0.01022714
 275860843, 0.08890204, 0.06074739, 0.00271135, 0.0102303
 275915751, 0.07592413, 0.05091809, 0.01010854, 0.01022695
 275965772, 0.07322967, 0.06521963, 0.002471124, 0.009301172
 276020863, 0.08715387, 0.08060732, -0.004929386, 0.01022714
 276075775, 0.07599887, 0.0722001, 0.005217491, 0.0102277
 276131213, 0.06561762, 0.08912523, 0.02544425, 0.01022863
 276181199, 0.08002771, 0.08639255, -0.009819674, 0.009298753
 276235777, 0.06701878, 0.0842979, 0.01801947, 0.01022863
 276290782, 0.05492579, 0.09295373, 0.020501, 0.01022863
 276345805, 0.07553671, 0.08936149, 0.0003554509, 0.01023142
 276400777, 0.06576819, 0.07008518, 0.02008454, 0.01022584
 276450844, 0.04260033, 0.07707988, 0.01407064, 0.009298754
 276507352, 0.07090726, 0.06078219, -0.0082344, 0.01023086
 276561021, 0.05239547, 0.05234118, 0.0202332, 0.01022788
 276615862, 0.05174075, 0.0529071, 0.001429892, 0.01022696
 276670868, 0.06305834, 0.0260509, -0.02091965, 0.01023179
 276720938, 0.04678079, 0.01778952, -0.002845113, 0.009295778
 276775774, 0.05036055, 0.01070436, -0.001777958, 0.01022863
 276831194, 0.05032289, -0.01051239, -0.01616928, 0.0102303
 276885804, 0.05018653, -0.01306982, -0.0226648, 0.01022695
 276941431, 0.04406624, -0.01242956, -0.01739285, 0.01022863
 276991911, 0.03277496, -0.02777021, -0.007443001, 0.009299125
 277048345, 0.03230172, -0.02319041, -0.0243089, 0.01069357
 277104904, 0.03020346, -0.02867307, -0.0286455, 0.01022714
 277153680, 0.01765554, -0.04535338, -0.01724679, 0.009300427
 277213321, 0.01107867, -0.02751709, -0.01273639, 0.01115795
 277263538, 0.02346112, -0.04341621, -0.0237576, 0.009298751
 277318341, -0.001695482, -0.05608607, -0.0009320263, 0.01022863
 277373356, 0.00290483, -0.02629344, -0.02989745, 0.01022863
 277423343, 0.01354381, -0.06143577, -0.01066426, 0.009299312
 277478649, -0.01236392, -0.04594527, -0.003288456, 0.01022807
 277533560, 0.01128641, -0.03463427, -0.03573854, 0.01022863
 277588358, 0.007609531, -0.06982739, -0.01478403, 0.01022993
 277643347, -0.01492756, -0.03774998, -0.01976051, 0.01022751
 277698360, 0.02244809, -0.04424085, -0.0655022, 0.010229
 277748347, -0.003563758, -0.06474675, -0.009129653, 0.009298195
 277805158, 0.002961684, -0.03551844, -0.04335772, 0.01023123
 277858363, 0.03787673, -0.05990873, -0.05646642, 0.01022658
 277913345, -0.0007768981, -0.06905379, -0.01799437, 0.01022881
 277968353, 0.02273186, -0.04646088, -0.06877024, 0.01022789
 278018306, 0.0425622, -0.0644138, -0.05517042, 0.009298753
 278073567, 0.008355887, -0.07311592, -0.02808116, 0.01022863
 278128620, 0.06600767, -0.06246693, -0.09088056, 0.01023346
 278183378, 0.04316214, -0.07339402, -0.04810652, 0.01022528
 278238348, 0.03750969, -0.07396671, -0.04695271, 0.01022714
 278293565, 0.08715516, -0.06647161, -0.08630085, 0.01022863
 278343543, 0.03459379, -0.05939639, -0.04040924, 0.009298753
 278398504, 0.07217053, -0.06791628, -0.07476538, 0.01023067
 278453684, 0.07980454, -0.05760618, -0.08173016, 0.01022658
 278508330, 0.0337542, -0.05789693, -0.05237912, 0.01028014
 278563328, 0.07100591, -0.05261974, -0.06516544, 0.01017934
 278613566, 0.04393425, -0.05090284, -0.05358448, 0.009296522
 278668352, 0.02358185, -0.0498024, -0.05819481, 0.01023179
 278723328, 0.06633684, -0.05244493, -0.05906959, 0.01022565
 278778629, 0.01664947, -0.06287393, -0.0246322, 0.01022844
 278833346, 0.01516282, -0.04636195, -0.04553318, 0.01023198
 278883541, 0.05189723, -0.05362384, -0.02264728, 0.009297265
 278938322, -0.01635248, -0.0705339, -0.0113393, 0.01022919
 278993345, 0.02608573, -0.04000049, -0.05774087, 0.01022621
 279048328, 0.01819557, -0.07346871, -0.0003564009, 0.01022956
 279104908, -0.02733068, -0.06555737, -0.01950815, 0.01022751
 279158346, 0.01513613, -0.04210854, -0.06391172, 0.01022863
 279213341, -0.01211376, -0.08292723, -0.001653487, 0.01022863
 279263342, -0.0343642, -0.04986858, -0.04677253, 0.009298938
 279318350, -0.005965217, -0.04787625, -0.04428916, 0.01022863
 279373334, -0.03784167, -0.08079559, 0.01802122, 0.01022863
 279428619, -0.04385398, -0.03845928, -0.0592315, 0.01022863
 279478619, -0.02390018, -0.05463475, -0.005720176, 0.009302286
 279533312, -0.05574223, -0.06487863, 0.001643903, 0.01022658
 279588328, -0.04591266, -0.02432649, -0.0534137, 0.01022714
 279643356, -0.05080357, -0.07203445, 0.02942346, 0.01023086
 279698353, -0.06727667, -0.05157902, -0.01145522, 0.01022658
 279748323, -0.0523488, -0.02765026, -0.0267067, 0.009298567
 279804870, -0.06309924, -0.07619855, 0.0434198, 0.01023142
 279860840, -0.08487817, -0.03538305, -0.02902361, 0.01069115
 279913328, -0.0672411, -0.04707386, 0.0007640652, 0.009763316
 279968337, -0.071603, -0.06425869, 0.02261173, 0.01022863
 280018317, -0.08112763, -0.02396529, -0.02848747, 0.009298753
 280073335, -0.07036839, -0.06257432, 0.03776633, 0.01023067
 280128632, -0.08273897, -0.05592749, 0.006924593, 0.01022807
 280183584, -0.09574211, -0.03151045, -0.02527715, 0.01022807
 280238319, -0.07163693, -0.07260072, 0.02995931, 0.01022937
 280288481, -0.08269605, -0.0470334, -0.001167092, 0.009296893
 280343345, -0.08163815, -0.04712829, 0.007056418, 0.01022863
 280398330, -0.06370325, -0.08068819, 0.05789831, 0.0102303
 280453675, -0.08820082, -0.04898229, 0.001200642, 0.01022807
 280508311, -0.06660195, -0.0649039, 0.013682, 0.01025838
 280558317, -0.05508292, -0.08007026, 0.03696227, 0.009269369
 280613335, -0.07840662, -0.06069778, -0.02148285, 0.01022733
 280668353, -0.05316498, -0.08682592, 0.02632255, 0.01022993
 280723347, -0.05378246, -0.09044541, 0.01420199, 0.010229
 280778620, -0.06532394, -0.07049637, -0.02906994, 0.01022789
 280833345, -0.03995467, -0.09746648, 0.01330478, 0.01022974
 280883347, -0.04302896, -0.08987591, 0.006324586, 0.009298753
 280938337, -0.04722654, -0.07661822, -0.0304472, 0.01022658
 280993349, -0.03171166, -0.09826338, 0.003243931, 0.01022863
 281048328, -0.03907859, -0.09367531, -0.008575263, 0.01022863
 281104928, -0.04003199, -0.06715377, -0.03194766, 0.01023012
 281153694, -0.0203179, -0.08245503, 0.02264098, 0.009297637
 281213315, -0.03643029, -0.08502398, 0.002383805, 0.01115813
 281263346, -0.03314935, -0.04558413, -0.03506319, 0.009298753
 281318359, -0.02157109, -0.08180409, 0.02065499, 0.01022863
 281373354, -0.03480752, -0.07014459, -0.00962632, 0.01022863
 281423346, -0.03022295, -0.04214889, -0.03396806, 0.009298753
 281478628, -0.02095856, -0.07367852, 0.02721041, 0.0102303
 281533331, -0.03693326, -0.05914327, -0.01545119, 0.01022714
 281588350, -0.02579598, -0.03999277, -0.01992391, 0.01022844
 281643353, -0.01824609, -0.06405798, 0.01956874, 0.01023105
 281693375, -0.03810277, -0.04887286, -0.0194519, 0.009296335
 281748345, -0.02604456, -0.0399717, -0.03977774, 0.01022863
 281804869, -0.02584927, -0.05552499, 0.005616275, 0.01022863
 281858333, -0.04078985, -0.03883115, -0.0070659, 0.01022844
 281913358, -0.03271278, -0.02307758, -0.02458546, 0.01022881
 281963348, -0.02345705, -0.03957298, 0.006185029, 0.009298753
 282018297, -0.04237616, -0.02743411, -0.0191605, 0.01022863
 282073576, -0.03481496, -0.01053828, -0.03179293, 0.01023086
 282128646, -0.03159326, -0.02899829, 0.01681746, 0.01022733
 282183353, -0.04385329, -0.01372825, -0.00138803, 0.01022881
 282238320, -0.03447623, 0.006533308, -0.01764731, 0.01022807
 282288303, -0.02785913, -0.02132114, 0.0377661, 0.009298753
 282343341, -0.04408737, 0.003094041, -0.00689918, 0.01022807
 282398316, -0.02793786, 0.01036028, -0.01271512, 0.01022956
 282453683, -0.03091878, -0.01840173, 0.03324027, 0.0102277
 282508329, -0.04315823, 0.01017589, -0.01534982, 0.01022751
 282558327, -0.01931282, 0.008548279, -0.001217664, 0.009303959
 282613329, -0.02817811, -0.01228729, 0.02829355, 0.01022435
 282668349, -0.03611708, 0.01942764, -0.03817309, 0.01022919
 282723734, -0.02279009, 0.01210692, -0.000693609, 0.01028684
 282779120, -0.02148325, -0.004758159, 0.03501674, 0.01022844
 282829113, -0.02605284, 0.03667665, -0.02048563, 0.009299126
 282883760, -0.02343602, 0.01485226, 0.04181886, 0.01022844
 282938680, -0.02619751, 0.00207723, 0.02698036, 0.01023123
 282993734, -0.03215524, 0.04150051, -0.04262843, 0.01022602
