TimeUS,CGpN,CGpE,CGpD,CGpe,PGpN,PGpE,PGpD,PGpe
 60271857, -0.042, 0.06500001, 0.024, 1.943, 0.044, -0.083, 0.033, 1.944
 60471884, 0.052, 0.01, -0.009000001, 1.943, -0.042, 0.06500001, 0.024, 1.943
 60671865, -0.045, 0.014, 0.041, 1.943, 0.052, 0.01, -0.009000001, 1.943
 60871907, 0.047, -0.072, 0.002, 1.942, -0.045, 0.014, 0.041, 1.943
 61072132, 0.032, -0.014, -0.046, 1.942, 0.047, -0.072, 0.002, 1.942
 61271876, 0.019, -0.022, -0.019, 1.942, 0.032, -0.014, -0.046, 1.942
 61471848, -0.021, -0.039, 0.023, 1.942, 0.019, -0.022, -0.019, 1.942
 61671917, 0.02, -0.019, 0.032, 1.942, -0.021, -0.039, 0.023, 1.942
 61871929, 0.056, -0.033, -0.011, 1.941, 0.02, -0.019, 0.032, 1.942
 62091598, 0.066, -0.019, 0.01, 1.941, 0.056, -0.033, -0.011, 1.941
 62291593, 0.05, 0.037, -0.037, 1.94, 0.066, -0.019, 0.01, 1.941
 62511686, -0.016, -0.021, 0.015, 1.94, 0.05, 0.037, -0.037, 1.94
 62691659, 0.041, -0.09, -0.047, 1.939, -0.016, -0.021, 0.015, 1.94
 62891664, 0.016, -0.026, -0.09500001, 1.938, 0.041, -0.09, -0.047, 1.939
 63071876, 0.103, -0.087, 0.008, 1.937, 0.016, -0.026, -0.09500001, 1.938
 63271899, 0.003, 0.003, -0.009000001, 1.937, 0.103, -0.087, 0.008, 1.937
 63491600, 0.049, -0.06500001, -0.039, 1.936, 0.003, 0.003, -0.009000001, 1.937
 63691594, -0.057, -0.089, -0.15, 1.935, 0.049, -0.06500001, -0.039, 1.936
 63871908, -0.051, -0.517, -0.292, 1.934, -0.057, -0.089, -0.15, 1.935
 64091619, -0.172, -0.564, -0.719, 1.932, -0.051, -0.517, -0.292, 1.934
 64291607, -0.07700001, -0.702, -1.073, 1.927, -0.172, -0.564, -0.719, 1.932
 64511640, -0.09, -1.018, -1.555, 1.921, -0.07700001, -0.702, -1.073, 1.927
 64691604, -0.218, -0.687, -1.964, 1.917, -0.09, -1.018, -1.555, 1.921
 64891631, -0.247, -0.508, -2.381, 1.914, -0.218, -0.687, -1.964, 1.917
 65091600, 0.573, -1.324, -2.84, 1.911, -0.247, -0.508, -2.381, 1.914
 65291614, 0.469, -1.786, -2.942, 1.908, 0.573, -1.324, -2.84, 1.911
 65491687, 0.8520001, -1.908, -3.2, 1.905, 0.469, -1.786, -2.942, 1.908
 65671883, 0.932, -1.907, -3.304, 1.901, 0.8520001, -1.908, -3.2, 1.905
 65891673, 0.9030001, -2.492, -3.418, 1.896, 0.932, -1.907, -3.304, 1.901
 66091713, 0.777, -2.496, -3.462, 1.892, 0.9030001, -2.492, -3.418, 1.896
 66291697, 0.841, -2.751, -3.531, 1.886, 0.777, -2.496, -3.462, 1.892
 66491677, 0.629, -3.016, -3.313, 1.88, 0.841, -2.751, -3.531, 1.886
 66691681, 0.318, -3.05, -2.992, 1.873, 0.629, -3.016, -3.313, 1.88
 66891719, 0.246, -3.324, -2.473, 1.868, 0.318, -3.05, -2.992, 1.873
 67071983, -0.001, -3.601, -1.958, 1.865, 0.246, -3.324, -2.473, 1.868
 67271970, -0.199, -3.275, -1.456, 1.866, -0.001, -3.601, -1.958, 1.865
 67491663, -0.679, -3.433, -0.657, 1.864, -0.199, -3.275, -1.456, 1.866
 67691661, -0.7, -3.707, -0.35, 1.864, -0.679, -3.433, -0.657, 1.864
 67891720, -1.255, -3.443, -0.001, 1.862, -0.7, -3.707, -0.35, 1.864
 68091692, -1.38, -3.56, 0.211, 1.86, -1.255, -3.443, -0.001, 1.862
 68291641, -1.818, -3.497, 0.312, 1.849, -1.38, -3.56, 0.211, 1.86
 68491675, -2.45, -3.134, 0.144, 1.843, -1.818, -3.497, 0.312, 1.849
 68691664, -2.794, -3.014, 0.271, 1.841, -2.45, -3.134, 0.144, 1.843
 68891678, -3.167, -2.716, 0.6020001, 1.834, -2.794, -3.014, 0.271, 1.841
 69091659, -3.39, -2.247, 0.589, 1.829, -3.167, -2.716, 0.6020001, 1.834
 69291637, -3.164, -2.833, 0.844, 1.821, -3.39, -2.247, 0.589, 1.829
 69491646, -2.9, -3.444, 0.886, 1.813, -3.164, -2.833, 0.844, 1.821
 69691643, -3.834, -1.848, 0.606, 1.808, -2.9, -3.444, 0.886, 1.813
 69891698, -4.23, -1.734, 0.752, 1.799, -3.834, -1.848, 0.606, 1.808
 70091663, -4.405, -1.849, 0.306, 1.794, -4.23, -1.734, 0.752, 1.799
 70291646, -4.786, -1.94, 0.409, 1.796, -4.405, -1.849, 0.306, 1.794
 70491653, -5.063, -1.565, 0.479, 1.797, -4.786, -1.94, 0.409, 1.796
 70691631, -5.11, -1.807, 0.582, 1.799, -5.063, -1.565, 0.479, 1.797
 70871997, -5.137, -1.692, 0.619, 1.802, -5.11, -1.807, 0.582, 1.799
 71091671, -5.215, -2.018, 0.527, 1.805, -5.137, -1.692, 0.619, 1.802
 71291677, -5.458, -2.045, 0.401, 1.807, -5.215, -2.018, 0.527, 1.805
 71491648, -5.44, -2.171, 0.244, 1.806, -5.458, -2.045, 0.401, 1.807
 71691719, -5.346, -2.155, 0.295, 1.806, -5.44, -2.171, 0.244, 1.806
 71891653, -5.023, -2.384, 0.115, 1.799, -5.346, -2.155, 0.295, 1.806
 72072018, -4.929, -2.086, 0.064, 1.794, -5.023, -2.384, 0.115, 1.799
 72271923, -4.805, -1.932, 0.299, 1.782, -4.929, -2.086, 0.064, 1.794
 72491628, -4.519, -1.947, 0.364, 1.778, -4.805, -1.932, 0.299, 1.782
 72671957, -4.462, -1.478, 0.349, 1.778, -4.519, -1.947, 0.364, 1.778
 72871970, -4.219, -1.349, 0.345, 1.779, -4.462, -1.478, 0.349, 1.778
 73071970, -3.845, -0.9680001, 0.244, 1.78, -4.219, -1.349, 0.345, 1.779
 73291724, -3.358, -1.019, 0.339, 1.783, -3.845, -0.9680001, 0.244, 1.78
 73471946, -3.269, -0.876, 0.194, 1.784, -3.358, -1.019, 0.339, 1.783
 73691626, -2.988, -0.9390001, 0.216, 1.786, -3.269, -0.876, 0.194, 1.784
 73891663, -2.696, -0.599, 0.253, 1.767, -2.988, -0.9390001, 0.216, 1.786
 74091642, -2.624, -0.8150001, 0.241, 1.757, -2.696, -0.599, 0.253, 1.767
 74291651, -2.224, -0.777, 0.276, 1.749, -2.624, -0.8150001, 0.241, 1.757
 74491681, -2.263, -0.6580001, 0.347, 1.744, -2.224, -0.777, 0.276, 1.749
 74691668, -1.974, -0.6670001, 0.112, 1.742, -2.263, -0.6580001, 0.347, 1.744
 74891677, -1.885, -0.499, 0.108, 1.735, -1.974, -0.6670001, 0.112, 1.742
 75091647, -1.711, -0.401, 0.179, 1.73, -1.885, -0.499, 0.108, 1.735
 75291707, -1.589, -0.255, 0.039, 1.727, -1.711, -0.401, 0.179, 1.73
 75491747, -1.452, -0.292, -0.07300001, 1.725, -1.589, -0.255, 0.039, 1.727
 75691802, -1.248, -0.462, -0.033, 1.723, -1.452, -0.292, -0.07300001, 1.725
 75891786, -1.116, -0.28, 0.112, 1.721, -1.248, -0.462, -0.033, 1.723
 76291776, -0.67, -0.263, -0.109, 1.718, -0.9850001, -0.195, -0.051, 1.719
 76491918, -0.613, -0.172, -0.259, 1.716, -0.67, -0.263, -0.109, 1.718
 76691775, -0.513, -0.021, -0.329, 1.713, -0.613, -0.172, -0.259, 1.716
 76891820, -0.159, -0.166, -0.47, 1.712, -0.513, -0.021, -0.329, 1.713
 77091807, -0.371, 0.098, -0.198, 1.708, -0.159, -0.166, -0.47, 1.712
 77291743, -0.108, 0.036, -0.199, 1.698, -0.371, 0.098, -0.198, 1.708
 77491798, -0.198, -0.041, -0.024, 1.687, -0.108, 0.036, -0.199, 1.698
 77691746, -0.255, 0.096, 0.09900001, 1.678, -0.198, -0.041, -0.024, 1.687
 77891779, -0.148, 0.064, 0.093, 1.671, -0.255, 0.096, 0.09900001, 1.678
 78091810, -0.09900001, 0.106, -0.049, 1.661, -0.148, 0.064, 0.093, 1.671
 78291781, -0.063, 0.019, 0.056, 1.651, -0.09900001, 0.106, -0.049, 1.661
 78491813, -0.063, 0.001, 0.057, 1.641, -0.063, 0.019, 0.056, 1.651
 78691778, 0.097, 0.07600001, -0.055, 1.63, -0.063, 0.001, 0.057, 1.641
 78891811, 0.17, -0.018, -0.067, 1.621, 0.097, 0.07600001, -0.055, 1.63
 79091783, 0.149, -0.016, 0.02, 1.611, 0.17, -0.018, -0.067, 1.621
 79291776, 0.142, 0.013, -0.106, 1.606, 0.149, -0.016, 0.02, 1.611
 79491893, 0.086, 0.05, -0.141, 1.603, 0.142, 0.013, -0.106, 1.606
 79691773, 0.12, 0.055, -0.129, 1.602, 0.086, 0.05, -0.141, 1.603
 79891828, 0.048, 0.127, -0.015, 1.601, 0.12, 0.055, -0.129, 1.602
 80091770, 0.048, -0.009000001, -0.013, 1.6, 0.048, 0.127, -0.015, 1.601
 80291759, 0.072, 0.097, -0.098, 1.599, 0.048, -0.009000001, -0.013, 1.6
 80491813, 0.054, 0.128, -0.012, 1.596, 0.072, 0.097, -0.098, 1.599
 80691915, -0.015, 0.07, -0.027, 1.596, 0.054, 0.128, -0.012, 1.596
 80891783, -0.041, -0.064, -0.012, 1.588, -0.015, 0.07, -0.027, 1.596
 81091764, -0.053, 0.006, -0.03, 1.579, -0.041, -0.064, -0.012, 1.588
 81291779, -0.021, -0.082, 0.014, 1.57, -0.053, 0.006, -0.03, 1.579
 81491765, -0.036, -0.192, 0.024, 1.564, -0.021, -0.082, 0.014, 1.57
 81691812, -0.042, -0.106, -0.035, 1.56, -0.036, -0.192, 0.024, 1.564
 81891806, -0.029, -0.101, -0.034, 1.556, -0.042, -0.106, -0.035, 1.56
 82091772, 0.009000001, 0.014, -0.027, 1.552, -0.029, -0.101, -0.034, 1.556
 82291811, 0.015, 0.007, -0.001, 1.547, 0.009000001, 0.014, -0.027, 1.552
 82491929, 0.023, 0.054, 0.022, 1.542, 0.015, 0.007, -0.001, 1.547
 82691734, 0.009000001, 0.204, -0.172, 1.537, 0.023, 0.054, 0.022, 1.542
 82891837, 0.003, 0.281, -0.015, 1.533, 0.009000001, 0.204, -0.172, 1.537
 83091775, 0.056, 0.116, -0.087, 1.529, 0.003, 0.281, -0.015, 1.533
 83291761, 0.012, 0.168, 0.007, 1.526, 0.056, 0.116, -0.087, 1.529
 83491771, 0.043, 0.145, -0.157, 1.523, 0.012, 0.168, 0.007, 1.526
 83691899, -0.009000001, -0.007, -0.093, 1.522, 0.043, 0.145, -0.157, 1.523
 83891796, -0.07, -0.009000001, -0.047, 1.52, -0.009000001, -0.007, -0.093, 1.522
 84091811, -0.003, -0.168, 0.002, 1.518, -0.07, -0.009000001, -0.047, 1.52
 84291800, -0.1, -0.062, 0.023, 1.515, -0.003, -0.168, 0.002, 1.518
 84491777, -0.082, -0.041, -0.016, 1.513, -0.1, -0.062, 0.023, 1.515
 84691810, -0.161, -0.016, 0.118, 1.51, -0.082, -0.041, -0.016, 1.513
 84891953, -0.126, 0.041, 0.064, 1.507, -0.161, -0.016, 0.118, 1.51
 85091764, -0.019, -0.038, -0.085, 1.505, -0.126, 0.041, 0.064, 1.507
 85291806, -0.028, 0.002, 0.062, 1.504, -0.019, -0.038, -0.085, 1.505
 85491748, -0.06500001, 0.034, 0.012, 1.502, -0.028, 0.002, 0.062, 1.504
 85691772, -0.068, -0.053, -0.022, 1.501, -0.06500001, 0.034, 0.012, 1.502
 85891810, -0.006, -0.046, -0.035, 1.501, -0.068, -0.053, -0.022, 1.501
 86091805, 0.043, -0.021, 0.045, 1.502, -0.006, -0.046, -0.035, 1.501
 86291761, 0.142, 0.067, 0.06900001, 1.502, 0.043, -0.021, 0.045, 1.502
 86491796, 0.082, 0.113, -0.018, 1.504, 0.142, 0.067, 0.06900001, 1.502
 86691748, 0.139, 0.239, 0.053, 1.506, 0.082, 0.113, -0.018, 1.504
 86891783, 0.074, 0.301, 0.081, 1.509, 0.139, 0.239, 0.053, 1.506
 87091824, 0.047, 0.353, 0.023, 1.511, 0.074, 0.301, 0.081, 1.509
 87291781, -0.09200001, 0.286, -0.096, 1.51, 0.047, 0.353, 0.023, 1.511
 87491795, -0.094, 0.358, -0.103, 1.508, -0.09200001, 0.286, -0.096, 1.51
 87691812, -0.07300001, 0.131, 0.047, 1.505, -0.094, 0.358, -0.103, 1.508
 87891989, -0.177, 0.152, -0.05, 1.503, -0.07300001, 0.131, 0.047, 1.505
 88091774, -0.123, -0.006, 0.048, 1.501, -0.177, 0.152, -0.05, 1.503
 88291748, -0.1, -0.052, -0.003, 1.499, -0.123, -0.006, 0.048, 1.501
 88491767, -0.085, -0.06900001, 0.017, 1.498, -0.1, -0.052, -0.003, 1.499
 88691760, -0.012, -0.078, -0.028, 1.496, -0.085, -0.06900001, 0.017, 1.498
 88891835, 0.019, -0.045, 0.047, 1.492, -0.012, -0.078, -0.028, 1.496
 89091910, 0.015, -0.012, 0.04, 1.491, 0.019, -0.045, 0.047, 1.492
 89291757, 0.033, -0.002, 0.059, 1.488, 0.015, -0.012, 0.04, 1.491
 89491811, -0.08400001, 0.007, 0.205, 1.485, 0.033, -0.002, 0.059, 1.488
 89691891, -0.11, 0.049, 0.047, 1.485, -0.08400001, 0.007, 0.205, 1.485
 89891779, -0.061, 0.06900001, -0.059, 1.486, -0.11, 0.049, 0.047, 1.485
 90091769, -0.018, 0.011, -0.008, 1.487, -0.061, 0.06900001, -0.059, 1.486
 90291754, -0.098, -0.074, -0.02, 1.488, -0.018, 0.011, -0.008, 1.487
 90491831, -0.035, -0.087, -0.214, 1.49, -0.098, -0.074, -0.02, 1.488
 90691756, -0.028, -0.054, -0.111, 1.493, -0.035, -0.087, -0.214, 1.49
 90891868, -0.046, -0.125, -0.045, 1.493, -0.028, -0.054, -0.111, 1.493
 91091772, -0.066, -0.07300001, -0.044, 1.493, -0.046, -0.125, -0.045, 1.493
 91291768, -0.057, -0.152, -0.079, 1.492, -0.066, -0.07300001, -0.044, 1.493
 91491948, -0.067, -0.106, -0.015, 1.487, -0.057, -0.152, -0.079, 1.492
 91691723, -0.094, 0.014, 0.006, 1.483, -0.067, -0.106, -0.015, 1.487
 91891760, -0.159, 0.109, 0.06, 1.479, -0.094, 0.014, 0.006, 1.483
 92091940, 0.004, 0.079, 0.041, 1.476, -0.159, 0.109, 0.06, 1.479
 92291774, 0.059, 0.078, 0.022, 1.473, 0.004, 0.079, 0.041, 1.476
 92491754, 0.083, 0.117, 0.031, 1.47, 0.059, 0.078, 0.022, 1.473
 92691812, 0.118, 0.102, -0.01, 1.467, 0.083, 0.117, 0.031, 1.47
 92891852, 0.1, 0.101, 0.002, 1.464, 0.118, 0.102, -0.01, 1.467
 93091757, 0.231, -0.031, 0.038, 1.462, 0.1, 0.101, 0.002, 1.464
 93291986, 0.04, 0.039, -0.037, 1.459, 0.231, -0.031, 0.038, 1.462
 93491758, 0.197, -0.105, 0.062, 1.457, 0.04, 0.039, -0.037, 1.459
 93691754, 0.17, -0.195, -0.001, 1.457, 0.197, -0.105, 0.062, 1.457
 93891818, 0.101, -0.08400001, -0.018, 1.456, 0.17, -0.195, -0.001, 1.457
 94091786, 0.005, -0.028, 0.078, 1.455, 0.101, -0.08400001, -0.018, 1.456
 94291750, -0.001, -0.023, -0.011, 1.454, 0.005, -0.028, 0.078, 1.455
 94491802, 0.022, -0.02, -0.011, 1.453, -0.001, -0.023, -0.011, 1.454
 94691779, 0.007, 0.053, -0.138, 1.452, 0.022, -0.02, -0.011, 1.453
 94891795, -0.114, 0.232, -0.012, 1.453, 0.007, 0.053, -0.138, 1.452
 95091942, -0.235, 0.156, -0.082, 1.453, -0.114, 0.232, -0.012, 1.453
 95291831, -0.221, 0.219, 0.153, 1.453, -0.235, 0.156, -0.082, 1.453
 95491768, -0.218, 0.239, -0.101, 1.449, -0.221, 0.219, 0.153, 1.453
 95691816, -0.142, 0.272, 0.189, 1.446, -0.218, 0.239, -0.101, 1.449
 95891796, -0.061, 0.223, -0.021, 1.441, -0.142, 0.272, 0.189, 1.446
 96091773, 0.03, 0.212, -0.043, 1.439, -0.061, 0.223, -0.021, 1.441
 96291931, 0.017, 0.214, -0.005, 1.438, 0.03, 0.212, -0.043, 1.439
 96491766, 0.025, 0.176, -0.056, 1.436, 0.017, 0.214, -0.005, 1.438
 96691759, -0.005, 0.138, -0.044, 1.433, 0.025, 0.176, -0.056, 1.436
 96891953, -0.081, 0.039, -0.019, 1.429, -0.005, 0.138, -0.044, 1.433
 97091759, -0.1, 0, -0.085, 1.426, -0.081, 0.039, -0.019, 1.429
 97291771, -0.016, -0.129, -0.09500001, 1.425, -0.1, 0, -0.085, 1.426
 97491936, -0.041, -0.122, 0.007, 1.423, -0.016, -0.129, -0.09500001, 1.425
 97691832, 0.001, -0.217, -0.032, 1.423, -0.041, -0.122, 0.007, 1.423
 97891768, 0.041, -0.144, -0.184, 1.421, 0.001, -0.217, -0.032, 1.423
 98091841, 0.072, -0.177, -0.028, 1.421, 0.041, -0.144, -0.184, 1.421
 98291768, 0.155, -0.283, -0.04, 1.421, 0.072, -0.177, -0.028, 1.421
 98491790, 0.215, -0.252, -0.049, 1.42, 0.155, -0.283, -0.04, 1.421
 98691922, 0.216, -0.385, -0.033, 1.421, 0.215, -0.252, -0.049, 1.42
 98891773, 0.144, -0.346, -0.039, 1.42, 0.216, -0.385, -0.033, 1.421
 99091751, 0.09, -0.19, 0.023, 1.419, 0.144, -0.346, -0.039, 1.42
 99291756, 0.149, -0.314, 0.026, 1.419, 0.09, -0.19, 0.023, 1.419
 99491772, 0.106, -0.133, -0.058, 1.42, 0.149, -0.314, 0.026, 1.419
 99691767, 0.074, -0.136, 0.07, 1.42, 0.106, -0.133, -0.058, 1.42
 99891833, 0.01, -0.177, -0.09900001, 1.415, 0.074, -0.136, 0.07, 1.42
 100091763, 0, -0.111, 0.011, 1.414, 0.01, -0.177, -0.09900001, 1.415
 100291777, -0.026, -0.063, -0.09100001, 1.416, 0, -0.111, 0.011, 1.414
 100492010, -0.015, -0.011, -0.004, 1.419, -0.026, -0.063, -0.09100001, 1.416
 100691769, -0.004, -0.108, -0.053, 1.421, -0.015, -0.011, -0.004, 1.419
 100891786, 0, -0.06, 0.046, 1.424, -0.004, -0.108, -0.053, 1.421
 101091751, -0.037, -0.062, -0.09, 1.427, 0, -0.06, 0.046, 1.424
 101291812, -0.058, -0.012, 0, 1.431, -0.037, -0.062, -0.09, 1.427
 101491771, -0.062, -0.098, -0.081, 1.435, -0.058, -0.012, 0, 1.431
 101691917, -0.044, -0.081, -0.068, 1.438, -0.062, -0.098, -0.081, 1.435
 101891788, 0.004, 0.015, 0.049, 1.44, -0.044, -0.081, -0.068, 1.438
 102072115, -0.122, -0.009000001, -0.078, 1.441, 0.004, 0.015, 0.049, 1.44
 102291781, -0.09500001, 0.145, 0.035, 1.442, -0.122, -0.009000001, -0.078, 1.441
 102491844, -0.182, 0.268, 0.09200001, 1.441, -0.09500001, 0.145, 0.035, 1.442
 102691755, -0.225, 0.283, 0, 1.441, -0.182, 0.268, 0.09200001, 1.441
 102891862, -0.249, 0.417, 0.074, 1.44, -0.225, 0.283, 0, 1.441
 103091817, -0.233, 0.333, -0.01, 1.439, -0.249, 0.417, 0.074, 1.44
 103291753, -0.218, 0.305, -0.025, 1.438, -0.233, 0.333, -0.01, 1.439
 103491801, -0.16, 0.136, 0.011, 1.437, -0.218, 0.305, -0.025, 1.438
 103691803, -0.144, 0.09100001, -0.058, 1.438, -0.16, 0.136, 0.011, 1.437
 103891797, -0.113, 0.068, -0.023, 1.438, -0.144, 0.09100001, -0.058, 1.438
 104091792, -0.027, 0.058, 0.026, 1.439, -0.113, 0.068, -0.023, 1.438
 104291799, -0.034, 0.058, -0.107, 1.439, -0.027, 0.058, 0.026, 1.439
 104491781, -0.005, -0.139, -0.029, 1.439, -0.034, 0.058, -0.107, 1.439
 104691908, -0.074, -0.13, -0.086, 1.439, -0.005, -0.139, -0.029, 1.439
 104891787, 0.024, -0.183, -0.054, 1.438, -0.074, -0.13, -0.086, 1.439
 105091775, -0.031, -0.025, -0.034, 1.44, 0.024, -0.183, -0.054, 1.438
 105291837, -0.008, -0.117, 0.039, 1.442, -0.031, -0.025, -0.034, 1.44
 105491806, 0.019, 0.001, -0.11, 1.444, -0.008, -0.117, 0.039, 1.442
 105691804, 0.045, -0.05, 0.006, 1.447, 0.019, 0.001, -0.11, 1.444
 105891998, 0.068, 0.06900001, 0.027, 1.448, 0.045, -0.05, 0.006, 1.447
 106091791, 0.183, 0, 0.045, 1.449, 0.068, 0.06900001, 0.027, 1.448
 106291781, 0.11, 0.08800001, 0, 1.449, 0.183, 0, 0.045, 1.449
 106491777, 0.075, 0.032, -0.056, 1.449, 0.11, 0.08800001, 0, 1.449
 106691804, 0.06, 0.023, 0.009000001, 1.45, 0.075, 0.032, -0.056, 1.449
 106891798, 0.052, -0.043, 0.015, 1.451, 0.06, 0.023, 0.009000001, 1.45
 107091799, 0.031, 0.01, -0.04, 1.452, 0.052, -0.043, 0.015, 1.451
 107291765, 0.03, -0.03, -0.071, 1.453, 0.031, 0.01, -0.04, 1.452
 107491778, 0.048, -0.075, 0.002, 1.452, 0.03, -0.03, -0.071, 1.453
 107691804, -0.028, -0.016, -0.056, 1.453, 0.048, -0.075, 0.002, 1.452
 107891819, -0.032, -0.025, -0.037, 1.454, -0.028, -0.016, -0.056, 1.453
 108091748, -0.07700001, -0.023, -0.116, 1.457, -0.032, -0.025, -0.037, 1.454
 108291802, 0.001, -0.139, -0.017, 1.455, -0.07700001, -0.023, -0.116, 1.457
 108491807, 0.032, -0.22, 0.008, 1.456, 0.001, -0.139, -0.017, 1.455
 108691783, -0.059, -0.181, 0, 1.459, 0.032, -0.22, 0.008, 1.456
 108891916, 0.025, -0.238, 0.026, 1.461, -0.059, -0.181, 0, 1.459
 109091821, -0.142, -0.192, -0.04, 1.462, 0.025, -0.238, 0.026, 1.461
 109291771, -0.134, -0.135, -0.017, 1.463, -0.142, -0.192, -0.04, 1.462
 109491816, -0.159, -0.016, -0.028, 1.461, -0.134, -0.135, -0.017, 1.463
 109691759, -0.114, -0.014, -0.035, 1.457, -0.159, -0.016, -0.028, 1.461
 109891787, -0.06, -0.009000001, -0.074, 1.454, -0.114, -0.014, -0.035, 1.457
 110091901, -0.07300001, 0.053, -0.038, 1.451, -0.06, -0.009000001, -0.074, 1.454
 110291802, -0.051, 0.194, -0.075, 1.447, -0.07300001, 0.053, -0.038, 1.451
 110491773, -0.021, 0.175, -0.015, 1.441, -0.051, 0.194, -0.075, 1.447
 110691756, -0.079, 0.146, -0.006, 1.435, -0.021, 0.175, -0.015, 1.441
 110891832, -0.033, 0.113, 0, 1.431, -0.079, 0.146, -0.006, 1.435
 111091780, -0.09500001, 0.161, 0.005, 1.428, -0.033, 0.113, 0, 1.431
 111291793, 0.013, 0.003, -0.052, 1.425, -0.09500001, 0.161, 0.005, 1.428
 111491811, 0.042, 0.062, -0.055, 1.421, 0.013, 0.003, -0.052, 1.425
 111691765, 0.054, 0.031, -0.04, 1.418, 0.042, 0.062, -0.055, 1.421
 111891781, 0.059, -0.119, -0.004, 1.414, 0.054, 0.031, -0.04, 1.418
 112091842, 0.007, 0.067, 0.004, 1.412, 0.059, -0.119, -0.004, 1.414
 112291770, -0.022, 0.097, -0.002, 1.41, 0.007, 0.067, 0.004, 1.412
 112491777, 0.013, -0.001, -0.057, 1.408, -0.022, 0.097, -0.002, 1.41
 112691801, -0.09100001, 0.016, 0.002, 1.405, 0.013, -0.001, -0.057, 1.408
 112891808, -0.117, 0.072, 0.087, 1.403, -0.09100001, 0.016, 0.002, 1.405
 113091782, -0.19, 0.018, 0.029, 1.401, -0.117, 0.072, 0.087, 1.403
 113291773, -0.146, -0.087, 0.007, 1.398, -0.19, 0.018, 0.029, 1.401
 113491771, -0.08000001, -0.08400001, 0.022, 1.394, -0.146, -0.087, 0.007, 1.398
 113691748, -0.115, -0.029, 0.021, 1.391, -0.08000001, -0.08400001, 0.022, 1.394
 113891822, -0.096, -0.07700001, -0.023, 1.387, -0.115, -0.029, 0.021, 1.391
 114091774, -0.09, 0.028, 0.062, 1.383, -0.096, -0.07700001, -0.023, 1.387
 114291908, -0.068, 0.038, 0.057, 1.379, -0.09, 0.028, 0.062, 1.383
 114511793, 0.043, -0.003, 0.055, 1.375, -0.068, 0.038, 0.057, 1.379
 114691773, -0.006, 0.009000001, 0.006, 1.374, 0.043, -0.003, 0.055, 1.375
 114891822, 0.008, -0.05, 0.039, 1.373, -0.006, 0.009000001, 0.006, 1.374
 115091786, 0.045, -0.064, 0.01, 1.374, 0.008, -0.05, 0.039, 1.373
 115291750, -0.011, -0.026, 0.008, 1.372, 0.045, -0.064, 0.01, 1.374
 115491819, -0.056, -0.096, -0.054, 1.371, -0.011, -0.026, 0.008, 1.372
 115691813, -0.04, -0.126, -0.103, 1.371, -0.056, -0.096, -0.054, 1.371
 115891770, -0.05, -0.154, 0.058, 1.373, -0.04, -0.126, -0.103, 1.371
 116091799, -0.15, -0.156, -0.013, 1.375, -0.05, -0.154, 0.058, 1.373
 116291804, -0.07300001, -0.045, -0.06500001, 1.376, -0.15, -0.156, -0.013, 1.375
 116491769, -0.031, -0.063, -0.11, 1.377, -0.07300001, -0.045, -0.06500001, 1.376
 116691792, -0.103, 0.06900001, -0.026, 1.377, -0.031, -0.063, -0.11, 1.377
 116891779, -0.06, 0.075, -0.1, 1.375, -0.103, 0.06900001, -0.026, 1.377
 117091763, -0.07600001, 0.09, -0.033, 1.373, -0.06, 0.075, -0.1, 1.375
 117291897, -0.085, 0.115, 0.052, 1.37, -0.07600001, 0.09, -0.033, 1.373
 117551804, -0.129, 0.145, 0.087, 1.691, -0.085, 0.115, 0.052, 1.37
 117691751, -0.081, 0.118, 0.048, 1.693, -0.129, 0.145, 0.087, 1.691
 117891861, 0.005, 0.011, 0.043, 1.693, -0.081, 0.118, 0.048, 1.693
 118091796, -0.112, 0.025, 0.106, 1.696, 0.005, 0.011, 0.043, 1.693
 118291769, -0.008, -0.09, 0.017, 1.699, -0.112, 0.025, 0.106, 1.696
 118491785, 0.07700001, -0.053, -0.186, 1.699, -0.008, -0.09, 0.017, 1.699
 118691789, -0.003, 0.019, -0.024, 1.698, 0.07700001, -0.053, -0.186, 1.699
 118891783, 0.029, -0.021, 0.038, 1.696, -0.003, 0.019, -0.024, 1.698
 119091755, -0.067, -0.046, 0.063, 1.695, 0.029, -0.021, 0.038, 1.696
 119291824, 0.03, 0.144, -0.004, 1.693, -0.067, -0.046, 0.063, 1.695
 119531772, -0.009000001, 0.07, -0.063, 1.69, 0.03, 0.144, -0.004, 1.693
 119691774, 0.027, 0.06900001, 0.071, 1.688, -0.009000001, 0.07, -0.063, 1.69
 119891838, 0.039, 0.096, 0.11, 1.685, 0.027, 0.06900001, 0.071, 1.688
 120091755, 0.007, 0.098, -0.006, 1.681, 0.039, 0.096, 0.11, 1.685
 120291942, 0.02, 0.036, 0.064, 1.676, 0.007, 0.098, -0.006, 1.681
 120491811, -0.002, -0.006, 0.068, 1.668, 0.02, 0.036, 0.064, 1.676
 120691754, -0.018, 0.004, 0.053, 1.663, -0.002, -0.006, 0.068, 1.668
 120891836, 0.01, -0.019, -0.032, 1.658, -0.018, 0.004, 0.053, 1.663
 121091753, 0.07600001, -0.043, 0.059, 1.654, 0.01, -0.019, -0.032, 1.658
 121291764, 0.016, -0.054, -0.024, 1.651, 0.07600001, -0.043, 0.059, 1.654
 121491931, -0.004, -0.011, 0.049, 1.649, 0.016, -0.054, -0.024, 1.651
 121691775, -0.062, 0.066, 0.006, 1.647, -0.004, -0.011, 0.049, 1.649
 121891789, 0.081, -0.112, 0.009000001, 1.645, -0.062, 0.066, 0.006, 1.647
 122091914, -0.04, -0.019, 0.024, 1.644, 0.081, -0.112, 0.009000001, 1.645
 122291750, 0.057, 0.053, -0.055, 1.644, -0.04, -0.019, 0.024, 1.644
 122491791, -0.027, -0.005, 0.029, 1.644, 0.057, 0.053, -0.055, 1.644
 122691943, -0.042, -0.181, 0.056, 1.645, -0.027, -0.005, 0.029, 1.644
 122891789, -0.024, -0.038, 0.029, 1.646, -0.042, -0.181, 0.056, 1.645
 123091773, 0.04, -0.078, -0.023, 1.648, -0.024, -0.038, 0.029, 1.646
 123291813, -0.08800001, 0.041, 0.034, 1.646, 0.04, -0.078, -0.023, 1.648
 123491769, -0.056, 0.089, 0.072, 1.644, -0.08800001, 0.041, 0.034, 1.646
 123691772, 0.019, 0.033, 0.03, 1.644, -0.056, 0.089, 0.072, 1.644
 123891972, -0.058, 0.149, -0.071, 1.642, 0.019, 0.033, 0.03, 1.644
 124091753, -0.1, 0.258, -0.111, 1.639, -0.058, 0.149, -0.071, 1.642
 124291745, 0.08000001, -0.018, -0.064, 1.633, -0.1, 0.258, -0.111, 1.639
 124491844, -0.044, 0.142, 0.022, 1.628, 0.08000001, -0.018, -0.064, 1.633
 124691767, -0.128, 0.133, -0.089, 1.624, -0.044, 0.142, 0.022, 1.628
 124891788, -0.06900001, 0.04, -0.07300001, 1.62, -0.128, 0.133, -0.089, 1.624
 125091789, -0.024, -0.008, -0.079, 1.615, -0.06900001, 0.04, -0.07300001, 1.62
 125291774, -0.068, 0.01, -0.08800001, 1.611, -0.024, -0.008, -0.079, 1.615
 125491763, -0.051, 0.023, -0.058, 1.607, -0.068, 0.01, -0.08800001, 1.611
 125691976, -0.013, 0.032, -0.13, 1.604, -0.051, 0.023, -0.058, 1.607
 125891790, 0.013, 0.022, -0.022, 1.6, -0.013, 0.032, -0.13, 1.604
 126091737, -0.037, -0.051, 0.026, 1.599, 0.013, 0.022, -0.022, 1.6
 126291799, 0.052, -0.032, 0.016, 1.598, -0.037, -0.051, 0.026, 1.599
 126491832, 0.036, -0.078, 0.005, 1.597, 0.052, -0.032, 0.016, 1.598
 126691786, -0.008, 0.019, 0.017, 1.596, 0.036, -0.078, 0.005, 1.597
 126892019, -0.003, 0.047, -0.027, 1.594, -0.008, 0.019, 0.017, 1.596
 127091774, 0.082, 0.005, -0.021, 1.593, -0.003, 0.047, -0.027, 1.594
 127291773, 0.003, -0.031, -0.07, 1.591, 0.082, 0.005, -0.021, 1.593
 127491819, -0.001, 0.06, -0.026, 1.589, 0.003, -0.031, -0.07, 1.591
 127691760, 0.001, -0.034, -0.014, 1.587, -0.001, 0.06, -0.026, 1.589
 127891807, -0.024, 0.038, 0.004, 1.584, 0.001, -0.034, -0.014, 1.587
 128091732, 0.017, -0.037, 0.002, 1.58, -0.024, 0.038, 0.004, 1.584
 128291766, 0.038, -0.056, -0.021, 1.577, 0.017, -0.037, 0.002, 1.58
 128491773, 0.01, -0.05, 0.032, 1.575, 0.038, -0.056, -0.021, 1.577
 128691806, -0.039, -0.027, -0.021, 1.572, 0.01, -0.05, 0.032, 1.575
 128891852, -0.042, 0.011, 0.004, 1.57, -0.039, -0.027, -0.021, 1.572
 129091778, 0.023, -0.113, -0.032, 1.568, -0.042, 0.011, 0.004, 1.57
 129291887, -0.029, -0.031, -0.029, 1.564, 0.023, -0.113, -0.032, 1.568
 129491762, 0.054, -0.046, -0.031, 1.56, -0.029, -0.031, -0.029, 1.564
 129691743, 0.085, -0.006, -0.019, 1.555, 0.054, -0.046, -0.031, 1.56
 129891940, 0.094, -0.063, -0.127, 1.55, 0.085, -0.006, -0.019, 1.555
 130091768, 0.11, -0.033, 0.055, 1.547, 0.094, -0.063, -0.127, 1.55
 130291767, 0.09100001, -0.011, -0.03, 1.545, 0.11, -0.033, 0.055, 1.547
 130491763, 0.147, -0.139, 0, 1.542, 0.09100001, -0.011, -0.03, 1.545
 130691768, 0.13, -0.078, 0.015, 1.54, 0.147, -0.139, 0, 1.542
 130891802, 0.032, -0.07600001, -0.045, 1.538, 0.13, -0.078, 0.015, 1.54
 131091928, 0.101, -0.061, 0.028, 1.536, 0.032, -0.07600001, -0.045, 1.538
 131291789, 0.041, -0.049, -0.056, 1.534, 0.101, -0.061, 0.028, 1.536
 131491779, -0.018, -0.134, -0.045, 1.533, 0.041, -0.049, -0.056, 1.534
 131691754, 0.005, -0.054, -0.001, 1.532, -0.018, -0.134, -0.045, 1.533
 131891790, 0.018, -0.078, 0.028, 1.532, 0.005, -0.054, -0.001, 1.532
 132091751, 0.009000001, -0.059, -0.042, 1.532, 0.018, -0.078, 0.028, 1.532
 132291810, 0.014, 0.01, -0.025, 1.531, 0.009000001, -0.059, -0.042, 1.532
 132491787, 0.004, 0.061, -0.058, 1.531, 0.014, 0.01, -0.025, 1.531
 132691775, -0.01, 0.062, -0.07600001, 1.531, 0.004, 0.061, -0.058, 1.531
 132891978, -0.034, -0.013, -0.025, 1.53, -0.01, 0.062, -0.07600001, 1.531
 133091778, -0.104, 0.12, 0.002, 1.53, -0.034, -0.013, -0.025, 1.53
 133291730, 0.031, -0.06900001, 0.052, 1.53, -0.104, 0.12, 0.002, 1.53
 133491754, -0.06900001, 0.026, 0.093, 1.529, 0.031, -0.06900001, 0.052, 1.53
 133691780, 0.001, 0.015, 0.034, 1.528, -0.06900001, 0.026, 0.093, 1.529
 133891794, -0.031, 0.054, 0.006, 1.528, 0.001, 0.015, 0.034, 1.528
 134091891, 0.07, -0.037, -0.066, 1.526, -0.031, 0.054, 0.006, 1.528
 134291777, 0.005, -0.07300001, -0.033, 1.524, 0.07, -0.037, -0.066, 1.526
 134491756, -0.117, 0.017, -0.04, 1.522, 0.005, -0.07300001, -0.033, 1.524
 134691816, -0.093, -0.05, -0.09200001, 1.521, -0.117, 0.017, -0.04, 1.522
 134891790, -0.125, -0.036, -0.049, 1.521, -0.093, -0.05, -0.09200001, 1.521
 135091769, -0.08400001, -0.104, -0.049, 1.52, -0.125, -0.036, -0.049, 1.521
 135291920, -0.086, 0.001, 0.006, 1.52, -0.08400001, -0.104, -0.049, 1.52
 135491782, -0.022, -0.068, 0.075, 1.519, -0.086, 0.001, 0.006, 1.52
 135691770, -0.046, -0.018, 0.038, 1.516, -0.022, -0.068, 0.075, 1.519
 135891823, 0.16, -0.104, 0.052, 1.513, -0.046, -0.018, 0.038, 1.516
 136091837, 0.068, -0.071, 0.031, 1.511, 0.16, -0.104, 0.052, 1.513
 136291781, 0.09500001, 0.111, 0.09500001, 1.51, 0.068, -0.071, 0.031, 1.511
 136491972, 0.145, 0.082, 0.15, 1.511, 0.09500001, 0.111, 0.09500001, 1.51
 136691770, 0.005, 0.195, 0.049, 1.511, 0.145, 0.082, 0.15, 1.511
 136891771, 0.132, 0.119, -0.047, 1.512, 0.005, 0.195, 0.049, 1.511
 137091783, 0.001, 0.09500001, -0.108, 1.512, 0.132, 0.119, -0.047, 1.512
 137291775, -0.08400001, 0.09, -0.079, 1.511, 0.001, 0.09500001, -0.108, 1.512
 137491771, -0.051, -0.02, -0.144, 1.507, -0.08400001, 0.09, -0.079, 1.511
 137691812, -0.045, -0.061, -0.134, 1.505, -0.051, -0.02, -0.144, 1.507
 137891773, -0.032, -0.07, -0.109, 1.505, -0.045, -0.061, -0.134, 1.505
 138091757, -0.002, -0.154, -0.09, 1.508, -0.032, -0.07, -0.109, 1.505
 138291776, -0.051, -0.047, 0.002, 1.511, -0.002, -0.154, -0.09, 1.508
 138491775, 0.145, -0.063, -0.051, 1.516, -0.051, -0.047, 0.002, 1.511
 138691745, 0.118, -0.118, 0.177, 1.52, 0.145, -0.063, -0.051, 1.516
 138891780, 0.202, -0.286, 0.19, 1.523, 0.118, -0.118, 0.177, 1.52
 139091764, 0.09500001, -0.252, 0.305, 1.524, 0.202, -0.286, 0.19, 1.523
 139291777, 0.19, -0.525, 0.209, 1.526, 0.09500001, -0.252, 0.305, 1.524
 139491950, 0.085, -0.7, 0.107, 1.526, 0.19, -0.525, 0.209, 1.526
 139691763, 0.163, -0.832, 0.109, 1.527, 0.085, -0.7, 0.107, 1.526
 139891784, -0.09100001, -0.402, 0.01, 1.528, 0.163, -0.832, 0.109, 1.527
 140091887, -0.259, -0.029, -0.087, 1.527, -0.09100001, -0.402, 0.01, 1.528
 140291746, -0.277, 0.023, -0.063, 1.525, -0.259, -0.029, -0.087, 1.527
 140491757, -0.348, 0.111, -0.016, 1.521, -0.277, 0.023, -0.063, 1.525
 140691736, -0.266, 0.082, -0.121, 1.519, -0.348, 0.111, -0.016, 1.521
 140891852, -0.334, -0.036, -0.13, 1.516, -0.266, 0.082, -0.121, 1.519
 141091774, -0.287, 0.108, 0.003, 1.515, -0.334, -0.036, -0.13, 1.516
 141291838, -0.305, 0.018, 0.079, 1.515, -0.287, 0.108, 0.003, 1.515
 141491771, -0.274, 0.053, 0.133, 1.512, -0.305, 0.018, 0.079, 1.515
 141691770, -0.209, 0.152, 0.09, 1.508, -0.274, 0.053, 0.133, 1.512
 141891940, -0.182, 0.227, 0.059, 1.498, -0.209, 0.152, 0.09, 1.508
 142091760, 0.02, 0.242, -0.039, 1.493, -0.182, 0.227, 0.059, 1.498
 142291746, 0.04, 0.234, -0.047, 1.49, 0.02, 0.242, -0.039, 1.493
 142491928, 0.026, 0.218, -0.02, 1.489, 0.04, 0.234, -0.047, 1.49
 142691768, -0.013, 0.211, 0.009000001, 1.487, 0.026, 0.218, -0.02, 1.489
 142891785, 0.067, 0.208, 0.013, 1.485, -0.013, 0.211, 0.009000001, 1.487
 143091763, 0.026, 0.119, -0.06, 1.484, 0.067, 0.208, 0.013, 1.485
 143291832, 0.09200001, -0.003, 0.034, 1.483, 0.026, 0.119, -0.06, 1.484
 143491809, 0.063, -0.08000001, -0.053, 1.482, 0.09200001, -0.003, 0.034, 1.483
 143691929, 0.074, 0, -0.09, 1.481, 0.063, -0.08000001, -0.053, 1.482
 143891773, 0.08800001, 0.05, -0.097, 1.482, 0.074, 0, -0.09, 1.481
 144091754, 0.012, 0.016, -0.061, 1.483, 0.08800001, 0.05, -0.097, 1.482
 144291784, 0.06500001, 0.14, -0.211, 1.485, 0.012, 0.016, -0.061, 1.483
 144491771, -0.052, 0.078, -0.054, 1.489, 0.06500001, 0.14, -0.211, 1.485
 144691775, 0.045, 0.14, -0.07600001, 1.493, -0.052, 0.078, -0.054, 1.489
 144891820, 0.008, 0.232, -0.02, 1.497, 0.045, 0.14, -0.07600001, 1.493
 145091764, -0.022, 0.324, -0.038, 1.5, 0.008, 0.232, -0.02, 1.497
 145291765, 0.022, 0.228, -0.027, 1.504, -0.022, 0.324, -0.038, 1.5
 145491805, 0.041, 0.01, -0.026, 1.508, 0.022, 0.228, -0.027, 1.504
 145691747, 0.013, -0.009000001, -0.191, 1.512, 0.041, 0.01, -0.026, 1.508
 145891789, -0.002, -0.046, -0.081, 1.514, 0.013, -0.009000001, -0.191, 1.512
 146091746, -0.063, -0.08000001, -0.093, 1.517, -0.002, -0.046, -0.081, 1.514
 146291800, 0.05, -0.183, -0.071, 1.519, -0.063, -0.08000001, -0.093, 1.517
 146491778, -0.03, -0.117, -0.011, 1.52, 0.05, -0.183, -0.071, 1.519
 146691888, 0.002, -0.141, -0.042, 1.522, -0.03, -0.117, -0.011, 1.52
 146891819, 0.022, -0.15, 0.005, 1.523, 0.002, -0.141, -0.042, 1.522
 147091768, -0.139, 0.032, 0.09, 1.525, 0.022, -0.15, 0.005, 1.523
 147291934, -0.031, -0.098, 0.066, 1.527, -0.139, 0.032, 0.09, 1.525
 147491802, -0.045, 0.035, 0.078, 1.528, -0.031, -0.098, 0.066, 1.527
 147691795, 0.025, -0.044, -0.024, 1.529, -0.045, 0.035, 0.078, 1.528
 147891922, -0.047, -0.042, 0.024, 1.529, 0.025, -0.044, -0.024, 1.529
 148091757, 0.011, -0.137, -0.04, 1.53, -0.047, -0.042, 0.024, 1.529
 148291774, 0.026, -0.003, -0.104, 1.529, 0.011, -0.137, -0.04, 1.53
 148491768, 0.056, 0.04, -0.072, 1.527, 0.026, -0.003, -0.104, 1.529
 148691808, -0.004, 0.057, -0.108, 1.527, 0.056, 0.04, -0.072, 1.527
 148891826, -0.07, -0.016, -0.235, 1.528, -0.004, 0.057, -0.108, 1.527
 149091787, -0.07300001, 0.058, -0.142, 1.527, -0.07, -0.016, -0.235, 1.528
 149311820, -0.08000001, 0.139, 0.064, 1.529, -0.07300001, 0.058, -0.142, 1.527
 149491765, -0.045, 0.149, 0.006, 1.527, -0.08000001, 0.139, 0.064, 1.529
 149691763, -0.093, 0.178, -0.008, 1.52, -0.045, 0.149, 0.006, 1.527
 149891826, -0.038, 0.257, -0.005, 1.514, -0.093, 0.178, -0.008, 1.52
 150091783, 0.143, -0.028, 0.017, 1.509, -0.038, 0.257, -0.005, 1.514
 150291775, 0.12, 0.011, 0.002, 1.504, 0.143, -0.028, 0.017, 1.509
 150491780, 0.207, -0.058, -0.035, 1.497, 0.12, 0.011, 0.002, 1.504
 150691767, 0.141, -0.151, -0.018, 1.493, 0.207, -0.058, -0.035, 1.497
 150891951, 0.219, -0.198, -0.107, 1.487, 0.141, -0.151, -0.018, 1.493
 151091791, 0.128, -0.08000001, -0.039, 1.482, 0.219, -0.198, -0.107, 1.487
 151291740, 0.224, -0.216, -0.039, 1.482, 0.128, -0.08000001, -0.039, 1.482
 151491755, 0.105, -0.211, 0, 1.484, 0.224, -0.216, -0.039, 1.482
 151691812, 0.07, -0.101, 0.03, 1.486, 0.105, -0.211, 0, 1.484
 151891804, -0.036, -0.024, 0.045, 1.487, 0.07, -0.101, 0.03, 1.486
 152091955, 0.029, -0.021, 0.047, 1.489, -0.036, -0.024, 0.045, 1.487
 152291804, 0.068, -0.067, 0.011, 1.489, 0.029, -0.021, 0.047, 1.489
 152491776, 0.051, -0.083, 0.048, 1.49, 0.068, -0.067, 0.011, 1.489
 152691807, 0.09100001, -0.126, -0.089, 1.491, 0.051, -0.083, 0.048, 1.49
 152892120, 0.094, -0.045, -0.046, 1.491, 0.09100001, -0.126, -0.089, 1.491
 153092036, 0.173, -0.061, -0.058, 1.491, 0.094, -0.045, -0.046, 1.491
 153292107, 0.221, -0.182, -0.08000001, 1.492, 0.173, -0.061, -0.058, 1.491
 153492033, 0.17, -0.153, -0.015, 1.492, 0.221, -0.182, -0.08000001, 1.492
 153694972, 0.27, -0.158, -0.01, 1.492, 0.17, -0.153, -0.015, 1.492
 153895119, 0.177, -0.136, 0.032, 1.491, 0.27, -0.158, -0.01, 1.492
 154095173, 0, 0, 0.122, 1.491, 0.177, -0.136, 0.032, 1.491
 154294983, 0, 0, 0.047, 1.489, 0, 0, 0.122, 1.491
 154495013, 0, 0, -0.036, 1.485, 0, 0, 0.047, 1.489
 154695177, 0, 0, -0.021, 1.481, 0, 0, -0.036, 1.485
 154895032, 0, 0, -0.007, 1.476, 0, 0, -0.021, 1.481
 155095043, 0, 0, 0.003, 1.473, 0, 0, -0.007, 1.476
 155295168, 0, 0, 0.022, 1.47, 0, 0, 0.003, 1.473
 155494971, 0, 0, 0.001, 1.467, 0, 0, 0.022, 1.47
 155695027, 0, 0, -0.054, 1.467, 0, 0, 0.001, 1.467
 155895000, 0, 0, -0.082, 1.466, 0, 0, -0.054, 1.467
 156095015, 0, 0, 0.079, 1.466, 0, 0, -0.082, 1.466
 156295014, 0, 0, 0.098, 1.466, 0, 0, 0.079, 1.466
 156495207, 0, 0, 0.003, 1.467, 0, 0, 0.098, 1.466
 156694996, 0, 0, -0.058, 1.471, 0, 0, 0.003, 1.467
 156895037, 0, 0, -0.072, 1.473, 0, 0, -0.058, 1.471
 157094965, 0, 0, 0.074, 1.477, 0, 0, -0.072, 1.473
 157294988, 0, 0, -0.041, 1.481, 0, 0, 0.074, 1.477
 157495009, 0, 0, -0.012, 1.484, 0, 0, -0.041, 1.481
 157694982, 0, 0, -0.165, 1.488, 0, 0, -0.012, 1.484
 157894999, 0, 0, 0.027, 1.495, 0, 0, -0.165, 1.488
 158095020, 0, 0, 0.047, 1.502, 0, 0, 0.027, 1.495
 158295288, 0, 0, 0.022, 1.509, 0, 0, 0.047, 1.502
 158494987, 0, 0, -0.038, 1.514, 0, 0, 0.022, 1.509
 158695012, 0, 0, 0.068, 1.517, 0, 0, -0.038, 1.514
 158895016, 0, 0, 0.08000001, 1.518, 0, 0, 0.068, 1.517
 159094971, 0, 0, -0.05, 1.519, 0, 0, 0.08000001, 1.518
 159295028, 0, 0, 0.06500001, 1.518, 0, 0, -0.05, 1.519
 159495192, 0, 0, 0.032, 1.516, 0, 0, 0.06500001, 1.518
 159694968, 0, 0, -0.04, 1.516, 0, 0, 0.032, 1.516
 159895110, 0, 0, 0.022, 1.515, 0, 0, -0.04, 1.516
 160095244, 0, 0, -0.064, 1.515, 0, 0, 0.022, 1.515
 160294980, 0, 0, 0.052, 1.514, 0, 0, -0.064, 1.515
 160495019, 0, 0, -0.032, 1.513, 0, 0, 0.052, 1.514
 160695009, 0, 0, -0.102, 1.514, 0, 0, -0.032, 1.513
 160895015, 0, 0, -0.017, 1.514, 0, 0, -0.102, 1.514
 161095005, 0, 0, -0.013, 1.515, 0, 0, -0.017, 1.514
 161295014, 0, 0, -0.055, 1.513, 0, 0, -0.013, 1.515
 161494977, 0, 0, -0.04, 1.509, 0, 0, -0.055, 1.513
 161695040, 0, 0, -0.098, 1.505, 0, 0, -0.04, 1.509
 161895259, 0, 0, -0.07300001, 1.501, 0, 0, -0.098, 1.505
 162094986, 0, 0, -0.121, 1.499, 0, 0, -0.07300001, 1.501
 162295035, 0, 0, -0.038, 1.498, 0, 0, -0.121, 1.499
 162495201, 0, 0, -0.096, 1.497, 0, 0, -0.038, 1.498
 162695005, 0, 0, 0.035, 1.493, 0, 0, -0.096, 1.497
 162894643, 0, 0, -0.157, 1.488, 0, 0, 0.035, 1.493
 163094635, 0, 0, -0.089, 1.486, 0, 0, -0.157, 1.488
 163294626, 0, 0, -0.042, 1.487, 0, 0, -0.089, 1.486
 163494921, 0, 0, 0.071, 1.488, 0, 0, -0.042, 1.487
 163695181, 0, 0, -0.062, 1.492, 0, 0, 0.071, 1.488
 163894967, 0, 0, 0.012, 1.496, 0, 0, -0.062, 1.492
 164094930, 0, 0, 0.025, 1.5, 0, 0, 0.012, 1.496
 164294950, 0, 0, -0.058, 1.503, 0, 0, 0.025, 1.5
 164494931, 0, 0, 0.052, 1.505, 0, 0, -0.058, 1.503
 164694936, 0, 0, -0.07, 1.506, 0, 0, 0.052, 1.505
 164894943, 0, 0, -0.051, 1.504, 0, 0, -0.07, 1.506
 165094944, 0, 0, 0.07300001, 1.502, 0, 0, -0.051, 1.504
 165294916, 0, 0, -0.028, 1.5, 0, 0, 0.07300001, 1.502
 165494977, 0, 0, 0.062, 1.498, 0, 0, -0.028, 1.5
 165694927, 0, 0, -0.072, 1.497, 0, 0, 0.062, 1.498
 165894936, 0, 0, -0.048, 1.499, 0, 0, -0.072, 1.497
 166094918, 0, 0, -0.031, 1.502, 0, 0, -0.048, 1.499
 166294925, 0, 0, 0.03, 1.503, 0, 0, -0.031, 1.502
 166494935, 0, 0, 0.024, 1.507, 0, 0, 0.03, 1.503
 166695035, 0, 0, -0.02, 1.51, 0, 0, 0.024, 1.507
 166894940, 0, 0, 0.009000001, 1.514, 0, 0, -0.02, 1.51
 167094931, 0, 0, 0.012, 1.517, 0, 0, 0.009000001, 1.514
 167315266, 0, 0, -0.038, 1.519, 0, 0, 0.012, 1.517
 167494909, 0, 0, -0.07, 1.521, 0, 0, -0.038, 1.519
 167694913, 0, 0, -0.027, 1.522, 0, 0, -0.07, 1.521
 167895123, 0, 0, -0.054, 1.523, 0, 0, -0.027, 1.522
 168094919, 0, 0, -0.147, 1.524, 0, 0, -0.054, 1.523
 168294922, 0, 0, -0.126, 1.526, 0, 0, -0.147, 1.524
 168494926, 0, 0, -0.117, 1.527, 0, 0, -0.126, 1.526
 168694918, 0, 0, -0.086, 1.529, 0, 0, -0.117, 1.527
 168894941, 0, 0, -0.03, 1.53, 0, 0, -0.086, 1.529
 169094958, 0, 0, -0.007, 1.533, 0, 0, -0.03, 1.53
 169294914, 0, 0, 0.012, 1.536, 0, 0, -0.007, 1.533
 169494924, 0, 0, 0.169, 1.538, 0, 0, 0.012, 1.536
 169694906, 0, 0, 0.061, 1.541, 0, 0, 0.169, 1.538
 169894931, 0, 0, 0.11, 1.542, 0, 0, 0.061, 1.541
 170094924, 0, 0, -0.089, 1.545, 0, 0, 0.11, 1.542
 170294926, 0, 0, -0.038, 1.547, 0, 0, -0.089, 1.545
 170494955, 0, 0, -0.061, 1.55, 0, 0, -0.038, 1.547
 170694939, 0, 0, 0.014, 1.552, 0, 0, -0.061, 1.55
 170894966, 0, 0, 0.085, 1.555, 0, 0, 0.014, 1.552
 171094926, 0, 0, -0.085, 1.557, 0, 0, 0.085, 1.555
 171294915, 0, 0, 0.04, 1.56, 0, 0, -0.085, 1.557
 171494929, 0, 0, -0.017, 1.563, 0, 0, 0.04, 1.56
 171694924, 0, 0, -0.114, 1.565, 0, 0, -0.017, 1.563
 171894939, 0, 0, -0.159, 1.567, 0, 0, -0.114, 1.565
 172095042, 0, 0, 0.019, 1.569, 0, 0, -0.159, 1.567
 172294895, 0, 0, 0.075, 1.572, 0, 0, 0.019, 1.569
 172494921, 0, 0, 0.045, 1.575, 0, 0, 0.075, 1.572
 172694956, 0, 0, -0.006, 1.577, 0, 0, 0.045, 1.575
 172894942, 0, 0, 0.1, 1.578, 0, 0, -0.006, 1.577
 173094907, 0, 0, 0.06, 1.579, 0, 0, 0.1, 1.578
 173294958, 0, 0, 0.054, 1.579, 0, 0, 0.06, 1.579
 173494914, 0, 0, -0.049, 1.579, 0, 0, 0.054, 1.579
 173694912, 0, 0, 0.009000001, 1.58, 0, 0, -0.049, 1.579
 173894935, 0, 0, -0.051, 1.581, 0, 0, 0.009000001, 1.58
 174094911, 0, 0, -0.121, 1.583, 0, 0, -0.051, 1.581
 174294932, 0, 0, -0.02, 1.583, 0, 0, -0.121, 1.583
 174515378, 0, 0, 0.105, 1.581, 0, 0, -0.02, 1.583
 174694921, 0, 0, 0.019, 1.579, 0, 0, 0.105, 1.581
 174895203, 0, 0, 0.027, 1.577, 0, 0, 0.019, 1.579
 175095409, 0, 0, -0.054, 1.575, 0, 0, 0.027, 1.577
 175295215, 0, 0, 0.031, 1.574, 0, 0, -0.054, 1.575
 175495202, 0, 0, 0.003, 1.572, 0, 0, 0.031, 1.574
 175695221, 0, 0, -0.094, 1.57, 0, 0, 0.003, 1.572
 175895624, 0, 0, -0.003, 1.567, 0, 0, -0.094, 1.57
 176095634, 0, 0, -0.081, 1.564, 0, 0, -0.003, 1.567
 176295785, 0, 0, 0.033, 1.559, 0, 0, -0.081, 1.564
 176495623, 0, 0, 0.179, 1.555, 0, 0, 0.033, 1.559
 176695612, 0, 0, 0.144, 1.554, 0, 0, 0.179, 1.555
 176895648, 0, 0, -0.001, 1.554, 0, 0, 0.144, 1.554
 177095600, 0, 0, 0.087, 1.555, 0, 0, -0.001, 1.554
 177295624, 0, 0, 0.067, 1.557, 0, 0, 0.087, 1.555
 177495597, 0, 0, -0.075, 1.556, 0, 0, 0.067, 1.557
 177695625, 0, 0, -0.09, 1.558, 0, 0, -0.075, 1.556
 177895617, 0, 0, -0.021, 1.561, 0, 0, -0.09, 1.558
 178095758, 0, 0, -0.098, 1.566, 0, 0, -0.021, 1.561
 178295598, 0, 0, -0.012, 1.569, 0, 0, -0.098, 1.566
 178495600, 0, 0, 0.035, 1.57, 0, 0, -0.012, 1.569
 178695622, 0, 0, 0.189, 1.57, 0, 0, 0.035, 1.57
 178895629, 0, 0, 0.085, 1.57, 0, 0, 0.189, 1.57
 179095609, 0, 0, 0.109, 1.57, 0, 0, 0.085, 1.57
 179295732, 0, 0, 0.133, 1.568, 0, 0, 0.109, 1.57
 179495628, 0, 0, 0.082, 1.567, 0, 0, 0.133, 1.568
 179695608, 0, 0, 0.012, 1.565, 0, 0, 0.082, 1.567
 179895758, 0, 0, 0.06500001, 1.562, 0, 0, 0.012, 1.565
 180095618, 0, 0, -0.055, 1.559, 0, 0, 0.06500001, 1.562
 180295612, 0, 0, 0.1, 1.556, 0, 0, -0.055, 1.559
 180495728, 0, 0, 0.038, 1.552, 0, 0, 0.1, 1.556
 180695613, 0, 0, 0.002, 1.548, 0, 0, 0.038, 1.552
 180895631, 0, 0, 0.117, 1.546, 0, 0, 0.002, 1.548
 181095589, 0, 0, 0.046, 1.543, 0, 0, 0.117, 1.546
 181295616, 0, 0, 0.064, 1.54, 0, 0, 0.046, 1.543
 181495620, 0, 0, 0.017, 1.537, 0, 0, 0.064, 1.54
 181695744, 0, 0, 0.066, 1.533, 0, 0, 0.017, 1.537
 181895636, 0, 0, 0.018, 1.529, 0, 0, 0.066, 1.533
 182095611, 0, 0, -0.027, 1.525, 0, 0, 0.018, 1.529
 182295612, 0, 0, 0.223, 1.522, 0, 0, -0.027, 1.525
 182495608, 0, 0, 0.193, 1.522, 0, 0, 0.223, 1.522
 182695607, 0, 0, 0.023, 1.522, 0, 0, 0.193, 1.522
 182895623, 0, 0, 0.075, 1.523, 0, 0, 0.023, 1.522
 183095615, 0, 0, 0.066, 1.525, 0, 0, 0.075, 1.523
 183295604, 0, 0, 0.063, 1.527, 0, 0, 0.066, 1.525
 183495787, 0, 0, 0.139, 1.529, 0, 0, 0.063, 1.527
 183695607, 0, 0, -0.039, 1.532, 0, 0, 0.139, 1.529
 183895660, 0, 0, -0.051, 1.534, 0, 0, -0.039, 1.532
 184095598, 0, 0, -0.007, 1.536, 0, 0, -0.051, 1.534
 184295604, 0, 0, -0.096, 1.537, 0, 0, -0.007, 1.536
 184495619, 0, 0, 0.12, 1.537, 0, 0, -0.096, 1.537
 184695735, 0, 0, 0.027, 1.536, 0, 0, 0.12, 1.537
 184895663, 0, 0, 0.08400001, 1.533, 0, 0, 0.027, 1.536
 185095607, 0, 0, 0.169, 1.53, 0, 0, 0.08400001, 1.533
 185295749, 0, 0, 0.135, 1.53, 0, 0, 0.169, 1.53
 185495607, 0, 0, 0.172, 1.531, 0, 0, 0.135, 1.53
 185695620, 0, 0, -0.003, 1.533, 0, 0, 0.172, 1.531
 185895611, 0, 0, 0.087, 1.534, 0, 0, -0.003, 1.533
 186095594, 0, 0, 0.063, 1.535, 0, 0, 0.087, 1.534
 186295623, 0, 0, 0.126, 1.533, 0, 0, 0.063, 1.535
 186495614, 0, 0, 0.134, 1.532, 0, 0, 0.126, 1.533
 186695625, 0, 0, 0.051, 1.53, 0, 0, 0.134, 1.532
 186895611, 0, 0, -0.035, 1.529, 0, 0, 0.051, 1.53
 187095758, 0, 0, 0.015, 1.532, 0, 0, -0.035, 1.529
 187295599, 0, 0, 0.026, 1.537, 0, 0, 0.015, 1.532
 187495614, 0, 0, 0.11, 1.536, 0, 0, 0.026, 1.537
 187695738, 0, 0, 0.109, 1.537, 0, 0, 0.11, 1.536
 187895626, 0, 0, 0.133, 1.539, 0, 0, 0.109, 1.537
 188095614, 0, 0, 0.12, 1.541, 0, 0, 0.133, 1.539
 188295591, 0, 0, 0.06900001, 1.541, 0, 0, 0.12, 1.541
 188495609, 4.175, 0.8100001, 0.026, 1.542, 0, 0, 0.06900001, 1.541
 188695623, 4.22, 0.719, 0.025, 1.542, 4.175, 0.8100001, 0.026, 1.542
 188895801, 4.358, 0.714, 0.014, 1.537, 4.22, 0.719, 0.025, 1.542
 189095601, 4.36, 0.886, -0.021, 1.534, 4.358, 0.714, 0.014, 1.537
 189295612, 4.397, 0.8100001, -0.008, 1.533, 4.36, 0.886, -0.021, 1.534
 189495606, 4.468, 0.8150001, -0.022, 1.533, 4.397, 0.8100001, -0.008, 1.533
 189695503, 4.452, 0.897, 0.036, 1.534, 4.468, 0.8150001, -0.022, 1.533
 189895525, 4.426, 0.7450001, 0.149, 1.535, 4.452, 0.897, 0.036, 1.534
 190095501, 4.329, 0.7970001, 0.105, 1.536, 4.426, 0.7450001, 0.149, 1.535
 190295499, 4.37, 0.7130001, 0.112, 1.536, 4.329, 0.7970001, 0.105, 1.536
 190495504, 4.245, 0.803, 0.245, 1.537, 4.37, 0.7130001, 0.112, 1.536
 190695502, 4.21, 0.767, 0.299, 1.537, 4.245, 0.803, 0.245, 1.537
 190895519, 4.008, 0.791, 0.054, 1.536, 4.21, 0.767, 0.299, 1.537
 191095505, 3.689, 0.622, 0.164, 1.536, 4.008, 0.791, 0.054, 1.536
 191295484, 3.281, 0.807, 0.022, 1.538, 3.689, 0.622, 0.164, 1.536
 191498398, 2.906, 0.7920001, -0.062, 1.539, 3.281, 0.807, 0.022, 1.538
 191698551, 2.889, 0.559, -0.317, 1.539, 2.906, 0.7920001, -0.062, 1.539
 191898423, 2.493, 0.585, 0.054, 1.531, 2.889, 0.559, -0.317, 1.539
 192098650, 2.461, 0.37, -0.138, 1.531, 2.493, 0.585, 0.054, 1.531
 192298450, 2.346, 0.651, -0.297, 1.534, 2.461, 0.37, -0.138, 1.531
 192498422, 2.281, 0.284, -0.26, 1.533, 2.346, 0.651, -0.297, 1.534
 192698695, 2.212, 0.175, -0.204, 1.535, 2.281, 0.284, -0.26, 1.533
 192898460, 1.846, 0.367, -0.155, 1.534, 2.212, 0.175, -0.204, 1.535
 193078025, 1.6, 0.417, -0.1, 1.53, 1.846, 0.367, -0.155, 1.534
 193298524, 1.208, 0.465, -0.054, 1.525, 1.6, 0.417, -0.1, 1.53
 193498406, 0.707, 0.466, -0.064, 1.518, 1.208, 0.465, -0.054, 1.525
 193698414, 0.007, 0.708, -0.056, 1.515, 0.707, 0.466, -0.064, 1.518
 193898560, -0.476, 0.9120001, -0.128, 1.513, 0.007, 0.708, -0.056, 1.515
 194098405, -0.8650001, 1.036, -0.111, 1.509, -0.476, 0.9120001, -0.128, 1.513
 194298418, -1.046, 0.9030001, -0.015, 1.508, -0.8650001, 1.036, -0.111, 1.509
 194498629, -1.244, 0.9, -0.037, 1.504, -1.046, 0.9030001, -0.015, 1.508
 194698400, -1.379, 0.64, 0.154, 1.502, -1.244, 0.9, -0.037, 1.504
 194898415, -1.465, 0.708, 0.087, 1.5, -1.379, 0.64, 0.154, 1.502
 195098696, -1.584, 0.6210001, -0.057, 1.498, -1.465, 0.708, 0.087, 1.5
 195298402, -1.786, 0.386, 0.041, 1.495, -1.584, 0.6210001, -0.057, 1.498
 195498425, -2.236, 0.561, 0.178, 1.496, -1.786, 0.386, 0.041, 1.495
 195698533, -2.275, 0.429, 0.089, 1.498, -2.236, 0.561, 0.178, 1.496
 195898418, -2.741, 0.631, 0.21, 1.5, -2.275, 0.429, 0.089, 1.498
 196098434, -2.965, 0.615, 0.21, 1.504, -2.741, 0.631, 0.21, 1.5
 196298800, -3.34, 0.436, 0.128, 1.504, -2.965, 0.615, 0.21, 1.504
 196498391, -3.673, 0.614, 0.2, 1.502, -3.34, 0.436, 0.128, 1.504
 196698459, -4.043, 0.754, 0.096, 1.502, -3.673, 0.614, 0.2, 1.502
 196898556, -4.497, 0.858, 0.302, 1.507, -4.043, 0.754, 0.096, 1.502
 197098421, -4.456, 0.813, 0.021, 1.509, -4.497, 0.858, 0.302, 1.507
 197298471, -4.998, 1.136, 0.258, 1.51, -4.456, 0.813, 0.021, 1.509
 197498515, -5.12, 0.9860001, 0.156, 1.512, -4.998, 1.136, 0.258, 1.51
 197698409, -5.253, 1.054, 0.06900001, 1.509, -5.12, 0.9860001, 0.156, 1.512
 197898462, -5.609, 1.021, 0.165, 1.508, -5.253, 1.054, 0.06900001, 1.509
 198098669, -5.866, 0.961, -0.178, 1.507, -5.609, 1.021, 0.165, 1.508
 198298002, -6.017, 0.864, -0.163, 1.504, -5.866, 0.961, -0.178, 1.507
 198498109, -6.136, 1.187, -0.198, 1.502, -6.017, 0.864, -0.163, 1.504
 198698016, -6.072001, 0.892, -0.188, 1.503, -6.136, 1.187, -0.198, 1.502
 198898020, -5.928, 0.9720001, -0.062, 1.506, -6.072001, 0.892, -0.188, 1.503
 199098033, -6.048, 1.079, -0.09, 1.509, -5.928, 0.9720001, -0.062, 1.506
 199298032, -5.679, 0.8710001, -0.051, 1.51, -6.048, 1.079, -0.09, 1.509
 199498028, -5.495, 0.966, 0.008, 1.507, -5.679, 0.8710001, -0.051, 1.51
 199698028, -5.349, 0.839, 0.06900001, 1.506, -5.495, 0.966, 0.008, 1.507
 199898231, -5.064, 0.779, 0.044, 1.506, -5.349, 0.839, 0.06900001, 1.506
 200098004, -4.868, 0.886, 0.173, 1.507, -5.064, 0.779, 0.044, 1.506
 200298006, -4.69, 0.706, 0.198, 1.509, -4.868, 0.886, 0.173, 1.507
 200498191, -4.628, 0.674, 0.102, 1.513, -4.69, 0.706, 0.198, 1.509
 200698010, -4.564, 0.784, 0.11, 1.513, -4.628, 0.674, 0.102, 1.513
 200898018, -4.416, 0.717, 0.09100001, 1.513, -4.564, 0.784, 0.11, 1.513
 201098018, -4.517, 0.887, -0.117, 1.517, -4.416, 0.717, 0.09100001, 1.513
 201298008, -4.103, 0.612, 0.06900001, 1.522, -4.517, 0.887, -0.117, 1.517
 201498005, -4.043, 0.589, 0.058, 1.526, -4.103, 0.612, 0.06900001, 1.522
 201698120, -3.89, 0.603, 0.041, 1.531, -4.043, 0.589, 0.058, 1.526
 201898040, -3.698, 0.6, 0.021, 1.536, -3.89, 0.603, 0.041, 1.531
 202098003, -3.616, 0.656, -0.07, 1.54, -3.698, 0.6, 0.021, 1.536
 202298013, -3.536, 0.5, -0.068, 1.544, -3.616, 0.656, -0.07, 1.54
 202498140, -3.448, 0.465, -0.113, 1.549, -3.536, 0.5, -0.068, 1.544
 202698019, -3.398, 0.485, -0.113, 1.555, -3.448, 0.465, -0.113, 1.549
 202898042, -3.23, 0.351, -0.08800001, 1.561, -3.398, 0.485, -0.113, 1.555
 203078021, -3.204, 0.185, -0.125, 1.566, -3.23, 0.351, -0.08800001, 1.561
 203298003, -3.173, 0.193, -0.07600001, 1.567, -3.204, 0.185, -0.125, 1.566
 203478017, -2.845, 0.021, -0.034, 1.567, -3.173, 0.193, -0.07600001, 1.567
 203697999, -2.837, 0.09, 0.009000001, 1.565, -2.845, 0.021, -0.034, 1.567
 203898035, -2.763, -0.083, 0.053, 1.563, -2.837, 0.09, 0.009000001, 1.565
 204098039, -2.609, 0.143, -0.11, 1.562, -2.763, -0.083, 0.053, 1.563
 204298023, -2.304, 0.301, -0.048, 1.562, -2.609, 0.143, -0.11, 1.562
 204498036, -2.018, 0.268, 0.047, 1.562, -2.304, 0.301, -0.048, 1.562
 204698194, -1.674, 0.135, -0.127, 1.56, -2.018, 0.268, 0.047, 1.562
 204898025, -1.681, 0.238, -0.09200001, 1.559, -1.674, 0.135, -0.127, 1.56
 205098025, -1.695, 0.149, -0.132, 1.558, -1.681, 0.238, -0.09200001, 1.559
 205298120, -1.511, -0.036, -0.121, 1.557, -1.695, 0.149, -0.132, 1.558
 205498032, -1.444, 0.102, -0.086, 1.554, -1.511, -0.036, -0.121, 1.557
 205698003, -1.387, 0.097, -0.096, 1.555, -1.444, 0.102, -0.086, 1.554
 205898021, -1.175, 0.07700001, -0.074, 1.552, -1.387, 0.097, -0.096, 1.555
 206098016, -0.936, 0.075, -0.01, 1.552, -1.175, 0.07700001, -0.074, 1.552
 206298033, -0.844, 0.056, -0.043, 1.551, -0.936, 0.075, -0.01, 1.552
 206498020, -0.757, 0.023, -0.052, 1.549, -0.844, 0.056, -0.043, 1.551
 206698023, -0.655, 0.187, 0.039, 1.544, -0.757, 0.023, -0.052, 1.549
 206898041, -0.6990001, 0.193, 0.008, 1.539, -0.655, 0.187, 0.039, 1.544
 207098123, -0.603, 0.083, -0.011, 1.534, -0.6990001, 0.193, 0.008, 1.539
 207298014, -0.5700001, 0.14, 0.029, 1.529, -0.603, 0.083, -0.011, 1.534
 207498149, -0.517, 0.116, 0.174, 1.525, -0.5700001, 0.14, 0.029, 1.529
 207698217, -0.252, 0.208, 0.137, 1.522, -0.517, 0.116, 0.174, 1.525
 207898026, -0.322, 0.284, 0.233, 1.517, -0.252, 0.208, 0.137, 1.522
 208098032, 0.168, 0.131, 0.5930001, 1.515, -0.322, 0.284, 0.233, 1.517
 208298115, -0.128, 0.592, 0.243, 1.514, 0.168, 0.131, 0.5930001, 1.515
 208498028, 0.342, 0.402, 0.42, 1.51, -0.128, 0.592, 0.243, 1.514
 208698024, 0.659, 0.141, 0.578, 1.508, 0.342, 0.402, 0.42, 1.51
 208898368, 1.076, 0.424, 0.522, 1.506, 0.659, 0.141, 0.578, 1.508
 209098013, 0.8750001, 0.6850001, 0.446, 1.507, 1.076, 0.424, 0.522, 1.506
 209298014, 0.8420001, 0.173, 0.691, 1.509, 0.8750001, 0.6850001, 0.446, 1.507
 209498019, 1.001, 0.414, 0.505, 1.51, 0.8420001, 0.173, 0.691, 1.509
 209698014, 0.952, 0.7320001, 0.734, 1.511, 1.001, 0.414, 0.505, 1.51
 209898040, 1.053, 0.415, 0.581, 1.512, 0.952, 0.7320001, 0.734, 1.511
 210078014, 1.186, 0.471, 0.47, 1.511, 1.053, 0.415, 0.581, 1.512
 210298024, 1.125, 0.471, 0.848, 1.507, 1.186, 0.471, 0.47, 1.511
 210498021, 1.537, 0.233, 0.694, 1.505, 1.125, 0.471, 0.848, 1.507
 210698121, 1.268, 0.239, 0.617, 1.503, 1.537, 0.233, 0.694, 1.505
 210898106, 1.212, 0.387, 0.499, 1.5, 1.268, 0.239, 0.617, 1.503
 211098017, 0.9590001, -0.192, 0.574, 1.499, 1.212, 0.387, 0.499, 1.5
 211298034, 0.363, 0.131, 0.439, 1.498, 0.9590001, -0.192, 0.574, 1.499
 211498012, 0.234, 0.193, 0.665, 1.493, 0.363, 0.131, 0.439, 1.498
 211698011, 0.413, 0.021, 0.637, 1.49, 0.234, 0.193, 0.665, 1.493
 211898221, 0.283, 0.137, 0.617, 1.485, 0.413, 0.021, 0.637, 1.49
 212098008, 0.35, 0.307, 0.623, 1.479, 0.283, 0.137, 0.617, 1.485
 212298028, -0.122, 0.588, 0.5560001, 1.477, 0.35, 0.307, 0.623, 1.479
 212478021, 0.013, 0.511, 0.454, 1.475, -0.122, 0.588, 0.5560001, 1.477
 212698017, 0.317, 0.687, 0.627, 1.476, 0.013, 0.511, 0.454, 1.475
 212898038, 0.308, 0.31, 0.56, 1.481, 0.317, 0.687, 0.627, 1.476
 213098041, 0.298, 0.166, 0.669, 1.491, 0.308, 0.31, 0.56, 1.481
 213298023, 0.424, 0.425, 0.8100001, 1.503, 0.298, 0.166, 0.669, 1.491
 213498026, 0.405, -0.132, 0.795, 1.513, 0.424, 0.425, 0.8100001, 1.503
 213698018, 0.492, -0.046, 0.564, 1.521, 0.405, -0.132, 0.795, 1.513
 213898025, 0.589, 0.207, 0.354, 1.527, 0.492, -0.046, 0.564, 1.521
 214098022, -0.158, 0.8010001, 0.157, 1.533, 0.589, 0.207, 0.354, 1.527
 214298241, 0.45, 0.074, 0.409, 1.541, -0.158, 0.8010001, 0.157, 1.533
 214497996, 0.498, 0.059, 0.554, 1.548, 0.45, 0.074, 0.409, 1.541
 214697986, 0.267, 0.168, 0.59, 1.555, 0.498, 0.059, 0.554, 1.548
 214897988, 0.313, 0.29, 0.529, 1.56, 0.267, 0.168, 0.59, 1.555
 215097991, 0.502, 0.259, 0.58, 1.56, 0.313, 0.29, 0.529, 1.56
 215298006, 0.545, 0.423, 0.403, 1.559, 0.502, 0.259, 0.58, 1.56
 215498009, 0.6300001, 0.259, 0.657, 1.561, 0.545, 0.423, 0.403, 1.559
 215698001, 0.6350001, 0.458, 0.159, 1.563, 0.6300001, 0.259, 0.657, 1.561
 215898025, 0.361, 0.6670001, 0.173, 1.564, 0.6350001, 0.458, 0.159, 1.563
 216098123, -0.036, -0.423, 0.114, 1.565, 0.361, 0.6670001, 0.173, 1.564
 216298044, 0.051, 0.09100001, -0.01, 1.568, -0.036, -0.423, 0.114, 1.565
 216498010, -0.007, 0.012, -0.059, 1.569, 0.051, 0.09100001, -0.01, 1.568
 216697985, -0.021, 0.029, 0.014, 1.57, -0.007, 0.012, -0.059, 1.569
 216898005, 0.048, -0.057, -0.008, 1.571, -0.021, 0.029, 0.014, 1.57
 217098000, 0.021, -0.052, -0.057, 1.572, 0.048, -0.057, -0.008, 1.571
 217298014, -0.026, -0.004, -0.042, 1.571, 0.021, -0.052, -0.057, 1.572
 217497962, 0.02, -0.048, -0.062, 1.567, -0.026, -0.004, -0.042, 1.571
 217697985, -0.016, -0.029, -0.015, 1.563, 0.02, -0.048, -0.062, 1.567
 217898013, 0.011, -0.07, 0.049, 1.559, -0.016, -0.029, -0.015, 1.563
 218097977, 0.033, -0.027, -0.001, 1.554, 0.011, -0.07, 0.049, 1.559
 218297949, -0.005, 0.011, 0.016, 1.548, 0.033, -0.027, -0.001, 1.554
 218497972, -0.001, -0.011, -0.034, 1.543, -0.005, 0.011, 0.016, 1.548
 218697972, 0.054, -0.116, -0.033, 1.538, -0.001, -0.011, -0.034, 1.543
 218897978, -0.035, 0.008, -0.011, 1.534, 0.054, -0.116, -0.033, 1.538
 219077991, 0.085, 0.007, -0.011, 1.53, -0.035, 0.008, -0.011, 1.534
 219297919, -0.045, -0.012, 0.006, 1.526, 0.085, 0.007, -0.011, 1.53
 219497968, 0.03, -0.067, -0.09100001, 1.522, -0.045, -0.012, 0.006, 1.526
 219697938, -0.106, 0.12, 0.07600001, 1.52, 0.03, -0.067, -0.09100001, 1.522
 219897919, 0.026, -0.039, -0.025, 1.517, -0.106, 0.12, 0.07600001, 1.52
 220097901, 0.018, -0.027, 0.011, 1.515, 0.026, -0.039, -0.025, 1.517
 220297959, 0.021, -0.012, 0.064, 1.512, 0.018, -0.027, 0.011, 1.515
 220497919, -0.019, 0.031, 0.09500001, 1.509, 0.021, -0.012, 0.064, 1.512
 220697903, 0.047, -0.004, -0.013, 1.506, -0.019, 0.031, 0.09500001, 1.509
 220897930, -0.034, 0.001, -0.043, 1.502, 0.047, -0.004, -0.013, 1.506
 221097910, -0.035, 0.086, -0.032, 1.498, -0.034, 0.001, -0.043, 1.502
 221297955, -0.053, 0.03, -0.001, 1.496, -0.035, 0.086, -0.032, 1.498
 221497943, 0.068, -0.052, 0.075, 1.495, -0.053, 0.03, -0.001, 1.496
 221697932, -0.018, 0.034, 0.028, 1.494, 0.068, -0.052, 0.075, 1.495
 221897927, 0.016, 0.023, -0.027, 1.492, -0.018, 0.034, 0.028, 1.494
 222097902, 0.011, 0.025, -0.003, 1.49, 0.016, 0.023, -0.027, 1.492
 222297927, 0.025, -0.031, -0.056, 1.489, 0.011, 0.025, -0.003, 1.49
 222497930, -0.007, -0.022, 0.023, 1.487, 0.025, -0.031, -0.056, 1.489
 222697902, -0.066, 0.016, 0.047, 1.486, -0.007, -0.022, 0.023, 1.487
 222897926, -0.026, -0.003, -0.057, 1.485, -0.066, 0.016, 0.047, 1.486
 223097901, 0.004, 0.003, 0.035, 1.484, -0.026, -0.003, -0.057, 1.485
 223297942, 0.064, -0.014, -0.011, 1.483, 0.004, 0.003, 0.035, 1.484
 223497930, 0.063, -0.064, 0.04, 1.481, 0.064, -0.014, -0.011, 1.483
 223697890, -0.035, 0.056, 0.08800001, 1.48, 0.063, -0.064, 0.04, 1.481
 223897908, 0.016, 0.027, 0.037, 1.48, -0.035, 0.056, 0.08800001, 1.48
 224097907, 0.126, -0.016, -0.043, 1.479, 0.016, 0.027, 0.037, 1.48
 224297939, 0.06500001, -0.07300001, -0.028, 1.478, 0.126, -0.016, -0.043, 1.479
 224497925, 0.07300001, -0.038, -0.012, 1.477, 0.06500001, -0.07300001, -0.028, 1.478
 224697900, -0.03, 0.042, 0.006, 1.476, 0.07300001, -0.038, -0.012, 1.477
 224897947, 0.066, -0.181, -0.027, 1.475, -0.03, 0.042, 0.006, 1.476
 225097975, -0.016, 0.167, -0.057, 1.474, 0.066, -0.181, -0.027, 1.475
 225297893, -0.072, 0.047, 0.061, 1.471, -0.016, 0.167, -0.057, 1.474
 225497936, 0.006, -0.035, -0.064, 1.469, -0.072, 0.047, 0.061, 1.471
 225697941, 0.062, -0.212, 0.152, 1.47, 0.006, -0.035, -0.064, 1.469
 225897912, -0.038, 0.263, 0.086, 1.474, 0.062, -0.212, 0.152, 1.47
 226097928, 0.052, -0.148, 0.247, 1.48, -0.038, 0.263, 0.086, 1.474
 226297924, 0.036, -0.144, 0.269, 1.487, 0.052, -0.148, 0.247, 1.48
 226497900, -0.004, -0.09500001, 0.015, 1.495, 0.036, -0.144, 0.269, 1.487
 226697927, 0.304, -0.273, -0.08800001, 1.502, -0.004, -0.09500001, 0.015, 1.495
 226877927, 0.055, 0.145, 0.043, 1.508, 0.304, -0.273, -0.08800001, 1.502
 227097904, -0.053, 0.149, -0.001, 1.516, 0.055, 0.145, 0.043, 1.508
 227297928, -0.005, -0.18, -0.02, 1.523, -0.053, 0.149, -0.001, 1.516
 227497920, 0.023, -0.026, 0.079, 1.53, -0.005, -0.18, -0.02, 1.523
 227697924, -0.04, 0.156, 0.022, 1.538, 0.023, -0.026, 0.079, 1.53
 227897930, 0.019, 0.054, 0.107, 1.546, -0.04, 0.156, 0.022, 1.538
 228077952, 0.039, 0.059, 0.195, 1.555, 0.019, 0.054, 0.107, 1.546
 228297911, -0.017, 0.07600001, 0.187, 1.564, 0.039, 0.059, 0.195, 1.555
 228497950, 0.064, 0.176, 0.102, 1.573, -0.017, 0.07600001, 0.187, 1.564
 228697954, -0.022, 0.09500001, 0.09100001, 1.582, 0.064, 0.176, 0.102, 1.573
 228897936, -0.04, 0.149, 0.059, 1.591, -0.022, 0.09500001, 0.09100001, 1.582
