TimeUS,COFN,COFE,CNe,CEe,POFN,POFE,PNe,PEe
 44254537, 0.001861816, 0.0007770746, 0.004319702, -0.003799337, 0.001414023, 5.0804E-05, 0.004408351, -0.003879707
 44454587, 0.001799665, 0.0005561561, 0.004267031, -0.00375403, 0.001861816, 0.0007770746, 0.004319702, -0.003799337
 44654649, 0.001716939, 0.000642537, 0.004256184, -0.003745857, 0.001799665, 0.0005561561, 0.004267031, -0.00375403
 44854565, 0.001692585, 0.0003929446, 0.004254553, -0.003742241, 0.001716939, 0.000642537, 0.004256184, -0.003745857
 45054550, -0.002866592, 0.002434444, 0.004266743, -0.003754373, 0.001692585, 0.0003929446, 0.004254553, -0.003742241
 45254576, -0.0008816118, 0.002771437, 0.003978678, -0.003517206, -0.002866592, 0.002434444, 0.004266743, -0.003754373
 45454538, -0.001032568, 0.00321828, 0.004170429, -0.003685947, -0.0008816118, 0.002771437, 0.003978678, -0.003517206
 45654533, -0.00102531, 0.003076585, 0.004240705, -0.003740537, -0.001032568, 0.00321828, 0.004170429, -0.003685947
 45854557, -0.001179606, 0.003332956, 0.004256587, -0.00375373, -0.00102531, 0.003076585, 0.004240705, -0.003740537
 46054555, -0.0004594979, 0.002899387, 0.004081275, -0.003594207, -0.001179606, 0.003332956, 0.004256587, -0.00375373
 46254658, 0.003866449, 0.003319587, 0.004258591, -0.003710057, -0.0004594979, 0.002899387, 0.004081275, -0.003594207
 46454651, -0.003180065, 0.002667732, 0.004275312, -0.003735312, 0.003866449, 0.003319587, 0.004258591, -0.003710057
 46654571, -0.003405703, 0.007529914, 0.004289817, -0.003854385, -0.003180065, 0.002667732, 0.004275312, -0.003735312
 46854572, -0.004477931, 0.008680418, 0.004542391, -0.0040828, -0.003405703, 0.007529914, 0.004289817, -0.003854385
 47054571, -0.004187026, 0.008559277, 0.004630363, -0.004151077, -0.004477931, 0.008680418, 0.004542391, -0.0040828
 47254576, -0.004812262, 0.004428399, 0.00461004, -0.004029477, -0.004187026, 0.008559277, 0.004630363, -0.004151077
 47454584, -0.003875721, 0.001648036, 0.004364247, -0.003794459, -0.004812262, 0.004428399, 0.00461004, -0.004029477
 47654559, -0.002762276, 0.00208942, 0.004293667, -0.003753728, -0.003875721, 0.001648036, 0.004364247, -0.003794459
 47854555, 0.007516002, -0.01963528, 0.004400255, -0.004560066, -0.002762276, 0.00208942, 0.004293667, -0.003753728
 48054545, 0.02562617, -0.08312195, 0.005582318, -0.01165968, 0.007516002, -0.01963528, 0.004400255, -0.004560066
 48254671, 0.1737967, -0.4105692, 0.02190235, -0.05067989, 0.02562617, -0.08312195, 0.005582318, -0.01165968
 48454646, 0.2136229, -0.4916796, 0.02516171, -0.05698355, 0.1737967, -0.4105692, 0.02190235, -0.05067989
 48654575, 0.2063228, -0.4460856, 0.02615593, -0.05588276, 0.2136229, -0.4916796, 0.02516171, -0.05698355
 48854582, 0.3423491, -0.7066285, 0.0308028, -0.06200391, 0.2063228, -0.4460856, 0.02615593, -0.05588276
 49054587, 0.462465, -0.9814995, 0.03462843, -0.07029213, 0.3423491, -0.7066285, 0.0308028, -0.06200391
 49254560, 0.5178862, -1.688856, 0.03599785, -0.1071644, 0.462465, -0.9814995, 0.03462843, -0.07029213
 49454656, 0.5348251, -1.978347, 0.03670471, -0.1172891, 0.5178862, -1.688856, 0.03599785, -0.1071644
 49654586, 0.4682626, -2.222914, 0.03573501, -0.1253, 0.5348251, -1.978347, 0.03670471, -0.1172891
 49854653, 0.2140583, -2.250619, 0.03525519, -0.1216804, 0.4682626, -2.222914, 0.03573501, -0.1253
 50054574, 0.2383448, -2.803302, 0.04605112, -0.1473599, 0.2140583, -2.250619, 0.03525519, -0.1216804
 50254560, 0.1809424, -3.43418, 0.05832522, -0.1782134, 0.2383448, -2.803302, 0.04605112, -0.1473599
 50454655, 0.1793757, -4.867311, 0.08369801, -0.2508273, 0.1809424, -3.43418, 0.05832522, -0.1782134
 50654579, 0.3529755, -6.771569, 0.1193943, -0.3477964, 0.1793757, -4.867311, 0.08369801, -0.2508273
 50854565, -0.3100213, -9.032991, 0.1107967, -0.4772079, 0.3529755, -6.771569, 0.1193943, -0.3477964
 51054566, -0.2975895, -2.516207, 0.164323, -0.2185764, -0.3100213, -9.032991, 0.1107967, -0.4772079
 51254571, 0.2225478, -2.423479, 0.2089862, -0.2511243, -0.2975895, -2.516207, 0.164323, -0.2185764
 51454585, 1.404932, -2.377904, 0.2637675, -0.2897031, 0.2225478, -2.423479, 0.2089862, -0.2511243
 51654575, 1.545269, -2.620185, 0.2969278, -0.3270635, 1.404932, -2.377904, 0.2637675, -0.2897031
 51854688, 1.916717, -2.928329, 0.3419778, -0.373999, 1.545269, -2.620185, 0.2969278, -0.3270635
 52054584, 2.228974, -3.122549, 0.3824207, -0.4165211, 1.916717, -2.928329, 0.3419778, -0.373999
 52254568, 2.555306, -3.39673, 0.4291704, -0.4509422, 2.228974, -3.122549, 0.3824207, -0.4165211
 52454568, 2.873508, -3.719655, 0.467122, -0.4764173, 2.555306, -3.39673, 0.4291704, -0.4509422
 52654562, 4.914979, -2.974436, 0.5235332, -0.4984848, 2.873508, -3.719655, 0.467122, -0.4764173
 52854563, 4.809071, -3.655239, 0.5300775, -0.5414775, 4.914979, -2.974436, 0.5235332, -0.4984848
 53054570, 4.385786, -3.926944, 0.5313758, -0.5701271, 4.809071, -3.655239, 0.5300775, -0.5414775
 53254661, 4.57903, -3.680415, 0.5484504, -0.5750927, 4.385786, -3.926944, 0.5313758, -0.5701271
 53454574, 4.734444, -3.706131, 0.5702919, -0.5866338, 4.57903, -3.680415, 0.5484504, -0.5750927
 53654701, 4.768457, -3.732897, 0.5756757, -0.6052946, 4.734444, -3.706131, 0.5702919, -0.5866338
 53854670, 4.178065, -2.770805, 0.5659874, -0.6121641, 4.768457, -3.732897, 0.5756757, -0.6052946
 54054687, 4.350379, -3.9195, 0.5756215, -0.6369249, 4.178065, -2.770805, 0.5659874, -0.6121641
 54274648, 5.859617, -3.288288, 0.6308044, -0.6176102, 4.350379, -3.9195, 0.5756215, -0.6369249
 54454678, 5.264617, -2.719123, 0.6240941, -0.607749, 5.859617, -3.288288, 0.6308044, -0.6176102
 54654805, 5.405466, -2.71635, 0.6276127, -0.6080666, 5.264617, -2.719123, 0.6240941, -0.607749
 54854678, 5.413664, -2.912878, 0.6168731, -0.6189492, 5.405466, -2.71635, 0.6276127, -0.6080666
 55054671, 5.791012, -3.59948, 0.6165648, -0.6325188, 5.413664, -2.912878, 0.6168731, -0.6189492
 55254659, 4.491089, -2.371823, 0.5884803, -0.6138684, 5.791012, -3.59948, 0.6165648, -0.6325188
 55454720, 5.099103, -3.532298, 0.6010213, -0.6235211, 4.491089, -2.371823, 0.5884803, -0.6138684
 55654671, 5.141696, -3.461669, 0.6021342, -0.6202841, 5.099103, -3.532298, 0.6010213, -0.6235211
 55854689, 4.918871, -3.065525, 0.600444, -0.6079285, 5.141696, -3.461669, 0.6021342, -0.6202841
 56054681, 4.812308, -2.929034, 0.5953043, -0.6079275, 4.918871, -3.065525, 0.600444, -0.6079285
 56254663, 4.674142, -2.886426, 0.5894706, -0.6080458, 4.812308, -2.929034, 0.5953043, -0.6079275
 56454695, 3.468621, -0.7918077, 0.5724763, -0.5840588, 4.674142, -2.886426, 0.5894706, -0.6080458
 56654659, 3.158659, -1.084372, 0.5578641, -0.5915568, 3.468621, -0.7918077, 0.5724763, -0.5840588
 56854678, 3.059963, -1.08417, 0.5555262, -0.5897101, 3.158659, -1.084372, 0.5578641, -0.5915568
 57054656, 2.943748, -1.122657, 0.5541192, -0.5866566, 3.059963, -1.08417, 0.5555262, -0.5897101
 57254701, 2.885481, -0.9975345, 0.5534979, -0.5824416, 2.943748, -1.122657, 0.5541192, -0.5866566
 57454684, 2.864265, -0.935045, 0.5571656, -0.5786508, 2.885481, -0.9975345, 0.5534979, -0.5824416
 57654665, 2.158173, -0.3328629, 0.5496547, -0.5779738, 2.864265, -0.935045, 0.5571656, -0.5786508
 57854673, 1.907196, -1.29469, 0.5501209, -0.5791032, 2.158173, -0.3328629, 0.5496547, -0.5779738
 58054677, 1.518016, -2.113973, 0.5460231, -0.5841567, 1.907196, -1.29469, 0.5501209, -0.5791032
 58254578, 1.669808, -2.074024, 0.5487992, -0.5859199, 1.518016, -2.113973, 0.5460231, -0.5841567
 58454719, 1.657166, -2.020528, 0.5520676, -0.586803, 1.669808, -2.074024, 0.5487992, -0.5859199
 58654685, 1.621247, -2.156116, 0.5532669, -0.5914759, 1.657166, -2.020528, 0.5520676, -0.586803
 58854804, 2.055202, -1.581119, 0.5586406, -0.5901818, 1.621247, -2.156116, 0.5532669, -0.5914759
 59054716, 2.075382, -1.042614, 0.5606638, -0.5891393, 2.055202, -1.581119, 0.5586406, -0.5901818
 59254689, 1.124842, -0.9596608, 0.5554876, -0.5915145, 2.075382, -1.042614, 0.5606638, -0.5891393
 59454700, 1.210796, -0.9174896, 0.5590304, -0.5942819, 1.124842, -0.9596608, 0.5554876, -0.5915145
 59654673, 1.177394, -0.9986863, 0.560922, -0.5960426, 1.210796, -0.9174896, 0.5590304, -0.5942819
 59854682, 1.194431, -0.8359007, 0.5630089, -0.5986764, 1.177394, -0.9986863, 0.560922, -0.5960426
 60054648, 1.054289, -0.9739118, 0.5641682, -0.601473, 1.194431, -0.8359007, 0.5630089, -0.5986764
 60254659, 0.7365364, -0.4760014, 0.562627, -0.6029816, 1.054289, -0.9739118, 0.5641682, -0.601473
 60454683, 0.8242207, -0.1425268, 0.5633402, -0.6047875, 0.7365364, -0.4760014, 0.562627, -0.6029816
 60654684, 0.7648724, -0.0616147, 0.5643421, -0.605864, 0.8242207, -0.1425268, 0.5633402, -0.6047875
 60854721, 0.7656635, -0.1428413, 0.5636953, -0.6069468, 0.7648724, -0.0616147, 0.5643421, -0.605864
 61054676, 0.5117763, -0.06458503, 0.5652595, -0.6063674, 0.7656635, -0.1428413, 0.5636953, -0.6069468
 61254664, 0.5234168, -0.1991642, 0.5661644, -0.6063877, 0.5117763, -0.06458503, 0.5652595, -0.6063674
 61454695, 0.1794263, -1.362414, 0.567851, -0.6107424, 0.5234168, -0.1991642, 0.5661644, -0.6063877
 61654662, -0.2237781, -0.4078284, 0.5668977, -0.6093904, 0.1794263, -1.362414, 0.567851, -0.6107424
 61854716, -0.2135755, -0.4165941, 0.5675102, -0.6103148, -0.2237781, -0.4078284, 0.5668977, -0.6093904
 62054702, -0.04234948, -0.4498381, 0.5663006, -0.614299, -0.2135755, -0.4165941, 0.5675102, -0.6103148
 62254656, 0.2304635, -0.4702946, 0.5667558, -0.6152375, -0.04234948, -0.4498381, 0.5663006, -0.614299
 62454686, 0.2901124, -0.3690267, 0.5729318, -0.6129826, 0.2304635, -0.4702946, 0.5667558, -0.6152375
 62654719, 1.294795, -0.2496278, 0.5754075, -0.6136693, 0.2901124, -0.3690267, 0.5729318, -0.6129826
 62854683, 1.510361, -0.4318917, 0.5718102, -0.6133459, 1.294795, -0.2496278, 0.5754075, -0.6136693
 63054906, 1.384264, -0.4323093, 0.5717402, -0.6145164, 1.510361, -0.4318917, 0.5718102, -0.6133459
 63254782, 1.355937, -0.3751535, 0.5694451, -0.6160319, 1.384264, -0.4323093, 0.5717402, -0.6145164
 63454787, 1.157479, -0.284045, 0.5658811, -0.6184766, 1.355937, -0.3751535, 0.5694451, -0.6160319
 63654778, 1.099421, -0.2012615, 0.5658346, -0.6189367, 1.157479, -0.284045, 0.5658811, -0.6184766
 63854775, -0.5009657, -0.3234113, 0.5639995, -0.6165272, 1.099421, -0.2012615, 0.5658346, -0.6189367
 64054758, -0.8633215, 0.5788139, 0.5649735, -0.6163021, -0.5009657, -0.3234113, 0.5639995, -0.6165272
 64254778, 0.8555492, 0.7130091, 0.5643693, -0.616438, -0.8633215, 0.5788139, 0.5649735, -0.6163021
 64455002, 0.8968567, 0.7298985, 0.5635169, -0.6162837, 0.8555492, 0.7130091, 0.5643693, -0.616438
 64654768, 0.8643245, 0.7215033, 0.560855, -0.6161921, 0.8968567, 0.7298985, 0.5635169, -0.6162837
 64854776, 0.7240441, 0.8944023, 0.5595308, -0.6192076, 0.8643245, 0.7215033, 0.560855, -0.6161921
 65054783, -0.4931464, 0.8240443, 0.5602241, -0.6205921, 0.7240441, 0.8944023, 0.5595308, -0.6192076
 65254769, 0.450942, 1.446444, 0.5610434, -0.6239001, -0.4931464, 0.8240443, 0.5602241, -0.6205921
 65454769, 0.05369973, 0.8653102, 0.5631055, -0.6185545, 0.450942, 1.446444, 0.5610434, -0.6239001
 65654770, 0.1495531, 0.8600766, 0.5598633, -0.6218894, 0.05369973, 0.8653102, 0.5631055, -0.6185545
 65854757, 0.2881843, 0.6073509, 0.5596399, -0.6202184, 0.1495531, 0.8600766, 0.5598633, -0.6218894
 66054761, 0.2743877, 0.6119545, 0.5622919, -0.6198214, 0.2881843, 0.6073509, 0.5596399, -0.6202184
 66254977, 0.2155311, 0.5994931, 0.5689451, -0.618829, 0.2743877, 0.6119545, 0.5622919, -0.6198214
 66454786, -0.1257453, -0.3695861, 0.5680631, -0.6204154, 0.2155311, 0.5994931, 0.5689451, -0.618829
 66654767, 0.7802043, 0.7420079, 0.5691622, -0.6192995, -0.1257453, -0.3695861, 0.5680631, -0.6204154
 66854973, 0.7698222, 0.7753469, 0.5647774, -0.6243756, 0.7802043, 0.7420079, 0.5691622, -0.6192995
 67054782, 0.6707882, 0.7573875, 0.5649714, -0.6242707, 0.7698222, 0.7753469, 0.5647774, -0.6243756
 67254972, 0.7197949, 0.7372015, 0.5665789, -0.624147, 0.6707882, 0.7573875, 0.5649714, -0.6242707
 67454777, 0.8980294, 0.7502685, 0.5710858, -0.6218475, 0.7197949, 0.7372015, 0.5665789, -0.624147
 67654765, 0.205641, 0.2354288, 0.5703385, -0.6178489, 0.8980294, 0.7502685, 0.5710858, -0.6218475
 67854741, 1.183225, -0.2785293, 0.5769451, -0.6144924, 0.205641, 0.2354288, 0.5703385, -0.6178489
 68054973, 1.176897, -0.3299462, 0.5788844, -0.6094808, 1.183225, -0.2785293, 0.5769451, -0.6144924
 68254782, 1.173511, -0.1924893, 0.5764421, -0.6091059, 1.176897, -0.3299462, 0.5788844, -0.6094808
 68454788, 1.093645, -0.1086961, 0.5705566, -0.6130049, 1.173511, -0.1924893, 0.5764421, -0.6091059
 68654767, 1.117416, -0.1874559, 0.5670564, -0.6156222, 1.093645, -0.1086961, 0.5705566, -0.6130049
 68854773, 0.1120763, 0.482132, 0.5596291, -0.6173891, 1.117416, -0.1874559, 0.5670564, -0.6156222
 69054781, -0.07670786, 0.451441, 0.5587605, -0.6188696, 0.1120763, 0.482132, 0.5596291, -0.6173891
 69254780, 0.4002393, -0.4416057, 0.5588904, -0.618839, -0.07670786, 0.451441, 0.5587605, -0.6188696
 69455243, 0.2525768, -0.435496, 0.5608026, -0.6160278, 0.4002393, -0.4416057, 0.5588904, -0.618839
 69655222, 0.3379351, -0.3334751, 0.5608245, -0.6175454, 0.2525768, -0.435496, 0.5608026, -0.6160278
 69855348, 0.3440034, -0.3187708, 0.5619619, -0.6168729, 0.3379351, -0.3334751, 0.5608245, -0.6175454
 70058356, 0.6841139, 0.6859334, 0.5671546, -0.6152962, 0.3440034, -0.3187708, 0.5619619, -0.6168729
 70258195, -0.3624169, -0.06502929, 0.5679955, -0.614743, 0.6841139, 0.6859334, 0.5671546, -0.6152962
 70460201, -0.1418601, 0.6478735, 0.5648255, -0.6154786, -0.3624169, -0.06502929, 0.5679955, -0.614743
 70660188, -0.1716836, -0.2123616, 0.5658564, -0.6143639, -0.1418601, 0.6478735, 0.5648255, -0.6154786
 70860161, -0.2180559, -0.2473536, 0.5670971, -0.6141482, -0.1716836, -0.2123616, 0.5658564, -0.6143639
 71062686, -0.1490416, -0.3047367, 0.5668547, -0.615109, -0.2180559, -0.2473536, 0.5670971, -0.6141482
 71263030, -0.1221023, -0.156325, 0.5678102, -0.6147165, -0.1490416, -0.3047367, 0.5668547, -0.615109
 71462737, 0.4290848, 1.212645, 0.5664873, -0.6173414, -0.1221023, -0.156325, 0.5678102, -0.6147165
 71645491, -0.5501007, -0.583645, 0.5665787, -0.6162864, 0.4290848, 1.212645, 0.5664873, -0.6173414
 71845478, -0.4600294, -0.5219077, 0.5659678, -0.6163559, -0.5501007, -0.583645, 0.5665787, -0.6162864
 72045474, -0.5790879, -0.5297601, 0.5650169, -0.6192511, -0.4600294, -0.5219077, 0.5659678, -0.6163559
 72245475, -0.5621566, -0.4329998, 0.5632481, -0.6197375, -0.5790879, -0.5297601, 0.5650169, -0.6192511
 72445496, -0.7264114, -0.4055453, 0.5615344, -0.6189042, -0.5621566, -0.4329998, 0.5632481, -0.6197375
 72645369, -0.8830985, 0.2815166, 0.5630504, -0.6215307, -0.7264114, -0.4055453, 0.5615344, -0.6189042
 72848305, -0.8623624, 0.3253337, 0.5644945, -0.6219414, -0.8830985, 0.2815166, 0.5630504, -0.6215307
 73047694, -0.9286087, 0.2419505, 0.5686598, -0.6212988, -0.8623624, 0.3253337, 0.5644945, -0.6219414
 73247696, -0.8158364, 0.2752201, 0.5652987, -0.6188091, -0.9286087, 0.2419505, 0.5686598, -0.6212988
 73448160, -0.6538512, 0.2267008, 0.5671349, -0.6159937, -0.8158364, 0.2752201, 0.5652987, -0.6188091
 73647711, -0.6304996, 0.2662963, 0.5687004, -0.615539, -0.6538512, 0.2267008, 0.5671349, -0.6159937
 73847677, 0.1310835, 0.9786156, 0.563933, -0.617451, -0.6304996, 0.2662963, 0.5687004, -0.615539
 74047905, 0.6841826, 0.5665814, 0.5627971, -0.6163335, 0.1310835, 0.9786156, 0.563933, -0.617451
 74250505, 0.708942, 0.5675401, 0.5611603, -0.6163897, 0.6841826, 0.5665814, 0.5627971, -0.6163335
 74450235, 0.686889, 0.638202, 0.5590512, -0.6155742, 0.708942, 0.5675401, 0.5611603, -0.6163897
 74670347, 0.7484593, 0.529359, 0.5604308, -0.6154668, 0.686889, 0.638202, 0.5590512, -0.6155742
 74850357, 0.7570131, 0.5282044, 0.5614944, -0.6143666, 0.7484593, 0.529359, 0.5604308, -0.6154668
 75050211, 0.3113772, 0.6779938, 0.5613121, -0.613086, 0.7570131, 0.5282044, 0.5614944, -0.6143666
 75250496, 0.08671973, 0.02757021, 0.5624816, -0.6104856, 0.3113772, 0.6779938, 0.5613121, -0.613086
 75450238, 0.3325008, 0.5571607, 0.56189, -0.6117786, 0.08671973, 0.02757021, 0.5624816, -0.6104856
 75650206, 0.3021127, 0.7429293, 0.5604736, -0.6129893, 0.3325008, 0.5571607, 0.56189, -0.6117786
 75852686, 0.242859, 0.5950974, 0.5592114, -0.6147032, 0.3021127, 0.7429293, 0.5604736, -0.6129893
 76052686, 0.2388006, 0.5522956, 0.5576537, -0.6168823, 0.242859, 0.5950974, 0.5592114, -0.6147032
 76253151, 0.2197749, 0.4236465, 0.55664, -0.6181392, 0.2388006, 0.5522956, 0.5576537, -0.6168823
 76453071, 0.05768563, 0.003726083, 0.5562357, -0.6172208, 0.2197749, 0.4236465, 0.55664, -0.6181392
 76652815, -0.0327279, 0.9792005, 0.5600036, -0.6173055, 0.05768563, 0.003726083, 0.5562357, -0.6172208
 76852898, 0.05678153, 0.8485388, 0.5606272, -0.6178973, -0.0327279, 0.9792005, 0.5600036, -0.6173055
 77052698, 0.02570451, 0.7564547, 0.5610113, -0.6179443, 0.05678153, 0.8485388, 0.5606272, -0.6178973
 77252694, 0.07217924, 0.7786745, 0.5645751, -0.613418, 0.02570451, 0.7564547, 0.5610113, -0.6179443
 77452697, 0.07418863, 0.7504792, 0.5642363, -0.6153268, 0.07217924, 0.7786745, 0.5645751, -0.613418
 77652699, 0.06291246, 0.4778407, 0.5664284, -0.6109222, 0.07418863, 0.7504792, 0.5642363, -0.6153268
 77852708, 0.5379366, 0.828761, 0.5708639, -0.609674, 0.06291246, 0.4778407, 0.5664284, -0.6109222
 78053052, 0.002826325, 0.7923636, 0.571934, -0.6061523, 0.5379366, 0.828761, 0.5708639, -0.609674
 78292716, 0.1660749, 0.5843842, 0.57472, -0.6034837, 0.002826325, 0.7923636, 0.571934, -0.6061523
 78452701, 1.02577, 0.6055453, 0.5773898, -0.602492, 0.1660749, 0.5843842, 0.57472, -0.6034837
 78652895, 0.8692281, 0.7929441, 0.5751225, -0.6037608, 1.02577, 0.6055453, 0.5773898, -0.602492
 78852691, -0.3390942, 0.7273445, 0.5687348, -0.6087363, 0.8692281, 0.7929441, 0.5751225, -0.6037608
 79055219, -0.2236994, 0.9667215, 0.5654438, -0.6135219, -0.3390942, 0.7273445, 0.5687348, -0.6087363
 79257683, 0.1623728, 1.223795, 0.5664342, -0.615143, -0.2236994, 0.9667215, 0.5654438, -0.6135219
 79457734, 0.1737781, 1.085384, 0.5692221, -0.6122664, 0.1623728, 1.223795, 0.5664342, -0.615143
 79657696, 0.1942174, 0.9192467, 0.5719904, -0.6090197, 0.1737781, 1.085384, 0.5692221, -0.6122664
 79857696, 0.2691579, 1.006272, 0.5743228, -0.6089807, 0.1942174, 0.9192467, 0.5719904, -0.6090197
 80057692, 0.2717558, 1.093949, 0.5739791, -0.6084169, 0.2691579, 1.006272, 0.5743228, -0.6089807
 80280216, 0.154143, 0.2612449, 0.5778561, -0.6047875, 0.2717558, 1.093949, 0.5739791, -0.6084169
 80460191, 0.02449629, 0.919077, 0.5749143, -0.6068111, 0.154143, 0.2612449, 0.5778561, -0.6047875
 80662802, 0.1772602, 1.328436, 0.5747898, -0.6103261, 0.02449629, 0.919077, 0.5749143, -0.6068111
 80862688, 0.03854156, 1.194062, 0.5738664, -0.6106949, 0.1772602, 1.328436, 0.5747898, -0.6103261
 81062813, -0.01759818, 1.320277, 0.5742328, -0.6128151, 0.03854156, 1.194062, 0.5738664, -0.6106949
 81262931, 0.03537004, 1.380945, 0.5756835, -0.6139186, -0.01759818, 1.320277, 0.5742328, -0.6128151
 81462710, -0.2518192, 0.4827803, 0.5748934, -0.6105573, 0.03537004, 1.380945, 0.5756835, -0.6139186
 81662719, -0.3068355, 0.7440474, 0.5704669, -0.6160921, -0.2518192, 0.4827803, 0.5748934, -0.6105573
 81845473, -0.4320289, 0.3414811, 0.5740235, -0.6150377, -0.3068355, 0.7440474, 0.5704669, -0.6160921
 82065215, -0.3022077, 0.3737406, 0.5778586, -0.6139759, -0.4320289, 0.3414811, 0.5740235, -0.6150377
 82265468, -0.3065348, 0.4161113, 0.5786096, -0.6129872, -0.3022077, 0.3737406, 0.5778586, -0.6139759
 82445227, -0.1936598, 0.3868437, 0.5786155, -0.6095989, -0.3065348, 0.4161113, 0.5786096, -0.6129872
 82648171, 0.2404391, 0.7153946, 0.5771505, -0.6128534, -0.1936598, 0.3868437, 0.5786155, -0.6095989
 82847923, -0.03786754, 0.4481807, 0.5769646, -0.6138498, 0.2404391, 0.7153946, 0.5771505, -0.6128534
 83047683, -0.1686925, 0.3685167, 0.5776311, -0.6120482, -0.03786754, 0.4481807, 0.5769646, -0.6138498
 83247690, -0.06935333, 0.3135732, 0.5787396, -0.6115338, -0.1686925, 0.3685167, 0.5776311, -0.6120482
 83447683, -0.1363329, 0.4155171, 0.5788455, -0.6098328, -0.06935333, 0.3135732, 0.5787396, -0.6115338
 83647949, -0.05656266, 0.4233682, 0.5766894, -0.6107084, -0.1363329, 0.4155171, 0.5788455, -0.6098328
 83848104, -0.04694412, 0.3324941, 0.5739181, -0.6092386, -0.05656266, 0.4233682, 0.5766894, -0.6107084
 84047712, -0.486355, 0.3536235, 0.5727595, -0.6112363, -0.04694412, 0.3324941, 0.5739181, -0.6092386
 84247703, -0.5021029, 0.3961157, 0.5721458, -0.6114349, -0.486355, 0.3536235, 0.5727595, -0.6112363
 84447732, -0.3697727, 0.3979802, 0.5749643, -0.6078708, -0.5021029, 0.3961157, 0.5721458, -0.6114349
 84650468, -0.3891335, 0.4290045, 0.574379, -0.6085061, -0.3697727, 0.3979802, 0.5749643, -0.6078708
 84850228, -0.442303, 0.4352707, 0.5748703, -0.6089248, -0.3891335, 0.4290045, 0.574379, -0.6085061
 85050223, 0.1431455, 0.588446, 0.5751538, -0.6050264, -0.442303, 0.4352707, 0.5748703, -0.6089248
 85250232, 0.01515423, 0.5866526, 0.5743793, -0.6064982, 0.1431455, 0.588446, 0.5751538, -0.6050264
 85450235, 0.6608095, 0.5553182, 0.573578, -0.6060753, 0.01515423, 0.5866526, 0.5743793, -0.6064982
 85650804, 0.6160694, 0.5300589, 0.5722597, -0.6049701, 0.6608095, 0.5553182, 0.573578, -0.6060753
 85850487, 0.4957236, 0.3944484, 0.5698059, -0.607241, 0.6160694, 0.5300589, 0.5722597, -0.6049701
 86050335, 0.5047246, 0.3920377, 0.5718293, -0.6061049, 0.4957236, 0.3944484, 0.5698059, -0.607241
 86250218, 0.5316273, 0.3991226, 0.5685419, -0.6073924, 0.5047246, 0.3920377, 0.5718293, -0.6061049
 86450232, 0.7328312, -0.4255273, 0.5685077, -0.6068389, 0.5316273, 0.3991226, 0.5685419, -0.6073924
 86650516, -0.458445, 0.2861442, 0.5701589, -0.6063776, 0.7328312, -0.4255273, 0.5685077, -0.6068389
 86850222, -0.4063341, 0.346882, 0.5687447, -0.606523, -0.458445, 0.2861442, 0.5701589, -0.6063776
 87050227, -0.3870627, 0.5348361, 0.5699731, -0.6061116, -0.4063341, 0.346882, 0.5687447, -0.606523
 87250233, -0.4159617, 0.5587783, 0.5727022, -0.6041251, -0.3870627, 0.5348361, 0.5699731, -0.6061116
 87450356, -0.3176355, 0.4282989, 0.5728966, -0.6028103, -0.4159617, 0.5587783, 0.5727022, -0.6041251
 87650216, 0.1948627, 0.3976271, 0.5729612, -0.6046919, -0.3176355, 0.4282989, 0.5728966, -0.6028103
 87853081, 0.2074488, 0.7685446, 0.5715052, -0.6075841, 0.1948627, 0.3976271, 0.5729612, -0.6046919
 88052705, 0.1264687, 0.256147, 0.5737193, -0.6062348, 0.2074488, 0.7685446, 0.5715052, -0.6075841
 88253040, 0.04987312, 0.215097, 0.5749947, -0.6045821, 0.1264687, 0.256147, 0.5737193, -0.6062348
 88452708, 0.1102613, 0.3201207, 0.5765578, -0.603246, 0.04987312, 0.215097, 0.5749947, -0.6045821
 88652695, 0.09533414, 0.3902144, 0.5752291, -0.6051442, 0.1102613, 0.3201207, 0.5765578, -0.603246
 88852799, 0.09818964, 0.4565729, 0.5732012, -0.6068925, 0.09533414, 0.3902144, 0.5752291, -0.6051442
 89052695, -0.3123422, 0.6675643, 0.5723694, -0.609116, 0.09818964, 0.4565729, 0.5732012, -0.6068925
 89252814, 0.08094345, 1.019461, 0.571812, -0.6105769, -0.3123422, 0.6675643, 0.5723694, -0.609116
 89453184, 0.07936301, 0.9436098, 0.5706062, -0.6091971, 0.08094345, 1.019461, 0.571812, -0.6105769
 89653030, 0.006371883, 1.016028, 0.5736986, -0.6063812, 0.07936301, 0.9436098, 0.5706062, -0.6091971
 89853020, 0.1846251, 0.9675649, 0.5739435, -0.606339, 0.006371883, 1.016028, 0.5736986, -0.6063812
 90052660, 0.1427007, 1.045068, 0.5719262, -0.6068678, 0.1846251, 0.9675649, 0.5739435, -0.606339
 90252701, 0.2819947, 1.413913, 0.5708366, -0.6066281, 0.1427007, 1.045068, 0.5719262, -0.6068678
 90452708, -0.7542029, 1.406929, 0.5737107, -0.6086859, 0.2819947, 1.413913, 0.5708366, -0.6066281
 90652679, -0.5106772, 1.451719, 0.5738587, -0.6062126, -0.7542029, 1.406929, 0.5737107, -0.6086859
 90852682, -0.3971374, 1.286356, 0.5751261, -0.6049979, -0.5106772, 1.451719, 0.5738587, -0.6062126
 91053033, -0.4121419, 1.396344, 0.5731758, -0.6071361, -0.3971374, 1.286356, 0.5751261, -0.6049979
 91252705, -0.5235435, 1.338314, 0.5718202, -0.6074634, -0.4121419, 1.396344, 0.5731758, -0.6071361
 91453046, 0.1330015, 0.08476314, 0.5707201, -0.6051786, -0.5235435, 1.338314, 0.5718202, -0.6074634
 91652664, -0.2322816, 0.6601852, 0.572867, -0.6046698, 0.1330015, 0.08476314, 0.5707201, -0.6051786
 91852722, 0.3594733, -0.2766271, 0.5725259, -0.6026313, -0.2322816, 0.6601852, 0.572867, -0.6046698
 92052689, 0.3370857, -0.1974007, 0.5713354, -0.6006889, 0.3594733, -0.2766271, 0.5725259, -0.6026313
 92252683, 0.1940155, -0.273758, 0.5713552, -0.5992569, 0.3370857, -0.1974007, 0.5713354, -0.6006889
 92453053, 0.1946087, -0.4576126, 0.571224, -0.5989233, 0.1940155, -0.273758, 0.5713552, -0.5992569
 92653063, -0.03490698, -0.2215951, 0.5703421, -0.5983785, 0.1946087, -0.4576126, 0.571224, -0.5989233
 92853074, -0.120427, -0.433044, 0.571129, -0.5978665, -0.03490698, -0.2215951, 0.5703421, -0.5983785
 93052941, 0.1577957, 0.4700972, 0.5707148, -0.5968093, -0.120427, -0.433044, 0.571129, -0.5978665
 93252690, 0.09921047, 0.4184471, 0.5695055, -0.5977148, 0.1577957, 0.4700972, 0.5707148, -0.5968093
 93452906, 0.0576184, 0.474502, 0.5697929, -0.5988863, 0.09921047, 0.4184471, 0.5695055, -0.5977148
 93653029, 0.1082545, 0.4929487, 0.5711565, -0.5971946, 0.0576184, 0.474502, 0.5697929, -0.5988863
 93853029, -0.3622769, -0.686934, 0.5714306, -0.601096, 0.1082545, 0.4929487, 0.5711565, -0.5971946
 94053066, -0.2385956, 0.3848414, 0.5697623, -0.6010305, -0.3622769, -0.686934, 0.5714306, -0.601096
 94253049, -0.237515, 0.4272218, 0.5711534, -0.6031634, -0.2385956, 0.3848414, 0.5697623, -0.6010305
 94452707, -0.1615826, 0.452051, 0.5714512, -0.6017269, -0.237515, 0.4272218, 0.5711534, -0.6031634
 94652694, -0.1396964, 0.487486, 0.5716504, -0.6034304, -0.1615826, 0.452051, 0.5714512, -0.6017269
 94852900, -0.2168112, 0.5000661, 0.5717603, -0.6026493, -0.1396964, 0.487486, 0.5716504, -0.6034304
 95052694, -0.1481131, 0.5718883, 0.5718705, -0.602436, -0.2168112, 0.5000661, 0.5717603, -0.6026493
 95253044, 0.3001829, -0.1747325, 0.5699081, -0.6012987, -0.1481131, 0.5718883, 0.5718705, -0.602436
 95452693, 0.04259229, -0.5155793, 0.5704178, -0.6030983, 0.3001829, -0.1747325, 0.5699081, -0.6012987
 95652697, 0.02846105, -0.6343251, 0.5689456, -0.6036128, 0.04259229, -0.5155793, 0.5704178, -0.6030983
 95852662, -0.03827805, -0.5451048, 0.5680789, -0.6026477, 0.02846105, -0.6343251, 0.5689456, -0.6036128
 96053032, -0.01255747, -0.6945614, 0.5682335, -0.6034341, -0.03827805, -0.5451048, 0.5680789, -0.6026477
 96253033, 0.0174875, -0.644616, 0.5672792, -0.6014692, -0.01255747, -0.6945614, 0.5682335, -0.6034341
 96453062, -0.09312695, -0.5835986, 0.5655425, -0.6001664, 0.0174875, -0.644616, 0.5672792, -0.6014692
 96672691, -0.3905525, 0.5493113, 0.5639174, -0.600485, -0.09312695, -0.5835986, 0.5655425, -0.6001664
 96852665, -0.08083288, -0.3718812, 0.5649753, -0.5998355, -0.3905525, 0.5493113, 0.5639174, -0.600485
 97052690, -0.08402111, -0.2595925, 0.5646437, -0.5999712, -0.08083288, -0.3718812, 0.5649753, -0.5998355
 97252900, -0.1113915, -0.3143234, 0.564718, -0.6020761, -0.08402111, -0.2595925, 0.5646437, -0.5999712
 97453052, -0.05954104, -0.2689249, 0.5588704, -0.6046926, -0.1113915, -0.3143234, 0.564718, -0.6020761
 97652815, 0.01374734, -0.3074825, 0.5605462, -0.6049381, -0.05954104, -0.2689249, 0.5588704, -0.6046926
 97852691, 0.05737063, -0.2729695, 0.5600846, -0.6047301, 0.01374734, -0.3074825, 0.5605462, -0.6049381
 98052714, 0.2381487, 0.6409205, 0.5618698, -0.6054673, 0.05737063, -0.2729695, 0.5600846, -0.6047301
 98252663, 0.2970266, 0.6531832, 0.5615623, -0.6064846, 0.2381487, 0.6409205, 0.5618698, -0.6054673
 98452942, 0.2623752, 0.7404222, 0.5631337, -0.6073163, 0.2970266, 0.6531832, 0.5615623, -0.6064846
 98652692, 0.2099841, 0.7727336, 0.5650659, -0.6073887, 0.2623752, 0.7404222, 0.5631337, -0.6073163
 98873067, 0.1755093, 0.7413183, 0.5666471, -0.607396, 0.2099841, 0.7727336, 0.5650659, -0.6073887
 99073042, -0.04883875, 1.04326, 0.5672636, -0.609693, 0.1755093, 0.7413183, 0.5666471, -0.607396
 99252707, 0.1041053, 0.2888753, 0.5690773, -0.6064049, -0.04883875, 1.04326, 0.5672636, -0.609693
 99452710, 0.1684108, 0.2479757, 0.5699911, -0.6055724, 0.1041053, 0.2888753, 0.5690773, -0.6064049
 99652690, 0.1517477, 0.1927826, 0.5714132, -0.6053054, 0.1684108, 0.2479757, 0.5699911, -0.6055724
 99853030, 0.1101337, 0.1617479, 0.5716982, -0.6063633, 0.1517477, 0.1927826, 0.5714132, -0.6053054
 100072901, 0.1872236, 0.2129436, 0.5730293, -0.6056584, 0.1101337, 0.1617479, 0.5716982, -0.6063633
 100255229, -0.292006, 0.1190855, 0.5729599, -0.6051892, 0.1872236, 0.2129436, 0.5730293, -0.6056584
 100455985, 0.4718828, 0.5601618, 0.5712188, -0.607957, -0.292006, 0.1190855, 0.5729599, -0.6051892
 100655209, 0.2745338, 0.1564878, 0.5678185, -0.6093876, 0.4718828, 0.5601618, 0.5712188, -0.607957
 100855348, 0.3899585, 0.2520811, 0.5663937, -0.6103704, 0.2745338, 0.1564878, 0.5678185, -0.6093876
 101055224, 0.3283252, 0.1061436, 0.5656428, -0.6102201, 0.3899585, 0.2520811, 0.5663937, -0.6103704
 101255226, 0.2855485, 0.1220275, 0.5666201, -0.6083433, 0.3283252, 0.1061436, 0.5656428, -0.6102201
 101455239, 0.3149049, 0.1728442, 0.5691221, -0.607682, 0.2855485, 0.1220275, 0.5666201, -0.6083433
 101655220, 0.3921425, 0.4260399, 0.5691821, -0.6075494, 0.3149049, 0.1728442, 0.5691221, -0.607682
 101855513, 0.09895619, 0.9813743, 0.5680315, -0.6090747, 0.3921425, 0.4260399, 0.5691821, -0.6075494
 102055211, -0.08880729, 1.055171, 0.5654355, -0.6113117, 0.09895619, 0.9813743, 0.5680315, -0.6090747
 102255350, -0.1333334, 0.925541, 0.5656968, -0.6080897, -0.08880729, 1.055171, 0.5654355, -0.6113117
 102455499, -0.03996766, 0.7844965, 0.5674695, -0.6077355, -0.1333334, 0.925541, 0.5656968, -0.6080897
 102655207, 0.006748823, 0.866792, 0.5646667, -0.6057507, -0.03996766, 0.7844965, 0.5674695, -0.6077355
 102855235, -0.2453677, -0.4344917, 0.5624659, -0.6068644, 0.006748823, 0.866792, 0.5646667, -0.6057507
 103055230, 0.05504537, 0.9808347, 0.5614681, -0.6069384, -0.2453677, -0.4344917, 0.5624659, -0.6068644
 103255209, 0.0630073, 1.001138, 0.5621457, -0.6070754, 0.05504537, 0.9808347, 0.5614681, -0.6069384
 103455247, 0.08650267, 0.9726977, 0.5608819, -0.6075776, 0.0630073, 1.001138, 0.5621457, -0.6070754
 103655205, 0.1673629, 1.020084, 0.5596719, -0.6096265, 0.08650267, 0.9726977, 0.5608819, -0.6075776
 103855499, 0.2221438, 0.9589171, 0.5575367, -0.6127204, 0.1673629, 1.020084, 0.5596719, -0.6096265
 104057817, 0.1174058, 0.9291819, 0.5602213, -0.6115931, 0.2221438, 0.9589171, 0.5575367, -0.6127204
 104258262, 0.03395205, -0.02064776, 0.5613296, -0.6108894, 0.1174058, 0.9291819, 0.5602213, -0.6115931
 104457702, -0.2245269, -0.4892274, 0.5634841, -0.6103054, 0.03395205, -0.02064776, 0.5613296, -0.6108894
 104658102, -0.2304075, -0.3603492, 0.5637937, -0.6092151, -0.2245269, -0.4892274, 0.5634841, -0.6103054
 104860226, -0.1863005, -0.317633, 0.5661293, -0.6085947, -0.2304075, -0.3603492, 0.5637937, -0.6092151
 105060221, -0.1272569, -0.2861463, 0.5684213, -0.6082462, -0.1863005, -0.317633, 0.5661293, -0.6085947
 105260174, 0.111341, 0.4853735, 0.5677812, -0.6069241, -0.1272569, -0.2861463, 0.5684213, -0.6082462
 105460167, 0.3564349, 1.387573, 0.5691139, -0.6095309, 0.111341, 0.4853735, 0.5677812, -0.6069241
 105662671, 0.2176352, 0.5972718, 0.5710444, -0.6031002, 0.3564349, 1.387573, 0.5691139, -0.6095309
 105862812, 0.1145761, 0.6501244, 0.5711481, -0.6020821, 0.2176352, 0.5972718, 0.5710444, -0.6031002
 106063033, 0.1457759, 0.56332, 0.572235, -0.6030865, 0.1145761, 0.6501244, 0.5711481, -0.6020821
 106262804, 0.02645597, 0.5046269, 0.5724242, -0.6022766, 0.1457759, 0.56332, 0.572235, -0.6030865
 106462742, 0.04976009, 0.5653183, 0.5739107, -0.6017052, 0.02645597, 0.5046269, 0.5724242, -0.6022766
 106662693, 0.04591331, -0.04735854, 0.5753589, -0.5990862, 0.04976009, 0.5653183, 0.5739107, -0.6017052
 106863042, -0.09742398, 0.6506044, 0.5748257, -0.5998551, 0.04591331, -0.04735854, 0.5753589, -0.5990862
 107063078, 0.001898224, -0.248818, 0.574451, -0.6005975, -0.09742398, 0.6506044, 0.5748257, -0.5998551
 107265216, 0.06405727, -0.1754198, 0.5720083, -0.6025886, 0.001898224, -0.248818, 0.574451, -0.6005975
 107465503, -0.02939312, -0.112654, 0.5706272, -0.6013321, 0.06405727, -0.1754198, 0.5720083, -0.6025886
 107665451, -0.03863822, -0.2016742, 0.5686104, -0.6022846, -0.02939312, -0.112654, 0.5706272, -0.6013321
 107865469, -0.2148904, -0.1304094, 0.5665411, -0.6036854, -0.03863822, -0.2016742, 0.5686104, -0.6022846
 108067833, -0.2190203, -0.2937427, 0.5682032, -0.6014751, -0.2148904, -0.1304094, 0.5665411, -0.6036854
 108268141, -0.3366379, 0.9188688, 0.5707342, -0.5984886, -0.2190203, -0.2937427, 0.5682032, -0.6014751
 108467853, 0.3760893, -0.6722887, 0.5681967, -0.5957623, -0.3366379, 0.9188688, 0.5707342, -0.5984886
 108650469, 0.3421036, -0.6316375, 0.5707248, -0.589901, 0.3760893, -0.6722887, 0.5681967, -0.5957623
 108850221, 0.296433, -0.5826958, 0.5683063, -0.5925242, 0.3421036, -0.6316375, 0.5707248, -0.589901
 109050346, -0.2934669, -0.1044644, 0.5648419, -0.5936099, 0.296433, -0.5826958, 0.5683063, -0.5925242
 109252899, 0.1098548, 0.06596268, 0.558899, -0.5973153, -0.2934669, -0.1044644, 0.5648419, -0.5936099
 109452727, 0.1421629, 0.07733361, 0.5589159, -0.5974368, 0.1098548, 0.06596268, 0.558899, -0.5973153
 109652668, 0.0493644, 0.07852311, 0.5567753, -0.6025558, 0.1421629, 0.07733361, 0.5589159, -0.5974368
 109852813, 0.1512475, 0.1011773, 0.5618958, -0.6020814, 0.0493644, 0.07852311, 0.5567753, -0.6025558
 110052687, 0.1306659, 0.1940227, 0.5602987, -0.6030945, 0.1512475, 0.1011773, 0.5618958, -0.6020814
 110252812, 0.2307423, 0.4520379, 0.5576301, -0.6045091, 0.1306659, 0.1940227, 0.5602987, -0.6030945
 110452691, 0.2801401, -0.3793552, 0.5583547, -0.6009634, 0.2307423, 0.4520379, 0.5576301, -0.6045091
 110652681, 0.3226371, 0.3474624, 0.5577217, -0.6013682, 0.2801401, -0.3793552, 0.5583547, -0.6009634
 110853024, 0.3293895, 0.5990972, 0.5597473, -0.6013262, 0.3226371, 0.3474624, 0.5577217, -0.6013682
 111053158, 0.3346198, 0.5257909, 0.5617551, -0.601585, 0.3293895, 0.5990972, 0.5597473, -0.6013262
 111252714, 0.3124045, 0.4893399, 0.5619295, -0.6033536, 0.3346198, 0.5257909, 0.5617551, -0.601585
 111452704, 0.2619222, 0.540581, 0.5620155, -0.6062993, 0.3124045, 0.4893399, 0.5619295, -0.6033536
 111652696, -0.5065503, 0.920787, 0.5598347, -0.6124019, 0.2619222, 0.540581, 0.5620155, -0.6062993
 111853060, -0.3806669, 1.896666, 0.5630604, -0.6157117, -0.5065503, 0.920787, 0.5598347, -0.6124019
 112053022, -0.3519807, 1.77678, 0.5643054, -0.6164579, -0.3806669, 1.896666, 0.5630604, -0.6157117
 112253029, -0.2168285, 1.513415, 0.5656063, -0.6140032, -0.3519807, 1.77678, 0.5643054, -0.6164579
 112453062, -0.1791745, 1.492997, 0.5674474, -0.6099158, -0.2168285, 1.513415, 0.5656063, -0.6140032
 112653024, -0.274633, 1.555764, 0.5700345, -0.6110273, -0.1791745, 1.492997, 0.5674474, -0.6099158
 112852703, 0.6634213, 0.5387008, 0.5697289, -0.6070561, -0.274633, 1.555764, 0.5700345, -0.6110273
 113052699, 0.3430587, 0.7343843, 0.5703201, -0.6086021, 0.6634213, 0.5387008, 0.5697289, -0.6070561
 113253063, 0.3021103, 0.8673003, 0.5720177, -0.6091737, 0.3430587, 0.7343843, 0.5703201, -0.6086021
 113453050, 0.2033847, 0.891613, 0.5684125, -0.6121193, 0.3021103, 0.8673003, 0.5720177, -0.6091737
 113652707, 0.2961679, 0.8547409, 0.572809, -0.6101474, 0.2033847, 0.891613, 0.5684125, -0.6121193
 113852673, 0.3395722, 0.8194065, 0.5732769, -0.6087986, 0.2961679, 0.8547409, 0.572809, -0.6101474
 114052891, 0.7427599, 0.7270888, 0.5773973, -0.6086974, 0.3395722, 0.8194065, 0.5732769, -0.6087986
 114272707, 0.0259955, 0.9155643, 0.5725681, -0.6113718, 0.7427599, 0.7270888, 0.5773973, -0.6086974
 114452907, 0.01564793, 0.3951688, 0.5755008, -0.6069521, 0.0259955, 0.9155643, 0.5725681, -0.6113718
 114672706, 0.07233806, 0.5076644, 0.5784121, -0.6058588, 0.01564793, 0.3951688, 0.5755008, -0.6069521
 114853024, -0.3647382, 1.272817, 0.578068, -0.6077471, 0.07233806, 0.5076644, 0.5784121, -0.6058588
 115052681, -0.3098296, 1.183619, 0.578436, -0.6064146, -0.3647382, 1.272817, 0.578068, -0.6077471
 115252694, -0.3365124, 1.197713, 0.5777043, -0.6049179, -0.3098296, 1.183619, 0.578436, -0.6064146
 115453087, 0.1176856, -0.4212173, 0.5788262, -0.5994713, -0.3365124, 1.197713, 0.5777043, -0.6049179
 115652698, 0.7328766, 0.4807979, 0.5772425, -0.6007674, 0.1176856, -0.4212173, 0.5788262, -0.5994713
 115852690, 0.8106487, 0.4925675, 0.5767795, -0.6015803, 0.7328766, 0.4807979, 0.5772425, -0.6007674
 116052675, 0.6287885, 0.4269902, 0.5735055, -0.6040313, 0.8106487, 0.4925675, 0.5767795, -0.6015803
 116252694, 0.5107833, 0.4212889, 0.5732259, -0.6019186, 0.6287885, 0.4269902, 0.5735055, -0.6040313
 116453186, 0.6238075, 0.3434877, 0.5709981, -0.604959, 0.5107833, 0.4212889, 0.5732259, -0.6019186
 116653067, 0.6506193, 0.4640181, 0.5688353, -0.6075923, 0.6238075, 0.3434877, 0.5709981, -0.604959
 116853038, -0.2276407, 0.4998634, 0.5685896, -0.6094512, 0.6506193, 0.4640181, 0.5688353, -0.6075923
 117052699, -0.21752, 0.5091531, 0.56546, -0.6115837, -0.2276407, 0.4998634, 0.5685896, -0.6094512
 117252673, -0.0789066, 0.5076627, 0.5633504, -0.6148887, -0.21752, 0.5091531, 0.56546, -0.6115837
 117452700, -0.1754724, 0.5725455, 0.5615182, -0.6136297, -0.0789066, 0.5076627, 0.5633504, -0.6148887
 117652691, -0.2972687, 0.6151277, 0.560719, -0.6121451, -0.1754724, 0.5725455, 0.5615182, -0.6136297
 117852690, -0.310873, 0.7057697, 0.5629226, -0.6100875, -0.2972687, 0.6151277, 0.560719, -0.6121451
 118052691, -0.5920267, 0.1116816, 0.5671216, -0.6050782, -0.310873, 0.7057697, 0.5629226, -0.6100875
 118252730, -0.8028806, 0.5164831, 0.5682119, -0.6028466, -0.5920267, 0.1116816, 0.5671216, -0.6050782
 118452703, -0.7211862, 0.3640113, 0.5671492, -0.6029489, -0.8028806, 0.5164831, 0.5682119, -0.6028466
 118655226, -0.6813923, 0.5620211, 0.5712774, -0.6006031, -0.7211862, 0.3640113, 0.5671492, -0.6029489
 118855205, -0.7409935, 0.5985435, 0.571474, -0.5991309, -0.6813923, 0.5620211, 0.5712774, -0.6006031
 119055222, -0.7159722, 0.6233059, 0.5706405, -0.6018654, -0.7409935, 0.5985435, 0.571474, -0.5991309
 119255208, 0.208414, 0.6437458, 0.5661564, -0.6059033, -0.7159722, 0.6233059, 0.5706405, -0.6018654
 119455240, 0.6913137, 0.7305648, 0.5647871, -0.6102149, 0.208414, 0.6437458, 0.5661564, -0.6059033
 119655478, 0.6258105, 0.7403944, 0.5643781, -0.6098521, 0.6913137, 0.7305648, 0.5647871, -0.6102149
 119855226, 0.6160574, 0.6356058, 0.5644663, -0.6107317, 0.6258105, 0.7403944, 0.5643781, -0.6098521
 120057696, 0.7058094, 0.6117704, 0.5673251, -0.6110892, 0.6160574, 0.6356058, 0.5644663, -0.6107317
 120257697, 0.6713765, 0.8268338, 0.5680305, -0.613058, 0.7058094, 0.6117704, 0.5673251, -0.6110892
 120457963, 0.4812006, 1.640969, 0.5654303, -0.619616, 0.6713765, 0.8268338, 0.5680305, -0.613058
 120657697, 0.6528476, 1.124234, 0.5646953, -0.6165621, 0.4812006, 1.640969, 0.5654303, -0.619616
 120858283, 0.03609992, 1.742183, 0.564836, -0.6190856, 0.6528476, 1.124234, 0.5646953, -0.6165621
 121058096, 0.00611833, 1.479766, 0.5649486, -0.6182743, 0.03609992, 1.742183, 0.564836, -0.6190856
 121258096, -0.007059084, 1.505007, 0.5660444, -0.6168051, 0.00611833, 1.479766, 0.5649486, -0.6182743
 121457715, -0.06204005, 1.562424, 0.5660926, -0.616438, -0.007059084, 1.505007, 0.5660444, -0.6168051
 121660229, 0.06376837, 1.511003, 0.5661251, -0.6138304, -0.06204005, 1.562424, 0.5660926, -0.616438
 121860224, 0.2311977, 0.2587055, 0.5643995, -0.6116907, 0.06376837, 1.511003, 0.5661251, -0.6138304
 122060217, 0.2966088, 1.764534, 0.5664915, -0.6168802, 0.2311977, 0.2587055, 0.5643995, -0.6116907
 122262699, 0.3055136, 1.782448, 0.5665803, -0.6172453, 0.2966088, 1.764534, 0.5664915, -0.6168802
 122463077, 0.3727211, 1.673706, 0.5669519, -0.6150009, 0.3055136, 1.782448, 0.5665803, -0.6172453
 122665209, 0.321806, 1.538938, 0.5627087, -0.6162266, 0.3727211, 1.673706, 0.5669519, -0.6150009
 122865670, 0.4141138, 1.59196, 0.5653402, -0.6144282, 0.321806, 1.538938, 0.5627087, -0.6162266
 123048159, 0.5029157, 0.2476273, 0.5655883, -0.6104011, 0.4141138, 1.59196, 0.5653402, -0.6144282
 123248252, 0.573175, 0.212645, 0.5670208, -0.6081195, 0.5029157, 0.2476273, 0.5655883, -0.6104011
 123448152, 0.4811375, 0.227201, 0.5682491, -0.6091006, 0.573175, 0.212645, 0.5670208, -0.6081195
 123648148, 0.4565759, 0.2449798, 0.5702794, -0.6076632, 0.4811375, 0.227201, 0.5682491, -0.6091006
 123847694, 0.4283186, 0.1922648, 0.5712526, -0.6074384, 0.4565759, 0.2449798, 0.5702794, -0.6076632
 124047700, 0.4483983, 0.4713095, 0.5707036, -0.6061025, 0.4283186, 0.1922648, 0.5712526, -0.6074384
 124250501, 0.3735712, 0.3305301, 0.5690094, -0.6055421, 0.4483983, 0.4713095, 0.5707036, -0.6061025
 124450505, -0.1898401, -0.1239395, 0.5673409, -0.6065554, 0.3735712, 0.3305301, 0.5690094, -0.6055421
 124650219, -0.1544289, -0.08901969, 0.5663728, -0.6062681, -0.1898401, -0.1239395, 0.5673409, -0.6065554
 124850198, -0.09683663, 0.03392359, 0.5634404, -0.6062881, -0.1544289, -0.08901969, 0.5663728, -0.6062681
 125050209, -0.09722599, 0.1591364, 0.5634989, -0.6051455, -0.09683663, 0.03392359, 0.5634404, -0.6062881
 125250371, -0.06725358, -0.1010334, 0.5618216, -0.6039934, -0.09722599, 0.1591364, 0.5634989, -0.6051455
 125450234, -0.1477345, -0.07126902, 0.5633821, -0.6033452, -0.06725358, -0.1010334, 0.5618216, -0.6039934
 125650212, -0.449347, -0.3204601, 0.5652353, -0.603133, -0.1477345, -0.07126902, 0.5633821, -0.6033452
 125850188, -0.4493291, -0.158438, 0.5620029, -0.6030651, -0.449347, -0.3204601, 0.5652353, -0.603133
 126053023, -0.4134647, -0.1041416, 0.5627962, -0.6018536, -0.4493291, -0.158438, 0.5620029, -0.6030651
 126253017, -0.4865231, -0.1749354, 0.5650293, -0.6003854, -0.4134647, -0.1041416, 0.5627962, -0.6018536
 126452702, -0.3709617, -0.2097064, 0.5661888, -0.5981268, -0.4865231, -0.1749354, 0.5650293, -0.6003854
 126653180, -0.4238506, -0.3321888, 0.5671951, -0.5959459, -0.3709617, -0.2097064, 0.5661888, -0.5981268
 126852670, 0.1479164, 0.1939629, 0.5674664, -0.594695, -0.4238506, -0.3321888, 0.5671951, -0.5959459
 127052908, 0.4141345, -0.05651224, 0.5678814, -0.5953359, 0.1479164, 0.1939629, 0.5674664, -0.594695
 127252900, 0.3968614, -0.1260346, 0.5668064, -0.5976882, 0.4141345, -0.05651224, 0.5678814, -0.5953359
 127452718, 0.4359948, 0.02550608, 0.5675287, -0.5955071, 0.3968614, -0.1260346, 0.5668064, -0.5976882
 127652676, 0.4283679, -0.0218068, 0.5660509, -0.5967389, 0.4359948, 0.02550608, 0.5675287, -0.5955071
 127852667, 0.3995765, 0.05653404, 0.5669234, -0.5962015, 0.4283679, -0.0218068, 0.5660509, -0.5967389
 128052698, 0.4526674, 0.07267311, 0.5694678, -0.5954586, 0.3995765, 0.05653404, 0.5669234, -0.5962015
 128252705, 0.4515003, 1.008255, 0.5693061, -0.5966395, 0.4526674, 0.07267311, 0.5694678, -0.5954586
 128452686, 0.386863, 0.847507, 0.5698127, -0.5977271, 0.4515003, 1.008255, 0.5693061, -0.5966395
 128652696, 0.2420447, 0.8445845, 0.568022, -0.5976608, 0.386863, 0.847507, 0.5698127, -0.5977271
 128852697, 0.1753041, 0.9923964, 0.5695047, -0.5987144, 0.2420447, 0.8445845, 0.568022, -0.5976608
 129052711, 0.2654274, 1.03248, 0.5725644, -0.5994232, 0.1753041, 0.9923964, 0.5695047, -0.5987144
 129252692, -0.1661948, 0.2111542, 0.5716645, -0.5981724, 0.2654274, 1.03248, 0.5725644, -0.5994232
 129453073, -0.3940719, 0.7302204, 0.5756296, -0.5986889, -0.1661948, 0.2111542, 0.5716645, -0.5981724
 129652673, -0.3612074, 0.667276, 0.5756029, -0.5971729, -0.3940719, 0.7302204, 0.5756296, -0.5986889
 129852696, -0.3409627, 0.6130688, 0.5759702, -0.5969758, -0.3612074, 0.667276, 0.5756029, -0.5971729
 130052690, -0.3460099, 0.6118345, 0.5765315, -0.59548, -0.3409627, 0.6130688, 0.5759702, -0.5969758
 130252692, -0.2400184, 0.710332, 0.5779722, -0.5955068, -0.3460099, 0.6118345, 0.5765315, -0.59548
 130452758, -0.3036788, 0.6561918, 0.5807217, -0.5960568, -0.2400184, 0.710332, 0.5779722, -0.5955068
 130652703, 0.4354178, -0.2651568, 0.5803558, -0.5964995, -0.3036788, 0.6561918, 0.5807217, -0.5960568
 130852978, 0.1753703, 0.1177553, 0.5803632, -0.5958484, 0.4354178, -0.2651568, 0.5803558, -0.5964995
 131053028, 0.137949, 0.1374452, 0.5791646, -0.5965436, 0.1753703, 0.1177553, 0.5803632, -0.5958484
 131252910, 0.1708081, 0.1857586, 0.5789774, -0.5962292, 0.137949, 0.1374452, 0.5791646, -0.5965436
 131452716, 0.1872829, 0.1353495, 0.5767629, -0.5974085, 0.1708081, 0.1857586, 0.5789774, -0.5962292
 131652695, 0.191896, 0.1114997, 0.5741319, -0.5992363, 0.1872829, 0.1353495, 0.5767629, -0.5974085
 131853081, 0.3057608, -0.627894, 0.572463, -0.6022043, 0.191896, 0.1114997, 0.5741319, -0.5992363
 132052713, -0.1026096, -0.6493285, 0.5735346, -0.6000673, 0.3057608, -0.627894, 0.572463, -0.6022043
 132252695, -0.1384467, -0.6198223, 0.5753877, -0.5970908, -0.1026096, -0.6493285, 0.5735346, -0.6000673
 132452712, -0.07840641, -0.613431, 0.5754735, -0.5971023, -0.1384467, -0.6198223, 0.5753877, -0.5970908
 132652736, -0.1227734, -0.4973739, 0.5783516, -0.5954556, -0.07840641, -0.613431, 0.5754735, -0.5971023
 132852704, -0.1383495, -0.4269409, 0.5806699, -0.5948986, -0.1227734, -0.4973739, 0.5783516, -0.5954556
 133052704, -0.2658565, 0.8954289, 0.5819684, -0.5934052, -0.1383495, -0.4269409, 0.5806699, -0.5948986
 133252690, -1.407607, 0.3876798, 0.5843412, -0.5920384, -0.2658565, 0.8954289, 0.5819684, -0.5934052
 133453076, -0.2768347, 1.522694, 0.5777622, -0.59861, -1.407607, 0.3876798, 0.5843412, -0.5920384
 133652688, -0.2841139, 1.454777, 0.5768269, -0.5994736, -0.2768347, 1.522694, 0.5777622, -0.59861
 133853022, -0.201546, 1.378419, 0.5756844, -0.6025828, -0.2841139, 1.454777, 0.5768269, -0.5994736
 134052693, -0.1798509, 1.241074, 0.5736968, -0.6016617, -0.201546, 1.378419, 0.5756844, -0.6025828
 134252691, -0.2017822, 1.325086, 0.5741306, -0.6025407, -0.1798509, 1.241074, 0.5736968, -0.6016617
 134452919, -0.6158565, 0.2870792, 0.5763876, -0.5986333, -0.2017822, 1.325086, 0.5741306, -0.6025407
 134652696, -0.5046144, 0.2474137, 0.5758005, -0.5990108, -0.6158565, 0.2870792, 0.5763876, -0.5986333
 134852682, -0.559027, 0.2776482, 0.5780331, -0.5981232, -0.5046144, 0.2474137, 0.5758005, -0.5990108
 135052810, -0.5745007, 0.4097151, 0.5778843, -0.5986026, -0.559027, 0.2776482, 0.5780331, -0.5981232
 135253033, -0.5765677, 0.3227783, 0.5764996, -0.5978514, -0.5745007, 0.4097151, 0.5778843, -0.5986026
 135452826, -0.6383532, 0.4298239, 0.5769496, -0.5979968, -0.5765677, 0.3227783, 0.5764996, -0.5978514
 135652699, -0.6543255, 0.2385745, 0.5761963, -0.5971429, -0.6383532, 0.4298239, 0.5769496, -0.5979968
 135852692, -1.355696, 0.39371, 0.5799707, -0.5978696, -0.6543255, 0.2385745, 0.5761963, -0.5971429
 136052689, -1.417318, 0.4020333, 0.5808941, -0.5985901, -1.355696, 0.39371, 0.5799707, -0.5978696
 136272688, -1.43762, 0.4886667, 0.5812988, -0.5985157, -1.417318, 0.4020333, 0.5808941, -0.5985901
 136453089, -1.502078, 0.3794571, 0.5814721, -0.6002232, -1.43762, 0.4886667, 0.5812988, -0.5985157
 136653037, -1.533147, 0.4143649, 0.5806445, -0.6013489, -1.502078, 0.3794571, 0.5814721, -0.6002232
 136853047, -1.569666, 0.527612, 0.5817488, -0.6014646, -1.533147, 0.4143649, 0.5806445, -0.6013489
 137052693, -2.056173, 0.963685, 0.5864578, -0.6021953, -1.569666, 0.527612, 0.5817488, -0.6014646
 137252675, -1.572522, 1.44644, 0.5824428, -0.6017544, -2.056173, 0.963685, 0.5864578, -0.6021953
 137452705, -1.687145, 1.381765, 0.5830967, -0.6021976, -1.572522, 1.44644, 0.5824428, -0.6017544
 137652693, -1.660339, 1.468703, 0.5852493, -0.6036123, -1.687145, 1.381765, 0.5830967, -0.6021976
 137852677, -1.707116, 1.509009, 0.5841161, -0.6038843, -1.660339, 1.468703, 0.5852493, -0.6036123
 138053153, -1.731712, 1.467431, 0.5854848, -0.6052147, -1.707116, 1.509009, 0.5841161, -0.6038843
 138252702, -2.587568, 1.346323, 0.5931264, -0.6050928, -1.731712, 1.467431, 0.5854848, -0.6052147
 138452708, -3.068646, 1.623051, 0.6003746, -0.6061109, -2.587568, 1.346323, 0.5931264, -0.6050928
 138653030, -3.162537, 1.576229, 0.60127, -0.6062783, -3.068646, 1.623051, 0.6003746, -0.6061109
 138852689, -3.161006, 1.602774, 0.6006052, -0.604791, -3.162537, 1.576229, 0.60127, -0.6062783
 139052719, -3.229694, 1.553337, 0.6024671, -0.601707, -3.161006, 1.602774, 0.6006052, -0.604791
 139252900, -3.29376, 1.649288, 0.6013643, -0.6034176, -3.229694, 1.553337, 0.6024671, -0.601707
 139452705, -3.373805, 2.176419, 0.6032706, -0.6054819, -3.29376, 1.649288, 0.6013643, -0.6034176
 139653191, -3.945768, 1.051953, 0.6124827, -0.5936059, -3.373805, 2.176419, 0.6032706, -0.6054819
 139852728, -3.911813, 1.208253, 0.613828, -0.5949036, -3.945768, 1.051953, 0.6124827, -0.5936059
 140053035, -4.020219, 1.350731, 0.6173379, -0.5957186, -3.911813, 1.208253, 0.613828, -0.5949036
 140253035, -4.13028, 1.362336, 0.6174536, -0.5975084, -4.020219, 1.350731, 0.6173379, -0.5957186
 140452708, -4.096969, 1.255649, 0.6158488, -0.5986847, -4.13028, 1.362336, 0.6174536, -0.5975084
 140652693, -4.132957, 1.173498, 0.6200533, -0.5931941, -4.096969, 1.255649, 0.6158488, -0.5986847
 140852692, -4.651728, 1.65446, 0.6317148, -0.5980156, -4.132957, 1.173498, 0.6200533, -0.5931941
 141052738, -5.007211, 1.690423, 0.6372082, -0.6008688, -4.651728, 1.65446, 0.6317148, -0.5980156
 141252700, -5.075059, 1.702423, 0.6374209, -0.6008498, -5.007211, 1.690423, 0.6372082, -0.6008688
 141453049, -5.161705, 1.674256, 0.6427145, -0.5987813, -5.075059, 1.702423, 0.6374209, -0.6008498
 141652913, -5.185718, 1.713641, 0.6433303, -0.6002115, -5.161705, 1.674256, 0.6427145, -0.5987813
 141852692, -5.258892, 1.737867, 0.6459587, -0.5983487, -5.185718, 1.713641, 0.6433303, -0.6002115
 142052662, -6.475335, 2.021974, 0.6745389, -0.5983232, -5.258892, 1.737867, 0.6459587, -0.5983487
 142252695, -5.363705, 2.650867, 0.6490293, -0.6020728, -6.475335, 2.021974, 0.6745389, -0.5983232
 142452692, -5.507327, 2.59788, 0.6536415, -0.6019876, -5.363705, 2.650867, 0.6490293, -0.6020728
 142652679, -5.745236, 2.608939, 0.6590719, -0.6026853, -5.507327, 2.59788, 0.6536415, -0.6019876
 142852692, -5.804646, 2.54607, 0.6602368, -0.6021642, -5.745236, 2.608939, 0.6590719, -0.6026853
 143052695, -5.810127, 2.676689, 0.6589186, -0.6013417, -5.804646, 2.54607, 0.6602368, -0.6021642
 143252694, -5.929414, 2.634557, 0.6626641, -0.5998818, -5.810127, 2.676689, 0.6589186, -0.6013417
 143452962, -7.781502, 2.948545, 0.7105356, -0.602318, -5.929414, 2.634557, 0.6626641, -0.5998818
 143652698, -7.722356, 2.974906, 0.7084555, -0.6041481, -7.781502, 2.948545, 0.7105356, -0.602318
 143853168, -7.715697, 2.981655, 0.7062277, -0.6048104, -7.722356, 2.974906, 0.7084555, -0.6041481
 144052695, -7.782878, 2.984424, 0.7072718, -0.6052973, -7.715697, 2.981655, 0.7062277, -0.6048104
 144252706, -7.808278, 3.149021, 0.7081572, -0.6082396, -7.782878, 2.984424, 0.7072718, -0.6052973
 144452706, -7.878757, 3.891391, 0.7094057, -0.6209962, -7.808278, 3.149021, 0.7081572, -0.6082396
 144652693, -8.489697, 3.974756, 0.7259307, -0.6226003, -7.878757, 3.891391, 0.7094057, -0.6209962
 144852736, -9.378366, 4.163641, 0.7533039, -0.6260468, -8.489697, 3.974756, 0.7259307, -0.6226003
 145053041, -9.373107, 4.051885, 0.7522417, -0.6200199, -9.378366, 4.163641, 0.7533039, -0.6260468
 145252901, -9.484754, 4.186778, 0.755559, -0.6226739, -9.373107, 4.051885, 0.7522417, -0.6200199
 145452715, -9.639018, 4.29173, 0.7581115, -0.6280057, -9.484754, 4.186778, 0.755559, -0.6226739
 145652678, -9.576585, 4.447134, 0.7529544, -0.6289783, -9.639018, 4.29173, 0.7581115, -0.6280057
 145852687, -9.986609, 5.32761, 0.7638643, -0.6423259, -9.576585, 4.447134, 0.7529544, -0.6289783
 146053084, -10.36921, 4.391228, 0.7740096, -0.6210874, -9.986609, 5.32761, 0.7638643, -0.6423259
 146272689, -10.4114, 4.465636, 0.7727699, -0.6206945, -10.36921, 4.391228, 0.7740096, -0.6210874
 146452713, -10.52069, 3.902528, 0.7756314, -0.6085765, -10.4114, 4.465636, 0.7727699, -0.6206945
 146652694, -10.59782, 3.889718, 0.7764851, -0.6060157, -10.52069, 3.902528, 0.7756314, -0.6085765
 146852698, -10.59428, 3.974453, 0.7745436, -0.6063139, -10.59782, 3.889718, 0.7764851, -0.6060157
 147052907, -11.20868, 4.967603, 0.7953587, -0.6224486, -10.59428, 3.974453, 0.7745436, -0.6063139
 147252672, -11.42619, 4.257658, 0.8026556, -0.6106542, -11.20868, 4.967603, 0.7953587, -0.6224486
 147453058, -11.61755, 4.326916, 0.8124827, -0.6158959, -11.42619, 4.257658, 0.8026556, -0.6106542
 147652904, -11.8702, 4.425301, 0.8263834, -0.6203876, -11.61755, 4.326916, 0.8124827, -0.6158959
 147852682, -12.22611, 4.392036, 0.8441521, -0.6211843, -11.8702, 4.425301, 0.8263834, -0.6203876
 148052489, -12.70055, 4.615715, 0.85837, -0.6208299, -12.22611, 4.392036, 0.8441521, -0.6211843
 148252460, -15.55702, 5.193326, 0.9606632, -0.6222859, -12.70055, 4.615715, 0.85837, -0.6208299
 148452918, -15.10868, 5.198437, 0.9355247, -0.6079673, -15.55702, 5.193326, 0.9606632, -0.6222859
 148652490, -14.4946, 4.962462, 0.908052, -0.5919462, -15.10868, 5.198437, 0.9355247, -0.6079673
 148852539, -13.96132, 4.727452, 0.8931946, -0.5785629, -14.4946, 4.962462, 0.908052, -0.5919462
 149052504, -13.82224, 4.461767, 0.8936267, -0.5703344, -13.96132, 4.727452, 0.8931946, -0.5785629
 149252474, -13.73224, 4.266187, 0.8962406, -0.5738722, -13.82224, 4.461767, 0.8936267, -0.5703344
 149452508, -13.56853, 4.53011, 0.8991352, -0.6010228, -13.73224, 4.266187, 0.8962406, -0.5738722
 149652919, -6.023699, 3.994559, 0.6646046, -0.6259129, -13.56853, 4.53011, 0.8991352, -0.6010228
 149852494, -6.686584, 4.435835, 0.6938123, -0.647875, -6.023699, 3.994559, 0.6646046, -0.6259129
 150052472, -6.911228, 4.425036, 0.7099202, -0.65742, -6.686584, 4.435835, 0.6938123, -0.647875
 150252482, -7.189947, 4.420988, 0.7231924, -0.6614094, -6.911228, 4.425036, 0.7099202, -0.65742
 150452503, -7.225774, 4.487453, 0.7259265, -0.6673648, -7.189947, 4.420988, 0.7231924, -0.6614094
 150652478, -7.211349, 4.417451, 0.7250957, -0.6670242, -7.225774, 4.487453, 0.7259265, -0.6673648
 150852453, -7.227581, 4.418552, 0.7236047, -0.6592742, -7.211349, 4.417451, 0.7250957, -0.6670242
 151052460, -8.061775, 4.332303, 0.7359742, -0.6479409, -7.227581, 4.418552, 0.7236047, -0.6592742
 151252477, -7.973572, 4.462778, 0.7186994, -0.6356431, -8.061775, 4.332303, 0.7359742, -0.6479409
 151452813, -8.010134, 4.336283, 0.6920013, -0.6098826, -7.973572, 4.462778, 0.7186994, -0.6356431
 151652487, -7.528661, 4.234452, 0.6476015, -0.5758294, -8.010134, 4.336283, 0.6920013, -0.6098826
 151852513, -7.143103, 4.289007, 0.6100761, -0.5450711, -7.528661, 4.234452, 0.6476015, -0.5758294
 152052894, -6.809169, 4.293754, 0.5638906, -0.5106384, -7.143103, 4.289007, 0.6100761, -0.5450711
 152253046, -9.986908, 6.292755, 0.6590856, -0.5086365, -6.809169, 4.293754, 0.5638906, -0.5106384
 152453045, -10.19705, 5.083932, 0.6649089, -0.4210363, -9.986908, 6.292755, 0.6590856, -0.5086365
 152652794, -9.112035, 3.980335, 0.6196083, -0.3674751, -10.19705, 5.083932, 0.6649089, -0.4210363
 152852771, -8.75106, 4.375759, 0.6086311, -0.4306671, -9.112035, 3.980335, 0.6196083, -0.3674751
 153052496, -8.634902, 5.315448, 0.6136571, -0.5412874, -8.75106, 4.375759, 0.6086311, -0.4306671
 153252900, -9.013742, 5.769434, 0.6716335, -0.6290734, -8.634902, 5.315448, 0.6136571, -0.5412874
 153452518, 1.750873, -4.371253, 0.5942628, -0.6547642, -9.013742, 5.769434, 0.6716335, -0.6290734
 153652927, 3.559805, -3.073078, 0.7121513, -0.7235848, 1.750873, -4.371253, 0.5942628, -0.6547642
 153852836, 4.255552, -2.910353, 0.8106728, -0.7866241, 3.559805, -3.073078, 0.7121513, -0.7235848
 154052497, 4.621152, -2.568814, 0.9476584, -0.9164279, 4.255552, -2.910353, 0.8106728, -0.7866241
 154252525, 4.797688, -1.66283, 1.051531, -1.112786, 4.621152, -2.568814, 0.9476584, -0.9164279
 154452904, 5.075462, -1.171842, 1.108713, -1.293898, 4.797688, -1.66283, 1.051531, -1.112786
 154652913, 4.824204, -0.7220207, 1.199446, -1.422976, 5.075462, -1.171842, 1.108713, -1.293898
 154852920, 1.085053, 12.19272, 1.276953, -1.639078, 4.824204, -0.7220207, 1.199446, -1.422976
 155052479, 0.6010899, 12.5671, 1.370764, -1.696109, 1.085053, 12.19272, 1.276953, -1.639078
 155252498, 0.02700729, 12.79652, 1.481536, -1.77572, 0.6010899, 12.5671, 1.370764, -1.696109
 155452922, -0.2162932, 12.64326, 1.572062, -1.815692, 0.02700729, 12.79652, 1.481536, -1.77572
 155652494, -0.5344599, 12.79299, 1.6331, -1.852152, -0.2162932, 12.64326, 1.572062, -1.815692
 155852484, -1.072879, 12.8646, 1.676023, -1.872281, -0.5344599, 12.79299, 1.6331, -1.852152
 156052500, -7.32248, 8.117856, 1.735116, -1.796638, -1.072879, 12.8646, 1.676023, -1.872281
 156252924, -5.649426, 9.442691, 1.685994, -1.832655, -7.32248, 8.117856, 1.735116, -1.796638
 156472586, -5.884838, 8.822321, 1.70801, -1.796134, -5.649426, 9.442691, 1.685994, -1.832655
 156652475, -5.730405, 5.973329, 1.709778, -1.753434, -5.884838, 8.822321, 1.70801, -1.796134
 156852908, -5.142563, 5.505096, 1.699229, -1.729258, -5.730405, 5.973329, 1.709778, -1.753434
 157052897, -4.663148, 5.140741, 1.671264, -1.699696, -5.142563, 5.505096, 1.699229, -1.729258
 157252491, -1.560015, 4.449096, 1.625781, -1.69609, -4.663148, 5.140741, 1.671264, -1.699696
 157452535, -0.6653277, -0.7904418, 1.575805, -1.668943, -1.560015, 4.449096, 1.625781, -1.69609
 157652486, -0.1518137, -0.858699, 1.528945, -1.648125, -0.6653277, -0.7904418, 1.575805, -1.668943
 157852515, -0.2450457, -0.8133072, 1.458405, -1.601561, -0.1518137, -0.858699, 1.528945, -1.648125
 158052471, -0.3582471, -1.304249, 1.429201, -1.527402, -0.2450457, -0.8133072, 1.458405, -1.601561
 158252497, -0.1632198, -0.2725518, 1.359908, -1.434463, -0.3582471, -1.304249, 1.429201, -1.527402
 158452502, 0.4307666, 3.847087, 1.288799, -1.358553, -0.1632198, -0.2725518, 1.359908, -1.434463
 158652485, -2.67888, 0.2559766, 1.239406, -1.251768, 0.4307666, 3.847087, 1.288799, -1.358553
 158852495, -2.845643, 0.1657122, 1.168916, -1.184649, -2.67888, 0.2559766, 1.239406, -1.251768
 159052793, -2.387769, -0.38581, 1.085016, -1.129987, -2.845643, 0.1657122, 1.168916, -1.184649
 159252795, -2.054041, -0.5317495, 0.992271, -1.071199, -2.387769, -0.38581, 1.085016, -1.129987
 159452921, -1.587276, -0.2091579, 0.926831, -1.009079, -2.054041, -0.5317495, 0.992271, -1.071199
 159652549, -1.379649, 0.2403598, 0.865567, -0.9288879, -1.587276, -0.2091579, 0.926831, -1.009079
 159852502, 0.07262856, 0.8460515, 0.8035359, -0.8713775, -1.379649, 0.2403598, 0.865567, -0.9288879
 160052477, -2.754826, -0.1945734, 0.7420192, -0.8169206, 0.07262856, 0.8460515, 0.8035359, -0.8713775
 160252519, -2.386521, -0.2370305, 0.6944214, -0.7610908, -2.754826, -0.1945734, 0.7420192, -0.8169206
 160452904, -1.707162, -0.4935544, 0.6505452, -0.6824929, -2.386521, -0.2370305, 0.6944214, -0.7610908
 160652534, -1.262198, 0.06117734, 0.6013575, -0.596291, -1.707162, -0.4935544, 0.6505452, -0.6824929
 160852471, -0.8619928, -0.08825202, 0.5559977, -0.5120669, -1.262198, 0.06117734, 0.6013575, -0.596291
 161052529, 2.77379, 0.1002938, 0.5281813, -0.451226, -0.8619928, -0.08825202, 0.5559977, -0.5120669
 161252476, 4.252477, -1.275585, 0.5047182, -0.4389232, 2.77379, 0.1002938, 0.5281813, -0.451226
 161452991, 4.221097, -1.369172, 0.4790785, -0.4300981, 4.252477, -1.275585, 0.5047182, -0.4389232
 161652903, 4.24086, -1.324161, 0.4643046, -0.4300764, 4.221097, -1.369172, 0.4790785, -0.4300981
 161852830, 4.252647, -1.118277, 0.4650293, -0.4397367, 4.24086, -1.324161, 0.4643046, -0.4300764
 162052465, 4.319038, -1.04719, 0.4915534, -0.4624691, 4.252647, -1.118277, 0.4650293, -0.4397367
 162252506, 4.688566, -0.6537842, 0.5356396, -0.5064775, 4.319038, -1.04719, 0.4915534, -0.4624691
 162452948, 3.500064, 1.644219, 0.5589081, -0.5537486, 4.688566, -0.6537842, 0.5356396, -0.5064775
 162652891, 2.971504, 2.393886, 0.5955885, -0.5981017, 3.500064, 1.644219, 0.5589081, -0.5537486
 162852518, 2.615758, 2.584256, 0.6579303, -0.6237686, 2.971504, 2.393886, 0.5955885, -0.5981017
