TimeUS,COFN,COFE,CNe,CEe,POFN,POFE,PNe,PEe
 57745891, -0.001233565, -0.0101658, 0.004244338, -0.003392781, -0.002829161, 0.001843289, 0.004011349, -0.002996118
 57909574, 0.002563198, 0.005660808, 0.004130244, -0.003132017, -0.01186396, 0.02180449, 0.004526351, -0.004390337
 57964096, -0.002448981, -0.001092605, 0.004067657, -0.003025877, 0.002563198, 0.005660808, 0.004130244, -0.003132017
 58019116, -0.001187827, -0.00976861, 0.004082154, -0.003278288, -0.002448981, -0.001092605, 0.004067657, -0.003025877
 58074133, -0.008222655, -0.001901263, 0.004227866, -0.002970994, -0.001187827, -0.00976861, 0.004082154, -0.003278288
 58129065, -0.0127652, 0.009239432, 0.00443795, -0.003300144, -0.008222655, -0.001901263, 0.004227866, -0.002970994
 58184556, -0.002430235, -0.001061272, 0.004012598, -0.002984679, -0.0127652, 0.009239432, 0.00443795, -0.003300144
 58234500, 0.0008832568, -0.003627008, 0.004071565, -0.003082854, -0.002430235, -0.001061272, 0.004012598, -0.002984679
 58289096, -0.002120488, -0.004163125, 0.00426097, -0.003205054, 0.0008832568, -0.003627008, 0.004071565, -0.003082854
 58344079, 0.0005183954, -0.0007026744, 0.004346334, -0.003252178, -0.002120488, -0.004163125, 0.00426097, -0.003205054
 58399062, -0.001316289, 0.01205486, 0.004466303, -0.003644263, 0.0005183954, -0.0007026744, 0.004346334, -0.003252178
 58454126, -0.003052114, 0.001959716, 0.004327324, -0.003232374, -0.001316289, 0.01205486, 0.004466303, -0.003644263
 58509414, -0.002527888, -0.001143482, 0.004209635, -0.0031324, -0.003052114, 0.001959716, 0.004327324, -0.003232374
 58564126, -0.002627533, -0.001135461, 0.004335905, -0.003226653, -0.002527888, -0.001143482, 0.004209635, -0.0031324
 58619016, 0.00314852, 0.002895469, 0.004354718, -0.003241587, -0.002627533, -0.001135461, 0.004335905, -0.003226653
 58674134, 0.004356499, 0.01547289, 0.004427012, -0.003696309, 0.00314852, 0.002895469, 0.004354718, -0.003241587
 58729057, -2.319032E-06, 0.002315461, 0.004146087, -0.003113198, 0.004356499, 0.01547289, 0.004427012, -0.003696309
 58784727, 0.001365105, -0.006648339, 0.0041052, -0.003189373, -2.319032E-06, 0.002315461, 0.004146087, -0.003113198
 58839078, 0.0008798152, -0.003566795, 0.004053866, -0.003066565, 0.001365105, -0.006648339, 0.0041052, -0.003189373
 58894147, -0.0003889765, 0.005152234, 0.004042495, -0.003094327, 0.0008798152, -0.003566795, 0.004053866, -0.003066565
 58949069, 0.0107398, 0.006560481, 0.004312604, -0.002904824, -0.0003889765, 0.005152234, 0.004042495, -0.003094327
 58999100, -0.002481963, 0.001579715, 0.00352344, -0.002627672, 0.0107398, 0.006560481, 0.004312604, -0.002904824
 59054114, -0.001737222, -0.003437025, 0.003516026, -0.002648015, -0.002481963, 0.001579715, 0.00352344, -0.002627672
 59109410, -0.001445162, -0.006254084, 0.003703993, -0.002875185, -0.001737222, -0.003437025, 0.003516026, -0.002648015
 59164086, -0.008198605, 0.0009270786, 0.00400719, -0.002802623, -0.001445162, -0.006254084, 0.003703993, -0.002875185
 59219038, -0.004767884, 0.01559742, 0.003988073, -0.003693067, -0.008198605, 0.0009270786, 0.00400719, -0.002802623
 59274108, -0.002578287, 0.001622583, 0.003618521, -0.002697198, -0.004767884, 0.01559742, 0.003988073, -0.003693067
 59329037, -0.0009994264, -0.008084874, 0.003397178, -0.002794912, -0.002578287, 0.001622583, 0.003618521, -0.002697198
 59384501, -0.005418912, 0.001303232, 0.003862545, -0.002809832, -0.0009994264, -0.008084874, 0.003397178, -0.002794912
 59439044, 0.006163951, 0.0001847787, 0.004083584, -0.002943239, -0.005418912, 0.001303232, 0.003862545, -0.002809832
 59494120, -0.004093419, 0.01049475, 0.004042259, -0.003332024, 0.006163951, 0.0001847787, 0.004083584, -0.002943239
 59549095, -0.01428873, 0.0001418918, 0.004571099, -0.002894585, -0.004093419, 0.01049475, 0.004042259, -0.003332024
 59604082, -0.001592728, -0.006799418, 0.004015728, -0.003099028, -0.01428873, 0.0001418918, 0.004571099, -0.002894585
 59659402, -0.002850541, 0.00177665, 0.004000684, -0.002980972, -0.001592728, -0.006799418, 0.004015728, -0.003099028
 59714114, -0.002452797, -0.001053777, 0.003999952, -0.002967753, -0.002850541, 0.00177665, 0.004000684, -0.002980972
 59769048, 0.01142698, 0.006905866, 0.004505546, -0.003045728, -0.002452797, -0.001053777, 0.003999952, -0.002967753
 59819074, -0.003436701, 0.004986409, 0.004262593, -0.003234617, 0.01142698, 0.006905866, 0.004505546, -0.003045728
 59874101, -0.002645508, -0.001144808, 0.004408683, -0.003273981, -0.003436701, 0.004986409, 0.004262593, -0.003234617
 59929045, -0.006186774, -0.001699756, 0.004733036, -0.003457049, -0.002645508, -0.001144808, 0.004408683, -0.003273981
 59984489, -0.006498891, 0.001605466, 0.004615675, -0.003379422, -0.006186774, -0.001699756, 0.004733036, -0.003457049
 60039049, 0.005409013, 0.009622003, 0.004476095, -0.003406967, -0.006498891, 0.001605466, 0.004615675, -0.003379422
 60094115, -0.003230114, 0.004670409, 0.003990219, -0.003032545, 0.005409013, 0.009622003, 0.004476095, -0.003406967
 60149079, -0.001057429, -0.00865613, 0.003629284, -0.002951874, -0.003230114, 0.004670409, 0.003990219, -0.003032545
 60204122, -0.002012167, -0.000878225, 0.003332731, -0.002465335, -0.001057429, -0.00865613, 0.003629284, -0.002951874
 60259549, 0.0006656904, -0.002742349, 0.003151466, -0.002393523, -0.002012167, -0.000878225, 0.003332731, -0.002465335
 60314174, 0.0009841786, 0.01097312, 0.00321213, -0.002968658, 0.0006656904, -0.002742349, 0.003151466, -0.002393523
 60369044, -0.004281266, 0.001052581, 0.003110721, -0.002231029, 0.0009841786, 0.01097312, 0.00321213, -0.002968658
 60424123, 0.001775858, -0.0101685, 0.003417402, -0.003008468, -0.004281266, 0.001052581, 0.003110721, -0.002231029
 60479034, -0.002458397, 0.001566529, 0.003441203, -0.002559333, 0.001775858, -0.0101685, 0.003417402, -0.003008468
 60534484, -0.01208327, 0.002475769, 0.003961849, -0.002435761, -0.002458397, 0.001566529, 0.003441203, -0.002559333
 60589042, -0.003713038, 0.01103223, 0.003394805, -0.003096267, -0.01208327, 0.002475769, 0.003961849, -0.002435761
 60639042, 2.973957E-05, 0.001966039, 0.003528635, -0.002644015, -0.003713038, 0.01103223, 0.003394805, -0.003096267
 60694148, -0.001541755, -0.006192943, 0.003683698, -0.002855007, 2.973957E-05, 0.001966039, 0.003528635, -0.002644015
 60749082, -0.00254912, 0.001574537, 0.003787725, -0.002810553, -0.001541755, -0.006192943, 0.003683698, -0.002855007
 60804123, -0.01101693, 0.0006667025, 0.004237377, -0.002823191, -0.00254912, 0.001574537, 0.003787725, -0.002810553
 60859454, -0.004925106, 0.01572995, 0.004035866, -0.003709512, -0.01101693, 0.0006667025, 0.004237377, -0.002823191
 60914132, -0.005887444, 0.001415957, 0.004156535, -0.003025774, -0.004925106, 0.01572995, 0.004035866, -0.003709512
 60969023, -0.02652674, -0.007718125, 0.005908375, -0.002947189, -0.005887444, 0.001415957, 0.004156535, -0.003025774
 61024145, -0.01244087, 0.0006533449, 0.004712122, -0.003198631, -0.02652674, -0.007718125, 0.005908375, -0.002947189
 61079093, -0.003139756, 0.001997867, 0.004441249, -0.003304091, -0.01244087, 0.0006533449, 0.004712122, -0.003198631
 61134532, -0.004701052, 0.01167586, 0.004526736, -0.003651959, -0.003139756, 0.001997867, 0.004441249, -0.003304091
 61189074, -0.003167661, 0.002106508, 0.004512011, -0.00335274, -0.004701052, 0.01167586, 0.004526736, -0.003651959
 61244099, -0.004657379, -0.01098695, 0.004635165, -0.003576131, -0.003167661, 0.002106508, 0.004512011, -0.00335274
 61299094, -0.003259151, 0.002090934, 0.00447387, -0.003323108, -0.004657379, -0.01098695, 0.004635165, -0.003576131
 61354167, -0.009249605, 0.007644935, 0.004525632, -0.003396594, -0.003259151, 0.002090934, 0.00447387, -0.003323108
 61409445, -0.01653084, 0.009524707, 0.004890724, -0.00346036, -0.009249605, 0.007644935, 0.004525632, -0.003396594
 61459427, -0.00887602, 0.00124531, 0.004566538, -0.003246048, -0.01653084, 0.009524707, 0.004890724, -0.00346036
 61514127, -0.002855615, 0.001810692, 0.00436916, -0.003242078, -0.00887602, 0.00124531, 0.004566538, -0.003246048
 61569125, -0.01141604, -0.002472571, 0.00457904, -0.003086159, -0.002855615, 0.001810692, 0.00436916, -0.003242078
 61624173, -0.008489789, 0.001175163, 0.004332887, -0.003064022, -0.01141604, -0.002472571, 0.00457904, -0.003086159
 61679057, -0.004828643, 0.01655555, 0.004218563, -0.003826153, -0.008489789, 0.001175163, 0.004332887, -0.003064022
 61734478, -0.002595214, 0.002019886, 0.004079074, -0.003031318, -0.004828643, 0.01655555, 0.004218563, -0.003826153
 61789034, -0.0004838498, -0.01260898, 0.00411811, -0.003446881, -0.002595214, 0.002019886, 0.004079074, -0.003031318
 61844173, -0.01235854, 0.006094851, 0.004431665, -0.003116405, -0.0004838498, -0.01260898, 0.00411811, -0.003446881
 61899085, -0.004204741, 0.003859285, 0.004058508, -0.003031351, -0.01235854, 0.006094851, 0.004431665, -0.003116405
 61954140, -0.003516961, 0.007147571, 0.004048828, -0.003148233, -0.004204741, 0.003859285, 0.004058508, -0.003031351
 62009432, -0.003287679, 0.004035102, 0.00403027, -0.003028111, -0.003516961, 0.007147571, 0.004048828, -0.003148233
 62064106, -0.02014825, -0.003422312, 0.005224389, -0.002963179, -0.003287679, 0.004035102, 0.00403027, -0.003028111
 62119127, -0.005108621, -0.001374411, 0.004321932, -0.003143271, -0.02014825, -0.003422312, 0.005224389, -0.002963179
 62174112, -0.003065445, 0.005125088, 0.004210411, -0.00318634, -0.005108621, -0.001374411, 0.004321932, -0.003143271
 62229109, -0.01355567, 0.01252118, 0.00463017, -0.003600047, -0.003065445, 0.005125088, 0.004210411, -0.00318634
 62284549, -0.01244881, 0.0037983, 0.004676762, -0.003234771, -0.01355567, 0.01252118, 0.00463017, -0.003600047
 62339100, 0.005035339, -0.002895275, 0.004323083, -0.003187774, -0.01244881, 0.0037983, 0.004676762, -0.003234771
 62389064, -0.005928364, 0.001304526, 0.004284329, -0.00311076, 0.005035339, -0.002895275, 0.004323083, -0.003187774
 62444130, 0.002913276, 0.005423657, 0.004171421, -0.003122241, -0.005928364, 0.001304526, 0.004284329, -0.00311076
 62499109, -0.00990008, 0.009520542, 0.004335205, -0.003333375, 0.002913276, 0.005423657, 0.004171421, -0.003122241
 62554150, -0.006214857, 0.0003409999, 0.004301243, -0.003102014, -0.00990008, 0.009520542, 0.004335205, -0.003333375
 62609585, -0.001102002, -0.008111238, 0.004365134, -0.003359472, -0.006214857, 0.0003409999, 0.004301243, -0.003102014
 62664100, -0.009141014, 0.003470046, 0.004594389, -0.003295598, -0.001102002, -0.008111238, 0.004365134, -0.003359472
 62719256, -0.008419119, 0.01228728, 0.004625596, -0.003694473, -0.009141014, 0.003470046, 0.004594389, -0.003295598
 62774127, -0.01086419, 0.01222371, 0.004736558, -0.003709834, -0.008419119, 0.01228728, 0.004625596, -0.003694473
 62829110, -0.001520278, 0.005863416, 0.004533028, -0.003419598, -0.01086419, 0.01222371, 0.004736558, -0.003709834
 62884177, 0.01312453, 0.002979527, 0.004776139, -0.003132179, -0.001520278, 0.005863416, 0.004533028, -0.003419598
 62939045, 0.00196899, 0.00341147, 0.004310909, -0.003191058, 0.01312453, 0.002979527, 0.004776139, -0.003132179
 62995027, 0.01067855, 0.011849, 0.004768402, -0.003412799, 0.00196899, 0.00341147, 0.004310909, -0.003191058
 63049045, 0.009520736, 0.03403651, 0.005176401, -0.005209216, 0.01067855, 0.011849, 0.004768402, -0.003412799
 63104167, 0.05318078, 0.0128503, 0.009158646, -0.002428538, 0.009520736, 0.03403651, 0.005176401, -0.005209216
 63154104, 0.002663191, 0.006249992, 0.00422299, -0.003161233, 0.05318078, 0.0128503, 0.009158646, -0.002428538
 63209073, -0.003810993, -0.01300349, 0.004272575, -0.003436458, 0.002663191, 0.006249992, 0.00422299, -0.003161233
 63264129, 0.05655995, -0.01063373, 0.009444796, -0.003168016, -0.003810993, -0.01300349, 0.004272575, -0.003436458
 63319519, 0.04373481, -0.05729478, 0.007748754, -0.009063734, 0.05655995, -0.01063373, 0.009444796, -0.003168016
 63374178, 0.07096991, -0.08554515, 0.01118675, -0.01283039, 0.04373481, -0.05729478, 0.007748754, -0.009063734
 63424094, 0.06632388, -0.09513691, 0.01040391, -0.01381735, 0.07096991, -0.08554515, 0.01118675, -0.01283039
 63479063, 0.06686921, -0.1193183, 0.01042647, -0.01687069, 0.06632388, -0.09513691, 0.01040391, -0.01381735
 63534153, 0.03243426, -0.2036635, 0.008330837, -0.02783736, 0.06686921, -0.1193183, 0.01042647, -0.01687069
 63589060, 0.03856773, -0.2259759, 0.008683597, -0.02992919, 0.03243426, -0.2036635, 0.008330837, -0.02783736
 63644875, 0.04898791, -0.1834073, 0.008639405, -0.0237824, 0.03856773, -0.2259759, 0.008683597, -0.02992919
 63694512, 0.07798842, -0.2965498, 0.0118886, -0.03885233, 0.04898791, -0.1834073, 0.008639405, -0.0237824
 63749067, 0.0192539, -0.3625583, 0.01318287, -0.04677248, 0.07798842, -0.2965498, 0.0118886, -0.03885233
 63804139, 0.06937078, -0.4648398, 0.01289458, -0.05091881, 0.0192539, -0.3625583, 0.01318287, -0.04677248
 63859071, 0.1296564, -0.5219947, 0.01554369, -0.05080763, 0.06937078, -0.4648398, 0.01289458, -0.05091881
 63914184, 0.1139458, -0.5863589, 0.01507959, -0.05238811, 0.1296564, -0.5219947, 0.01554369, -0.05080763
 63969406, 0.1081441, -0.7016292, 0.01641561, -0.05620615, 0.1139458, -0.5863589, 0.01507959, -0.05238811
 64024099, 0.1659953, -0.7703345, 0.01852404, -0.0565614, 0.1081441, -0.7016292, 0.01641561, -0.05620615
 64079065, 0.1930898, -0.943368, 0.0215136, -0.06223305, 0.1659953, -0.7703345, 0.01852404, -0.0565614
 64134123, 0.2036301, -0.9806204, 0.02303624, -0.06174447, 0.1930898, -0.943368, 0.0215136, -0.06223305
 64189040, 0.2567087, -1.073348, 0.02637116, -0.06418657, 0.2036301, -0.9806204, 0.02303624, -0.06174447
 64244679, 0.2512195, -1.267528, 0.02902618, -0.07305726, 0.2567087, -1.073348, 0.02637116, -0.06418657
 64294544, 0.2226397, -1.252415, 0.02996605, -0.07082329, 0.2512195, -1.267528, 0.02902618, -0.07305726
 64349063, 0.2538215, -1.311734, 0.03260532, -0.07285462, 0.2226397, -1.252415, 0.02996605, -0.07082329
 64404165, 0.3201859, -1.408494, 0.03678725, -0.07694261, 0.2538215, -1.311734, 0.03260532, -0.07285462
 64459101, 0.3714322, -1.506836, 0.0406049, -0.08137858, 0.3201859, -1.408494, 0.03678725, -0.07694261
 64514113, 0.3562068, -1.49448, 0.04302993, -0.08010072, 0.3714322, -1.506836, 0.0406049, -0.08137858
 64569422, 0.3883369, -1.492877, 0.04619908, -0.07999676, 0.3562068, -1.49448, 0.04302993, -0.08010072
 64624096, 0.4063241, -1.567383, 0.05088528, -0.08366101, 0.3883369, -1.492877, 0.04619908, -0.07999676
 64679093, 0.3574089, -1.557488, 0.05377436, -0.08317393, 0.4063241, -1.567383, 0.05088528, -0.08366101
 64734161, 0.4063219, -1.519362, 0.05643796, -0.08212744, 0.3574089, -1.557488, 0.05377436, -0.08317393
 64789061, 0.54852, -1.475739, 0.06204112, -0.08177343, 0.4063219, -1.519362, 0.05643796, -0.08212744
 64844792, 0.4710583, -1.562308, 0.06604467, -0.08633874, 0.54852, -1.475739, 0.06204112, -0.08177343
 64899054, 0.3121381, -1.592159, 0.07051973, -0.08816786, 0.4710583, -1.562308, 0.06604467, -0.08633874
 64949098, 0.3394505, -1.624928, 0.07401749, -0.09069769, 0.3121381, -1.592159, 0.07051973, -0.08816786
 65004150, 0.4100517, -1.524227, 0.08049467, -0.08960126, 0.3394505, -1.624928, 0.07401749, -0.09069769
 65059068, 0.3879607, -1.556729, 0.08624343, -0.09310444, 0.4100517, -1.524227, 0.08049467, -0.08960126
 65114151, 0.453539, -1.587283, 0.09131699, -0.09652625, 0.3879607, -1.556729, 0.08624343, -0.09310444
 65169432, 0.3577117, -1.701975, 0.09839595, -0.1032955, 0.453539, -1.587283, 0.09131699, -0.09652625
 65224102, 0.1609475, -1.783634, 0.1064883, -0.1084213, 0.3577117, -1.701975, 0.09839595, -0.1032955
 65279082, 0.1915713, -1.676506, 0.111784, -0.1080392, 0.1609475, -1.783634, 0.1064883, -0.1084213
 65334159, 0.2552576, -1.71757, 0.1183619, -0.1131701, 0.1915713, -1.676506, 0.111784, -0.1080392
 65389045, 0.3504818, -1.598947, 0.1246731, -0.1135938, 0.2552576, -1.71757, 0.1183619, -0.1131701
 65444893, 0.1676352, -1.663119, 0.1343865, -0.1199755, 0.3504818, -1.598947, 0.1246731, -0.1135938
 65499060, 0.0281481, -1.738399, 0.1432841, -0.1261014, 0.1676352, -1.663119, 0.1343865, -0.1199755
 65549061, -0.008595926, -1.515203, 0.1482603, -0.1235954, 0.0281481, -1.738399, 0.1432841, -0.1261014
 65604120, -0.09599598, -1.822785, 0.1588909, -0.1362444, -0.008595926, -1.515203, 0.1482603, -0.1235954
 65659106, -0.01180487, -1.651099, 0.1662985, -0.1381421, -0.09599598, -1.822785, 0.1588909, -0.1362444
 65714209, -0.09240194, -1.893132, 0.1740741, -0.1477429, -0.01180487, -1.651099, 0.1662985, -0.1381421
 65769623, 0.02379501, -1.79366, 0.1819283, -0.1514919, -0.09240194, -1.893132, 0.1740741, -0.1477429
 65824422, 0.1140526, -1.768877, 0.1919409, -0.1578457, 0.02379501, -1.79366, 0.1819283, -0.1514919
 65879113, -0.2726565, -1.512885, 0.2010248, -0.156477, 0.1140526, -1.768877, 0.1919409, -0.1578457
 65934188, -0.09405564, -1.716751, 0.2072102, -0.165095, -0.2726565, -1.512885, 0.2010248, -0.156477
 65989113, 0.1444292, -1.614662, 0.2153531, -0.1698707, -0.09405564, -1.716751, 0.2072102, -0.165095
 66045709, -0.3144445, -1.670564, 0.227464, -0.1758291, 0.1444292, -1.614662, 0.2153531, -0.1698707
 66099100, -0.1104601, -1.621072, 0.2343654, -0.1812095, -0.3144445, -1.670564, 0.227464, -0.1758291
 66154177, 0.0113127, -1.655271, 0.2421834, -0.1876812, -0.1104601, -1.621072, 0.2343654, -0.1812095
 66204142, -0.3822658, -1.714983, 0.2524915, -0.1932623, 0.0113127, -1.655271, 0.2421834, -0.1876812
 66259252, -0.2980383, -1.895667, 0.264203, -0.2043958, -0.3822658, -1.714983, 0.2524915, -0.1932623
 66314194, -0.34975, -1.734874, 0.2689872, -0.2052469, -0.2980383, -1.895667, 0.264203, -0.2043958
 66369500, 0.02456641, -2.051272, 0.2790194, -0.2193803, -0.34975, -1.734874, 0.2689872, -0.2052469
 66424182, -0.3279584, -1.606131, 0.2873168, -0.2169502, 0.02456641, -2.051272, 0.2790194, -0.2193803
 66479130, -0.1437346, -1.747121, 0.2952529, -0.2258178, -0.3279584, -1.606131, 0.2873168, -0.2169502
 66534186, -0.3518588, -1.832104, 0.301965, -0.2301669, -0.1437346, -1.747121, 0.2952529, -0.2258178
 66589107, -0.0002615154, -1.696316, 0.3078649, -0.2343426, -0.3518588, -1.832104, 0.301965, -0.2301669
 66645687, 0.1195233, -1.728186, 0.3151158, -0.2405338, -0.0002615154, -1.696316, 0.3078649, -0.2343426
 66699094, -0.3001962, -1.574259, 0.3214891, -0.2417452, 0.1195233, -1.728186, 0.3151158, -0.2405338
 66754182, -0.4807372, -1.58367, 0.326141, -0.2444747, -0.3001962, -1.574259, 0.3214891, -0.2417452
 66809124, -0.2507485, -1.776705, 0.331031, -0.2518323, -0.4807372, -1.58367, 0.326141, -0.2444747
 66859227, -0.9598141, -1.780697, 0.3407801, -0.252899, -0.2507485, -1.776705, 0.331031, -0.2518323
 66914169, -0.4442507, -1.698959, 0.3393005, -0.2550445, -0.9598141, -1.780697, 0.3407801, -0.252899
 66969484, -0.1884381, -1.535047, 0.3420707, -0.2566036, -0.4442507, -1.698959, 0.3393005, -0.2550445
 67024149, -0.3406077, -1.755594, 0.3464388, -0.2616006, -0.1884381, -1.535047, 0.3420707, -0.2566036
 67079084, -0.379572, -1.767482, 0.3501548, -0.2639074, -0.3406077, -1.755594, 0.3464388, -0.2616006
 67134415, -0.8211861, -1.78961, 0.3545838, -0.2640937, -0.379572, -1.767482, 0.3501548, -0.2639074
 67189318, -0.3790762, -1.488294, 0.352762, -0.2639036, -0.8211861, -1.78961, 0.3545838, -0.2640937
 67245841, -0.1355139, -1.622066, 0.3536607, -0.2676974, -0.3790762, -1.488294, 0.352762, -0.2639036
 67299113, -0.5188841, -1.561881, 0.3566512, -0.2673523, -0.1355139, -1.622066, 0.3536607, -0.2676974
 67354159, -0.2601898, -1.434691, 0.3558846, -0.2671807, -0.5188841, -1.561881, 0.3566512, -0.2673523
 67404144, -0.5578573, -1.47471, 0.3580031, -0.2676643, -0.2601898, -1.434691, 0.3558846, -0.2671807
 67459125, -0.7803203, -1.518228, 0.3596199, -0.26869, -0.5578573, -1.47471, 0.3580031, -0.2676643
 67514218, -0.475597, -1.598329, 0.3578231, -0.2711732, -0.7803203, -1.518228, 0.3596199, -0.26869
 67569494, -0.3620686, -1.233411, 0.3565379, -0.2684973, -0.475597, -1.598329, 0.3578231, -0.2711732
 67624142, -0.5012116, -0.8742533, 0.3568864, -0.2658501, -0.3620686, -1.233411, 0.3565379, -0.2684973
 67679096, -0.5495892, -1.501475, 0.3593796, -0.2708525, -0.5012116, -0.8742533, 0.3568864, -0.2658501
 67734207, -0.920673, -1.515663, 0.362628, -0.2699137, -0.5495892, -1.501475, 0.3593796, -0.2708525
 67789116, -0.4963452, -1.26643, 0.3599244, -0.2684701, -0.920673, -1.515663, 0.362628, -0.2699137
 67845764, -0.9230137, -1.375395, 0.3638553, -0.2680961, -0.4963452, -1.26643, 0.3599244, -0.2684701
 67899100, -0.7773297, -1.190537, 0.3630272, -0.2671116, -0.9230137, -1.375395, 0.3638553, -0.2680961
 67954174, -0.556834, -1.52116, 0.3629119, -0.2706503, -0.7773297, -1.190537, 0.3630272, -0.2671116
 68009343, -1.07154, -1.046979, 0.3658566, -0.2650382, -0.556834, -1.52116, 0.3629119, -0.2706503
 68059216, -0.8939494, -1.168725, 0.3642875, -0.266452, -1.07154, -1.046979, 0.3658566, -0.2650382
 68114171, -0.5043666, -1.530855, 0.3616674, -0.2712188, -0.8939494, -1.168725, 0.3642875, -0.266452
 68169489, -0.6803734, -1.151174, 0.3612114, -0.2675258, -0.5043666, -1.530855, 0.3616674, -0.2712188
 68224156, -0.9325892, -0.9281111, 0.3621769, -0.2660999, -0.6803734, -1.151174, 0.3612114, -0.2675258
 68279345, -0.1485504, -0.939218, 0.3577964, -0.2681374, -0.9325892, -0.9281111, 0.3621769, -0.2660999
 68334189, -0.5393016, -1.180521, 0.3597169, -0.2694241, -0.1485504, -0.939218, 0.3577964, -0.2681374
 68389098, -0.4368316, -0.997062, 0.3583752, -0.2682911, -0.5393016, -1.180521, 0.3597169, -0.2694241
 68445684, -0.0630276, -0.8946252, 0.356163, -0.2680891, -0.4368316, -0.997062, 0.3583752, -0.2682911
 68499323, -0.7274837, -0.8079631, 0.3584994, -0.2668311, -0.0630276, -0.8946252, 0.356163, -0.2680891
 68554198, -0.2061035, -0.4893883, 0.3560872, -0.2659423, -0.7274837, -0.8079631, 0.3584994, -0.2668311
 68604430, -0.29793, -0.5602657, 0.3561664, -0.2660769, -0.2061035, -0.4893883, 0.3560872, -0.2659423
 68659330, -0.3690028, -0.679318, 0.3564771, -0.2658723, -0.29793, -0.5602657, 0.3561664, -0.2660769
 68714170, -0.2401368, -0.7694598, 0.3564733, -0.2664477, -0.3690028, -0.679318, 0.3564771, -0.2658723
 68769499, -0.7040955, -0.5370061, 0.3583987, -0.2645062, -0.2401368, -0.7694598, 0.3564733, -0.2664477
 68824196, -0.08747094, -0.7030679, 0.3568206, -0.2654662, -0.7040955, -0.5370061, 0.3583987, -0.2645062
 68879081, -0.2741506, -0.992562, 0.357969, -0.2664593, -0.08747094, -0.7030679, 0.3568206, -0.2654662
 68934192, -0.2101492, -0.6877996, 0.3574557, -0.2642944, -0.2741506, -0.992562, 0.357969, -0.2664593
 68989117, -0.08923289, -0.7107848, 0.3571433, -0.2642056, -0.2101492, -0.6877996, 0.3574557, -0.2642944
 69045858, -0.04109688, -0.9326907, 0.3577872, -0.2648948, -0.08923289, -0.7107848, 0.3571433, -0.2642056
 69099101, 0.1960668, -0.91628, 0.3576305, -0.2650213, -0.04109688, -0.9326907, 0.3577872, -0.2648948
 69154175, 0.4798211, -0.8448357, 0.3582391, -0.2643012, 0.1960668, -0.91628, 0.3576305, -0.2650213
 69209123, 0.04819303, -1.315975, 0.3584484, -0.2673608, 0.4798211, -0.8448357, 0.3582391, -0.2643012
 69259245, 0.7249148, -1.177308, 0.3591131, -0.2666953, 0.04819303, -1.315975, 0.3584484, -0.2673608
 69314212, 0.7282104, -1.315584, 0.3593538, -0.2677222, 0.7249148, -1.177308, 0.3591131, -0.2666953
 69369497, 0.462096, -1.203181, 0.3585579, -0.2657847, 0.7282104, -1.315584, 0.3593538, -0.2677222
 69424168, 0.8382209, -1.357844, 0.3597163, -0.2672733, 0.462096, -1.203181, 0.3585579, -0.2657847
 69479095, 0.7346696, -1.147119, 0.3591192, -0.263883, 0.8382209, -1.357844, 0.3597163, -0.2672733
 69534185, 0.909958, -1.423291, 0.3604239, -0.2660369, 0.7346696, -1.147119, 0.3591192, -0.263883
 69589094, 1.301665, -0.8156524, 0.363206, -0.2591954, 0.909958, -1.423291, 0.3604239, -0.2660369
 69645707, 1.356205, -1.300539, 0.3635294, -0.2621985, 1.301665, -0.8156524, 0.363206, -0.2591954
 69699100, 0.9193712, -0.906475, 0.3600051, -0.2568513, 1.356205, -1.300539, 0.3635294, -0.2621985
 69754171, 1.290344, -1.171932, 0.3630389, -0.2588102, 0.9193712, -0.906475, 0.3600051, -0.2568513
 69809368, 1.122689, -0.7885323, 0.3616764, -0.2547015, 1.290344, -1.171932, 0.3630389, -0.2588102
 69859228, 0.8349673, -1.360111, 0.3595394, -0.2599853, 1.122689, -0.7885323, 0.3616764, -0.2547015
 69914187, 1.578176, -0.7635667, 0.3647809, -0.2547978, 0.8349673, -1.360111, 0.3595394, -0.2599853
 69969614, 1.060758, -0.8590765, 0.3588432, -0.2555943, 1.578176, -0.7635667, 0.3647809, -0.2547978
 70024213, 1.350306, -0.9353063, 0.3599761, -0.2566277, 1.060758, -0.8590765, 0.3588432, -0.2555943
 70079335, 1.094744, -0.7322789, 0.3564405, -0.2551536, 1.350306, -0.9353063, 0.3599761, -0.2566277
 70134184, 1.655456, -0.7176501, 0.3613651, -0.2551028, 1.094744, -0.7322789, 0.3564405, -0.2551536
 70189084, 0.7920102, -0.9238439, 0.3530724, -0.2574816, 1.655456, -0.7176501, 0.3613651, -0.2551028
 70245773, 1.540939, -1.057365, 0.3581515, -0.2590299, 0.7920102, -0.9238439, 0.3530724, -0.2574816
 70299106, 0.9365576, -0.3294704, 0.3517422, -0.2543381, 1.540939, -1.057365, 0.3581515, -0.2590299
 70354186, 1.529269, -0.8210301, 0.3564525, -0.2571195, 0.9365576, -0.3294704, 0.3517422, -0.2543381
 70409116, 1.14194, -0.3983448, 0.3523533, -0.2543096, 1.529269, -0.8210301, 0.3564525, -0.2571195
 70464179, 1.410411, -0.323986, 0.3539051, -0.2526067, 1.14194, -0.3983448, 0.3523533, -0.2543096
 70514175, 0.9798918, -0.386605, 0.349247, -0.2527363, 1.410411, -0.323986, 0.3539051, -0.2526067
 70569491, 1.405272, -0.8440252, 0.3525361, -0.2548091, 0.9798918, -0.386605, 0.349247, -0.2527363
 70624171, 1.548378, -0.5510368, 0.3539576, -0.2521034, 1.405272, -0.8440252, 0.3525361, -0.2548091
 70679101, 1.122739, -0.705613, 0.3490639, -0.2527435, 1.548378, -0.5510368, 0.3539576, -0.2521034
 70734189, 1.59763, -1.036834, 0.353618, -0.2550352, 1.122739, -0.705613, 0.3490639, -0.2527435
 70789122, 0.8358197, -1.02478, 0.3471074, -0.2544982, 1.59763, -1.036834, 0.353618, -0.2550352
 70845875, 1.703105, -0.8540969, 0.3547418, -0.2525419, 0.8358197, -1.02478, 0.3471074, -0.2544982
 70899102, 1.320858, -0.6201748, 0.3500716, -0.2501126, 1.703105, -0.8540969, 0.3547418, -0.2525419
 70954165, 1.0711, -0.9113486, 0.3476294, -0.2519271, 1.320858, -0.6201748, 0.3500716, -0.2501126
 71009115, 1.644588, -0.8092683, 0.3529728, -0.2503135, 1.0711, -0.9113486, 0.3476294, -0.2519271
 71059213, 1.597858, -1.375189, 0.3518716, -0.2557298, 1.644588, -0.8092683, 0.3529728, -0.2503135
 71114216, 1.237158, -0.9121183, 0.3479621, -0.2498723, 1.597858, -1.375189, 0.3518716, -0.2557298
 71169492, 1.345653, -1.347722, 0.3483966, -0.2539828, 1.237158, -0.9121183, 0.3479621, -0.2498723
 71224155, 1.78694, -0.3972191, 0.3531126, -0.2446175, 1.345653, -1.347722, 0.3483966, -0.2539828
 71279098, 1.649093, -1.031898, 0.3501318, -0.2497476, 1.78694, -0.3972191, 0.3531126, -0.2446175
 71334434, 1.780684, -0.9461719, 0.3513112, -0.2489192, 1.649093, -1.031898, 0.3501318, -0.2497476
 71389292, 1.471457, -0.6329413, 0.3467116, -0.2464992, 1.780684, -0.9461719, 0.3513112, -0.2489192
 71445693, 1.526428, -0.8203003, 0.346322, -0.2482041, 1.471457, -0.6329413, 0.3467116, -0.2464992
 71499110, 1.909369, -0.6210917, 0.3500449, -0.2462259, 1.526428, -0.8203003, 0.346322, -0.2482041
 71554177, 2.051006, -0.7704334, 0.3511061, -0.2476963, 1.909369, -0.6210917, 0.3500449, -0.2462259
 71604162, 1.911045, -0.3082458, 0.3492655, -0.2444355, 2.051006, -0.7704334, 0.3511061, -0.2476963
 71659128, 2.310872, -1.245675, 0.3544244, -0.2525766, 1.911045, -0.3082458, 0.3492655, -0.2444355
 71714160, 2.088061, -0.6039094, 0.351098, -0.2459291, 2.310872, -1.245675, 0.3544244, -0.2525766
 71769499, 1.967376, -0.6390949, 0.349009, -0.246065, 2.088061, -0.6039094, 0.351098, -0.2459291
 71824190, 1.862093, -0.8058957, 0.3468961, -0.2475948, 1.967376, -0.6390949, 0.349009, -0.246065
 71879227, 1.986355, -1.052561, 0.3482122, -0.249652, 1.862093, -0.8058957, 0.3468961, -0.2475948
 71934188, 2.163445, -0.3351668, 0.3513535, -0.2433887, 1.986355, -1.052561, 0.3482122, -0.249652
 71989109, 2.43342, -0.6753108, 0.3549812, -0.2455528, 2.163445, -0.3351668, 0.3513535, -0.2433887
 72045711, 1.888332, -0.7176964, 0.3455344, -0.2466467, 2.43342, -0.6753108, 0.3549812, -0.2455528
 72099098, 2.028833, -0.5480338, 0.3472481, -0.245103, 1.888332, -0.7176964, 0.3455344, -0.2466467
 72154183, 2.474989, -0.119816, 0.3550712, -0.2420812, 2.028833, -0.5480338, 0.3472481, -0.245103
 72209208, 2.563407, -0.1470017, 0.356364, -0.2416506, 2.474989, -0.119816, 0.3550712, -0.2420812
 72259242, 2.889606, 0.01759015, 0.3632222, -0.2397508, 2.563407, -0.1470017, 0.356364, -0.2416506
 72314178, 2.696105, -0.1475208, 0.3589297, -0.2406827, 2.889606, 0.01759015, 0.3632222, -0.2397508
 72369504, 2.052337, -0.1345386, 0.3471704, -0.2416074, 2.696105, -0.1475208, 0.3589297, -0.2406827
 72424163, 2.525005, 0.1110194, 0.3553146, -0.2389865, 2.052337, -0.1345386, 0.3471704, -0.2416074
 72479109, 2.536083, -0.2149942, 0.3539545, -0.2397523, 2.525005, 0.1110194, 0.3553146, -0.2389865
 72534199, 2.189862, -0.1959408, 0.3473407, -0.2399456, 2.536083, -0.2149942, 0.3539545, -0.2397523
 72589092, 2.058069, -0.5414445, 0.3440366, -0.2418995, 2.189862, -0.1959408, 0.3473407, -0.2399456
 72645842, 2.431909, -0.5177161, 0.3499122, -0.2410725, 2.058069, -0.5414445, 0.3440366, -0.2418995
 72699302, 1.924988, -0.2926002, 0.3408519, -0.2400917, 2.431909, -0.5177161, 0.3499122, -0.2410725
 72754427, 2.519976, -0.7796132, 0.3501707, -0.2425088, 1.924988, -0.2926002, 0.3408519, -0.2400917
 72804476, 1.778436, -0.2549359, 0.3384317, -0.2395546, 2.519976, -0.7796132, 0.3501707, -0.2425088
 72859351, 2.473577, 0.07253093, 0.3510058, -0.2373269, 1.778436, -0.2549359, 0.3384317, -0.2395546
 72914198, 2.18114, 0.04851637, 0.3449696, -0.238672, 2.473577, 0.07253093, 0.3510058, -0.2373269
 72969497, 1.985766, 0.5263858, 0.3421803, -0.2388021, 2.18114, 0.04851637, 0.3449696, -0.238672
 73024152, 2.471583, -0.1014491, 0.3493804, -0.2386131, 1.985766, 0.5263858, 0.3421803, -0.2388021
 73079113, 1.976621, 0.1920034, 0.3415658, -0.2389445, 2.471583, -0.1014491, 0.3493804, -0.2386131
 73134196, 2.383068, 0.390638, 0.3496451, -0.237388, 1.976621, 0.1920034, 0.3415658, -0.2389445
 73189097, 2.587847, 0.04943556, 0.3532313, -0.2367707, 2.383068, 0.390638, 0.3496451, -0.237388
 73245705, 2.813478, 0.5638182, 0.3604492, -0.2355554, 2.587847, 0.04943556, 0.3532313, -0.2367707
 73299124, 2.453849, 0.1737856, 0.3525441, -0.2364285, 2.813478, 0.5638182, 0.3604492, -0.2355554
 73354186, 2.762096, 0.1315439, 0.3593766, -0.234638, 2.453849, 0.1737856, 0.3525441, -0.2364285
 73404165, 2.849711, 0.01713028, 0.3613523, -0.2344002, 2.762096, 0.1315439, 0.3593766, -0.234638
 73459211, 2.868201, -0.5993055, 0.3605203, -0.2386104, 2.849711, 0.01713028, 0.3613523, -0.2344002
 73514152, 2.902008, -0.0824592, 0.3624574, -0.2348795, 2.868201, -0.5993055, 0.3605203, -0.2386104
 73569476, 3.335779, -0.03976885, 0.3725129, -0.2335758, 2.902008, -0.0824592, 0.3624574, -0.2348795
 73624133, 3.108272, -0.4673884, 0.3660142, -0.2373098, 3.335779, -0.03976885, 0.3725129, -0.2335758
 73679122, 3.363342, -0.3923425, 0.3724153, -0.2360016, 3.108272, -0.4673884, 0.3660142, -0.2373098
 73734202, 3.156282, -0.3244864, 0.3674456, -0.2362183, 3.363342, -0.3923425, 0.3724153, -0.2360016
 73789103, 3.313618, -0.2513513, 0.3712124, -0.2350199, 3.156282, -0.3244864, 0.3674456, -0.2362183
 73845767, 3.531284, -0.0422756, 0.3773102, -0.2332662, 3.313618, -0.2513513, 0.3712124, -0.2350199
 73899088, 3.415801, -0.2108045, 0.3738695, -0.2351876, 3.531284, -0.0422756, 0.3773102, -0.2332662
 73954167, 3.351957, 0.3376514, 0.3736701, -0.2335159, 3.415801, -0.2108045, 0.3738695, -0.2351876
 74004168, 3.067327, -0.1725051, 0.3652676, -0.2364816, 3.351957, 0.3376514, 0.3736701, -0.2335159
 74059210, 3.940401, -0.1612857, 0.3878407, -0.2340377, 3.067327, -0.1725051, 0.3652676, -0.2364816
 74114175, 3.548437, -0.230955, 0.3775002, -0.2358157, 3.940401, -0.1612857, 0.3878407, -0.2340377
 74169609, 3.729258, -0.2836243, 0.3822362, -0.2358824, 3.548437, -0.230955, 0.3775002, -0.2358157
 74224214, 3.623112, -0.6793659, 0.3781767, -0.2404266, 3.729258, -0.2836243, 0.3822362, -0.2358824
 74279211, 3.336034, -0.3240664, 0.3717399, -0.2379796, 3.623112, -0.6793659, 0.3781767, -0.2404266
 74334196, 3.684017, 0.1312831, 0.3817774, -0.2344708, 3.336034, -0.3240664, 0.3717399, -0.2379796
 74389082, 3.472554, -0.5572983, 0.3737597, -0.2402741, 3.684017, 0.1312831, 0.3817774, -0.2344708
 74445838, 3.907824, -0.4893458, 0.3851514, -0.2384021, 3.472554, -0.5572983, 0.3737597, -0.2402741
 74499110, 3.371422, -0.1665916, 0.3718766, -0.2376063, 3.907824, -0.4893458, 0.3851514, -0.2384021
 74554163, 4.354542, -0.3243071, 0.3980707, -0.2360107, 3.371422, -0.1665916, 0.3718766, -0.2376063
 74604151, 3.626265, -0.5913719, 0.3773121, -0.2408573, 4.354542, -0.3243071, 0.3980707, -0.2360107
 74659212, 3.717519, -0.8549925, 0.3784822, -0.2437853, 3.626265, -0.5913719, 0.3773121, -0.2408573
 74714206, 4.179982, -0.4239209, 0.3915678, -0.2384149, 3.717519, -0.8549925, 0.3784822, -0.2437853
 74769504, 3.898307, -0.4176594, 0.3834896, -0.2389663, 4.179982, -0.4239209, 0.3915678, -0.2384149
 74824171, 4.19136, -0.5709882, 0.391177, -0.239547, 3.898307, -0.4176594, 0.3834896, -0.2389663
 74879097, 4.242266, -0.7358313, 0.3928399, -0.2418182, 4.19136, -0.5709882, 0.391177, -0.239547
 74934181, 4.20044, -0.2562119, 0.3931865, -0.2377152, 4.242266, -0.7358313, 0.3928399, -0.2418182
 74989085, 3.740322, -0.5718887, 0.3794372, -0.242366, 4.20044, -0.2562119, 0.3931865, -0.2377152
 75045712, 4.490233, -0.5791647, 0.4003115, -0.2408925, 3.740322, -0.5718887, 0.3794372, -0.242366
 75099231, 4.213588, -0.4797195, 0.3926582, -0.2402104, 4.490233, -0.5791647, 0.4003115, -0.2408925
 75154182, 3.817341, -0.7252357, 0.381366, -0.2432246, 4.213588, -0.4797195, 0.3926582, -0.2402104
 75204167, 4.041646, -0.4015567, 0.3884936, -0.2398408, 3.817341, -0.7252357, 0.381366, -0.2432246
 75259206, 3.825788, -0.4153791, 0.3827107, -0.2409036, 4.041646, -0.4015567, 0.3884936, -0.2398408
 75314193, 3.645676, -0.7921373, 0.3769315, -0.2456503, 3.825788, -0.4153791, 0.3827107, -0.2409036
 75369496, 4.164716, -0.3831942, 0.3922043, -0.2403561, 3.645676, -0.7921373, 0.3769315, -0.2456503
 75424134, 3.394437, -0.2109967, 0.3724068, -0.2409401, 4.164716, -0.3831942, 0.3922043, -0.2403561
 75479307, 4.251435, -0.2563598, 0.3955205, -0.2390189, 3.394437, -0.2109967, 0.3724068, -0.2409401
 75534402, 3.926095, -0.03627549, 0.3872393, -0.2387284, 4.251435, -0.2563598, 0.3955205, -0.2390189
 75589118, 4.115772, 0.1750761, 0.3932925, -0.2365081, 3.926095, -0.03627549, 0.3872393, -0.2387284
 75645665, 4.411043, 0.3962367, 0.4025054, -0.2344146, 4.115772, 0.1750761, 0.3932925, -0.2365081
 75699085, 3.968769, 0.2952304, 0.3891102, -0.2360108, 4.411043, 0.3962367, 0.4025054, -0.2344146
 75754171, 3.820243, -0.03084331, 0.3840014, -0.2374411, 3.968769, 0.2952304, 0.3891102, -0.2360108
 75804186, 4.034465, -0.1216725, 0.3891754, -0.2364209, 3.820243, -0.03084331, 0.3840014, -0.2374411
 75859131, 3.42742, 0.1905685, 0.3737644, -0.236237, 4.034465, -0.1216725, 0.3891754, -0.2364209
 75914174, 3.093733, 0.3406908, 0.3663743, -0.2370778, 3.42742, 0.1905685, 0.3737644, -0.236237
 75969494, 3.493875, 0.475786, 0.3764111, -0.2363878, 3.093733, 0.3406908, 0.3663743, -0.2370778
 76024156, 3.367766, -0.07520626, 0.370876, -0.2387452, 3.493875, 0.475786, 0.3764111, -0.2363878
 76079091, 3.202811, 0.2446797, 0.3676392, -0.2380854, 3.367766, -0.07520626, 0.370876, -0.2387452
 76134308, 3.214479, 0.1841633, 0.3678975, -0.2380184, 3.202811, 0.2446797, 0.3676392, -0.2380854
 76189105, 2.943398, 0.3083136, 0.3623589, -0.2384043, 3.214479, 0.1841633, 0.3678975, -0.2380184
 76245852, 3.036987, 0.2300797, 0.3646689, -0.2384076, 2.943398, 0.3083136, 0.3623589, -0.2384043
 76299215, 3.010475, 0.1111953, 0.3637713, -0.239244, 3.036987, 0.2300797, 0.3646689, -0.2384076
 76354172, 3.030412, 0.14609, 0.3645807, -0.2389474, 3.010475, 0.1111953, 0.3637713, -0.239244
 76404158, 2.927348, 0.1420166, 0.3620636, -0.2395372, 3.030412, 0.14609, 0.3645807, -0.2389474
 76459111, 2.340532, 0.2075304, 0.3502519, -0.2408759, 2.927348, 0.1420166, 0.3620636, -0.2395372
 76514204, 3.085429, 0.4017255, 0.3664673, -0.2390757, 2.340532, 0.2075304, 0.3502519, -0.2408759
 76569476, 2.580446, 0.3668599, 0.3554309, -0.2411468, 3.085429, 0.4017255, 0.3664673, -0.2390757
 76624164, 2.101874, 0.758109, 0.3476946, -0.2437241, 2.580446, 0.3668599, 0.3554309, -0.2411468
 76679091, 2.307995, 0.1667741, 0.3498652, -0.2430687, 2.101874, 0.758109, 0.3476946, -0.2437241
 76734178, 2.527638, 1.083218, 0.3573924, -0.2438241, 2.307995, 0.1667741, 0.3498652, -0.2430687
 76789104, 2.605748, 0.7001609, 0.3579364, -0.2418422, 2.527638, 1.083218, 0.3573924, -0.2438241
 76845711, 2.660618, 0.2003922, 0.3577, -0.2415364, 2.605748, 0.7001609, 0.3579364, -0.2418422
 76899129, 2.47105, 1.10917, 0.3566535, -0.2439948, 2.660618, 0.2003922, 0.3577, -0.2415364
 76954188, 2.264932, 0.2171611, 0.3496686, -0.2424821, 2.47105, 1.10917, 0.3566535, -0.2439948
 77004404, 2.270835, 0.6922971, 0.351171, -0.2426721, 2.264932, 0.2171611, 0.3496686, -0.2424821
 77059315, 2.13078, 0.6405832, 0.349027, -0.2429534, 2.270835, 0.6922971, 0.351171, -0.2426721
 77114156, 2.405699, 0.6651094, 0.354257, -0.2421648, 2.13078, 0.6405832, 0.349027, -0.2429534
 77169474, 2.210638, 0.6428351, 0.3506011, -0.2425821, 2.405699, 0.6651094, 0.354257, -0.2421648
 77224171, 2.301672, 0.732353, 0.3524783, -0.2425393, 2.210638, 0.6428351, 0.3506011, -0.2425821
 77279331, 1.801156, 0.4717359, 0.3435372, -0.2429409, 2.301672, 0.732353, 0.3524783, -0.2425393
 77334183, 2.196468, 0.1478878, 0.3491041, -0.2420505, 1.801156, 0.4717359, 0.3435372, -0.2429409
 77389089, 1.830365, 0.7201207, 0.3445235, -0.243352, 2.196468, 0.1478878, 0.3491041, -0.2420505
 77445665, 1.912781, 0.314507, 0.3445933, -0.2425283, 1.830365, 0.7201207, 0.3445235, -0.243352
 77494565, 1.976294, 0.3172884, 0.3456303, -0.242223, 1.912781, 0.314507, 0.3445933, -0.2425283
 77554196, 1.791113, 0.1604773, 0.3423732, -0.2427047, 1.976294, 0.3172884, 0.3456303, -0.242223
 77604170, 1.989324, 0.69638, 0.3468072, -0.2426046, 1.791113, 0.1604773, 0.3423732, -0.2427047
 77659128, 1.846844, 0.233727, 0.3432588, -0.2425333, 1.989324, 0.69638, 0.3468072, -0.2426046
 77714163, 1.605883, -0.08529244, 0.3390262, -0.2438993, 1.846844, 0.233727, 0.3432588, -0.2425333
 77769501, 1.960248, 0.6945088, 0.3453506, -0.2427016, 1.605883, -0.08529244, 0.3390262, -0.2438993
 77824186, 1.809713, 0.4459311, 0.342324, -0.2417363, 1.960248, 0.6945088, 0.3453506, -0.2427016
 77879082, 1.605763, 0.2468891, 0.338987, -0.2415515, 1.809713, 0.4459311, 0.342324, -0.2417363
 77934188, 1.963495, 0.2596238, 0.3444471, -0.240459, 1.605763, 0.2468891, 0.338987, -0.2415515
 77989072, 1.497341, 0.325498, 0.3379661, -0.2415786, 1.963495, 0.2596238, 0.3444471, -0.240459
 78045883, 1.910872, 0.07718933, 0.3433298, -0.2406944, 1.497341, 0.325498, 0.3379661, -0.2415786
 78094622, 1.784557, 0.2958031, 0.3415974, -0.2410156, 1.910872, 0.07718933, 0.3433298, -0.2406944
 78154171, 2.43957, 0.154332, 0.3523853, -0.2399984, 1.784557, 0.2958031, 0.3415974, -0.2410156
 78204137, 1.804167, 0.2168374, 0.3423173, -0.2416195, 2.43957, 0.154332, 0.3523853, -0.2399984
 78259123, 1.698285, 0.09328158, 0.3403878, -0.2417284, 1.804167, 0.2168374, 0.3423173, -0.2416195
 78314207, 1.899578, -0.03393608, 0.3429403, -0.2412971, 1.698285, 0.09328158, 0.3403878, -0.2417284
 78369644, 1.63201, -0.04058439, 0.339296, -0.2412555, 1.899578, -0.03393608, 0.3429403, -0.2412971
 78424398, 2.012762, -0.310926, 0.3445559, -0.2415106, 1.63201, -0.04058439, 0.339296, -0.2412555
 78479305, 1.684466, 0.4522471, 0.3417076, -0.2406221, 2.012762, -0.310926, 0.3445559, -0.2415106
 78534423, 1.937009, -0.01070627, 0.3446957, -0.2404815, 1.684466, 0.4522471, 0.3417076, -0.2406221
 78589273, 1.362534, 0.006691678, 0.3371113, -0.2413745, 1.937009, -0.01070627, 0.3446957, -0.2404815
 78639272, 1.668585, 0.01799627, 0.3410462, -0.2407733, 1.362534, 0.006691678, 0.3371113, -0.2413745
 78694749, 1.944555, -0.593895, 0.344117, -0.2434215, 1.668585, 0.01799627, 0.3410462, -0.2407733
 78754427, 1.794377, 0.2737949, 0.3434104, -0.2400298, 1.944555, -0.593895, 0.344117, -0.2434215
 78804439, 1.712234, -0.03296554, 0.3415054, -0.2407012, 1.794377, 0.2737949, 0.3434104, -0.2400298
 78859320, 1.259301, 0.2688012, 0.3362146, -0.2415081, 1.712234, -0.03296554, 0.3415054, -0.2407012
 78914354, 1.303913, -0.3366487, 0.3358235, -0.2435075, 1.259301, 0.2688012, 0.3362146, -0.2415081
 78969542, 1.173247, 0.1611158, 0.3353794, -0.2429933, 1.303913, -0.3366487, 0.3358235, -0.2435075
 79024389, 0.8990964, 0.07132339, 0.3333487, -0.2441506, 1.173247, 0.1611158, 0.3353794, -0.2429933
 79079425, 0.789748, 0.5039937, 0.333582, -0.245576, 0.8990964, 0.07132339, 0.3333487, -0.2441506
 79129251, 1.13355, 0.3686794, 0.3368896, -0.2447743, 0.789748, 0.5039937, 0.333582, -0.245576
 79184334, 0.7973887, 0.4110694, 0.3344454, -0.2456035, 1.13355, 0.3686794, 0.3368896, -0.2447743
 79239308, 0.810436, 0.1234449, 0.3344021, -0.2454889, 0.7973887, 0.4110694, 0.3344454, -0.2456035
 79294698, 0.7426751, 0.7160181, 0.3346306, -0.2469956, 0.810436, 0.1234449, 0.3344021, -0.2454889
 79354418, 0.6864681, 0.2062862, 0.3334066, -0.2458524, 0.7426751, 0.7160181, 0.3346306, -0.2469956
 79404396, 0.4114477, 0.05831986, 0.3328418, -0.2472162, 0.6864681, 0.2062862, 0.3334066, -0.2458524
 79459298, 0.4678193, 0.5115855, 0.3340802, -0.2483122, 0.4114477, 0.05831986, 0.3328418, -0.2472162
 79514400, 0.2867319, 0.09790326, 0.3332933, -0.2474735, 0.4678193, 0.5115855, 0.3340802, -0.2483122
 79569571, 0.5833476, 0.07169217, 0.3345926, -0.2476426, 0.2867319, 0.09790326, 0.3332933, -0.2474735
 79624394, 0.4278294, 0.4117865, 0.3347386, -0.2487315, 0.5833476, 0.07169217, 0.3345926, -0.2476426
 79674374, 0.2856518, 0.2144008, 0.3344388, -0.2485967, 0.4278294, 0.4117865, 0.3347386, -0.2487315
 79729309, 0.120518, 0.1910768, 0.3345289, -0.2487484, 0.2856518, 0.2144008, 0.3344388, -0.2485967
 79784366, 0.1323178, 0.5151013, 0.334961, -0.249634, 0.120518, 0.1910768, 0.3345289, -0.2487484
 79839432, 0.3340978, 0.132116, 0.3347884, -0.249047, 0.1323178, 0.5151013, 0.334961, -0.249634
 79894764, 0.07041027, 0.09971932, 0.3346407, -0.2494607, 0.3340978, 0.132116, 0.3347884, -0.249047
 79949288, 0.4964982, 0.3176179, 0.3366456, -0.2502655, 0.07041027, 0.09971932, 0.3346407, -0.2494607
 80004358, 0.1962956, 0.03603598, 0.3360853, -0.2509599, 0.4964982, 0.3176179, 0.3366456, -0.2502655
 80059292, 0.0822466, 0.384418, 0.336473, -0.252099, 0.1962956, 0.03603598, 0.3360853, -0.2509599
 80114529, -0.1568163, -0.06354687, 0.3367683, -0.2518758, 0.0822466, 0.384418, 0.336473, -0.252099
 80169566, 0.3434824, -0.01099295, 0.3373672, -0.252362, -0.1568163, -0.06354687, 0.3367683, -0.2518758
 80219602, 0.07551256, 0.208624, 0.337102, -0.2529143, 0.3434824, -0.01099295, 0.3373672, -0.252362
 80274406, 0.02021121, -0.1412445, 0.3368366, -0.2533737, 0.07551256, 0.208624, 0.337102, -0.2529143
 80329287, 0.202248, 0.281922, 0.3373739, -0.2542524, 0.02021121, -0.1412445, 0.3368366, -0.2533737
 80384547, 0.1855508, 0.3321378, 0.3376976, -0.2546493, 0.202248, 0.281922, 0.3373739, -0.2542524
 80439279, 0.02349672, -0.05908849, 0.3381384, -0.2542384, 0.1855508, 0.3321378, 0.3376976, -0.2546493
 80494674, -0.2680504, 0.1232837, 0.3388606, -0.2540879, 0.02349672, -0.05908849, 0.3381384, -0.2542384
 80549258, 0.007263871, 0.4142022, 0.3393516, -0.2551064, -0.2680504, 0.1232837, 0.3388606, -0.2540879
 80604424, 0.137387, -0.004593039, 0.3401274, -0.2544455, 0.007263871, 0.4142022, 0.3393516, -0.2551064
 80659295, -0.22815, -0.07652468, 0.3410441, -0.25466, 0.137387, -0.004593039, 0.3401274, -0.2544455
 80714432, 0.04847614, 0.2645357, 0.3412401, -0.2552055, -0.22815, -0.07652468, 0.3410441, -0.25466
 80764433, -0.05551593, 0.3083692, 0.3416946, -0.2556919, 0.04847614, 0.2645357, 0.3412401, -0.2552055
 80819577, -0.2897371, -0.2216215, 0.343107, -0.2560986, -0.05551593, 0.3083692, 0.3416946, -0.2556919
 80874348, 0.01671543, 0.03235303, 0.3434205, -0.2564413, -0.2897371, -0.2216215, 0.343107, -0.2560986
 80929276, -0.09296121, 0.4602495, 0.3444521, -0.2579091, 0.01671543, 0.03235303, 0.3434205, -0.2564413
 80984356, 0.06266784, 0.06881051, 0.3452305, -0.2571037, -0.09296121, 0.4602495, 0.3444521, -0.2579091
 81039292, -0.3251074, -0.03300252, 0.3461061, -0.2576545, 0.06266784, 0.06881051, 0.3452305, -0.2571037
 81094670, 0.08520056, 0.5065485, 0.345775, -0.2594339, -0.3251074, -0.03300252, 0.3461061, -0.2576545
 81149434, -0.1579103, -0.0001783554, 0.3464136, -0.2589181, 0.08520056, 0.5065485, 0.345775, -0.2594339
 81204505, -0.309732, -0.3972461, 0.3469844, -0.2605876, -0.1579103, -0.0001783554, 0.3464136, -0.2589181
 81259436, 0.2767848, 0.7744206, 0.3473766, -0.2629378, -0.309732, -0.3972461, 0.3469844, -0.2605876
 81309440, -0.5088773, -0.138137, 0.3477048, -0.2609785, 0.2767848, 0.7744206, 0.3473766, -0.2629378
 81364519, 0.1338066, 0.2003114, 0.3459911, -0.2621597, -0.5088773, -0.138137, 0.3477048, -0.2609785
 81419693, -0.05488431, 0.8783141, 0.3461734, -0.265599, 0.1338066, 0.2003114, 0.3459911, -0.2621597
 81474360, -0.5379779, -0.291576, 0.3472677, -0.2627543, -0.05488431, 0.8783141, 0.3461734, -0.265599
 81529279, -0.3253534, 0.07024176, 0.3463452, -0.2636589, -0.5379779, -0.291576, 0.3472677, -0.2627543
 81584412, -0.4142675, 0.1483575, 0.3469154, -0.2646458, -0.3253534, 0.07024176, 0.3463452, -0.2636589
 81639279, -0.2775035, -0.005136894, 0.3470672, -0.2644623, -0.4142675, 0.1483575, 0.3469154, -0.2646458
 81694637, -0.2076212, -0.01100273, 0.3470733, -0.2644521, -0.2775035, -0.005136894, 0.3470672, -0.2644623
 81749290, -0.0256261, 0.7382917, 0.3470779, -0.2669844, -0.2076212, -0.01100273, 0.3470733, -0.2644521
 81804381, -0.4380055, -0.4393644, 0.3479687, -0.2651723, -0.0256261, 0.7382917, 0.3470779, -0.2669844
 81859309, 0.01586245, 0.3014971, 0.3472126, -0.265243, -0.4380055, -0.4393644, 0.3479687, -0.2651723
 81909318, -0.08519839, 0.7085814, 0.3474707, -0.2670816, 0.01586245, 0.3014971, 0.3472126, -0.265243
 81964367, -0.6169421, 0.04628254, 0.3489065, -0.2645601, -0.08519839, 0.7085814, 0.3474707, -0.2670816
 82019565, 0.1836955, 0.08085439, 0.347199, -0.265014, -0.6169421, 0.04628254, 0.3489065, -0.2645601
 82074374, -0.2257245, 0.8972033, 0.3479588, -0.2686636, 0.1836955, 0.08085439, 0.347199, -0.265014
 82129256, -0.6028481, -0.4754505, 0.3500311, -0.2655368, -0.2257245, 0.8972033, 0.3479588, -0.2686636
 82184531, -0.4495677, 0.380446, 0.3483723, -0.2662498, -0.6028481, -0.4754505, 0.3500311, -0.2655368
 82239295, -0.3493357, 0.4154574, 0.3480823, -0.2665024, -0.4495677, 0.380446, 0.3483723, -0.2662498
 82294719, -0.9166215, -0.8416261, 0.3523753, -0.26721, -0.3493357, 0.4154574, 0.3480823, -0.2665024
 82349318, -0.08258431, 0.6578303, 0.3484178, -0.2675924, -0.9166215, -0.8416261, 0.3523753, -0.26721
 82404320, -0.6585269, 0.2291773, 0.3500244, -0.2659995, -0.08258431, 0.6578303, 0.3484178, -0.2675924
 82454527, -0.6440518, -0.4817971, 0.3508222, -0.2659954, -0.6585269, 0.2291773, 0.3500244, -0.2659995
 82509304, 0.1090925, 0.780318, 0.3494239, -0.2682104, -0.6440518, -0.4817971, 0.3508222, -0.2659954
 82564412, -0.4986398, 0.2269146, 0.3502067, -0.2663113, 0.1090925, 0.780318, 0.3494239, -0.2682104
 82619562, -0.5290281, -0.6345251, 0.3512401, -0.2672762, -0.4986398, 0.2269146, 0.3502067, -0.2663113
 82674536, -0.03382565, 0.7246215, 0.3497381, -0.2684223, -0.5290281, -0.6345251, 0.3512401, -0.2672762
 82729433, -0.4407244, 0.3335204, 0.3499037, -0.2666995, -0.03382565, 0.7246215, 0.3497381, -0.2684223
 82784407, -0.4569915, -0.5417114, 0.3504454, -0.2666023, -0.4407244, 0.3335204, 0.3499037, -0.2666995
 82839319, -0.1739761, 0.7630959, 0.3494322, -0.2682506, -0.4569915, -0.5417114, 0.3504454, -0.2666023
 82894637, -0.4542881, 0.228196, 0.3503633, -0.2658733, -0.1739761, 0.7630959, 0.3494322, -0.2682506
 82945761, -0.1155237, -0.2512487, 0.349755, -0.2663499, -0.4542881, 0.228196, 0.3503633, -0.2658733
 83004335, 0.1329342, 1.067168, 0.3504318, -0.2708724, -0.1155237, -0.2512487, 0.349755, -0.2663499
 83054396, -0.4642744, 0.2348031, 0.3505508, -0.2667415, 0.1329342, 1.067168, 0.3504318, -0.2708724
 83109307, -0.3277621, -0.4603642, 0.3507493, -0.2672914, -0.4642744, 0.2348031, 0.3505508, -0.2667415
 83164391, 0.2432247, 0.7438734, 0.350777, -0.2688518, -0.3277621, -0.4603642, 0.3507493, -0.2672914
 83219720, -0.1213622, -0.1034484, 0.3501731, -0.2667957, 0.2432247, 0.7438734, 0.350777, -0.2688518
 83274373, -0.1198627, -0.296421, 0.3500597, -0.2672636, -0.1213622, -0.1034484, 0.3501731, -0.2667957
 83329296, 0.3113594, 0.7582219, 0.3506503, -0.2691157, -0.1198627, -0.296421, 0.3500597, -0.2672636
 83384406, -0.4137437, -0.02774767, 0.3506749, -0.2673277, 0.3113594, 0.7582219, 0.3506503, -0.2691157
 83439272, -0.456575, -0.2485629, 0.3511642, -0.2677724, -0.4137437, -0.02774767, 0.3506749, -0.2673277
 83489480, 0.2068496, 0.8078614, 0.3506832, -0.270351, -0.456575, -0.2485629, 0.3511642, -0.2677724
 83545807, -0.2514097, -0.1300864, 0.3502143, -0.267694, 0.2068496, 0.8078614, 0.3506832, -0.270351
 83599279, -0.3529859, -0.6094851, 0.3505336, -0.2686915, -0.2514097, -0.1300864, 0.3502143, -0.267694
 83654391, -0.03782763, 0.9480755, 0.3503833, -0.2704416, -0.3529859, -0.6094851, 0.3505336, -0.2686915
 83709296, -0.4241917, 0.02725987, 0.3508854, -0.2663666, -0.03782763, 0.9480755, 0.3503833, -0.2704416
 83764365, -0.2256724, -0.4393747, 0.3504757, -0.2672909, -0.4241917, 0.02725987, 0.3508854, -0.2663666
 83819626, 0.05346476, 0.8060389, 0.3505251, -0.2696168, -0.2256724, -0.4393747, 0.3504757, -0.2672909
 83874383, -0.3929289, -0.1625559, 0.3509979, -0.2670154, 0.05346476, 0.8060389, 0.3505251, -0.2696168
 83929266, -0.1073778, -0.1830135, 0.3506931, -0.2669948, -0.3929289, -0.1625559, 0.3509979, -0.2670154
 83984526, -0.2097042, 0.8090269, 0.3513254, -0.2693734, -0.1073778, -0.1830135, 0.3506931, -0.2669948
 84034395, -0.1977543, -0.005892106, 0.3513885, -0.2662743, -0.2097042, 0.8090269, 0.3513254, -0.2693734
 84089317, -0.139159, -0.2022059, 0.351406, -0.2664195, -0.1977543, -0.005892106, 0.3513885, -0.2662743
 84146000, 0.1203185, 0.879879, 0.3518939, -0.2692196, -0.139159, -0.2022059, 0.351406, -0.2664195
 84199425, -0.3093361, 0.1959083, 0.3516659, -0.2664348, 0.1203185, 0.879879, 0.3518939, -0.2692196
 84254529, -0.2564262, -0.2466927, 0.3518582, -0.2661427, -0.3093361, 0.1959083, 0.3516659, -0.2664348
 84309310, -0.3443391, 0.2339254, 0.3517829, -0.2659515, -0.2564262, -0.2466927, 0.3518582, -0.2661427
 84364414, -0.2761929, 0.3728312, 0.351341, -0.2656159, -0.3443391, 0.2339254, 0.3517829, -0.2659515
 84419547, -0.2040536, -0.0445211, 0.3518743, -0.2650966, -0.2761929, 0.3728312, 0.351341, -0.2656159
 84474370, -0.1683746, 0.3840556, 0.3520746, -0.2663609, -0.2040536, -0.0445211, 0.3518743, -0.2650966
 84529269, -0.2241475, 0.2691033, 0.3521872, -0.2659799, -0.1683746, 0.3840556, 0.3520746, -0.2663609
 84579283, -0.5648836, -0.2232434, 0.353338, -0.2652151, -0.2241475, 0.2691033, 0.3521872, -0.2659799
 84634405, -0.1718395, 0.1823006, 0.351931, -0.265415, -0.5648836, -0.2232434, 0.353338, -0.2652151
 84689262, -0.06805311, 0.3877511, 0.3517277, -0.2658777, -0.1718395, 0.1823006, 0.351931, -0.265415
 84745881, -0.266407, -0.1306593, 0.352545, -0.2651409, -0.06805311, 0.3877511, 0.3517277, -0.2658777
 84799289, -0.3232634, 0.02430828, 0.3526672, -0.265309, -0.266407, -0.1306593, 0.352545, -0.2651409
 84854451, -0.02338324, 0.4905333, 0.3525081, -0.2661008, -0.3232634, 0.02430828, 0.3526672, -0.265309
 84909289, -0.2858622, -0.2685613, 0.3530344, -0.2647776, -0.02338324, 0.4905333, 0.3525081, -0.2661008
 84964340, -0.2171039, -0.04981139, 0.3525561, -0.2645548, -0.2858622, -0.2685613, 0.3530344, -0.2647776
 85019744, -0.05416652, 0.1815559, 0.3523316, -0.264449, -0.2171039, -0.04981139, 0.3525561, -0.2645548
 85069576, -0.2294808, -0.1322966, 0.3523748, -0.2642417, -0.05416652, 0.1815559, 0.3523316, -0.264449
 85124396, 0.1870942, 0.2982523, 0.3524398, -0.2644334, -0.2294808, -0.1322966, 0.3523748, -0.2642417
 85179311, -0.2135535, -0.123099, 0.3527101, -0.2643638, 0.1870942, 0.2982523, 0.3524398, -0.2644334
 85234371, -0.2933786, -0.02587518, 0.3528458, -0.264127, -0.2135535, -0.123099, 0.3527101, -0.2643638
 85289451, 0.1228457, 0.2572538, 0.3523761, -0.2639871, -0.2933786, -0.02587518, 0.3528458, -0.264127
 85345871, 0.05699205, 0.3269913, 0.3521896, -0.2642436, 0.1228457, 0.2572538, 0.3523761, -0.2639871
 85399282, -0.1768954, 0.01097989, 0.3522647, -0.2638398, 0.05699205, 0.3269913, 0.3521896, -0.2642436
 85454363, -0.07580328, 0.0587114, 0.3522896, -0.2640378, -0.1768954, 0.01097989, 0.3522647, -0.2638398
 85509420, -0.3495974, 0.3179103, 0.3527679, -0.2648024, -0.07580328, 0.0587114, 0.3522896, -0.2640378
 85564487, -0.1376117, 0.1493134, 0.3523637, -0.2643065, -0.3495974, 0.3179103, 0.3527679, -0.2648024
 85619562, -0.04129786, 0.008342738, 0.3523934, -0.264294, -0.1376117, 0.1493134, 0.3523637, -0.2643065
 85669725, -0.2199129, 0.3193318, 0.3529245, -0.2647671, -0.04129786, 0.008342738, 0.3523934, -0.264294
 85724336, -0.003508175, 0.1344086, 0.3532241, -0.2642288, -0.2199129, 0.3193318, 0.3529245, -0.2647671
 85779322, -0.09481393, 0.2905843, 0.3535868, -0.264407, -0.003508175, 0.1344086, 0.3532241, -0.2642288
 85834402, -0.1508836, 0.2571915, 0.3535834, -0.2645218, -0.09481393, 0.2905843, 0.3535868, -0.264407
 85889258, -0.3264935, 0.1695899, 0.3536179, -0.2644068, -0.1508836, 0.2571915, 0.3535834, -0.2645218
 85945791, 0.008904603, 0.02355073, 0.3531334, -0.2642208, -0.3264935, 0.1695899, 0.3536179, -0.2644068
 85999300, -0.1717847, 0.04391362, 0.3532188, -0.2641217, 0.008904603, 0.02355073, 0.3531334, -0.2642208
 86054529, -0.2827054, 0.3230296, 0.3533449, -0.2644592, -0.1717847, 0.04391362, 0.3532188, -0.2641217
 86109293, -0.3513179, 0.20516, 0.3532346, -0.2641028, -0.2827054, 0.3230296, 0.3533449, -0.2644592
 86164387, -0.3362203, 0.1440939, 0.3534301, -0.2640391, -0.3513179, 0.20516, 0.3532346, -0.2641028
 86214334, -0.4794345, 0.6257527, 0.3541495, -0.2657395, -0.3362203, 0.1440939, 0.3534301, -0.2640391
 86269590, -0.1864239, 0.1181983, 0.35334, -0.2641688, -0.4794345, 0.6257527, 0.3541495, -0.2657395
 86324547, 0.01087727, 0.02330912, 0.3532553, -0.2639932, -0.1864239, 0.1181983, 0.35334, -0.2641688
 86379297, -0.3625727, 0.2307532, 0.353444, -0.2645867, 0.01087727, 0.02330912, 0.3532553, -0.2639932
 86434387, -0.2945185, 0.1319552, 0.353206, -0.2645038, -0.3625727, 0.2307532, 0.353444, -0.2645867
 86489292, -0.2928543, -0.3406644, 0.3528467, -0.2641683, -0.2945185, 0.1319552, 0.353206, -0.2645038
 86545756, -0.06697348, 0.7102173, 0.3521492, -0.2657193, -0.2928543, -0.3406644, 0.3528467, -0.2641683
 86599284, -0.1677449, 0.1774288, 0.3521505, -0.26428, -0.06697348, 0.7102173, 0.3521492, -0.2657193
 86654423, -0.3706407, 0.0069328, 0.3525967, -0.2643643, -0.1677449, 0.1774288, 0.3521505, -0.26428
 86709266, -0.2888623, 0.2183989, 0.3523472, -0.2645559, -0.3706407, 0.0069328, 0.3525967, -0.2643643
 86759305, -0.5644945, 0.14496, 0.353255, -0.2644054, -0.2888623, 0.2183989, 0.3523472, -0.2645559
 86814449, -0.2000454, 0.4165314, 0.3522968, -0.2652851, -0.5644945, 0.14496, 0.353255, -0.2644054
 86869601, -0.1887595, -0.0002458973, 0.3525174, -0.2645001, -0.2000454, 0.4165314, 0.3522968, -0.2652851
 86924336, -0.5425333, 0.23354, 0.3535044, -0.2651525, -0.1887595, -0.0002458973, 0.3525174, -0.2645001
 86979421, -0.1561193, 0.3819661, 0.3524448, -0.2654193, -0.5425333, 0.23354, 0.3535044, -0.2651525
 87034493, -0.2649674, -0.09251451, 0.3526242, -0.2644304, -0.1561193, 0.3819661, 0.3524448, -0.2654193
 87089469, -0.451353, 0.3075347, 0.3532184, -0.264956, -0.2649674, -0.09251451, 0.3526242, -0.2644304
 87145812, -0.5388926, 0.4947, 0.3537596, -0.2657632, -0.451353, 0.3075347, 0.3532184, -0.264956
 87199331, -0.1872257, -0.06934454, 0.3528636, -0.2640263, -0.5388926, 0.4947, 0.3537596, -0.2657632
 87254338, -0.2996695, 0.1187259, 0.3530355, -0.263839, -0.1872257, -0.06934454, 0.3528636, -0.2640263
 87304398, -0.2408036, 0.4299911, 0.3529808, -0.2645931, -0.2996695, 0.1187259, 0.3530355, -0.263839
 87359447, -0.2152109, 0.01671971, 0.3528683, -0.263945, -0.2408036, 0.4299911, 0.3529808, -0.2645931
 87414394, -0.2624367, -0.02919691, 0.3529365, -0.264034, -0.2152109, 0.01671971, 0.3528683, -0.263945
 87469610, -0.3984801, 0.5203027, 0.353251, -0.2654061, -0.2624367, -0.02919691, 0.3529365, -0.264034
 87524361, -0.1914591, -0.07685065, 0.3533438, -0.2647557, -0.3984801, 0.5203027, 0.353251, -0.2654061
 87579273, -0.1853571, -0.3043911, 0.3537245, -0.265018, -0.1914591, -0.07685065, 0.3533438, -0.2647557
 87634396, -0.4556098, 0.3959663, 0.3539836, -0.2654204, -0.1853571, -0.3043911, 0.3537245, -0.265018
 87689268, -0.3428511, 0.3615569, 0.35368, -0.2653664, -0.4556098, 0.3959663, 0.3539836, -0.2654204
 87745846, -0.262371, -0.1756949, 0.3540258, -0.2650505, -0.3428511, 0.3615569, 0.35368, -0.2653664
 87799310, -0.2313206, 0.1625562, 0.3536612, -0.2654035, -0.262371, -0.1756949, 0.3540258, -0.2650505
 87854545, -0.4252435, 0.454507, 0.3538776, -0.2663917, -0.2313206, 0.1625562, 0.3536612, -0.2654035
 87904395, -0.08081028, -0.1857143, 0.3534537, -0.2654418, -0.4252435, 0.454507, 0.3538776, -0.2663917
 87959288, -0.09060834, 0.288444, 0.3536172, -0.2656698, -0.08081028, -0.1857143, 0.3534537, -0.2654418
 88014345, -0.2982876, 0.4414835, 0.3537577, -0.2661918, -0.09060834, 0.288444, 0.3536172, -0.2656698
 88069575, 0.09197209, 0.2665558, 0.3534333, -0.2654409, -0.2982876, 0.4414835, 0.3537577, -0.2661918
 88124517, -0.1613136, -0.1913215, 0.3538836, -0.2649215, 0.09197209, 0.2665558, 0.3534333, -0.2654409
 88179309, -0.3475148, 0.4874585, 0.3541569, -0.2661826, -0.1613136, -0.1913215, 0.3538836, -0.2649215
 88234404, -0.2076735, 0.008053335, 0.3537384, -0.2650506, -0.3475148, 0.4874585, 0.3541569, -0.2661826
 88289295, -0.5700781, 0.1523687, 0.3545726, -0.2651853, -0.2076735, 0.008053335, 0.3537384, -0.2650506
 88346039, -0.3607551, 0.2113569, 0.3536299, -0.2655059, -0.5700781, 0.1523687, 0.3545726, -0.2651853
 88395608, -0.2807862, 0.1757977, 0.3534051, -0.2654455, -0.3607551, 0.2113569, 0.3536299, -0.2655059
 88454375, -0.168747, -0.05145599, 0.3532843, -0.2651823, -0.2807862, 0.1757977, 0.3534051, -0.2654455
 88504493, -0.2659459, 0.2077087, 0.3535082, -0.2654046, -0.168747, -0.05145599, 0.3532843, -0.2651823
 88559300, -0.4240662, 0.4163341, 0.3541002, -0.2660874, -0.2659459, 0.2077087, 0.3535082, -0.2654046
 88614422, -0.3617462, -0.006390536, 0.3541073, -0.2651758, -0.4240662, 0.4163341, 0.3541002, -0.2660874
 88669577, -0.6173607, 0.2605376, 0.3552531, -0.2653028, -0.3617462, -0.006390536, 0.3541073, -0.2651758
 88724431, -0.2762888, 0.5600078, 0.3541194, -0.2663316, -0.6173607, 0.2605376, 0.3552531, -0.2653028
 88779318, 0.01818529, 0.1515871, 0.3537599, -0.2648133, -0.2762888, 0.5600078, 0.3541194, -0.2663316
 88834443, -0.2018898, 0.1368627, 0.353732, -0.2649009, 0.01818529, 0.1515871, 0.3537599, -0.2648133
 88884358, -0.1116898, 0.5042163, 0.3536436, -0.2658542, -0.2018898, 0.1368627, 0.353732, -0.2649009
 88939258, -0.3791399, 0.3043927, 0.3541411, -0.2652392, -0.1116898, 0.5042163, 0.3536436, -0.2658542
 88995458, -0.3232096, -0.08397245, 0.3542669, -0.2646505, -0.3791399, 0.3043927, 0.3541411, -0.2652392
 89054402, -0.3242297, 0.4528477, 0.3541732, -0.2658923, -0.3232096, -0.08397245, 0.3542669, -0.2646505
 89104392, -0.2880476, 0.2898573, 0.3542272, -0.2652548, -0.3242297, 0.4528477, 0.3541732, -0.2658923
 89159425, -0.3022967, -0.1813476, 0.3544505, -0.2648401, -0.2880476, 0.2898573, 0.3542272, -0.2652548
 89214370, -0.4092096, 0.1657489, 0.3546824, -0.2649097, -0.3022967, -0.1813476, 0.3544505, -0.2648401
 89269586, -0.3080437, 0.3384877, 0.3543812, -0.2654389, -0.4092096, 0.1657489, 0.3546824, -0.2649097
 89324391, -0.451211, -0.03488377, 0.3548305, -0.2646969, -0.3080437, 0.3384877, 0.3543812, -0.2654389
