TimeUS,CGpN,CGpE,CGpD,CGpe,PGpN,PGpE,PGpD,PGpe
 44254537, 0.017, 0.008, -0.032, 1.359, 0.038, -0.028, 0.005, 1.36
 44454587, -0.027, 0.015, 0.059, 1.358, 0.017, 0.008, -0.032, 1.359
 44654649, -0.001, -0.022, 0.016, 1.357, -0.027, 0.015, 0.059, 1.358
 44854565, 0.003, 0.028, 0.004, 1.357, -0.001, -0.022, 0.016, 1.357
 45054550, 0.038, 0.031, 0.001, 1.356, 0.003, 0.028, 0.004, 1.357
 45254576, -0.008, 0.046, 0.003, 1.355, 0.038, 0.031, 0.001, 1.356
 45454538, -0.048, -0.03, -0.038, 1.354, -0.008, 0.046, 0.003, 1.355
 45654533, -0.02, -0.033, -0.044, 1.354, -0.048, -0.03, -0.038, 1.354
 45854557, 0.046, 0.003, 0.078, 1.353, -0.02, -0.033, -0.044, 1.354
 46054555, -0.005, 0.03, -0.014, 1.353, 0.046, 0.003, 0.078, 1.353
 46254658, 0.012, 0.004, 0.008, 1.353, -0.005, 0.03, -0.014, 1.353
 46454651, 0.004, -0.014, 0.009000001, 1.352, 0.012, 0.004, 0.008, 1.353
 46654571, 0.011, 0.09200001, 0.009000001, 1.352, 0.004, -0.014, 0.009000001, 1.352
 46854572, 0.03, 0.048, -0.017, 1.351, 0.011, 0.09200001, 0.009000001, 1.352
 47054571, -0.022, 0.087, 0.004, 1.351, 0.03, 0.048, -0.017, 1.351
 47254576, -0.042, -0.012, -0.09100001, 1.351, -0.022, 0.087, 0.004, 1.351
 47454584, -0.033, 0.021, -0.06900001, 1.35, -0.042, -0.012, -0.09100001, 1.351
 47654559, -0.03, 0.01, -0.033, 1.35, -0.033, 0.021, -0.06900001, 1.35
 47854555, 0.013, -0.001, 0.01, 1.349, -0.03, 0.01, -0.033, 1.35
 48054545, 0.03, 0.027, -0.038, 1.349, 0.013, -0.001, 0.01, 1.349
 48254671, -0.026, -0.143, 0.002, 1.349, 0.03, 0.027, -0.038, 1.349
 48454646, -0.041, -0.14, -0.048, 1.347, -0.026, -0.143, 0.002, 1.349
 48654575, 0.013, -0.373, -0.279, 1.348, -0.041, -0.14, -0.048, 1.347
 48854582, -0.437, -0.299, -0.187, 1.352, 0.013, -0.373, -0.279, 1.348
 49054587, -0.336, -0.8330001, -0.276, 1.357, -0.437, -0.299, -0.187, 1.352
 49254560, -0.343, -1.115, -0.172, 1.362, -0.336, -0.8330001, -0.276, 1.357
 49454656, -0.111, -1.385, -0.204, 1.365, -0.343, -1.115, -0.172, 1.362
 49654586, -0.428, -1.373, -0.409, 1.368, -0.111, -1.385, -0.204, 1.365
 49854653, -0.021, -1.76, -0.8650001, 1.372, -0.428, -1.373, -0.409, 1.368
 50054574, 0.098, -1.752, -1.633, 1.378, -0.021, -1.76, -0.8650001, 1.372
 50254560, 0.034, -1.796, -2.305, 1.384, 0.098, -1.752, -1.633, 1.378
 50454655, -0.159, -1.955, -2.772, 1.39, 0.034, -1.796, -2.305, 1.384
 50654579, -0.478, -2.178, -3.317, 1.393, -0.159, -1.955, -2.772, 1.39
 50854565, -1.351, -2.221, -3.777, 1.396, -0.478, -2.178, -3.317, 1.393
 51054566, -2.013, -2.387, -4.102, 1.398, -1.351, -2.221, -3.777, 1.396
 51254571, -2.704, -2.491, -4.442, 1.4, -2.013, -2.387, -4.102, 1.398
 51454585, -3.23, -2.381, -4.445, 1.401, -2.704, -2.491, -4.442, 1.4
 51654575, -3.61, -2.514, -4.261, 1.402, -3.23, -2.381, -4.445, 1.401
 51854688, -3.961, -2.684, -3.809, 1.403, -3.61, -2.514, -4.261, 1.402
 52054584, -4.422, -2.145, -2.912, 1.404, -3.961, -2.684, -3.809, 1.403
 52254568, -4.212, -2.834, -3.027, 1.406, -4.422, -2.145, -2.912, 1.404
 52454568, -4.374, -3.113, -2.43, 1.408, -4.212, -2.834, -3.027, 1.406
 52654562, -4.548, -3.101, -2.253, 1.409, -4.374, -3.113, -2.43, 1.408
 52854563, -4.407, -3.127, -1.954, 1.412, -4.548, -3.101, -2.253, 1.409
 53054570, -4.305, -2.962, -1.809, 1.415, -4.407, -3.127, -1.954, 1.412
 53254661, -4.309, -2.979, -1.669, 1.418, -4.305, -2.962, -1.809, 1.415
 53454574, -4.703, -3.11, -1.379, 1.419, -4.309, -2.979, -1.669, 1.418
 53654701, -4.677, -2.878, -1.292, 1.421, -4.703, -3.11, -1.379, 1.419
 53854670, -4.772, -2.637, -1.095, 1.422, -4.677, -2.878, -1.292, 1.421
 54054687, -5.065, -2.314, -0.61, 1.421, -4.772, -2.637, -1.095, 1.422
 54274648, -5.033, -2.497, -0.239, 1.418, -5.065, -2.314, -0.61, 1.421
 54454678, -4.826, -2.259, -0.055, 1.415, -5.033, -2.497, -0.239, 1.418
 54654805, -4.735, -2.268, 0.051, 1.414, -4.826, -2.259, -0.055, 1.415
 54854678, -4.647, -2.172, 0.086, 1.413, -4.735, -2.268, 0.051, 1.414
 55054671, -4.457, -1.986, -0.135, 1.412, -4.647, -2.172, 0.086, 1.413
 55254659, -4.2, -1.913, 0.019, 1.412, -4.457, -1.986, -0.135, 1.412
 55454720, -4.085, -1.583, 0.016, 1.409, -4.2, -1.913, 0.019, 1.412
 55654671, -3.82, -1.278, -0.044, 1.406, -4.085, -1.583, 0.016, 1.409
 55854689, -3.518, -1.001, 0.009000001, 1.401, -3.82, -1.278, -0.044, 1.406
 56054681, -3.367, -0.905, 0.037, 1.395, -3.518, -1.001, 0.009000001, 1.401
 56254663, -3.041, -0.809, 0.157, 1.393, -3.367, -0.905, 0.037, 1.395
 56454695, -2.703, -0.6300001, 0.182, 1.388, -3.041, -0.809, 0.157, 1.393
 56654659, -2.35, -0.706, 0.225, 1.385, -2.703, -0.6300001, 0.182, 1.388
 56854678, -2.26, -0.493, 0.222, 1.384, -2.35, -0.706, 0.225, 1.385
 57054656, -1.903, -0.592, 0.114, 1.382, -2.26, -0.493, 0.222, 1.384
 57254701, -1.905, -0.444, 0.074, 1.38, -1.903, -0.592, 0.114, 1.382
 57454684, -1.803, -0.473, 0.01, 1.379, -1.905, -0.444, 0.074, 1.38
 57654665, -1.606, -0.686, -0.031, 1.378, -1.803, -0.473, 0.01, 1.379
 57854673, -1.655, -0.781, -0.126, 1.375, -1.606, -0.686, -0.031, 1.378
 58054677, -1.689, -0.9210001, -0.182, 1.374, -1.655, -0.781, -0.126, 1.375
 58254578, -1.506, -1.007, -0.228, 1.374, -1.689, -0.9210001, -0.182, 1.374
 58454719, -1.492, -1.026, -0.197, 1.373, -1.506, -1.007, -0.228, 1.374
 58654685, -1.655, -0.942, -0.234, 1.372, -1.492, -1.026, -0.197, 1.373
 58854804, -1.488, -0.8750001, -0.398, 1.372, -1.655, -0.942, -0.234, 1.372
 59054716, -1.454, -1.051, -0.157, 1.369, -1.488, -0.8750001, -0.398, 1.372
 59254689, -1.317, -0.8570001, -0.304, 1.372, -1.454, -1.051, -0.157, 1.369
 59454700, -1.409, -0.7040001, -0.17, 1.373, -1.317, -0.8570001, -0.304, 1.372
 59654673, -1.194, -0.786, -0.225, 1.374, -1.409, -0.7040001, -0.17, 1.373
 59854682, -1.093, -0.7450001, -0.287, 1.373, -1.194, -0.786, -0.225, 1.374
 60054648, -1.003, -0.7410001, -0.157, 1.372, -1.093, -0.7450001, -0.287, 1.373
 60254659, -0.7600001, -0.8100001, -0.17, 1.372, -1.003, -0.7410001, -0.157, 1.372
 60454683, -0.6720001, -0.825, -0.104, 1.369, -0.7600001, -0.8100001, -0.17, 1.372
 60654684, -0.61, -0.7640001, -0.11, 1.367, -0.6720001, -0.825, -0.104, 1.369
 60854721, -0.5330001, -0.711, -0.152, 1.369, -0.61, -0.7640001, -0.11, 1.367
 61054676, -0.548, -0.9170001, -0.029, 1.37, -0.5330001, -0.711, -0.152, 1.369
 61254664, -0.471, -0.8520001, -0.193, 1.372, -0.548, -0.9170001, -0.029, 1.37
 61454695, -0.53, -0.8800001, -0.006, 1.373, -0.471, -0.8520001, -0.193, 1.372
 61654662, -0.619, -0.854, -0.161, 1.375, -0.53, -0.8800001, -0.006, 1.373
 61854716, -0.814, -0.763, -0.032, 1.373, -0.619, -0.854, -0.161, 1.375
 62054702, -0.876, -0.8340001, 0.013, 1.369, -0.814, -0.763, -0.032, 1.373
 62254656, -0.9680001, -0.725, -0.105, 1.367, -0.876, -0.8340001, 0.013, 1.369
 62454686, -0.95, -0.731, -0.042, 1.366, -0.9680001, -0.725, -0.105, 1.367
 62654719, -0.9210001, -0.454, -0.051, 1.366, -0.95, -0.731, -0.042, 1.366
 62854683, -0.674, -0.499, -0.139, 1.368, -0.9210001, -0.454, -0.051, 1.366
 63054906, -0.632, -0.4, 0.014, 1.367, -0.674, -0.499, -0.139, 1.368
 63254782, -0.437, -0.331, 0.061, 1.369, -0.632, -0.4, 0.014, 1.367
 63454787, -0.26, -0.307, -0.024, 1.372, -0.437, -0.331, 0.061, 1.369
 63654778, -0.21, -0.308, -0.007, 1.376, -0.26, -0.307, -0.024, 1.372
 63854775, -0.16, -0.259, 0.033, 1.381, -0.21, -0.308, -0.007, 1.376
 64054758, -0.207, -0.117, -0.041, 1.387, -0.16, -0.259, 0.033, 1.381
 64254778, -0.139, -0.179, 0.06, 1.393, -0.207, -0.117, -0.041, 1.387
 64455002, -0.137, -0.102, 0.055, 1.397, -0.139, -0.179, 0.06, 1.393
 64654768, -0.123, 0.098, -0.02, 1.402, -0.137, -0.102, 0.055, 1.397
 64854776, 0.057, 0.13, -0.09900001, 1.409, -0.123, 0.098, -0.02, 1.402
 65054783, 0.031, 0.236, -0.098, 1.414, 0.057, 0.13, -0.09900001, 1.409
 65254769, 0.085, 0.173, -0.078, 1.419, 0.031, 0.236, -0.098, 1.414
 65454769, 0.058, 0.209, -0.167, 1.424, 0.085, 0.173, -0.078, 1.419
 65654770, -0.022, 0.203, -0.128, 1.429, 0.058, 0.209, -0.167, 1.424
 65854757, -0.026, 0.153, -0.142, 1.425, -0.022, 0.203, -0.128, 1.429
 66054761, -0.009000001, -0.066, -0.016, 1.422, -0.026, 0.153, -0.142, 1.425
 66254977, -0.022, -0.087, -0.072, 1.424, -0.009000001, -0.066, -0.016, 1.422
 66454786, 0, -0.147, -0.11, 1.424, -0.022, -0.087, -0.072, 1.424
 66654767, -0.043, 0.08000001, -0.063, 1.42, 0, -0.147, -0.11, 1.424
 66854973, 0.035, -0.022, 0.034, 1.421, -0.043, 0.08000001, -0.063, 1.42
 67054782, -0.029, 0.062, -0.229, 1.42, 0.035, -0.022, 0.034, 1.421
 67254972, -0.1, -0.141, -0.187, 1.421, -0.029, 0.062, -0.229, 1.42
 67454777, -0.148, -0.11, -0.09100001, 1.421, -0.1, -0.141, -0.187, 1.421
 67654765, -0.204, -0.177, -0.066, 1.423, -0.148, -0.11, -0.09100001, 1.421
 67854741, -0.078, -0.177, -0.003, 1.424, -0.204, -0.177, -0.066, 1.423
 68054973, -0.017, 0.025, 0.141, 1.425, -0.078, -0.177, -0.003, 1.424
 68254782, -0.128, -0.194, 0.09200001, 1.427, -0.017, 0.025, 0.141, 1.425
 68454788, -0.083, -0.009000001, 0.09, 1.429, -0.128, -0.194, 0.09200001, 1.427
 68654767, 0.045, -0.191, 0.01, 1.432, -0.083, -0.009000001, 0.09, 1.429
 68854773, 0.016, -0.079, -0.017, 1.436, 0.045, -0.191, 0.01, 1.432
 69054781, 0.045, -0.075, -0.022, 1.44, 0.016, -0.079, -0.017, 1.436
 69254780, 0.059, -0.097, -0.034, 1.444, 0.045, -0.075, -0.022, 1.44
 69455243, -0.013, -0.051, -0.052, 1.447, 0.059, -0.097, -0.034, 1.444
 69655222, 0.06, -0.035, -0.106, 1.449, -0.013, -0.051, -0.052, 1.447
 69855348, 0.081, 0.019, -0.082, 1.451, 0.06, -0.035, -0.106, 1.449
 70058356, 0.101, -0.042, -0.029, 1.452, 0.081, 0.019, -0.082, 1.451
 70258195, 0.116, -0.003, -0.022, 1.453, 0.101, -0.042, -0.029, 1.452
 70460201, 0.194, 0.014, 0.049, 1.454, 0.116, -0.003, -0.022, 1.453
 70660188, 0.193, -0.071, -0.066, 1.454, 0.194, 0.014, 0.049, 1.454
 70860161, 0.145, -0.146, -0.042, 1.455, 0.193, -0.071, -0.066, 1.454
 71062686, 0.09500001, -0.045, 0.021, 1.456, 0.145, -0.146, -0.042, 1.455
 71263030, 0.057, -0.151, 0.007, 1.458, 0.09500001, -0.045, 0.021, 1.456
 71462737, 0.004, -0.126, 0.007, 1.458, 0.057, -0.151, 0.007, 1.458
 71645491, 0.043, -0.067, -0.104, 1.459, 0.004, -0.126, 0.007, 1.458
 71845478, 0.158, -0.204, -0.043, 1.459, 0.043, -0.067, -0.104, 1.459
 72045474, 0.113, -0.127, -0.026, 1.459, 0.158, -0.204, -0.043, 1.459
 72245475, 0.126, 0.011, -0.083, 1.46, 0.113, -0.127, -0.026, 1.459
 72445496, 0.191, 0.029, -0.121, 1.458, 0.126, 0.011, -0.083, 1.46
 72645369, 0.167, 0.124, -0.164, 1.454, 0.191, 0.029, -0.121, 1.458
 72848305, 0.147, 0.135, -0.102, 1.45, 0.167, 0.124, -0.164, 1.454
 73047694, 0.124, 0.061, -0.032, 1.444, 0.147, 0.135, -0.102, 1.45
 73247696, -0.011, 0.187, 0.008, 1.44, 0.124, 0.061, -0.032, 1.444
 73448160, 0.015, 0.141, 0.005, 1.439, -0.011, 0.187, 0.008, 1.44
 73647711, 0.017, -0.022, 0.035, 1.44, 0.015, 0.141, 0.005, 1.439
 73847677, -0.196, 0.262, 0.011, 1.443, 0.017, -0.022, 0.035, 1.44
 74047905, -0.06, 0.189, -0.025, 1.445, -0.196, 0.262, 0.011, 1.443
 74250505, -0.136, 0.17, 0.032, 1.445, -0.06, 0.189, -0.025, 1.445
 74450235, -0.128, 0.142, -0.037, 1.442, -0.136, 0.17, 0.032, 1.445
 74670347, -0.074, 0.105, -0.066, 1.438, -0.128, 0.142, -0.037, 1.442
 74850357, -0.159, 0.107, 0.035, 1.433, -0.074, 0.105, -0.066, 1.438
 75050211, -0.131, 0.075, -0.022, 1.429, -0.159, 0.107, 0.035, 1.433
 75250496, -0.106, 0.181, -0.007, 1.424, -0.131, 0.075, -0.022, 1.429
 75450238, -0.074, 0.08000001, -0.075, 1.419, -0.106, 0.181, -0.007, 1.424
 75650206, -0.081, 0.107, -0.08400001, 1.414, -0.074, 0.08000001, -0.075, 1.419
 75852686, 0.03, 0.106, -0.12, 1.41, -0.081, 0.107, -0.08400001, 1.414
 76052686, 0.1, 0.146, -0.128, 1.405, 0.03, 0.106, -0.12, 1.41
 76253151, 0.151, 0.2, -0.017, 1.405, 0.1, 0.146, -0.128, 1.405
 76453071, 0.113, 0.31, -0.028, 1.405, 0.151, 0.2, -0.017, 1.405
 76652815, 0.114, 0.377, -0.035, 1.405, 0.113, 0.31, -0.028, 1.405
 76852898, -0.008, 0.363, -0.039, 1.406, 0.114, 0.377, -0.035, 1.405
 77052698, -0.008, 0.347, 0.001, 1.407, -0.008, 0.363, -0.039, 1.406
 77252694, -0.116, 0.382, -0.031, 1.408, -0.008, 0.347, 0.001, 1.407
 77452697, -0.017, 0.257, 0.011, 1.409, -0.116, 0.382, -0.031, 1.408
 77652699, -0.139, 0.276, 0.014, 1.411, -0.017, 0.257, 0.011, 1.409
 77852708, -0.183, 0.224, 0.026, 1.414, -0.139, 0.276, 0.014, 1.411
 78053052, -0.233, 0.192, 0.007, 1.416, -0.183, 0.224, 0.026, 1.414
 78292716, -0.165, 0.159, 0.04, 1.417, -0.233, 0.192, 0.007, 1.416
 78452701, -0.149, 0.129, 0.072, 1.418, -0.165, 0.159, 0.04, 1.417
 78652895, -0.162, 0.089, -0.053, 1.419, -0.149, 0.129, 0.072, 1.418
 78852691, -0.06900001, 0.09900001, -0.085, 1.42, -0.162, 0.089, -0.053, 1.419
 79055219, -0.119, 0.007, -0.104, 1.42, -0.06900001, 0.09900001, -0.085, 1.42
 79257683, -0.108, -0.108, 0.055, 1.421, -0.119, 0.007, -0.104, 1.42
 79457734, -0.026, -0.228, 0.067, 1.423, -0.108, -0.108, 0.055, 1.421
 79657696, -0.06, -0.146, 0.023, 1.422, -0.026, -0.228, 0.067, 1.423
 79857696, -0.046, -0.166, 0.07, 1.42, -0.06, -0.146, 0.023, 1.422
 80057692, -0.07600001, -0.15, -0.048, 1.415, -0.046, -0.166, 0.07, 1.42
 80280216, 0.013, -0.142, 0.017, 1.416, -0.07600001, -0.15, -0.048, 1.415
 80460191, 0.134, -0.148, 0.023, 1.418, 0.013, -0.142, 0.017, 1.416
 80662802, 0.21, -0.156, -0.018, 1.418, 0.134, -0.148, 0.023, 1.418
 80862688, 0.231, -0.093, 0.043, 1.419, 0.21, -0.156, -0.018, 1.418
 81062813, 0.263, -0.04, -0.078, 1.419, 0.231, -0.093, 0.043, 1.419
 81262931, 0.28, 0.051, -0.048, 1.419, 0.263, -0.04, -0.078, 1.419
 81462710, 0.317, -0.034, -0.005, 1.414, 0.28, 0.051, -0.048, 1.419
 81662719, 0.214, 0.027, -0.063, 1.41, 0.317, -0.034, -0.005, 1.414
 81845473, 0.046, 0.1, -0.082, 1.405, 0.214, 0.027, -0.063, 1.41
 82065215, 0.105, 0.101, 0.011, 1.4, 0.046, 0.1, -0.082, 1.405
 82265468, 0.047, 0.119, -0.064, 1.397, 0.105, 0.101, 0.011, 1.4
 82445227, 0.118, 0.06900001, 0.01, 1.395, 0.047, 0.119, -0.064, 1.397
 82648171, 0.175, -0.054, -0.015, 1.393, 0.118, 0.06900001, 0.01, 1.395
 82847923, 0.187, 0.049, 0.039, 1.394, 0.175, -0.054, -0.015, 1.393
 83047683, 0.114, 0.107, -0.003, 1.395, 0.187, 0.049, 0.039, 1.394
 83247690, 0.189, -0.031, 0.07600001, 1.395, 0.114, 0.107, -0.003, 1.395
 83447683, 0.118, -0.028, 0.053, 1.396, 0.189, -0.031, 0.07600001, 1.395
 83647949, -0.02, 0.115, 0.043, 1.397, 0.118, -0.028, 0.053, 1.396
 83848104, 0.029, 0.067, 0.027, 1.399, -0.02, 0.115, 0.043, 1.397
 84047712, 0.026, 0.049, 0.051, 1.399, 0.029, 0.067, 0.027, 1.399
 84247703, -0.03, 0.087, 0.125, 1.402, 0.026, 0.049, 0.051, 1.399
 84447732, -0.161, 0.167, -0.059, 1.405, -0.03, 0.087, 0.125, 1.402
 84650468, -0.056, 0.09500001, -0.017, 1.406, -0.161, 0.167, -0.059, 1.405
 84850228, -0.083, 0.001, 0.001, 1.408, -0.056, 0.09500001, -0.017, 1.406
 85050223, -0.135, 0.141, -0.001, 1.411, -0.083, 0.001, 0.001, 1.408
 85250232, -0.05, -0.07, 0.018, 1.415, -0.135, 0.141, -0.001, 1.411
 85450235, -0.111, -0.079, 0.034, 1.419, -0.05, -0.07, 0.018, 1.415
 85650804, -0.104, -0.115, -0.059, 1.425, -0.111, -0.079, 0.034, 1.419
 85850487, -0.078, -0.244, 0.045, 1.429, -0.104, -0.115, -0.059, 1.425
 86050335, -0.009000001, -0.11, -0.068, 1.433, -0.078, -0.244, 0.045, 1.429
 86250218, 0.087, -0.253, -0.08400001, 1.435, -0.009000001, -0.11, -0.068, 1.433
 86450232, 0.072, -0.202, -0.042, 1.434, 0.087, -0.253, -0.08400001, 1.435
 86650516, 0.158, -0.192, -0.014, 1.433, 0.072, -0.202, -0.042, 1.434
 86850222, 0.082, -0.059, 0.082, 1.433, 0.158, -0.192, -0.014, 1.433
 87050227, 0.056, -0.063, -0.022, 1.432, 0.082, -0.059, 0.082, 1.433
 87250233, 0.013, -0.007, -0.08000001, 1.433, 0.056, -0.063, -0.022, 1.432
 87450356, 0.039, -0.07300001, -0.102, 1.435, 0.013, -0.007, -0.08000001, 1.433
 87650216, 0.053, -0.09200001, -0.061, 1.439, 0.039, -0.07300001, -0.102, 1.435
 87853081, -0.048, -0.08400001, -0.102, 1.441, 0.053, -0.09200001, -0.061, 1.439
 88052705, -0.094, 0.057, -0.096, 1.445, -0.048, -0.08400001, -0.102, 1.441
 88253040, -0.003, 0.009000001, -0.002, 1.449, -0.094, 0.057, -0.096, 1.445
 88452708, 0.081, 0.037, -0.083, 1.451, -0.003, 0.009000001, -0.002, 1.449
 88652695, 0.042, 0.12, -0.052, 1.454, 0.081, 0.037, -0.083, 1.451
 88852799, 0.063, 0.04, -0.036, 1.456, 0.042, 0.12, -0.052, 1.454
 89052695, 0.058, 0.07600001, 0.027, 1.459, 0.063, 0.04, -0.036, 1.456
 89252814, 0.012, 0.075, 0.007, 1.461, 0.058, 0.07600001, 0.027, 1.459
 89453184, 0.044, 0.082, 0.012, 1.462, 0.012, 0.075, 0.007, 1.461
 89653030, -0.025, 0.126, -0.015, 1.465, 0.044, 0.082, 0.012, 1.462
 89853020, 0, -0.011, 0.011, 1.467, -0.025, 0.126, -0.015, 1.465
 90052660, -0.021, 0.062, -0.089, 1.469, 0, -0.011, 0.011, 1.467
 90252701, -0.041, 0.089, -0.001, 1.47, -0.021, 0.062, -0.089, 1.469
 90452708, -0.09900001, 0.078, 0.019, 1.472, -0.041, 0.089, -0.001, 1.47
 90652679, -0.211, 0.086, -0.09200001, 1.474, -0.09900001, 0.078, 0.019, 1.472
 90852682, -0.094, -0.015, -0.04, 1.477, -0.211, 0.086, -0.09200001, 1.474
 91053033, -0.033, 0.039, 0.032, 1.478, -0.094, -0.015, -0.04, 1.477
 91252705, -0.103, -0.013, 0.032, 1.479, -0.033, 0.039, 0.032, 1.478
 91453046, -0.168, 0.093, 0.119, 1.48, -0.103, -0.013, 0.032, 1.479
 91652664, -0.126, 0.05, 0.08000001, 1.481, -0.168, 0.093, 0.119, 1.48
 91852722, -0.007, -0.036, 0.116, 1.483, -0.126, 0.05, 0.08000001, 1.481
 92052689, 0.078, -0.166, 0.071, 1.484, -0.007, -0.036, 0.116, 1.483
 92252683, 0.102, -0.184, 0.093, 1.486, 0.078, -0.166, 0.071, 1.484
 92453053, 0.133, -0.168, 0.07, 1.485, 0.102, -0.184, 0.093, 1.486
 92653063, 0.101, -0.187, 0.01, 1.485, 0.133, -0.168, 0.07, 1.485
 92853074, 0.167, -0.127, 0.035, 1.486, 0.101, -0.187, 0.01, 1.485
 93052941, 0.205, -0.182, -0.07, 1.487, 0.167, -0.127, 0.035, 1.486
 93252690, 0.229, -0.13, -0.024, 1.486, 0.205, -0.182, -0.07, 1.487
 93452906, 0.087, 0, -0.06, 1.485, 0.229, -0.13, -0.024, 1.486
 93653029, 0.195, -0.179, 0.059, 1.486, 0.087, 0, -0.06, 1.485
 93853029, 0.056, -0.09500001, -0.054, 1.488, 0.195, -0.179, 0.059, 1.486
 94053066, 0.045, -0.041, 0.074, 1.489, 0.056, -0.09500001, -0.054, 1.488
 94253049, 0.017, -0.106, -0.068, 1.49, 0.045, -0.041, 0.074, 1.489
 94452707, -0.046, -0.068, -0.023, 1.49, 0.017, -0.106, -0.068, 1.49
 94652694, 0.026, -0.093, 0.031, 1.49, -0.046, -0.068, -0.023, 1.49
 94852900, -0.051, 0.015, -0.01, 1.49, 0.026, -0.093, 0.031, 1.49
 95052694, 0.039, -0.046, -0.046, 1.49, -0.051, 0.015, -0.01, 1.49
 95253044, 0.015, -0.009000001, -0.029, 1.49, 0.039, -0.046, -0.046, 1.49
 95452693, -0.078, 0.015, -0.107, 1.49, 0.015, -0.009000001, -0.029, 1.49
 95652697, -0.056, 0.012, 0.034, 1.489, -0.078, 0.015, -0.107, 1.49
 95852662, -0.001, -0.021, -0.042, 1.487, -0.056, 0.012, 0.034, 1.489
 96053032, 0.023, -0.119, 0.005, 1.484, -0.001, -0.021, -0.042, 1.487
 96253033, 0.013, -0.021, 0.013, 1.48, 0.023, -0.119, 0.005, 1.484
 96453062, 0.083, -0.051, 0.08800001, 1.476, 0.013, -0.021, 0.013, 1.48
 96672691, 0.047, -0.008, -0.054, 1.473, 0.083, -0.051, 0.08800001, 1.476
 96852665, 0.125, -0.068, -0.058, 1.471, 0.047, -0.008, -0.054, 1.473
 97052690, -0.005, 0.012, -0.049, 1.468, 0.125, -0.068, -0.058, 1.471
 97252900, -0.025, -0.006, 0.004, 1.466, -0.005, 0.012, -0.049, 1.468
 97453052, -0.006, 0.025, -0.038, 1.463, -0.025, -0.006, 0.004, 1.466
 97652815, 0.006, -0.011, 0.019, 1.46, -0.006, 0.025, -0.038, 1.463
 97852691, -0.002, -0.023, -0.122, 1.457, 0.006, -0.011, 0.019, 1.46
 98052714, 0.003, 0.034, -0.072, 1.456, -0.002, -0.023, -0.122, 1.457
 98252663, 0.023, 0.09100001, -0.087, 1.455, 0.003, 0.034, -0.072, 1.456
 98452942, 0.034, 0.108, -0.097, 1.455, 0.023, 0.09100001, -0.087, 1.455
 98652692, 0.102, 0.09200001, -0.082, 1.455, 0.034, 0.108, -0.097, 1.455
 98873067, 0.058, 0.174, -0.053, 1.454, 0.102, 0.09200001, -0.082, 1.455
 99073042, 0.132, 0.138, -0.04, 1.45, 0.058, 0.174, -0.053, 1.454
 99252707, 0.087, 0.14, -0.09100001, 1.449, 0.132, 0.138, -0.04, 1.45
 99452710, 0.041, 0.109, -0.09100001, 1.45, 0.087, 0.14, -0.09100001, 1.449
 99652690, 0.06, 0.071, -0.042, 1.452, 0.041, 0.109, -0.09100001, 1.45
 99853030, 0.017, 0.09, -0.117, 1.452, 0.06, 0.071, -0.042, 1.452
 100072901, -0.059, 0.06, -0.049, 1.45, 0.017, 0.09, -0.117, 1.452
 100255229, 0.012, -0.007, -0.025, 1.449, -0.059, 0.06, -0.049, 1.45
 100455985, -0.056, -0.078, -0.083, 1.448, 0.012, -0.007, -0.025, 1.449
 100655209, -0.163, 0.127, 0.01, 1.448, -0.056, -0.078, -0.083, 1.448
 100855348, -0.111, -0.019, -0.07, 1.448, -0.163, 0.127, 0.01, 1.448
 101055224, -0.057, -0.029, -0.072, 1.449, -0.111, -0.019, -0.07, 1.448
 101255226, -0.169, 0.074, 0.017, 1.451, -0.057, -0.029, -0.072, 1.449
 101455239, -0.157, 0.179, 0, 1.452, -0.169, 0.074, 0.017, 1.451
 101655220, 0.022, 0.06, -0.059, 1.452, -0.157, 0.179, 0, 1.452
 101855513, -0.037, 0.08000001, 0.033, 1.452, 0.022, 0.06, -0.059, 1.452
 102055211, -0.017, 0.09900001, 0.064, 1.451, -0.037, 0.08000001, 0.033, 1.452
 102255350, -0.018, 0.032, 0.041, 1.45, -0.017, 0.09900001, 0.064, 1.451
 102455499, 0.043, -0.016, 0.08800001, 1.448, -0.018, 0.032, 0.041, 1.45
 102655207, 0.094, -0.175, -0.093, 1.448, 0.043, -0.016, 0.08800001, 1.448
 102855235, 0.058, -0.029, 0.014, 1.447, 0.094, -0.175, -0.093, 1.448
 103055230, -0.029, 0.014, 0.059, 1.445, 0.058, -0.029, 0.014, 1.447
 103255209, -0.106, -0.05, -0.035, 1.446, -0.029, 0.014, 0.059, 1.445
 103455247, -0.059, -0.075, -0.026, 1.447, -0.106, -0.05, -0.035, 1.446
 103655205, -0.1, -0.097, -0.052, 1.447, -0.059, -0.075, -0.026, 1.447
 103855499, -0.108, 0.003, -0.094, 1.448, -0.1, -0.097, -0.052, 1.447
 104057817, 0.029, -0.086, -0.046, 1.449, -0.108, 0.003, -0.094, 1.448
 104258262, 0.005, -0.062, -0.07600001, 1.451, 0.029, -0.086, -0.046, 1.449
 104457702, 0.125, -0.037, -0.046, 1.451, 0.005, -0.062, -0.07600001, 1.451
 104658102, 0.139, -0.079, -0.025, 1.45, 0.125, -0.037, -0.046, 1.451
 104860226, 0.108, -0.048, 0.018, 1.451, 0.139, -0.079, -0.025, 1.45
 105060221, 0.059, -0.038, -0.015, 1.451, 0.108, -0.048, 0.018, 1.451
 105260174, 0.025, -0.024, 0.002, 1.452, 0.059, -0.038, -0.015, 1.451
 105460167, -0.033, 0.08400001, -0.058, 1.453, 0.025, -0.024, 0.002, 1.452
 105662671, -0.017, 0.129, -0.018, 1.454, -0.033, 0.08400001, -0.058, 1.453
 105862812, -0.075, 0.07700001, -0.058, 1.455, -0.017, 0.129, -0.018, 1.454
 106063033, -0.09900001, 0.122, -0.044, 1.455, -0.075, 0.07700001, -0.058, 1.455
 106262804, -0.011, 0.044, -0.046, 1.455, -0.09900001, 0.122, -0.044, 1.455
 106462742, 0.012, 0.103, 0.05, 1.455, -0.011, 0.044, -0.046, 1.455
 106662693, -0.043, 0.049, 0.051, 1.455, 0.012, 0.103, 0.05, 1.455
 106863042, -0.026, 0.125, -0.001, 1.457, -0.043, 0.049, 0.051, 1.455
 107063078, -0.01, 0.114, -0.041, 1.458, -0.026, 0.125, -0.001, 1.457
 107265216, -0.004, 0.087, 0.056, 1.459, -0.01, 0.114, -0.041, 1.458
 107465503, 0.056, -0.056, 0.036, 1.459, -0.004, 0.087, 0.056, 1.459
 107665451, 0.08000001, -0.041, 0.094, 1.459, 0.056, -0.056, 0.036, 1.459
 107865469, 0.036, -0.036, 0.007, 1.458, 0.08000001, -0.041, 0.094, 1.459
 108067833, 0.144, -0.134, 0.068, 1.455, 0.036, -0.036, 0.007, 1.458
 108268141, 0.033, -0.102, 0.184, 1.451, 0.144, -0.134, 0.068, 1.455
 108467853, -0.06500001, -0.042, 0.234, 1.449, 0.033, -0.102, 0.184, 1.451
 108650469, 0.045, -0.226, 0.105, 1.449, -0.06500001, -0.042, 0.234, 1.449
 108850221, -0.021, -0.249, -0.006, 1.448, 0.045, -0.226, 0.105, 1.449
 109050346, 0.134, -0.134, -0.038, 1.444, -0.021, -0.249, -0.006, 1.448
 109252899, 0.066, -0.192, -0.07, 1.441, 0.134, -0.134, -0.038, 1.444
 109452727, 0.097, -0.219, -0.036, 1.439, 0.066, -0.192, -0.07, 1.441
 109652668, 0.074, -0.168, -0.034, 1.437, 0.097, -0.219, -0.036, 1.439
 109852813, 0.07300001, -0.197, -0.062, 1.436, 0.074, -0.168, -0.034, 1.437
 110052687, 0.02, -0.09200001, -0.008, 1.432, 0.07300001, -0.197, -0.062, 1.436
 110252812, 0.085, 0.036, 0.019, 1.431, 0.02, -0.09200001, -0.008, 1.432
 110452691, 0.103, 0.138, 0.09200001, 1.429, 0.085, 0.036, 0.019, 1.431
 110652681, -0.003, 0.191, -0.021, 1.427, 0.103, 0.138, 0.09200001, 1.429
 110853024, -0.02, 0.207, 0.07300001, 1.426, -0.003, 0.191, -0.021, 1.427
 111053158, 0.202, 0.089, -0.023, 1.424, -0.02, 0.207, 0.07300001, 1.426
 111252714, 0.066, 0.245, -0.11, 1.423, 0.202, 0.089, -0.023, 1.424
 111452704, 0.068, 0.311, -0.09100001, 1.42, 0.066, 0.245, -0.11, 1.423
 111652696, 0.169, 0.262, 0.031, 1.42, 0.068, 0.311, -0.09100001, 1.42
 111853060, 0.047, 0.147, 0.06, 1.419, 0.169, 0.262, 0.031, 1.42
 112053022, -0.075, 0.015, 0.061, 1.418, 0.047, 0.147, 0.06, 1.419
 112253029, -0.096, -0.126, -0.064, 1.417, -0.075, 0.015, 0.061, 1.418
 112453062, -0.126, -0.09200001, -0.014, 1.416, -0.096, -0.126, -0.064, 1.417
 112653024, -0.096, -0.167, 0.014, 1.414, -0.126, -0.09200001, -0.014, 1.416
 112852703, -0.053, -0.056, -0.121, 1.413, -0.096, -0.167, 0.014, 1.414
 113052699, -0.08800001, 0.048, -0.045, 1.412, -0.053, -0.056, -0.121, 1.413
 113253063, -0.078, 0.067, -0.021, 1.412, -0.08800001, 0.048, -0.045, 1.412
 113453050, -0.082, 0.081, -0.064, 1.412, -0.078, 0.067, -0.021, 1.412
 113652707, -0.183, 0.381, 0.008, 1.414, -0.082, 0.081, -0.064, 1.412
 113852673, -0.05, 0.276, 0.003, 1.416, -0.183, 0.381, 0.008, 1.414
 114052891, -0.05, 0.22, 0.09100001, 1.417, -0.05, 0.276, 0.003, 1.416
 114272707, -0.09500001, 0.336, -0.044, 1.418, -0.05, 0.22, 0.09100001, 1.417
 114452907, -0.16, 0.123, -0.017, 1.418, -0.09500001, 0.336, -0.044, 1.418
 114672706, -0.183, 0.227, 0.015, 1.419, -0.16, 0.123, -0.017, 1.418
 114853024, -0.083, 0.216, 0.113, 1.42, -0.183, 0.227, 0.015, 1.419
 115052681, -0.122, -0.033, -0.026, 1.42, -0.083, 0.216, 0.113, 1.42
 115252694, -0.047, -0.033, 0.124, 1.422, -0.122, -0.033, -0.026, 1.42
 115453087, -0.044, 0.004, 0.044, 1.424, -0.047, -0.033, 0.124, 1.422
 115652698, 0.174, -0.172, 0.071, 1.425, -0.044, 0.004, 0.044, 1.424
 115852690, 0.102, 0.058, -0.007, 1.425, 0.174, -0.172, 0.071, 1.425
 116052675, 0.175, -0.018, 0.057, 1.423, 0.102, 0.058, -0.007, 1.425
 116252694, 0.146, -0.13, 0.066, 1.422, 0.175, -0.018, 0.057, 1.423
 116453186, 0.156, -0.192, 0.017, 1.421, 0.146, -0.13, 0.066, 1.422
 116653067, 0.019, -0.197, -0.054, 1.42, 0.156, -0.192, 0.017, 1.421
 116853038, 0.014, -0.253, -0.008, 1.419, 0.019, -0.197, -0.054, 1.42
 117052699, 0.103, -0.307, 0.081, 1.417, 0.014, -0.253, -0.008, 1.419
 117252673, 0.052, -0.296, 0.08400001, 1.417, 0.103, -0.307, 0.081, 1.417
 117452700, 0.094, -0.222, 0.07300001, 1.416, 0.052, -0.296, 0.08400001, 1.417
 117652691, 0.125, -0.126, 0.132, 1.416, 0.094, -0.222, 0.07300001, 1.416
 117852690, 0.147, -0.177, 0.098, 1.417, 0.125, -0.126, 0.132, 1.416
 118052691, 0.191, -0.09, 0.138, 1.418, 0.147, -0.177, 0.098, 1.417
 118252730, 0.169, 0.046, 0.133, 1.42, 0.191, -0.09, 0.138, 1.418
 118452703, 0.158, 0.199, 0.09200001, 1.419, 0.169, 0.046, 0.133, 1.42
 118655226, 0.068, 0.23, 0.006, 1.417, 0.158, 0.199, 0.09200001, 1.419
 118855205, 0.07300001, 0.157, 0.006, 1.417, 0.068, 0.23, 0.006, 1.417
 119055222, 0.119, 0.119, 0.016, 1.417, 0.07300001, 0.157, 0.006, 1.417
 119255208, -0.094, 0.219, -0.047, 1.417, 0.119, 0.119, 0.016, 1.417
 119455240, -0.058, 0.178, 0.027, 1.417, -0.094, 0.219, -0.047, 1.417
 119655478, -0.11, 0.128, -0.105, 1.42, -0.058, 0.178, 0.027, 1.417
 119855226, -0.198, 0.094, -0.064, 1.421, -0.11, 0.128, -0.105, 1.42
 120057696, -0.165, 0.103, -0.046, 1.42, -0.198, 0.094, -0.064, 1.421
 120257697, -0.104, 0.07, -0.015, 1.42, -0.165, 0.103, -0.046, 1.42
 120457963, -0.114, 0.09500001, 0.023, 1.42, -0.104, 0.07, -0.015, 1.42
 120657697, -0.089, 0.033, 0.033, 1.42, -0.114, 0.09500001, 0.023, 1.42
 120858283, -0.126, -0.019, 0.07300001, 1.421, -0.089, 0.033, 0.033, 1.42
 121058096, 0.025, -0.03, -0.007, 1.422, -0.126, -0.019, 0.07300001, 1.421
 121258096, -0.026, -0.017, 0.082, 1.423, 0.025, -0.03, -0.007, 1.422
 121457715, -0.023, -0.004, 0.083, 1.422, -0.026, -0.017, 0.082, 1.423
 121660229, 0.005, -0.016, 0.06900001, 1.421, -0.023, -0.004, 0.083, 1.422
 121860224, 0.062, -0.011, 0.02, 1.419, 0.005, -0.016, 0.06900001, 1.421
 122060217, -0.04, 0.182, -0.016, 1.416, 0.062, -0.011, 0.02, 1.419
 122262699, -0.059, 0.133, -0.001, 1.416, -0.04, 0.182, -0.016, 1.416
 122463077, -0.089, 0.005, 0.041, 1.413, -0.059, 0.133, -0.001, 1.416
 122665209, -0.121, -0.016, -0.1, 1.412, -0.089, 0.005, 0.041, 1.413
 122865670, -0.09, 0.027, 0.085, 1.411, -0.121, -0.016, -0.1, 1.412
 123048159, -0.112, 0.006, 0.03, 1.41, -0.09, 0.027, 0.085, 1.411
 123248252, -0.115, -0.03, 0.004, 1.409, -0.112, 0.006, 0.03, 1.41
 123448152, -0.085, -0.07600001, -0.079, 1.405, -0.115, -0.03, 0.004, 1.409
 123648148, -0.132, 0.078, 0.002, 1.402, -0.085, -0.07600001, -0.079, 1.405
 123847694, -0.005, 0.001, -0.012, 1.399, -0.132, 0.078, 0.002, 1.402
 124047700, -0.007, 0.031, -0.035, 1.396, -0.005, 0.001, -0.012, 1.399
 124250501, 0.049, 0.011, 0.102, 1.394, -0.007, 0.031, -0.035, 1.396
 124450505, 0.067, 0.036, 0.09, 1.393, 0.049, 0.011, 0.102, 1.394
 124650219, -0.046, 0.147, 0.08800001, 1.393, 0.067, 0.036, 0.09, 1.393
 124850198, -0.035, 0.06500001, 0.068, 1.394, -0.046, 0.147, 0.08800001, 1.393
 125050209, 0.009000001, 0.015, -0.038, 1.395, -0.035, 0.06500001, 0.068, 1.394
 125250371, 0.035, 0.024, 0.06900001, 1.397, 0.009000001, 0.015, -0.038, 1.395
 125450234, 0.012, 0.1, -0.06500001, 1.398, 0.035, 0.024, 0.06900001, 1.397
 125650212, 0.056, 0.222, -0.062, 1.399, 0.012, 0.1, -0.06500001, 1.398
 125850188, 0.02, 0.261, -0.01, 1.4, 0.056, 0.222, -0.062, 1.399
 126053023, -0.041, 0.197, 0.043, 1.4, 0.02, 0.261, -0.01, 1.4
 126253017, 0.003, 0.177, 0.036, 1.4, -0.041, 0.197, 0.043, 1.4
 126452702, 0.004, 0.184, -0.022, 1.402, 0.003, 0.177, 0.036, 1.4
 126653180, 0.043, 0.03, 0.021, 1.402, 0.004, 0.184, -0.022, 1.402
 126852670, 0.045, 0, -0.045, 1.402, 0.043, 0.03, 0.021, 1.402
 127052908, -0.049, 0, 0.021, 1.398, 0.045, 0, -0.045, 1.402
 127252900, -0.096, 0.024, -0.057, 1.396, -0.049, 0, 0.021, 1.398
 127452718, 0.021, 0.026, -0.049, 1.397, -0.096, 0.024, -0.057, 1.396
 127652676, -0.034, 0.153, 0.032, 1.396, 0.021, 0.026, -0.049, 1.397
 127852667, -0.074, 0.101, 0.062, 1.394, -0.034, 0.153, 0.032, 1.396
 128052698, -0.07600001, 0.068, 0.07300001, 1.394, -0.074, 0.101, 0.062, 1.394
 128252705, -0.082, 0.08000001, 0.024, 1.394, -0.07600001, 0.068, 0.07300001, 1.394
 128452686, -0.06, 0.232, -0.026, 1.394, -0.082, 0.08000001, 0.024, 1.394
 128652696, -0.02, 0.149, -0.064, 1.395, -0.06, 0.232, -0.026, 1.394
 128852697, -0.031, 0.173, -0.09200001, 1.393, -0.02, 0.149, -0.064, 1.395
 129052711, -0.08000001, 0.119, -0.128, 1.386, -0.031, 0.173, -0.09200001, 1.393
 129252692, -0.112, 0.135, -0.045, 1.38, -0.08000001, 0.119, -0.128, 1.386
 129453073, -0.175, 0.047, 0.035, 1.374, -0.112, 0.135, -0.045, 1.38
 129652673, -0.174, 0.024, 0.056, 1.369, -0.175, 0.047, 0.035, 1.374
 129852696, -0.239, 0.128, -0.032, 1.368, -0.174, 0.024, 0.056, 1.369
 130052690, -0.202, 0.007, -0.075, 1.366, -0.239, 0.128, -0.032, 1.368
 130252692, -0.063, -0.07300001, -0.048, 1.367, -0.202, 0.007, -0.075, 1.366
 130452758, -0.117, -0.133, -0.101, 1.365, -0.063, -0.07300001, -0.048, 1.367
 130652703, 0.034, -0.09900001, -0.181, 1.363, -0.117, -0.133, -0.101, 1.365
 130852978, -0.054, -0.057, 0.025, 1.361, 0.034, -0.09900001, -0.181, 1.363
 131053028, -0.06500001, -0.17, -0.023, 1.359, -0.054, -0.057, 0.025, 1.361
 131252910, -0.031, -0.21, -0.044, 1.358, -0.06500001, -0.17, -0.023, 1.359
 131452716, -0.046, -0.255, 0.013, 1.357, -0.031, -0.21, -0.044, 1.358
 131652695, 0.06900001, -0.227, 0.032, 1.358, -0.046, -0.255, 0.013, 1.357
 131853081, 0.072, -0.393, -0.004, 1.358, 0.06900001, -0.227, 0.032, 1.358
 132052713, 0.029, -0.183, -0.02, 1.359, 0.072, -0.393, -0.004, 1.358
 132252695, 0.108, -0.237, -0.036, 1.36, 0.029, -0.183, -0.02, 1.359
 132452712, -0.005, 0, -0.044, 1.362, 0.108, -0.237, -0.036, 1.36
 132652736, -0.005, 0, -0.022, 1.363, -0.005, 0, -0.044, 1.362
 132852704, -0.005, 0, -0.028, 1.366, -0.005, 0, -0.022, 1.363
 133052704, -0.005, 0, 0.038, 1.366, -0.005, 0, -0.028, 1.366
 133252690, -0.005, 0, 0.008, 1.367, -0.005, 0, 0.038, 1.366
 133453076, -0.005, 0, -0.036, 1.367, -0.005, 0, 0.008, 1.367
 133652688, -0.005, 0, -0.104, 1.367, -0.005, 0, -0.036, 1.367
 133853022, -0.005, 0, -0.031, 1.367, -0.005, 0, -0.104, 1.367
 134052693, -0.005, 0, 0.03, 1.364, -0.005, 0, -0.031, 1.367
 134252691, -0.005, 0, -0.002, 1.362, -0.005, 0, 0.03, 1.364
 134452919, -0.005, 0, -0.036, 1.361, -0.005, 0, -0.002, 1.362
 134652696, -0.005, 0, -0.078, 1.362, -0.005, 0, -0.036, 1.361
 134852682, -0.005, 0, 0.043, 1.36, -0.005, 0, -0.078, 1.362
 135052810, -0.005, 0, 0.096, 1.357, -0.005, 0, 0.043, 1.36
 135253033, -0.005, 0, -0.029, 1.354, -0.005, 0, 0.096, 1.357
 135452826, -0.005, 0, -0.039, 1.348, -0.005, 0, -0.029, 1.354
 135652699, -0.005, 0, -0.058, 1.347, -0.005, 0, -0.039, 1.348
 135852692, -0.005, 0, -0.005, 1.351, -0.005, 0, -0.058, 1.347
 136052689, -0.005, 0, -0.074, 1.353, -0.005, 0, -0.005, 1.351
 136272688, -0.005, 0, 0.062, 1.356, -0.005, 0, -0.074, 1.353
 136453089, -0.005, 0, -0.023, 1.359, -0.005, 0, 0.062, 1.356
 136653037, -0.005, 0, 0.071, 1.362, -0.005, 0, -0.023, 1.359
 136853047, -0.005, 0, 0.013, 1.363, -0.005, 0, 0.071, 1.362
 137052693, -0.005, 0, -0.07, 1.361, -0.005, 0, 0.013, 1.363
 137252675, -0.005, 0, 0.053, 1.363, -0.005, 0, -0.07, 1.361
 137452705, -0.005, 0, 0.047, 1.367, -0.005, 0, 0.053, 1.363
 137652693, -0.005, 0, 0.048, 1.369, -0.005, 0, 0.047, 1.367
 137852677, -0.005, 0, 0.074, 1.371, -0.005, 0, 0.048, 1.369
 138053153, -0.005, 0, -0.025, 1.369, -0.005, 0, 0.074, 1.371
 138252702, -0.005, 0, 0.118, 1.366, -0.005, 0, -0.025, 1.369
 138452708, -0.005, 0, 0.019, 1.36, -0.005, 0, 0.118, 1.366
 138653030, -0.005, 0, 0.124, 1.356, -0.005, 0, 0.019, 1.36
 138852689, -0.005, 0, 0.07700001, 1.356, -0.005, 0, 0.124, 1.356
 139052719, -0.005, 0, 0.027, 1.359, -0.005, 0, 0.07700001, 1.356
 139252900, -0.005, 0, 0.01, 1.364, -0.005, 0, 0.027, 1.359
 139452705, -0.005, 0, 0.002, 1.369, -0.005, 0, 0.01, 1.364
 139653191, -0.005, 0, -0.005, 1.373, -0.005, 0, 0.002, 1.369
 139852728, -0.005, 0, 0, 1.374, -0.005, 0, -0.005, 1.373
 140053035, -0.005, 0, -0.063, 1.374, -0.005, 0, 0, 1.374
 140253035, -0.005, 0, 0.021, 1.374, -0.005, 0, -0.063, 1.374
 140452708, -0.005, 0, 0.13, 1.373, -0.005, 0, 0.021, 1.374
 140652693, -0.005, 0, 0.025, 1.374, -0.005, 0, 0.13, 1.373
 140852692, -0.005, 0, 0.079, 1.373, -0.005, 0, 0.025, 1.374
 141052738, -0.005, 0, 0.008, 1.37, -0.005, 0, 0.079, 1.373
 141252700, -0.005, 0, -0.005, 1.368, -0.005, 0, 0.008, 1.37
 141453049, -0.005, 0, 0.016, 1.361, -0.005, 0, -0.005, 1.368
 141652913, -0.005, 0, -0.011, 1.354, -0.005, 0, 0.016, 1.361
 141852692, -0.005, 0, 0.12, 1.351, -0.005, 0, -0.011, 1.354
 142052662, -0.005, 0, 0.118, 1.348, -0.005, 0, 0.12, 1.351
 142252695, -0.005, 0, 0.054, 1.347, -0.005, 0, 0.118, 1.348
 142452692, -0.005, 0, 0.177, 1.346, -0.005, 0, 0.054, 1.347
 142652679, -0.005, 0, 0.133, 1.341, -0.005, 0, 0.177, 1.346
 142852692, -0.005, 0, 0.067, 1.334, -0.005, 0, 0.133, 1.341
 143052695, -0.005, 0, 0.123, 1.328, -0.005, 0, 0.067, 1.334
 143252694, -0.005, 0, 0.165, 1.322, -0.005, 0, 0.123, 1.328
 143452962, -0.005, 0, 0.137, 1.317, -0.005, 0, 0.165, 1.322
 143652698, -0.005, 0, 0.018, 1.317, -0.005, 0, 0.137, 1.317
 143853168, -0.005, 0, 0.193, 1.314, -0.005, 0, 0.018, 1.317
 144052695, -0.005, 0, 0.142, 1.315, -0.005, 0, 0.193, 1.314
 144252706, -0.005, 0, 0.09, 1.318, -0.005, 0, 0.142, 1.315
 144452706, -0.005, 0, -0.124, 1.319, -0.005, 0, 0.09, 1.318
 144652693, -0.005, 0, 0.139, 1.319, -0.005, 0, -0.124, 1.319
 144852736, -0.005, 0, 0.044, 1.32, -0.005, 0, 0.139, 1.319
 145053041, -0.005, 0, 0.22, 1.321, -0.005, 0, 0.044, 1.32
 145252901, -0.005, 0, 0.104, 1.323, -0.005, 0, 0.22, 1.321
 145452715, -0.005, 0, 0.136, 1.321, -0.005, 0, 0.104, 1.323
 145652678, -0.005, 0, 0.205, 1.317, -0.005, 0, 0.136, 1.321
 145852687, -0.005, 0, 0.107, 1.314, -0.005, 0, 0.205, 1.317
 146053084, -0.005, 0, 0.268, 1.31, -0.005, 0, 0.107, 1.314
 146272689, -0.005, 0, 0.244, 1.311, -0.005, 0, 0.268, 1.31
 146452713, -0.005, 0, 0.107, 1.31, -0.005, 0, 0.244, 1.311
 146652694, -0.005, 0, 0.08400001, 1.311, -0.005, 0, 0.107, 1.31
 146852698, -0.005, 0, 0.032, 1.311, -0.005, 0, 0.08400001, 1.311
 147052907, -0.005, 0, -0.09100001, 1.311, -0.005, 0, 0.032, 1.311
 147252672, -0.005, 0, 0.016, 1.311, -0.005, 0, -0.09100001, 1.311
 147453058, -0.005, 0, -0.338, 1.31, -0.005, 0, 0.016, 1.311
 147652904, -0.005, 0, -0.059, 1.306, -0.005, 0, -0.338, 1.31
 147852682, -0.005, 0, -0.096, 1.308, -0.005, 0, -0.059, 1.306
 148052489, -0.005, 0, -0.037, 1.306, -0.005, 0, -0.096, 1.308
 148252460, -0.005, 0, -0.23, 1.304, -0.005, 0, -0.037, 1.306
 148452918, -0.005, 0, -0.224, 1.303, -0.005, 0, -0.23, 1.304
 148652490, -0.005, 0, -0.802, 1.301, -0.005, 0, -0.224, 1.303
 148852539, -0.005, 0, -1.041, 1.299, -0.005, 0, -0.802, 1.301
 149052504, -0.005, 0, -1.205, 1.296, -0.005, 0, -1.041, 1.299
 149252474, -0.005, 0, -1.264, 1.297, -0.005, 0, -1.205, 1.296
 149452508, -0.005, 0, -1.258, 1.301, -0.005, 0, -1.264, 1.297
 149652919, -0.005, 0, -1.15, 1.305, -0.005, 0, -1.258, 1.301
 149852494, -0.005, 0, -0.756, 1.31, -0.005, 0, -1.15, 1.305
 150052472, -0.005, 0, -0.714, 1.314, -0.005, 0, -0.756, 1.31
 150252482, -0.005, 0, -0.166, 1.315, -0.005, 0, -0.714, 1.314
 150452503, -0.005, 0, 0.131, 1.313, -0.005, 0, -0.166, 1.315
 150652478, -0.005, 0, 0.583, 1.311, -0.005, 0, 0.131, 1.313
 150852453, -0.005, 0, 1.336, 1.311, -0.005, 0, 0.583, 1.311
 151052460, -0.005, 0, 1.833, 1.309, -0.005, 0, 1.336, 1.311
 151252477, -0.005, 0, 2.481, 1.31, -0.005, 0, 1.833, 1.309
 151452813, -0.005, 0, 2.998, 1.312, -0.005, 0, 2.481, 1.31
 151652487, -0.005, 0, 3.479, 1.313, -0.005, 0, 2.998, 1.312
 151852513, -0.005, 0, 3.919, 1.314, -0.005, 0, 3.479, 1.313
 152052894, -0.005, 0, 4.333, 1.316, -0.005, 0, 3.919, 1.314
 152253046, -0.005, 0, 2.218, 1.318, -0.005, 0, 4.333, 1.316
 152453045, -0.005, 0, -0.535, 1.316, -0.005, 0, 2.218, 1.318
 152652794, -0.005, 0, -2.538, 1.317, -0.005, 0, -0.535, 1.316
 152852771, -0.005, 0, -4.942, 1.318, -0.005, 0, -2.538, 1.317
 153052496, -0.005, 0, -6.84, 1.319, -0.005, 0, -4.942, 1.318
 153252900, -0.005, 0, -8.288, 1.32, -0.005, 0, -6.84, 1.319
 153452518, -0.005, 0, -9.685, 1.321, -0.005, 0, -8.288, 1.32
 153652927, -0.005, 0, -10.819, 1.321, -0.005, 0, -9.685, 1.321
 153852836, -0.005, 0, -11.542, 1.321, -0.005, 0, -10.819, 1.321
 154052497, -0.005, 0, -11.87, 1.32, -0.005, 0, -11.542, 1.321
 154252525, -0.005, 0, -11.802, 1.32, -0.005, 0, -11.87, 1.32
 154452904, -0.005, 0, -11.541, 1.318, -0.005, 0, -11.802, 1.32
 154652913, -0.005, 0, -10.801, 1.319, -0.005, 0, -11.541, 1.318
 154852920, -0.005, 0, -9.646001, 1.317, -0.005, 0, -10.801, 1.319
 155052479, -0.005, 0, -8.426001, 1.312, -0.005, 0, -9.646001, 1.317
 155252498, -0.005, 0, -6.775, 1.313, -0.005, 0, -8.426001, 1.312
 155452922, -0.005, 0, -5.312, 1.32, -0.005, 0, -6.775, 1.313
 155652494, -0.005, 0, -3.833, 1.332, -0.005, 0, -5.312, 1.32
 155852484, -0.005, 0, -2.386, 1.338, -0.005, 0, -3.833, 1.332
 156052500, -0.005, 0, -1.106, 1.338, -0.005, 0, -2.386, 1.338
 156252924, -0.005, 0, -0.425, 1.338, -0.005, 0, -1.106, 1.338
 156472586, -0.005, 0, 0.474, 1.339, -0.005, 0, -0.425, 1.338
 156652475, -0.005, 0, 1.333, 1.342, -0.005, 0, 0.474, 1.339
 156852908, -0.005, 0, 2.222, 1.345, -0.005, 0, 1.333, 1.342
 157052897, -0.005, 0, 3.149, 1.346, -0.005, 0, 2.222, 1.345
 157252491, -0.005, 0, 4.105, 1.349, -0.005, 0, 3.149, 1.346
 157452535, -0.005, 0, 4.935, 1.35, -0.005, 0, 4.105, 1.349
 157652486, -0.005, 0, 5.736, 1.355, -0.005, 0, 4.935, 1.35
 157852515, -0.005, 0, 6.416, 1.362, -0.005, 0, 5.736, 1.355
 158052471, -0.005, 0, 6.969, 1.368, -0.005, 0, 6.416, 1.362
 158252497, -0.005, 0, 7.356, 1.372, -0.005, 0, 6.969, 1.368
 158452502, -0.005, 0, 7.445, 1.374, -0.005, 0, 7.356, 1.372
 158652485, -0.005, 0, 7.438, 1.377, -0.005, 0, 7.445, 1.374
 158852495, -0.005, 0, 7.168, 1.379, -0.005, 0, 7.438, 1.377
 159052793, -0.005, 0, 7.051, 1.38, -0.005, 0, 7.168, 1.379
 159252795, -0.005, 0, 6.662, 1.382, -0.005, 0, 7.051, 1.38
 159452921, -0.005, 0, 6.497, 1.382, -0.005, 0, 6.662, 1.382
 159652549, -0.005, 0, 6.544, 1.383, -0.005, 0, 6.497, 1.382
 159852502, -0.005, 0, 6.367, 1.385, -0.005, 0, 6.544, 1.383
 160052477, -0.005, 0, 6.085001, 1.386, -0.005, 0, 6.367, 1.385
 160252519, -0.005, 0, 6.158, 1.389, -0.005, 0, 6.085001, 1.386
 160452904, -0.005, 0, 6.277, 1.391, -0.005, 0, 6.158, 1.389
 160652534, -0.005, 0, 6.151, 1.393, -0.005, 0, 6.277, 1.391
 160852471, -0.005, 0, 5.461, 1.394, -0.005, 0, 6.151, 1.393
 161052529, -0.005, 0, 4.255, 1.393, -0.005, 0, 5.461, 1.394
 161252476, -0.005, 0, 2.714, 1.393, -0.005, 0, 4.255, 1.393
 161452991, -0.005, 0, 0.849, 1.395, -0.005, 0, 2.714, 1.393
 161652903, -0.005, 0, -1.001, 1.398, -0.005, 0, 0.849, 1.395
 161852830, -0.005, 0, -2.41, 1.397, -0.005, 0, -1.001, 1.398
 162052465, -0.005, 0, -3.531, 1.395, -0.005, 0, -2.41, 1.397
 162252506, -0.005, 0, -4.688, 1.392, -0.005, 0, -3.531, 1.395
 162452948, -0.005, 0, -5.042, 1.39, -0.005, 0, -4.688, 1.392
 162652891, -0.005, 0, -5.19, 1.389, -0.005, 0, -5.042, 1.39
 162852518, -0.005, 0, -5.003, 1.388, -0.005, 0, -5.19, 1.389
 163052493, -0.005, 0, -4.457, 1.385, -0.005, 0, -5.003, 1.388
 163252520, -0.005, 0, -3.823, 1.384, -0.005, 0, -4.457, 1.385
 163452799, -0.005, 0, -2.952, 1.384, -0.005, 0, -3.823, 1.384
 163652490, -0.005, 0, -2.246, 1.386, -0.005, 0, -2.952, 1.384
 163852450, -0.005, 0, -1.846, 1.385, -0.005, 0, -2.246, 1.386
 164052490, -0.005, 0, -1.801, 1.381, -0.005, 0, -1.846, 1.385
 164252482, -0.005, 0, -2.193, 1.381, -0.005, 0, -1.801, 1.381
 164452563, -0.005, 0, -2.482, 1.379, -0.005, 0, -2.193, 1.381
 164652477, -10.287, -1.382, -3.067, 1.379, -0.005, 0, -2.482, 1.379
 164852995, -9.833, -0.666, -3.786, 1.378, -10.287, -1.382, -3.067, 1.379
 165052511, -8.98, 0.036, -4.219, 1.377, -9.833, -0.666, -3.786, 1.378
 165252491, -8.326, 0.752, -4.3, 1.375, -8.98, 0.036, -4.219, 1.377
 165452502, -7.76, 0.979, -4.646, 1.371, -8.326, 0.752, -4.3, 1.375
 165652461, -7.352, 1.527, -4.726, 1.368, -7.76, 0.979, -4.646, 1.371
 165852491, -7.168, 1.52, -4.929, 1.37, -7.352, 1.527, -4.726, 1.368
 166052476, -6.909, 1.503, -4.976, 1.37, -7.168, 1.52, -4.929, 1.37
 166252504, -6.516, 1.455, -4.808, 1.373, -6.909, 1.503, -4.976, 1.37
 166452521, -6.583, 1.152, -4.623, 1.372, -6.516, 1.455, -4.808, 1.373
 166652482, -6.678, 1.039, -4.371, 1.373, -6.583, 1.152, -4.623, 1.372
 166852516, -6.58, 0.7270001, -3.911, 1.376, -6.678, 1.039, -4.371, 1.373
 167052467, -6.621, 0.437, -3.62, 1.376, -6.58, 0.7270001, -3.911, 1.376
 167252779, -6.565001, 0.35, -3.371, 1.377, -6.621, 0.437, -3.62, 1.376
 167452501, -6.497, 0.249, -2.884, 1.375, -6.565001, 0.35, -3.371, 1.377
 167652473, -6.311, -0.031, -2.59, 1.376, -6.497, 0.249, -2.884, 1.375
 167852479, -6.233, 0.175, -2.224, 1.378, -6.311, -0.031, -2.59, 1.376
 168052554, -6.039001, 0.374, -1.9, 1.379, -6.233, 0.175, -2.224, 1.378
 168252524, -5.672, 0.34, -1.504, 1.382, -6.039001, 0.374, -1.9, 1.379
 168452937, -5.479, 0.464, -1.095, 1.384, -5.672, 0.34, -1.504, 1.382
 168652559, -5.361, 1.185, -0.978, 1.386, -5.479, 0.464, -1.095, 1.384
 168852498, -5.01, 1.272, -0.669, 1.389, -5.361, 1.185, -0.978, 1.386
 169053052, -4.387, 1.081, -0.541, 1.392, -5.01, 1.272, -0.669, 1.389
 169253127, -4.03, 1.01, -0.454, 1.394, -4.387, 1.081, -0.541, 1.392
 169452722, -4.098, 1.088, -0.08800001, 1.397, -4.03, 1.01, -0.454, 1.394
 169652701, -4.154, 1.128, 0.217, 1.398, -4.098, 1.088, -0.08800001, 1.397
 169852656, -4.157, 0.933, 0.373, 1.398, -4.154, 1.128, 0.217, 1.398
 170052692, -3.994, 0.466, 0.267, 1.394, -4.157, 0.933, 0.373, 1.398
 170253012, -4.142, 0.07300001, 0.445, 1.396, -3.994, 0.466, 0.267, 1.394
 170452920, -4.076, -0.489, 0.16, 1.397, -4.142, 0.07300001, 0.445, 1.396
 170652695, -4.067, -0.798, 0.151, 1.399, -4.076, -0.489, 0.16, 1.397
 170853008, -4.078, -1.269, 0.208, 1.404, -4.067, -0.798, 0.151, 1.399
 171052684, -4.135, -1.542, 0.154, 1.41, -4.078, -1.269, 0.208, 1.404
 171252674, -3.991, -1.79, -0.036, 1.414, -4.135, -1.542, 0.154, 1.41
 171452691, -3.912, -2.153, -0.003, 1.418, -3.991, -1.79, -0.036, 1.414
 171652695, -3.622, -2.489, -0.195, 1.422, -3.912, -2.153, -0.003, 1.418
 171852676, -3.546, -2.745, -0.346, 1.426, -3.622, -2.489, -0.195, 1.422
 172052688, -3.146, -3.015, -0.384, 1.431, -3.546, -2.745, -0.346, 1.426
 172252897, -2.924, -3.621, -0.152, 1.435, -3.146, -3.015, -0.384, 1.431
 172452703, -2.599, -4.176, -0.046, 1.436, -2.924, -3.621, -0.152, 1.435
 172652673, -2.369, -4.833, 0.018, 1.438, -2.599, -4.176, -0.046, 1.436
 172852806, -2.332, -5.141, -0.13, 1.44, -2.369, -4.833, 0.018, 1.438
 173052686, -1.916, -5.496, -0.302, 1.441, -2.332, -5.141, -0.13, 1.44
 173252811, -1.955, -5.724, -0.487, 1.446, -1.916, -5.496, -0.302, 1.441
 173452712, -1.595, -6.06, -0.629, 1.448, -1.955, -5.724, -0.487, 1.446
 173652727, -1.645, -5.607, -0.6900001, 1.452, -1.595, -6.06, -0.629, 1.448
 173852579, -1.439, -5.799, -0.582, 1.455, -1.645, -5.607, -0.6900001, 1.452
 174052714, -1.271, -5.227, -0.512, 1.458, -1.439, -5.799, -0.582, 1.455
 174272659, -1.398, -5.16, -0.186, 1.464, -1.271, -5.227, -0.512, 1.458
 174453028, -1.5, -4.787, 0.032, 1.464, -1.398, -5.16, -0.186, 1.464
 174652709, -1.35, -4.542, 0.228, 1.461, -1.5, -4.787, 0.032, 1.464
 174852685, -1.319, -4.53, 0.119, 1.462, -1.35, -4.542, 0.228, 1.461
 175052689, -1.279, -4.246, 0.059, 1.462, -1.319, -4.53, 0.119, 1.462
 175252676, -1.497, -4.118, 0.002, 1.463, -1.279, -4.246, 0.059, 1.462
 175452699, -1.272, -4.205, 0.039, 1.464, -1.497, -4.118, 0.002, 1.463
 175652671, -1.397, -4.133, 0.119, 1.465, -1.272, -4.205, 0.039, 1.464
 175852918, -1.645, -4.167, 0.273, 1.466, -1.397, -4.133, 0.119, 1.465
 176052694, -1.446, -4.318, 0.333, 1.465, -1.645, -4.167, 0.273, 1.466
 176252679, -1.465, -4.424, 0.22, 1.465, -1.446, -4.318, 0.333, 1.465
 176453067, -1.577, -4.354, 0.338, 1.466, -1.465, -4.424, 0.22, 1.465
 176652712, -1.323, -4.663, 0.5330001, 1.467, -1.577, -4.354, 0.338, 1.466
 176872700, -1.548, -4.659, 0.515, 1.463, -1.323, -4.663, 0.5330001, 1.467
 177052813, -1.817, -4.385, 0.859, 1.459, -1.548, -4.659, 0.515, 1.463
 177252696, -1.796, -4.512, 0.717, 1.454, -1.817, -4.385, 0.859, 1.459
 177453147, -2.069, -4.779, 1.069, 1.45, -1.796, -4.512, 0.717, 1.454
 177653167, -2.102, -4.525, 1.049, 1.45, -2.069, -4.779, 1.069, 1.45
 177852702, -1.931, -4.593, 1.028, 1.453, -2.102, -4.525, 1.049, 1.45
 178052703, -1.989, -4.518, 0.974, 1.448, -1.931, -4.593, 1.028, 1.453
 178252688, -1.718, -4.801, 0.886, 1.445, -1.989, -4.518, 0.974, 1.448
 178452712, -1.346, -4.683, 0.9300001, 1.442, -1.718, -4.801, 0.886, 1.445
 178652674, -0.905, -4.582, 1.129, 1.441, -1.346, -4.683, 0.9300001, 1.442
 178853002, -0.623, -4.219, 1.104, 1.439, -0.905, -4.582, 1.129, 1.441
 179053040, -0.456, -4.043, 1.22, 1.438, -0.623, -4.219, 1.104, 1.439
 179252717, -0.337, -3.848, 1.219, 1.437, -0.456, -4.043, 1.22, 1.438
 179452936, -0.245, -3.631, 1.088, 1.437, -0.337, -3.848, 1.219, 1.437
 179652701, -0.145, -3.097, 1.343, 1.437, -0.245, -3.631, 1.088, 1.437
 179853007, -0.19, -2.595, 1.272, 1.438, -0.145, -3.097, 1.343, 1.437
 180052690, -0.398, -2.06, 1.039, 1.44, -0.19, -2.595, 1.272, 1.438
 180252676, -0.089, -1.849, 0.914, 1.443, -0.398, -2.06, 1.039, 1.44
 180452711, 0.05, -1.489, 1.256, 1.44, -0.089, -1.849, 0.914, 1.443
 180653141, -0.041, -1.418, 1.406, 1.439, 0.05, -1.489, 1.256, 1.44
 180852690, 0.154, -1.481, 1.682, 1.439, -0.041, -1.418, 1.406, 1.439
 181052700, -0.206, -0.901, 1.715, 1.435, 0.154, -1.481, 1.682, 1.439
 181252705, -0.356, -0.9810001, 1.891, 1.433, -0.206, -0.901, 1.715, 1.435
 181452736, -0.488, -0.665, 1.673, 1.43, -0.356, -0.9810001, 1.891, 1.433
 181652808, -0.245, -0.379, 1.627, 1.432, -0.488, -0.665, 1.673, 1.43
 181852726, -0.507, -0.238, 1.622, 1.435, -0.245, -0.379, 1.627, 1.432
 182052677, -0.743, 0.127, 1.77, 1.434, -0.507, -0.238, 1.622, 1.435
 182252691, -0.647, 0.182, 1.839, 1.433, -0.743, 0.127, 1.77, 1.434
 182453040, -0.328, 0.66, 1.66, 1.434, -0.647, 0.182, 1.839, 1.433
 182652695, -0.271, 0.549, 1.548, 1.435, -0.328, 0.66, 1.66, 1.434
 182852698, -0.373, 0.081, 1.647, 1.434, -0.271, 0.549, 1.548, 1.435
 183052914, -0.176, 0.042, 1.698, 1.434, -0.373, 0.081, 1.647, 1.434
 183252692, -0.205, -0.199, 1.789, 1.436, -0.176, 0.042, 1.698, 1.434
 183452702, -0.075, 0.103, 1.716, 1.437, -0.205, -0.199, 1.789, 1.436
 183652691, 0.124, 0.035, 1.934, 1.437, -0.075, 0.103, 1.716, 1.437
 183852679, -0.252, -0.07300001, 1.928, 1.435, 0.124, 0.035, 1.934, 1.437
 184052685, -0.17, 0.104, 1.814, 1.432, -0.252, -0.07300001, 1.928, 1.435
 184252698, 0.168, -0.357, 1.888, 1.432, -0.17, 0.104, 1.814, 1.432
 184452716, -0.071, -0.278, 1.851, 1.432, 0.168, -0.357, 1.888, 1.432
 184652691, -0.164, 0.29, 1.803, 1.432, -0.071, -0.278, 1.851, 1.432
 184852742, 0.289, -0.03, 1.956, 1.433, -0.164, 0.29, 1.803, 1.432
 185052691, 0.106, 0.034, 1.614, 1.433, 0.289, -0.03, 1.956, 1.433
 185252704, 0.16, 0.205, 1.58, 1.433, 0.106, 0.034, 1.614, 1.433
 185453178, 0.029, 0.224, 1.76, 1.43, 0.16, 0.205, 1.58, 1.433
 185653005, -0.155, 0.248, 1.826, 1.429, 0.029, 0.224, 1.76, 1.43
 185852789, -0.516, 0.216, 1.799, 1.427, -0.155, 0.248, 1.826, 1.429
 186052674, -0.837, 0.151, 1.712, 1.427, -0.516, 0.216, 1.799, 1.427
 186252699, -1.298, -0.046, 1.747, 1.426, -0.837, 0.151, 1.712, 1.427
 186452711, -1.378, -0.281, 1.853, 1.422, -1.298, -0.046, 1.747, 1.426
 186652902, -1.584, -0.18, 1.745, 1.419, -1.378, -0.281, 1.853, 1.422
 186872712, -1.75, -0.221, 1.914, 1.417, -1.584, -0.18, 1.745, 1.419
 187052688, -1.857, -0.413, 1.963, 1.415, -1.75, -0.221, 1.914, 1.417
 187252687, -1.939, -0.494, 2.015, 1.415, -1.857, -0.413, 1.963, 1.415
 187452703, -2.057, -0.8850001, 2.04, 1.411, -1.939, -0.494, 2.015, 1.415
 187652666, -2.299, -1.153, 2.11, 1.41, -2.057, -0.8850001, 2.04, 1.411
 187852716, -2.393, -1.38, 2.173, 1.408, -2.299, -1.153, 2.11, 1.41
 188053042, -2.572, -1.49, 2.096, 1.405, -2.393, -1.38, 2.173, 1.408
 188252703, -2.786, -1.472, 2.231, 1.405, -2.572, -1.49, 2.096, 1.405
 188452917, -2.493, -1.343, 2.192, 1.404, -2.786, -1.472, 2.231, 1.405
 188652676, -2.579, -0.934, 2.047, 1.403, -2.493, -1.343, 2.192, 1.404
 188852690, -2.559, -0.832, 2.033, 1.402, -2.579, -0.934, 2.047, 1.403
 189052674, -2.202, -0.627, 2.106, 1.399, -2.559, -0.832, 2.033, 1.402
 189253036, -2.218, -0.659, 2.218, 1.397, -2.202, -0.627, 2.106, 1.399
 189452718, -2.42, -0.798, 2.327, 1.396, -2.218, -0.659, 2.218, 1.397
 189652809, -2.572, -0.9400001, 2.165, 1.395, -2.42, -0.798, 2.327, 1.396
 189852675, -2.735, -0.693, 2.103, 1.395, -2.572, -0.9400001, 2.165, 1.395
 190052846, -2.885, -0.586, 2.119, 1.394, -2.735, -0.693, 2.103, 1.395
 190252714, -2.975, -0.487, 2.077, 1.394, -2.885, -0.586, 2.119, 1.394
 190452725, -2.924, -0.301, 1.882, 1.39, -2.975, -0.487, 2.077, 1.394
 190653012, -2.566, -0.224, 1.755, 1.385, -2.924, -0.301, 1.882, 1.39
 190852674, -2.115, -0.271, 1.896, 1.385, -2.566, -0.224, 1.755, 1.385
 191053016, -2.026, -0.271, 1.731, 1.384, -2.115, -0.271, 1.896, 1.385
 191253008, -1.918, -0.421, 1.987, 1.384, -2.026, -0.271, 1.731, 1.384
 191452987, -1.672, -0.395, 1.852, 1.383, -1.918, -0.421, 1.987, 1.384
 191653009, -1.515, -0.39, 1.787, 1.382, -1.672, -0.395, 1.852, 1.383
 191852688, -1.441, -0.496, 1.835, 1.381, -1.515, -0.39, 1.787, 1.382
 192053167, -1.565, -0.391, 1.595, 1.381, -1.441, -0.496, 1.835, 1.381
 192253044, -1.491, -0.315, 1.518, 1.38, -1.565, -0.391, 1.595, 1.381
 192452696, -1.436, -0.072, 1.797, 1.38, -1.491, -0.315, 1.518, 1.38
 192652699, -1.531, -0.292, 1.784, 1.38, -1.436, -0.072, 1.797, 1.38
 192852679, -1.659, -0.413, 1.765, 1.381, -1.531, -0.292, 1.784, 1.38
 193053044, -1.509, -0.297, 1.887, 1.382, -1.659, -0.413, 1.765, 1.381
 193252687, -1.75, -0.011, 1.793, 1.383, -1.509, -0.297, 1.887, 1.382
 193452715, -1.639, -0.424, 1.672, 1.383, -1.75, -0.011, 1.793, 1.383
 193652704, -1.715, -0.372, 1.761, 1.382, -1.639, -0.424, 1.672, 1.383
 193852723, -1.917, -0.06, 1.55, 1.381, -1.715, -0.372, 1.761, 1.382
 194052702, -1.831, -0.445, 1.704, 1.38, -1.917, -0.06, 1.55, 1.381
 194253126, -1.92, -0.31, 1.728, 1.378, -1.831, -0.445, 1.704, 1.38
 194453061, -1.772, -0.292, 1.652, 1.375, -1.92, -0.31, 1.728, 1.378
 194652680, -1.526, -0.423, 1.781, 1.37, -1.772, -0.292, 1.652, 1.375
 194853130, -1.161, -0.62, 1.861, 1.37, -1.526, -0.423, 1.781, 1.37
 195052704, -1.288, -0.411, 1.925, 1.37, -1.161, -0.62, 1.861, 1.37
 195252708, -1.206, -0.454, 1.724, 1.37, -1.288, -0.411, 1.925, 1.37
 195452718, -1.32, -0.151, 1.489, 1.367, -1.206, -0.454, 1.724, 1.37
 195653185, -1.181, -0.184, 1.501, 1.364, -1.32, -0.151, 1.489, 1.367
 195852693, -1.323, -0.362, 1.225, 1.362, -1.181, -0.184, 1.501, 1.364
 196053054, -1.491, -0.006, 1.161, 1.36, -1.323, -0.362, 1.225, 1.362
 196252696, -1.625, -0.09200001, 0.887, 1.358, -1.491, -0.006, 1.161, 1.36
 196452695, -1.659, 0.159, 0.6350001, 1.353, -1.625, -0.09200001, 0.887, 1.358
 196652694, -1.326, 0.136, 0.5700001, 1.347, -1.659, 0.159, 0.6350001, 1.353
 196853030, -1.456, 0.385, 0.425, 1.342, -1.326, 0.136, 0.5700001, 1.347
 197053052, -1.558, 0.813, 0.421, 1.337, -1.456, 0.385, 0.425, 1.342
 197252699, -1.254, 1.067, 0.36, 1.332, -1.558, 0.813, 0.421, 1.337
 197452922, -1.077, 1.803, 0.222, 1.328, -1.254, 1.067, 0.36, 1.332
 197652690, -0.933, 1.754, 0.444, 1.327, -1.077, 1.803, 0.222, 1.328
 197852680, -0.793, 2.111, 0.6390001, 1.326, -0.933, 1.754, 0.444, 1.327
 198052812, -0.425, 2.504, 0.5330001, 1.326, -0.793, 2.111, 0.6390001, 1.326
 198253014, -0.421, 2.543, 0.618, 1.326, -0.425, 2.504, 0.5330001, 1.326
 198452828, -0.281, 2.872, 0.543, 1.325, -0.421, 2.543, 0.618, 1.326
 198652679, 0.061, 3.059, 0.651, 1.324, -0.281, 2.872, 0.543, 1.325
 198852695, 0.093, 3.418, 0.572, 1.325, 0.061, 3.059, 0.651, 1.324
 199052672, 0.413, 4.071, 0.291, 1.325, 0.093, 3.418, 0.572, 1.325
 199272704, 0.338, 4.071, 0.339, 1.327, 0.413, 4.071, 0.291, 1.325
 199452711, 0.482, 3.943, 0.271, 1.329, 0.338, 4.071, 0.339, 1.327
 199653013, 0.383, 3.849, -0.07, 1.332, 0.482, 3.943, 0.271, 1.329
 199852677, 0.6950001, 3.353, 0.393, 1.336, 0.383, 3.849, -0.07, 1.332
 200052728, 0.812, 3.13, 0.262, 1.336, 0.6950001, 3.353, 0.393, 1.336
 200252694, 1.217, 3.082, 0.145, 1.337, 0.812, 3.13, 0.262, 1.336
 200453042, 1.454, 2.164, 0.319, 1.338, 1.217, 3.082, 0.145, 1.337
 200652689, 1.464, 2.09, 0.221, 1.34, 1.454, 2.164, 0.319, 1.338
 200852718, 1.72, 1.438, 0.479, 1.34, 1.464, 2.09, 0.221, 1.34
 201052900, 1.468, 1.521, 0.324, 1.341, 1.72, 1.438, 0.479, 1.34
 201252702, 1.39, 1.192, 0.535, 1.344, 1.468, 1.521, 0.324, 1.341
