TimeUS,COFN,COFE,CNe,CEe,POFN,POFE,PNe,PEe
 29103172, -0.004847346, 0.006140635, 0.007368437, -0.006083922, -0.001549141, 0.00475158, 0.006913329, -0.005711955
 29303150, -0.0266369, 0.02259176, 0.007287801, -0.006022497, -0.004847346, 0.006140635, 0.007368437, -0.006083922
 29503078, -0.0316276, 0.02692199, 0.007696207, -0.006362728, -0.0266369, 0.02259176, 0.007287801, -0.006022497
 29703156, -0.0273388, 0.02958997, 0.007910376, -0.006712767, -0.0316276, 0.02692199, 0.007696207, -0.006362728
 29903163, -0.006409935, 0.008310368, 0.006538243, -0.005401707, -0.0273388, 0.02958997, 0.007910376, -0.006712767
 30103162, -0.0103904, 0.01402759, 0.007207662, -0.005993155, -0.006409935, 0.008310368, 0.006538243, -0.005401707
 30303047, -0.003021043, 0.007865371, 0.007012493, -0.005780258, -0.0103904, 0.01402759, 0.007207662, -0.005993155
 30503038, 0.006746001, -0.0185806, 0.007080178, -0.005998448, -0.003021043, 0.007865371, 0.007012493, -0.005780258
 30703026, 0.00527348, -0.0126346, 0.007005717, -0.005822592, 0.006746001, -0.0185806, 0.007080178, -0.005998448
 30903082, 0.01072247, -0.01892456, 0.007499184, -0.006291529, 0.00527348, -0.0126346, 0.007005717, -0.005822592
 31103077, -0.007851894, -0.002658444, 0.007370123, -0.005979247, 0.01072247, -0.01892456, 0.007499184, -0.006291529
 31303149, -0.0004433477, -0.006996085, 0.007191607, -0.0058879, -0.007851894, -0.002658444, 0.007370123, -0.005979247
 31503066, 0.01748309, 0.009001721, 0.007179729, -0.005668142, -0.0004433477, -0.006996085, 0.007191607, -0.0058879
 31703107, 0.01642923, 0.01138165, 0.007303912, -0.005817586, 0.01748309, 0.009001721, 0.007179729, -0.005668142
 31903152, 0.01458424, 0.01099398, 0.007311923, -0.005843429, 0.01642923, 0.01138165, 0.007303912, -0.005817586
 32103106, 0.01175619, -0.03176245, 0.007824104, -0.006823001, 0.01458424, 0.01099398, 0.007311923, -0.005843429
 32303179, 0.007723512, -0.02779783, 0.007775469, -0.006683183, 0.01175619, -0.03176245, 0.007824104, -0.006823001
 32503067, -0.001099968, -0.02352266, 0.007326011, -0.006218503, 0.007723512, -0.02779783, 0.007775469, -0.006683183
 32703052, -0.006780371, 0.007745542, 0.007415693, -0.0060201, -0.001099968, -0.02352266, 0.007326011, -0.006218503
 32903066, -0.007732861, 0.003592396, 0.006854339, -0.00551931, -0.006780371, 0.007745542, 0.007415693, -0.0060201
 33103065, -0.007422691, 0.005906774, 0.007256055, -0.005860461, -0.007732861, 0.003592396, 0.006854339, -0.00551931
 33303192, -0.01027576, 0.01785476, 0.007255367, -0.006031526, -0.007422691, 0.005906774, 0.007256055, -0.005860461
 33503079, -0.002155493, 0.006547927, 0.007365997, -0.005977613, -0.01027576, 0.01785476, 0.007255367, -0.006031526
 33703163, -0.00460416, 0.008111717, 0.007229187, -0.005870288, -0.002155493, 0.006547927, 0.007365997, -0.005977613
 33903062, -0.001958564, 0.00258696, 0.007330539, -0.005922536, -0.00460416, 0.008111717, 0.007229187, -0.005870288
 34103081, -0.003226999, 0.003862828, 0.007518494, -0.00606814, -0.001958564, 0.00258696, 0.007330539, -0.005922536
 34303143, 0.0004342916, 0.002222249, 0.007433616, -0.005995191, -0.003226999, 0.003862828, 0.007518494, -0.00606814
 34503035, 0.001667588, 0.01895856, 0.00729369, -0.006063915, 0.0004342916, 0.002222249, 0.007433616, -0.005995191
 34703053, 0.0004525805, 0.01963698, 0.00701469, -0.005886307, 0.001667588, 0.01895856, 0.00729369, -0.006063915
 34903146, -0.002437342, 0.02018595, 0.006961323, -0.005865532, 0.0004525805, 0.01963698, 0.00701469, -0.005886307
 35103075, -0.005105333, 0.003370826, 0.006834671, -0.005504196, -0.002437342, 0.02018595, 0.006961323, -0.005865532
 35303080, -0.0056473, 0.004598266, 0.006884615, -0.00554532, -0.005105333, 0.003370826, 0.006834671, -0.005504196
 35503160, -0.003329705, 0.001796881, 0.007052225, -0.00567841, -0.0056473, 0.004598266, 0.006884615, -0.00554532
 35703046, 0.01618372, -0.03110894, 0.007448588, -0.006482266, -0.003329705, 0.001796881, 0.007052225, -0.00567841
 35903068, 0.01798132, -0.02623854, 0.007403128, -0.006263744, 0.01618372, -0.03110894, 0.007448588, -0.006482266
 36103162, 0.03023087, 0.01116981, 0.007797661, -0.005756196, 0.01798132, -0.02623854, 0.007403128, -0.006263744
 36303079, 0.02563495, 0.01548053, 0.007656327, -0.005836337, 0.03023087, 0.01116981, 0.007797661, -0.005756196
 36503182, 0.02566579, 0.009801337, 0.007511908, -0.005654955, 0.02563495, 0.01548053, 0.007656327, -0.005836337
 36703078, 0.006553399, -0.002728267, 0.007466846, -0.005990224, 0.02566579, 0.009801337, 0.007511908, -0.005654955
 36903080, 0.01182268, -0.005946477, 0.007572843, -0.006059378, 0.006553399, -0.002728267, 0.007466846, -0.005990224
 37143061, 0.006905736, -0.005008325, 0.007172246, -0.005767478, 0.01182268, -0.005946477, 0.007572843, -0.006059378
 37303173, -0.0001160078, 0.001295255, 0.007172781, -0.005765962, 0.006905736, -0.005008325, 0.007172246, -0.005767478
 37503156, -0.004260325, 0.0001750405, 0.007012444, -0.005629329, -0.0001160078, 0.001295255, 0.007172781, -0.005765962
 37703031, 0.001285564, 0.0007317477, 0.007557985, -0.00607459, -0.004260325, 0.0001750405, 0.007012444, -0.005629329
 37903106, -0.0005248903, -0.005795857, 0.007262069, -0.00585032, 0.001285564, 0.0007317477, 0.007557985, -0.00607459
 38103083, -0.004956185, -0.0045105, 0.00706205, -0.005669711, -0.0005248903, -0.005795857, 0.007262069, -0.00585032
 38303089, 0.001602114, -0.00815845, 0.006848658, -0.005545921, -0.004956185, -0.0045105, 0.00706205, -0.005669711
 38503071, -0.01389187, 0.005583247, 0.007148563, -0.00566197, 0.001602114, -0.00815845, 0.006848658, -0.005545921
 38703075, -0.0104391, 0.0005679719, 0.00750242, -0.005968307, -0.01389187, 0.005583247, 0.007148563, -0.00566197
 38903076, -0.01063896, 0.00549285, 0.006818328, -0.005439077, -0.0104391, 0.0005679719, 0.00750242, -0.005968307
 39123161, -0.001591967, 0.03175301, 0.007040884, -0.006260879, -0.01063896, 0.00549285, 0.006818328, -0.005439077
 39303076, 0.0006719396, 0.01695828, 0.007087239, -0.005862602, -0.001591967, 0.03175301, 0.007040884, -0.006260879
 39503042, 0.001937811, 0.01112431, 0.007181174, -0.005833517, 0.0006719396, 0.01695828, 0.007087239, -0.005862602
 39703048, 0.01715833, -0.01254536, 0.007357128, -0.005884468, 0.001937811, 0.01112431, 0.007181174, -0.005833517
 39903068, 0.01346903, -0.008207962, 0.007025436, -0.005595989, 0.01715833, -0.01254536, 0.007357128, -0.005884468
 40103063, 0.008612831, -0.01175443, 0.007430335, -0.006016964, 0.01346903, -0.008207962, 0.007025436, -0.005595989
 40303153, -0.01419289, -0.01372313, 0.007603075, -0.006050722, 0.008612831, -0.01175443, 0.007430335, -0.006016964
 40503074, -0.01109762, -0.01149072, 0.007625198, -0.006090962, -0.01419289, -0.01372313, 0.007603075, -0.006050722
 40703160, 0.007708228, -0.001787451, 0.007169731, -0.005724531, -0.01109762, -0.01149072, 0.007625198, -0.006090962
 40903158, 0.009331675, -0.002238821, 0.007051373, -0.005608319, 0.007708228, -0.001787451, 0.007169731, -0.005724531
 41103061, 0.008886931, -0.007710291, 0.007403673, -0.005930784, 0.009331675, -0.002238821, 0.007051373, -0.005608319
 41303155, -0.02378445, 0.01372696, 0.007368985, -0.005772045, 0.008886931, -0.007710291, 0.007403673, -0.005930784
 41503054, -0.02405763, 0.01630658, 0.007307476, -0.005770733, -0.02378445, 0.01372696, 0.007368985, -0.005772045
 41703167, -0.02817745, 0.02109, 0.007683585, -0.006105919, -0.02405763, 0.01630658, 0.007307476, -0.005770733
 41903144, 0.0009557074, 0.01541926, 0.007077137, -0.005809804, -0.02817745, 0.02109, 0.007683585, -0.006105919
 42103108, -0.007646224, 0.0187449, 0.007302031, -0.006039179, 0.0009557074, 0.01541926, 0.007077137, -0.005809804
 42303080, -0.01412081, 0.008547964, 0.007207253, -0.005736344, -0.007646224, 0.0187449, 0.007302031, -0.006039179
 42503066, -0.04936456, -0.04315442, 0.009043261, -0.006521128, -0.01412081, 0.008547964, 0.007207253, -0.005736344
 42703167, -0.07075001, -0.05006111, 0.0105155, -0.006934321, -0.04936456, -0.04315442, 0.009043261, -0.006521128
 42903107, -0.1359778, -0.05776361, 0.01480957, -0.006718604, -0.07075001, -0.05006111, 0.0105155, -0.006934321
 43103068, -0.3865562, -0.3118641, 0.03870941, -0.02353464, -0.1359778, -0.05776361, 0.01480957, -0.006718604
 43303081, -0.2381783, -0.2248788, 0.02757205, -0.02044841, -0.3865562, -0.3118641, 0.03870941, -0.02353464
 43503072, -0.1954366, -0.2533892, 0.02266711, -0.02132531, -0.2381783, -0.2248788, 0.02757205, -0.02044841
 43703108, 0.103617, -0.6852803, 0.01356395, -0.05796599, -0.1954366, -0.2533892, 0.02266711, -0.02132531
 43903148, 0.0805686, -0.9398413, 0.01516426, -0.07246371, 0.103617, -0.6852803, 0.01356395, -0.05796599
 44103142, 0.04259827, -1.233795, 0.01893964, -0.08907767, 0.0805686, -0.9398413, 0.01516426, -0.07246371
 44303057, -0.1676665, -2.537776, 0.06473821, -0.1869692, 0.04259827, -1.233795, 0.01893964, -0.08907767
 44503147, -0.1243693, -1.518688, 0.04199706, -0.1212462, -0.1676665, -2.537776, 0.06473821, -0.1869692
 44703059, -0.187391, -1.517183, 0.04292684, -0.1237153, -0.1243693, -1.518688, 0.04199706, -0.1212462
 44903156, -0.1992229, -0.7138146, 0.03168375, -0.05706028, -0.187391, -1.517183, 0.04292684, -0.1237153
 45103057, -0.2055336, -0.6706493, 0.03226717, -0.05527513, -0.1992229, -0.7138146, 0.03168375, -0.05706028
 45303148, -0.1926351, -0.6277075, 0.03060929, -0.05250981, -0.2055336, -0.6706493, 0.03226717, -0.05527513
 45503076, -0.01348061, 0.03435647, 0.007512924, -0.006616025, -0.1926351, -0.6277075, 0.03060929, -0.05250981
 45703077, -0.0244141, 0.03067827, 0.007786961, -0.006598685, -0.01348061, 0.03435647, 0.007512924, -0.006616025
 45903177, -0.0115279, 0.02811504, 0.007519988, -0.006456616, -0.0244141, 0.03067827, 0.007786961, -0.006598685
 46103151, 0.0362786, -0.008597466, 0.007994252, -0.005828216, -0.0115279, 0.02811504, 0.007519988, -0.006456616
 46303150, 0.04972851, -0.01095659, 0.008814827, -0.006039794, 0.0362786, -0.008597466, 0.007994252, -0.005828216
 46503039, 0.03583104, -0.02560814, 0.007833698, -0.00614373, 0.04972851, -0.01095659, 0.008814827, -0.006039794
 46703073, 0.004542047, -0.1683166, 0.008579189, -0.01562115, 0.03583104, -0.02560814, 0.007833698, -0.00614373
 46903164, -0.002689169, -0.2228805, 0.01079105, -0.01801823, 0.004542047, -0.1683166, 0.008579189, -0.01562115
 47103063, -0.0103884, -0.2990315, 0.01646152, -0.02142864, -0.002689169, -0.2228805, 0.01079105, -0.01801823
 47303075, -0.1777564, -0.2099278, 0.02519813, -0.01982937, -0.0103884, -0.2990315, 0.01646152, -0.02142864
 47503025, -0.2373227, -0.2241633, 0.03761504, -0.02863292, -0.1777564, -0.2099278, 0.02519813, -0.01982937
 47703067, -0.3950582, -0.2625246, 0.05967052, -0.04493829, -0.2373227, -0.2241633, 0.03761504, -0.02863292
 47903148, -0.1485574, 0.5830777, 0.07531345, -0.06655583, -0.3950582, -0.2625246, 0.05967052, -0.04493829
 48103154, -0.1478084, 0.7469703, 0.1018825, -0.08931638, -0.1485574, 0.5830777, 0.07531345, -0.06655583
 48303081, -0.1488001, 0.8365159, 0.1243055, -0.1078864, -0.1478084, 0.7469703, 0.1018825, -0.08931638
 48503064, 0.1089844, 0.4559812, 0.1364213, -0.1128705, -0.1488001, 0.8365159, 0.1243055, -0.1078864
 48703066, 0.1272786, 0.4364101, 0.1462307, -0.1216532, 0.1089844, 0.4559812, 0.1364213, -0.1128705
 48903073, 0.1245939, 0.4354282, 0.1579103, -0.1164316, 0.1272786, 0.4364101, 0.1462307, -0.1216532
 49103186, 0.2046747, 0.08840636, 0.1581584, -0.1161277, 0.1245939, 0.4354282, 0.1579103, -0.1164316
 49303066, 0.228153, 0.0735359, 0.1552812, -0.1137064, 0.2046747, 0.08840636, 0.1581584, -0.1161277
 49503062, 0.2376415, 0.07282169, 0.1499019, -0.1092281, 0.228153, 0.0735359, 0.1552812, -0.1137064
 49703150, 0.1234876, -0.07223938, 0.144001, -0.1051756, 0.2376415, 0.07282169, 0.1499019, -0.1092281
 49903158, 0.10287, -0.04109428, 0.133014, -0.0969016, 0.1234876, -0.07223938, 0.144001, -0.1051756
 50103212, 0.08531095, -0.01976481, 0.1189335, -0.08697147, 0.10287, -0.04109428, 0.133014, -0.0969016
 50303184, -0.01852084, 0.01985247, 0.1069644, -0.07967921, 0.08531095, -0.01976481, 0.1189335, -0.08697147
 50503170, 0.01367735, 0.08255877, 0.09003708, -0.06838062, -0.01852084, 0.01985247, 0.1069644, -0.07967921
 50703179, 0.01071636, 0.1319712, 0.07652399, -0.05822294, 0.01367735, 0.08255877, 0.09003708, -0.06838062
 50903179, 0.02323539, 0.4283061, 0.06995609, -0.05582273, 0.01071636, 0.1319712, 0.07652399, -0.05822294
 51103196, 0.01863015, 0.4213101, 0.06488483, -0.05180192, 0.02323539, 0.4283061, 0.06995609, -0.05582273
 51303191, 0.02291393, 0.380091, 0.06319527, -0.04935489, 0.01863015, 0.4213101, 0.06488483, -0.05180192
 51503176, 0.1517632, 0.3707489, 0.06332333, -0.04824311, 0.02291393, 0.380091, 0.06319527, -0.04935489
 51703208, 0.1653875, 0.3278401, 0.06374349, -0.04764704, 0.1517632, 0.3707489, 0.06332333, -0.04824311
 51903190, 0.1562723, 0.3047737, 0.06476595, -0.04773352, 0.1653875, 0.3278401, 0.06374349, -0.04764704
 52103174, 0.1668777, 0.118991, 0.06484087, -0.04620685, 0.1562723, 0.3047737, 0.06476595, -0.04773352
 52303171, 0.1759898, 0.0894969, 0.06529582, -0.04615336, 0.1668777, 0.118991, 0.06484087, -0.04620685
 52503178, 0.1764141, 0.08120338, 0.06531553, -0.04602031, 0.1759898, 0.0894969, 0.06529582, -0.04615336
 52703179, 0.1401001, -0.06024227, 0.06544539, -0.04651633, 0.1764141, 0.08120338, 0.06531553, -0.04602031
 52903178, 0.1365632, -0.0823518, 0.06500638, -0.04659664, 0.1401001, -0.06024227, 0.06544539, -0.04651633
 53103162, 0.1443821, -0.1224238, 0.06477997, -0.04725381, 0.1365632, -0.0823518, 0.06500638, -0.04659664
 53303430, 0.1015143, -0.2938372, 0.06453323, -0.04905763, 0.1443821, -0.1224238, 0.06477997, -0.04725381
 53503213, 0.1183307, -0.3716641, 0.06381794, -0.04978045, 0.1015143, -0.2938372, 0.06453323, -0.04905763
 53703165, 0.1045281, -0.4505324, 0.0635199, -0.05110243, 0.1183307, -0.3716641, 0.06381794, -0.04978045
 53903188, 0.1933926, -0.9931913, 0.06592555, -0.06642477, 0.1045281, -0.4505324, 0.0635199, -0.05110243
 54103171, 0.1851609, -1.046688, 0.06632663, -0.06804337, 0.1933926, -0.9931913, 0.06592555, -0.06642477
 54303221, 0.2072016, -1.055047, 0.06722351, -0.06837778, 0.1851609, -1.046688, 0.06632663, -0.06804337
 54503169, 0.2645634, -1.225168, 0.06892382, -0.07513466, 0.2072016, -1.055047, 0.06722351, -0.06837778
 54703179, 0.2726961, -1.243821, 0.06972641, -0.07663471, 0.2645634, -1.225168, 0.06892382, -0.07513466
 54903197, 0.2856457, -1.255514, 0.07021856, -0.07727165, 0.2726961, -1.243821, 0.06972641, -0.07663471
 55103193, 0.2900833, -1.390984, 0.07096377, -0.08237167, 0.2856457, -1.255514, 0.07021856, -0.07727165
 55303220, 0.293939, -1.420481, 0.07136479, -0.08341758, 0.2900833, -1.390984, 0.07096377, -0.08237167
 55503167, 0.2682156, -1.538943, 0.07142743, -0.08794372, 0.293939, -1.420481, 0.07136479, -0.08341758
 55703156, 0.2935627, -1.711212, 0.07244258, -0.09497839, 0.2682156, -1.538943, 0.07142743, -0.08794372
 55903173, 0.282619, -1.763594, 0.07234178, -0.09682751, 0.2935627, -1.711212, 0.07244258, -0.09497839
 56103173, 0.2260376, -2.050746, 0.07351362, -0.1081156, 0.282619, -1.763594, 0.07234178, -0.09682751
 56303163, 0.2276584, -2.100629, 0.07361782, -0.1101603, 0.2260376, -2.050746, 0.07351362, -0.1081156
 56503179, 0.2009906, -2.157257, 0.07275157, -0.1125492, 0.2276584, -2.100629, 0.07361782, -0.1101603
 56703167, 0.1907915, -2.656209, 0.076587, -0.134952, 0.2009906, -2.157257, 0.07275157, -0.1125492
 56903199, 0.1830772, -2.661201, 0.07642232, -0.1351258, 0.1907915, -2.656209, 0.076587, -0.134952
 57103240, 0.1716996, -2.595519, 0.0740455, -0.1319555, 0.1830772, -2.661201, 0.07642232, -0.1351258
 57303151, 0.1969169, -2.644759, 0.07381026, -0.1343298, 0.1716996, -2.595519, 0.0740455, -0.1319555
 57503203, 0.213462, -2.599855, 0.07275287, -0.13207, 0.1969169, -2.644759, 0.07381026, -0.1343298
 57703188, 0.2208671, -2.571624, 0.07159948, -0.1306784, 0.213462, -2.599855, 0.07275287, -0.13207
 57903174, 0.3226668, -2.538753, 0.06942058, -0.129884, 0.2208671, -2.571624, 0.07159948, -0.1306784
 58103184, 0.321525, -2.49812, 0.06763747, -0.1279594, 0.3226668, -2.538753, 0.06942058, -0.129884
 58303196, 0.320844, -2.482522, 0.0661022, -0.1272111, 0.321525, -2.49812, 0.06763747, -0.1279594
 58503211, 0.3838072, -2.726591, 0.0666006, -0.1394099, 0.320844, -2.482522, 0.0661022, -0.1272111
 58703166, 0.4001606, -2.74546, 0.06718051, -0.140146, 0.3838072, -2.726591, 0.0666006, -0.1394099
 58903229, 0.3954694, -2.757015, 0.0672363, -0.1406937, 0.4001606, -2.74546, 0.06718051, -0.140146
 59103191, 0.3694284, -2.831083, 0.0679927, -0.1440383, 0.3954694, -2.757015, 0.0672363, -0.1406937
 59303192, 0.345495, -2.796196, 0.06715284, -0.1423924, 0.3694284, -2.831083, 0.0679927, -0.1440383
 59503189, 0.3235515, -2.835047, 0.0689742, -0.1441354, 0.345495, -2.796196, 0.06715284, -0.1423924
 59703160, 0.151441, -2.52951, 0.06832762, -0.1280274, 0.3235515, -2.835047, 0.0689742, -0.1441354
 59903163, 0.1949449, -2.533568, 0.06941982, -0.128214, 0.151441, -2.52951, 0.06832762, -0.1280274
 60103196, 0.2878706, -2.565013, 0.07102913, -0.1301759, 0.1949449, -2.533568, 0.06941982, -0.128214
 60303197, 0.6676641, -2.329561, 0.07166435, -0.1219048, 0.2878706, -2.565013, 0.07102913, -0.1301759
 60503182, 0.6860632, -2.327357, 0.072251, -0.1222036, 0.6676641, -2.329561, 0.07166435, -0.1219048
 60703207, 0.7257207, -2.302676, 0.07300278, -0.1215092, 0.6860632, -2.327357, 0.072251, -0.1222036
 60903172, 0.923507, -2.070739, 0.07669236, -0.1116829, 0.7257207, -2.302676, 0.07300278, -0.1215092
 61103202, 0.9835952, -2.02476, 0.07832006, -0.1098789, 0.923507, -2.070739, 0.07669236, -0.1116829
 61303189, 1.050751, -1.989439, 0.0809463, -0.1085768, 0.9835952, -2.02476, 0.07832006, -0.1098789
 61503195, 1.393086, -1.652083, 0.09259627, -0.09402848, 1.050751, -1.989439, 0.0809463, -0.1085768
 61703209, 1.410389, -1.618072, 0.09320782, -0.09254535, 1.393086, -1.652083, 0.09259627, -0.09402848
 61903210, 1.435614, -1.603642, 0.09498519, -0.09226695, 1.410389, -1.618072, 0.09320782, -0.09254535
 62103173, 1.419985, -1.310288, 0.09430498, -0.07998836, 1.435614, -1.603642, 0.09498519, -0.09226695
 62303184, 1.439441, -1.321875, 0.09615242, -0.08113109, 1.419985, -1.310288, 0.09430498, -0.07998836
 62503196, 1.438759, -1.274404, 0.09635575, -0.07925695, 1.439441, -1.321875, 0.09615242, -0.08113109
 62703205, 1.397432, -1.044656, 0.09540714, -0.07026073, 1.438759, -1.274404, 0.09635575, -0.07925695
 62903193, 1.481903, -1.002003, 0.0997823, -0.06902475, 1.397432, -1.044656, 0.09540714, -0.07026073
 63103160, 1.527267, -0.9277736, 0.1022181, -0.0666642, 1.481903, -1.002003, 0.0997823, -0.06902475
 63303202, 1.82803, -0.3680115, 0.1158863, -0.04899325, 1.527267, -0.9277736, 0.1022181, -0.0666642
 63503158, 1.879653, -0.3449876, 0.1187143, -0.04918636, 1.82803, -0.3680115, 0.1158863, -0.04899325
 63703183, 1.924892, -0.2486501, 0.1217224, -0.04797888, 1.879653, -0.3449876, 0.1187143, -0.04918636
 63903174, 1.950623, 0.3304244, 0.1266332, -0.04172646, 1.924892, -0.2486501, 0.1217224, -0.04797888
 64103203, 1.965196, 0.395578, 0.1282952, -0.04145102, 1.950623, 0.3304244, 0.1266332, -0.04172646
 64303231, 1.960769, 0.4817011, 0.1287952, -0.04275088, 1.965196, 0.395578, 0.1282952, -0.04145102
 64503180, 1.931208, 1.012325, 0.1319549, -0.05214393, 1.960769, 0.4817011, 0.1287952, -0.04275088
 64703153, 1.893799, 0.9536988, 0.1292494, -0.05170642, 1.931208, 1.012325, 0.1319549, -0.05214393
 64903165, 1.802989, 0.9162666, 0.1244374, -0.05087137, 1.893799, 0.9536988, 0.1292494, -0.05170642
 65103194, 1.548181, 0.8515043, 0.1134187, -0.05116727, 1.802989, 0.9162666, 0.1244374, -0.05087137
 65303197, 1.474757, 0.807158, 0.1097881, -0.04986316, 1.548181, 0.8515043, 0.1134187, -0.05116727
 65503180, 1.441742, 0.7666304, 0.1082197, -0.04903169, 1.474757, 0.807158, 0.1097881, -0.04986316
 65703157, 1.193579, 0.4415734, 0.09615105, -0.04649894, 1.441742, 0.7666304, 0.1082197, -0.04903169
 65903423, 1.148356, 0.4613238, 0.09549991, -0.04781576, 1.193579, 0.4415734, 0.09615105, -0.04649894
 66103246, 1.075123, 0.4692194, 0.0925521, -0.0481201, 1.148356, 0.4613238, 0.09549991, -0.04781576
 66303179, 0.7882318, 0.5987731, 0.08529075, -0.05294242, 1.075123, 0.4692194, 0.0925521, -0.0481201
 66503182, 0.7523156, 0.607587, 0.08356375, -0.05280791, 0.7882318, 0.5987731, 0.08529075, -0.05294242
 66703170, 0.7459098, 0.5944734, 0.08289757, -0.05247368, 0.7523156, 0.607587, 0.08356375, -0.05280791
 66903406, 0.6479778, 0.6223975, 0.08039409, -0.05386151, 0.7459098, 0.5944734, 0.08289757, -0.05247368
 67103185, 0.6471083, 0.6348916, 0.08029528, -0.05385822, 0.6479778, 0.6223975, 0.08039409, -0.05386151
 67303154, 0.6372845, 0.650883, 0.0801561, -0.0544246, 0.6471083, 0.6348916, 0.08029528, -0.05385822
 67503160, 0.6229373, 0.8094023, 0.08141835, -0.05827833, 0.6372845, 0.650883, 0.0801561, -0.0544246
 67703165, 0.6100807, 0.8243775, 0.08113784, -0.0581306, 0.6229373, 0.8094023, 0.08141835, -0.05827833
 67903234, 0.601802, 0.8275273, 0.08190957, -0.05801961, 0.6100807, 0.8243775, 0.08113784, -0.0581306
 68103184, 0.4533671, 0.7345676, 0.07764521, -0.05718946, 0.601802, 0.8275273, 0.08190957, -0.05801961
 68303192, 0.4296038, 0.742538, 0.07661352, -0.05773043, 0.4533671, 0.7345676, 0.07764521, -0.05718946
 68503173, 0.4102236, 0.7132706, 0.07655668, -0.05720058, 0.4296038, 0.742538, 0.07661352, -0.05773043
 68703177, 0.2701271, 0.7012879, 0.07450949, -0.05797989, 0.4102236, 0.7132706, 0.07655668, -0.05720058
 68903177, 0.2721903, 0.7017152, 0.07454012, -0.05851838, 0.2701271, 0.7012879, 0.07450949, -0.05797989
 69103194, 0.2530201, 0.6899757, 0.07447031, -0.05853615, 0.2721903, 0.7017152, 0.07454012, -0.05851838
 69303161, 0.1625805, 0.5973431, 0.07330245, -0.05757115, 0.2530201, 0.6899757, 0.07447031, -0.05853615
 69503189, 0.1881361, 0.5923419, 0.07394841, -0.05792871, 0.1625805, 0.5973431, 0.07330245, -0.05757115
 69703192, 0.1970036, 0.6008302, 0.07505488, -0.05906029, 0.1881361, 0.5923419, 0.07394841, -0.05792871
 69903192, 0.2013885, 0.5554507, 0.07553663, -0.05879466, 0.1970036, 0.6008302, 0.07505488, -0.05906029
 70103409, 0.2365227, 0.5923762, 0.07749626, -0.06041719, 0.2013885, 0.5554507, 0.07553663, -0.05879466
 70303184, 0.2482653, 0.6017178, 0.07816884, -0.06125779, 0.2365227, 0.5923762, 0.07749626, -0.06041719
 70503185, 0.3473611, 0.6700054, 0.08024724, -0.0623715, 0.2482653, 0.6017178, 0.07816884, -0.06125779
 70703154, 0.3429358, 0.6607352, 0.08046683, -0.06232426, 0.3473611, 0.6700054, 0.08024724, -0.0623715
 70903176, 0.3088, 0.6731183, 0.08134501, -0.06323823, 0.3429358, 0.6607352, 0.08046683, -0.06232426
 71103245, 0.2090721, 0.6630428, 0.08050974, -0.06308108, 0.3088, 0.6731183, 0.08134501, -0.06323823
 71303194, 0.215551, 0.6554974, 0.08084219, -0.06308004, 0.2090721, 0.6630428, 0.08050974, -0.06308108
 71503198, 0.2267719, 0.636485, 0.08086336, -0.06340269, 0.215551, 0.6554974, 0.08084219, -0.06308004
 71703170, 0.1375912, 0.4650214, 0.08007943, -0.06145133, 0.2267719, 0.636485, 0.08086336, -0.06340269
 71903165, 0.134718, 0.4896571, 0.08165102, -0.06302793, 0.1375912, 0.4650214, 0.08007943, -0.06145133
 72103194, 0.100986, 0.5154058, 0.08432778, -0.06530584, 0.134718, 0.4896571, 0.08165102, -0.06302793
 72303182, -0.0116368, 0.6384007, 0.08698604, -0.06961785, 0.100986, 0.5154058, 0.08432778, -0.06530584
 72503179, -0.04637696, 0.6821104, 0.09246708, -0.07402353, -0.0116368, 0.6384007, 0.08698604, -0.06961785
 72703195, -0.06494695, 0.6996308, 0.09819362, -0.07807131, -0.04637696, 0.6821104, 0.09246708, -0.07402353
 72903213, -0.1972126, 0.7118726, 0.1026203, -0.08171631, -0.06494695, 0.6996308, 0.09819362, -0.07807131
 73103184, -0.2159701, 0.7445269, 0.1081286, -0.0863834, -0.1972126, 0.7118726, 0.1026203, -0.08171631
 73303207, -0.2351049, 0.8094158, 0.1144461, -0.09207899, -0.2159701, 0.7445269, 0.1081286, -0.0863834
 73503183, -0.3200516, 0.9319811, 0.1196574, -0.09761544, -0.2351049, 0.8094158, 0.1144461, -0.09207899
 73703168, -0.3344141, 0.9603578, 0.1262063, -0.1021163, -0.3200516, 0.9319811, 0.1196574, -0.09761544
 73903188, -0.2964703, 0.9899993, 0.1322811, -0.1069314, -0.3344141, 0.9603578, 0.1262063, -0.1021163
 74103165, -0.159637, 0.8507365, 0.1358073, -0.1067256, -0.2964703, 0.9899993, 0.1322811, -0.1069314
 74303206, -0.1687546, 0.8992368, 0.1433421, -0.1124274, -0.159637, 0.8507365, 0.1358073, -0.1067256
 74503178, -0.1638857, 0.9210866, 0.1492305, -0.1168315, -0.1687546, 0.8992368, 0.1433421, -0.1124274
 74703165, -0.1479447, 0.8598695, 0.1526765, -0.1181491, -0.1638857, 0.9210866, 0.1492305, -0.1168315
 74903196, -0.205621, 0.9022058, 0.1584267, -0.1224939, -0.1479447, 0.8598695, 0.1526765, -0.1181491
 75103198, -0.2271423, 0.9062095, 0.1629957, -0.1256523, -0.205621, 0.9022058, 0.1584267, -0.1224939
 75303222, -0.5050799, 1.018097, 0.1667609, -0.1294603, -0.2271423, 0.9062095, 0.1629957, -0.1256523
 75503175, -0.5276559, 1.04507, 0.1694097, -0.1318747, -0.5050799, 1.018097, 0.1667609, -0.1294603
 75703154, -0.6245895, 1.090603, 0.171371, -0.1341358, -0.5276559, 1.04507, 0.1694097, -0.1318747
 75903173, -1.026186, 1.276811, 0.1775185, -0.1398007, -0.6245895, 1.090603, 0.171371, -0.1341358
 76103163, -1.037015, 1.272557, 0.1785823, -0.1402605, -1.026186, 1.276811, 0.1775185, -0.1398007
 76303196, -1.047724, 1.257043, 0.1797836, -0.140344, -1.037015, 1.272557, 0.1785823, -0.1402605
 76503170, -1.143768, 1.172445, 0.1817156, -0.1388243, -1.047724, 1.257043, 0.1797836, -0.140344
 76703180, -1.104444, 1.173475, 0.1813448, -0.1392257, -1.143768, 1.172445, 0.1817156, -0.1388243
 76903228, -1.129778, 1.180526, 0.1824219, -0.1394682, -1.104444, 1.173475, 0.1813448, -0.1392257
 77103178, -1.059076, 1.235405, 0.1825877, -0.1410078, -1.129778, 1.180526, 0.1824219, -0.1394682
 77303209, -1.078442, 1.211757, 0.1833625, -0.1408464, -1.059076, 1.235405, 0.1825877, -0.1410078
 77503176, -1.113506, 1.223624, 0.1848296, -0.1419634, -1.078442, 1.211757, 0.1833625, -0.1408464
 77703193, -1.224793, 1.077724, 0.1871108, -0.1398417, -1.113506, 1.223624, 0.1848296, -0.1419634
 77903288, -1.235331, 1.119011, 0.1873489, -0.1413502, -1.224793, 1.077724, 0.1871108, -0.1398417
 78103293, -1.271757, 1.225309, 0.1887932, -0.1440156, -1.235331, 1.119011, 0.1873489, -0.1413502
 78303283, -1.47426, 1.389765, 0.1922155, -0.1482329, -1.271757, 1.225309, 0.1887932, -0.1440156
 78503504, -1.325539, 1.269797, 0.1903016, -0.1465612, -1.47426, 1.389765, 0.1922155, -0.1482329
 78703487, -1.186962, 1.221751, 0.1883187, -0.1440794, -1.325539, 1.269797, 0.1903016, -0.1465612
 78903294, -0.2960132, 0.7751602, 0.1809385, -0.1339918, -1.186962, 1.221751, 0.1883187, -0.1440794
 79103287, -0.2571567, 0.7068325, 0.1807908, -0.1326373, -0.2960132, 0.7751602, 0.1809385, -0.1339918
 79303265, -0.2613152, 0.7514429, 0.1801552, -0.1348403, -0.2571567, 0.7068325, 0.1807908, -0.1326373
 79503482, -0.3742827, 0.6802619, 0.1804955, -0.1350313, -0.2613152, 0.7514429, 0.1801552, -0.1348403
 79703293, -0.3728228, 0.7383514, 0.1806916, -0.1374692, -0.3742827, 0.6802619, 0.1804955, -0.1350313
 79903296, -0.3849948, 0.7473257, 0.1813984, -0.1379022, -0.3728228, 0.7383514, 0.1806916, -0.1374692
 80103296, -0.9128983, 0.5116039, 0.186639, -0.134312, -0.3849948, 0.7473257, 0.1813984, -0.1379022
 80303298, -0.7982515, 0.4712431, 0.185343, -0.1336561, -0.9128983, 0.5116039, 0.186639, -0.134312
 80503496, -0.8065014, 0.3903398, 0.1857298, -0.1310548, -0.7982515, 0.4712431, 0.185343, -0.1336561
 80703274, -0.4012291, 0.0120816, 0.1818864, -0.128839, -0.8065014, 0.3903398, 0.1857298, -0.1310548
 80903292, -0.3438173, -0.02707514, 0.1799795, -0.1283092, -0.4012291, 0.0120816, 0.1818864, -0.128839
 81103289, -0.2600196, -0.01043673, 0.1781457, -0.1280949, -0.3438173, -0.02707514, 0.1799795, -0.1283092
 81303289, 0.1763, -0.2533766, 0.1780486, -0.1285755, -0.2600196, -0.01043673, 0.1781457, -0.1280949
 81503273, 0.1712676, -0.2632018, 0.1779219, -0.1282122, 0.1763, -0.2533766, 0.1780486, -0.1285755
 81703274, 0.1558375, -0.2690482, 0.1787108, -0.1284538, 0.1712676, -0.2632018, 0.1779219, -0.1282122
 81903279, -0.09623467, -0.3394642, 0.1792741, -0.1293655, 0.1558375, -0.2690482, 0.1787108, -0.1284538
 82103276, -0.09008814, -0.3446136, 0.1789296, -0.1302284, -0.09623467, -0.3394642, 0.1792741, -0.1293655
 82303527, -0.1195772, -0.2903951, 0.1796149, -0.1310873, -0.09008814, -0.3446136, 0.1789296, -0.1302284
 82503273, -0.0030174, -0.01393296, 0.1797995, -0.1308554, -0.1195772, -0.2903951, 0.1796149, -0.1310873
 82703507, 0.001586377, -0.04571554, 0.1803705, -0.1316781, -0.0030174, -0.01393296, 0.1797995, -0.1308554
 82903298, 0.06681852, -0.02746809, 0.1803547, -0.131922, 0.001586377, -0.04571554, 0.1803705, -0.1316781
 83103301, 0.4538533, -0.04465229, 0.1827584, -0.1318002, 0.06681852, -0.02746809, 0.1803547, -0.131922
 83303264, 0.4102209, -0.0548145, 0.1835018, -0.1322082, 0.4538533, -0.04465229, 0.1827584, -0.1318002
 83503295, 0.3741758, -0.003445065, 0.1838203, -0.1319698, 0.4102209, -0.0548145, 0.1835018, -0.1322082
 83703477, 0.271659, -0.0381319, 0.1839173, -0.1320066, 0.3741758, -0.003445065, 0.1838203, -0.1319698
 83903296, 0.1843514, -0.03173799, 0.1840674, -0.131834, 0.271659, -0.0381319, 0.1839173, -0.1320066
 84103506, 0.2035835, -0.02990788, 0.1843276, -0.1324504, 0.1843514, -0.03173799, 0.1840674, -0.131834
 84303286, -0.04167457, 0.2737915, 0.1847421, -0.1333587, 0.2035835, -0.02990788, 0.1843276, -0.1324504
 84503276, -0.04376008, 0.2398925, 0.1849126, -0.1341651, -0.04167457, 0.2737915, 0.1847421, -0.1333587
 84703284, -0.00564314, 0.2533668, 0.185472, -0.1360517, -0.04376008, 0.2398925, 0.1849126, -0.1341651
 84903270, 0.1187518, 0.2655843, 0.1864017, -0.1368974, -0.00564314, 0.2533668, 0.185472, -0.1360517
 85103287, 0.05094697, 0.2736311, 0.1881243, -0.1382193, 0.1187518, 0.2655843, 0.1864017, -0.1368974
 85303298, 0.05829731, 0.2138149, 0.190831, -0.1392726, 0.05094697, 0.2736311, 0.1881243, -0.1382193
 85503274, -0.03194009, 0.01629596, 0.1921773, -0.1402683, 0.05829731, 0.2138149, 0.190831, -0.1392726
 85703277, -0.03199354, 0.02144159, 0.1948376, -0.1424234, -0.03194009, 0.01629596, 0.1921773, -0.1402683
 85903498, -0.02730194, 0.003915977, 0.1961504, -0.1444674, -0.03199354, 0.02144159, 0.1948376, -0.1424234
 86103292, -0.2329722, -0.1884271, 0.1972736, -0.1459, -0.02730194, 0.003915977, 0.1961504, -0.1444674
 86303295, -0.1990361, -0.1621879, 0.1985195, -0.1472806, -0.2329722, -0.1884271, 0.1972736, -0.1459
 86503276, -0.1818216, -0.1207197, 0.2004324, -0.1479987, -0.1990361, -0.1621879, 0.1985195, -0.1472806
 86703283, -0.1167818, 0.02057328, 0.2013467, -0.1478853, -0.1818216, -0.1207197, 0.2004324, -0.1479987
 86903514, -0.09449901, 0.08567235, 0.2019941, -0.1491946, -0.1167818, 0.02057328, 0.2013467, -0.1478853
 87103288, -0.1211462, 0.1327479, 0.2034794, -0.1505705, -0.09449901, 0.08567235, 0.2019941, -0.1491946
 87303285, -0.1903077, 0.4908761, 0.2047826, -0.1530956, -0.1211462, 0.1327479, 0.2034794, -0.1505705
 87503279, -0.2093908, 0.4870016, 0.2068941, -0.1550213, -0.1903077, 0.4908761, 0.2047826, -0.1530956
 87703486, -0.2169838, 0.5002049, 0.2087213, -0.1557748, -0.2093908, 0.4870016, 0.2068941, -0.1550213
 87903496, -0.1476607, 0.4254477, 0.2100842, -0.1557472, -0.2169838, 0.5002049, 0.2087213, -0.1557748
 88103291, -0.1525836, 0.401477, 0.2109977, -0.1566809, -0.1476607, 0.4254477, 0.2100842, -0.1557472
 88303290, -0.1712005, 0.3906397, 0.211721, -0.1575266, -0.1525836, 0.401477, 0.2109977, -0.1566809
 88503278, -0.07993032, 0.3296194, 0.211463, -0.1565112, -0.1712005, 0.3906397, 0.211721, -0.1575266
 88703264, -0.1121934, 0.329588, 0.2111217, -0.1567695, -0.07993032, 0.3296194, 0.211463, -0.1565112
 88903304, -0.1321369, 0.3363973, 0.2112631, -0.1569409, -0.1121934, 0.329588, 0.2111217, -0.1567695
 89103291, -0.3121415, 0.2099016, 0.2121342, -0.155644, -0.1321369, 0.3363973, 0.2112631, -0.1569409
 89303266, -0.2815859, 0.189588, 0.2130079, -0.1553207, -0.3121415, 0.2099016, 0.2121342, -0.155644
 89503485, -0.2700452, 0.2604534, 0.212765, -0.1553915, -0.2815859, 0.189588, 0.2130079, -0.1553207
 89703266, -0.3299056, 0.4491203, 0.2125957, -0.156021, -0.2700452, 0.2604534, 0.212765, -0.1553915
 89903293, -0.296096, 0.4154291, 0.2120849, -0.1556485, -0.3299056, 0.4491203, 0.2125957, -0.156021
 90103267, -0.2688193, 0.4223232, 0.2119004, -0.155741, -0.296096, 0.4154291, 0.2120849, -0.1556485
 90303293, -0.01105194, 0.2166135, 0.2105435, -0.1547809, -0.2688193, 0.4223232, 0.2119004, -0.155741
 90503280, -0.03552844, 0.1724121, 0.2093788, -0.1544488, -0.01105194, 0.2166135, 0.2105435, -0.1547809
 90703283, -0.05174691, 0.1750777, 0.208247, -0.1543974, -0.03552844, 0.1724121, 0.2093788, -0.1544488
 90903283, -0.1236555, 0.1319729, 0.2093191, -0.1529212, -0.05174691, 0.1750777, 0.208247, -0.1543974
 91103510, -0.05376046, 0.1196107, 0.2085643, -0.1514522, -0.1236555, 0.1319729, 0.2093191, -0.1529212
 91303506, -0.1125346, 0.09403887, 0.2070097, -0.1506714, -0.05376046, 0.1196107, 0.2085643, -0.1514522
 91503266, -0.39128, -0.02380977, 0.2071747, -0.150572, -0.1125346, 0.09403887, 0.2070097, -0.1506714
 91703254, -0.3998816, 0.08731905, 0.2083875, -0.149852, -0.39128, -0.02380977, 0.2071747, -0.150572
 91903279, -0.494812, 0.1160407, 0.209409, -0.1507177, -0.3998816, 0.08731905, 0.2083875, -0.149852
 92103497, -0.641895, 0.5744473, 0.2109281, -0.1545484, -0.494812, 0.1160407, 0.209409, -0.1507177
 92303270, -0.5866366, 0.6268709, 0.2118042, -0.1561506, -0.641895, 0.5744473, 0.2109281, -0.1545484
 92503276, -0.5991731, 0.6068609, 0.2119766, -0.1562676, -0.5866366, 0.6268709, 0.2118042, -0.1561506
 92703294, -0.6604228, 0.6084891, 0.2127925, -0.1550986, -0.5991731, 0.6068609, 0.2119766, -0.1562676
 92903276, -0.5526078, 0.3868287, 0.2118172, -0.1521979, -0.6604228, 0.6084891, 0.2127925, -0.1550986
 93103510, -0.4319443, 0.314712, 0.2096829, -0.1527939, -0.5526078, 0.3868287, 0.2118172, -0.1521979
 93303301, -0.01812969, -0.5325994, 0.2078274, -0.1537019, -0.4319443, 0.314712, 0.2096829, -0.1527939
 93503264, -0.01370801, -0.4729274, 0.2066451, -0.1531384, -0.01812969, -0.5325994, 0.2078274, -0.1537019
 93703279, -0.003019267, -0.5130094, 0.206585, -0.1534507, -0.01370801, -0.4729274, 0.2066451, -0.1531384
 93903284, 0.4887316, -0.1600457, 0.207425, -0.1526511, -0.003019267, -0.5130094, 0.206585, -0.1534507
 94103281, 0.4288878, -0.1364797, 0.2072228, -0.1539084, 0.4887316, -0.1600457, 0.207425, -0.1526511
 94303290, 0.3650653, -0.1322134, 0.2078106, -0.154486, 0.4288878, -0.1364797, 0.2072228, -0.1539084
 94503280, -0.09055738, -0.2689401, 0.2078941, -0.1547327, 0.3650653, -0.1322134, 0.2078106, -0.154486
 94703282, -0.04002845, -0.2292135, 0.2097986, -0.1546069, -0.09055738, -0.2689401, 0.2078941, -0.1547327
 94903506, 0.02117639, -0.249349, 0.2107026, -0.1543016, -0.04002845, -0.2292135, 0.2097986, -0.1546069
 95103298, 0.3216072, -0.3353895, 0.210968, -0.1554476, 0.02117639, -0.249349, 0.2107026, -0.1543016
 95303513, 0.3035716, -0.2823554, 0.210436, -0.1560424, 0.3216072, -0.3353895, 0.210968, -0.1554476
 95503275, 0.2091932, -0.2497811, 0.2098704, -0.1570657, 0.3035716, -0.2823554, 0.210436, -0.1560424
 95703275, -0.3285833, -0.269908, 0.2097868, -0.157473, 0.2091932, -0.2497811, 0.2098704, -0.1570657
 95903291, -0.2734944, -0.2131437, 0.2097138, -0.1577867, -0.3285833, -0.269908, 0.2097868, -0.157473
 96103291, -0.2427171, -0.2221572, 0.2083706, -0.1576829, -0.2734944, -0.2131437, 0.2097138, -0.1577867
 96303513, 0.1030086, 0.4116141, 0.2089017, -0.1597052, -0.2427171, -0.2221572, 0.2083706, -0.1576829
 96503269, 0.09288687, 0.3257074, 0.2083605, -0.1591892, 0.1030086, 0.4116141, 0.2089017, -0.1597052
 96703308, 0.09473763, 0.3196257, 0.2087358, -0.1597894, 0.09288687, 0.3257074, 0.2083605, -0.1591892
 96903283, -0.3715576, -0.3159565, 0.2091677, -0.1600744, 0.09473763, 0.3196257, 0.2087358, -0.1597894
 97103281, -0.340769, -0.2373098, 0.2103627, -0.1590076, -0.3715576, -0.3159565, 0.2091677, -0.1600744
 97303301, -0.306678, -0.2084439, 0.2116279, -0.1572625, -0.340769, -0.2373098, 0.2103627, -0.1590076
 97503242, 0.2934919, 0.3705708, 0.2118329, -0.1568223, -0.306678, -0.2084439, 0.2116279, -0.1572625
 97703259, 0.2397666, 0.3344458, 0.2109072, -0.156482, 0.2934919, 0.3705708, 0.2118329, -0.1568223
 97903285, 0.1372257, 0.4058974, 0.2091492, -0.1556652, 0.2397666, 0.3344458, 0.2109072, -0.156482
 98103302, -0.6297463, 0.213611, 0.2106299, -0.1549936, 0.1372257, 0.4058974, 0.2091492, -0.1556652
 98303252, -0.5548837, 0.2100139, 0.2087732, -0.1546821, -0.6297463, 0.213611, 0.2106299, -0.1549936
 98503486, -0.5144872, 0.1940639, 0.2080577, -0.1560005, -0.5548837, 0.2100139, 0.2087732, -0.1546821
 98703272, 0.3508871, 0.4306482, 0.2077076, -0.1567196, -0.5144872, 0.1940639, 0.2080577, -0.1560005
 98903297, 0.3175977, 0.3537458, 0.2079505, -0.157179, 0.3508871, 0.4306482, 0.2077076, -0.1567196
 99103286, 0.3174368, 0.3375036, 0.2089829, -0.1569989, 0.3175977, 0.3537458, 0.2079505, -0.157179
 99303268, -0.3970247, 0.07928876, 0.2096691, -0.1566627, 0.3174368, 0.3375036, 0.2089829, -0.1569989
 99503489, -0.3248705, 0.05358429, 0.2101537, -0.1567799, -0.3970247, 0.07928876, 0.2096691, -0.1566627
 99703279, -0.3648484, 0.08535536, 0.2107042, -0.1582174, -0.3248705, 0.05358429, 0.2101537, -0.1567799
 99903293, -0.1566525, 0.4191161, 0.2105138, -0.1603178, -0.3648484, 0.08535536, 0.2107042, -0.1582174
 100103289, -0.1265491, 0.3749526, 0.2107406, -0.160079, -0.1566525, 0.4191161, 0.2105138, -0.1603178
 100303301, -0.04598216, 0.3395105, 0.2106785, -0.1600836, -0.1265491, 0.3749526, 0.2107406, -0.160079
 100503544, -0.1593214, -0.3822003, 0.2103909, -0.1604175, -0.04598216, 0.3395105, 0.2106785, -0.1600836
 100703273, -0.1379853, -0.3465946, 0.2101756, -0.1605216, -0.1593214, -0.3822003, 0.2103909, -0.1604175
 100903291, -0.1512684, -0.2871648, 0.2096174, -0.1608811, -0.1379853, -0.3465946, 0.2101756, -0.1605216
 101103262, 0.1368251, 0.4240061, 0.2089334, -0.1621383, -0.1512684, -0.2871648, 0.2096174, -0.1608811
 101303291, 0.1230532, 0.378953, 0.2087309, -0.1622301, 0.1368251, 0.4240061, 0.2089334, -0.1621383
 101503282, 0.106314, 0.3591416, 0.2096136, -0.1620902, 0.1230532, 0.378953, 0.2087309, -0.1622301
 101703280, -0.1469293, -0.03010743, 0.209386, -0.1612641, 0.106314, 0.3591416, 0.2096136, -0.1620902
 101903273, -0.1196275, -0.02757248, 0.2089125, -0.1605487, -0.1469293, -0.03010743, 0.209386, -0.1612641
 102103300, -0.1243189, -0.03087278, 0.2078702, -0.159159, -0.1196275, -0.02757248, 0.2089125, -0.1605487
 102303534, 0.1476482, 0.0787276, 0.2083481, -0.1595428, -0.1243189, -0.03087278, 0.2078702, -0.159159
 102503263, 0.1102288, 0.0560934, 0.2078172, -0.1589304, 0.1476482, 0.0787276, 0.2083481, -0.1595428
 102703289, 0.06760064, 0.05589146, 0.2082312, -0.1587872, 0.1102288, 0.0560934, 0.2078172, -0.1589304
 102903303, -0.207937, 0.1762559, 0.2084802, -0.1583753, 0.06760064, 0.05589146, 0.2082312, -0.1587872
 103103302, -0.1529905, 0.1779328, 0.2084638, -0.1582957, -0.207937, 0.1762559, 0.2084802, -0.1583753
 103303274, -0.1729791, 0.1982862, 0.2089785, -0.1588838, -0.1529905, 0.1779328, 0.2084638, -0.1582957
 103503304, -0.3199938, -0.06948867, 0.210233, -0.1580596, -0.1729791, 0.1982862, 0.2089785, -0.1588838
 103703496, -0.3219728, -0.0551064, 0.2116963, -0.1572434, -0.3199938, -0.06948867, 0.210233, -0.1580596
 103903296, -0.2903846, -0.03324866, 0.2107571, -0.1562189, -0.3219728, -0.0551064, 0.2116963, -0.1572434
 104103533, -0.2270621, 0.3139977, 0.2100656, -0.156319, -0.2903846, -0.03324866, 0.2107571, -0.1562189
 104303290, -0.2339111, 0.3234283, 0.2091849, -0.1563509, -0.2270621, 0.3139977, 0.2100656, -0.156319
 104503259, -0.2904555, 0.3082184, 0.2089842, -0.1562622, -0.2339111, 0.3234283, 0.2091849, -0.1563509
 104703488, -0.5770473, -0.0956936, 0.210925, -0.1558097, -0.2904555, 0.3082184, 0.2089842, -0.1562622
 104903297, -0.5179382, -0.03361131, 0.2111591, -0.1567727, -0.5770473, -0.0956936, 0.210925, -0.1558097
 105103288, -0.449926, -0.06310295, 0.2108926, -0.1582459, -0.5179382, -0.03361131, 0.2111591, -0.1567727
 105303281, 0.0871319, 0.2006314, 0.2091844, -0.1593212, -0.449926, -0.06310295, 0.2108926, -0.1582459
 105503282, 0.08740272, 0.1314877, 0.2086176, -0.1595553, 0.0871319, 0.2006314, 0.2091844, -0.1593212
 105703284, 0.07472873, 0.1099522, 0.2085408, -0.1596124, 0.08740272, 0.1314877, 0.2086176, -0.1595553
 105903501, -0.2494228, -0.123015, 0.209082, -0.159622, 0.07472873, 0.1099522, 0.2085408, -0.1596124
 106103282, -0.2522252, -0.04831357, 0.2093452, -0.1599375, -0.2494228, -0.123015, 0.209082, -0.159622
 106303290, -0.2701852, -0.07445507, 0.2094671, -0.1598397, -0.2522252, -0.04831357, 0.2093452, -0.1599375
 106503279, -0.2191088, -0.01398158, 0.2100302, -0.1600356, -0.2701852, -0.07445507, 0.2094671, -0.1598397
 106703280, -0.2145639, -0.06781387, 0.2099522, -0.1599441, -0.2191088, -0.01398158, 0.2100302, -0.1600356
 106903287, -0.1767197, -0.01241909, 0.2091261, -0.1597592, -0.2145639, -0.06781387, 0.2099522, -0.1599441
 107103290, 0.1797611, 0.3519665, 0.2090254, -0.1599938, -0.1767197, -0.01241909, 0.2091261, -0.1597592
 107303262, 0.163106, 0.3560359, 0.2080784, -0.1591902, 0.1797611, 0.3519665, 0.2090254, -0.1599938
 107503286, 0.1732121, 0.335653, 0.2075406, -0.1583162, 0.163106, 0.3560359, 0.2080784, -0.1591902
 107703507, -0.1483472, -0.1899358, 0.2069639, -0.1574871, 0.1732121, 0.335653, 0.2075406, -0.1583162
 107903505, -0.1110721, -0.1738059, 0.2073256, -0.1570149, -0.1483472, -0.1899358, 0.2069639, -0.1574871
 108103304, -0.1285134, -0.1522123, 0.2080153, -0.1557091, -0.1110721, -0.1738059, 0.2073256, -0.1570149
 108303269, -0.02645201, 0.1985077, 0.2084711, -0.1559963, -0.1285134, -0.1522123, 0.2080153, -0.1557091
 108503273, -0.08725626, 0.1981989, 0.2089673, -0.1557603, -0.02645201, 0.1985077, 0.2084711, -0.1559963
 108703278, -0.07702438, 0.2437047, 0.2098564, -0.1559728, -0.08725626, 0.1981989, 0.2089673, -0.1557603
 108903497, -0.03213216, 0.4840458, 0.2101553, -0.1571678, -0.07702438, 0.2437047, 0.2098564, -0.1559728
 109103280, -0.02588768, 0.4778226, 0.2097636, -0.1580417, -0.03213216, 0.4840458, 0.2101553, -0.1571678
 109303305, -0.04118366, 0.4477873, 0.2088053, -0.1586396, -0.02588768, 0.4778226, 0.2097636, -0.1580417
 109503491, -0.4728576, -0.2087283, 0.2090627, -0.1574481, -0.04118366, 0.4477873, 0.2088053, -0.1586396
 109703272, -0.4572617, -0.1734294, 0.2090161, -0.1583258, -0.4728576, -0.2087283, 0.2090627, -0.1574481
 109903759, -0.4529707, -0.162665, 0.2091025, -0.1593571, -0.4572617, -0.1734294, 0.2090161, -0.1583258
 110103754, -0.009710911, 0.394063, 0.2082563, -0.160674, -0.4529707, -0.162665, 0.2091025, -0.1593571
 110303753, -0.02367791, 0.3448649, 0.2088468, -0.1608987, -0.009710911, 0.394063, 0.2082563, -0.160674
 110503738, -0.04316628, 0.3733565, 0.2091089, -0.1607528, -0.02367791, 0.3448649, 0.2088468, -0.1608987
 110703721, -0.1886692, 0.4055465, 0.209682, -0.1607467, -0.04316628, 0.3733565, 0.2091089, -0.1607528
 110903745, -0.1805428, 0.3731465, 0.2099515, -0.1594713, -0.1886692, 0.4055465, 0.209682, -0.1607467
 111103760, -0.2028426, 0.3720792, 0.2096665, -0.1588582, -0.1805428, 0.3731465, 0.2099515, -0.1594713
 111303900, -0.3600459, 0.08546982, 0.2094924, -0.157327, -0.2028426, 0.3720792, 0.2096665, -0.1588582
 111503712, -0.3588554, 0.1078424, 0.2087598, -0.1567277, -0.3600459, 0.08546982, 0.2094924, -0.157327
 111703733, -0.3322354, 0.1261023, 0.2076616, -0.1558315, -0.3588554, 0.1078424, 0.2087598, -0.1567277
 111904234, -0.1515867, 0.1927541, 0.2069003, -0.1555883, -0.3322354, 0.1261023, 0.2076616, -0.1558315
 112104445, -0.1249463, 0.1706144, 0.2060759, -0.1546597, -0.1515867, 0.1927541, 0.2069003, -0.1555883
 112304238, -0.1544567, 0.1557276, 0.2055117, -0.1541143, -0.1249463, 0.1706144, 0.2060759, -0.1546597
 112504202, -0.1592564, -0.1335948, 0.2054818, -0.1539192, -0.1544567, 0.1557276, 0.2055117, -0.1541143
 112704150, -0.1810943, -0.1172251, 0.2047917, -0.153102, -0.1592564, -0.1335948, 0.2054818, -0.1539192
 112904247, -0.1750008, -0.0937973, 0.2056208, -0.1536995, -0.1810943, -0.1172251, 0.2047917, -0.153102
 113104595, -0.214797, 0.00487849, 0.2065449, -0.1542761, -0.1750008, -0.0937973, 0.2056208, -0.1536995
 113304233, -0.2091784, 0.0107991, 0.2072422, -0.1546099, -0.214797, 0.00487849, 0.2065449, -0.1542761
 113504192, -0.2010683, 0.001174295, 0.2083587, -0.1552681, -0.2091784, 0.0107991, 0.2072422, -0.1546099
 113703750, -0.09486149, 0.1231356, 0.2085205, -0.1559941, -0.2010683, 0.001174295, 0.2083587, -0.1552681
 113903758, -0.1126706, 0.1310454, 0.2088062, -0.1564866, -0.09486149, 0.1231356, 0.2085205, -0.1559941
 114103751, -0.07941736, 0.1242842, 0.2095446, -0.1573281, -0.1126706, 0.1310454, 0.2088062, -0.1564866
 114303757, -0.005632715, -0.05314542, 0.2095258, -0.1576471, -0.07941736, 0.1242842, 0.2095446, -0.1573281
 114503732, 0.004896402, -0.07071794, 0.2094767, -0.1580041, -0.005632715, -0.05314542, 0.2095258, -0.1576471
 114703742, -0.003231456, -0.06602964, 0.2093768, -0.1581439, 0.004896402, -0.07071794, 0.2094767, -0.1580041
 114903887, -0.120781, 0.01916587, 0.2093882, -0.1577689, -0.003231456, -0.06602964, 0.2093768, -0.1581439
 115103771, -0.1379213, 0.06590343, 0.2091659, -0.1575519, -0.120781, 0.01916587, 0.2093882, -0.1577689
 115303755, -0.1091775, 0.05023966, 0.2091438, -0.1565199, -0.1379213, 0.06590343, 0.2091659, -0.1575519
 115503748, 0.1256614, -0.03024577, 0.2087803, -0.1562336, -0.1091775, 0.05023966, 0.2091438, -0.1565199
 115703731, 0.1048326, -0.03258416, 0.2087107, -0.1563226, 0.1256614, -0.03024577, 0.2087803, -0.1562336
 115903739, 0.0939387, -0.06058686, 0.2077064, -0.1554979, 0.1048326, -0.03258416, 0.2087107, -0.1563226
 116104044, -0.08811633, 0.06879738, 0.2070177, -0.1551031, 0.0939387, -0.06058686, 0.2077064, -0.1554979
 116304264, -0.1240247, 0.0938677, 0.2068641, -0.1551193, -0.08811633, 0.06879738, 0.2070177, -0.1551031
 116504045, -0.1326298, 0.08835705, 0.206377, -0.1552954, -0.1240247, 0.0938677, 0.2068641, -0.1551193
 116704080, -0.1070753, 0.1443121, 0.2061404, -0.1555606, -0.1326298, 0.08835705, 0.206377, -0.1552954
 116904059, -0.1140271, 0.1418326, 0.2059423, -0.1547208, -0.1070753, 0.1443121, 0.2061404, -0.1555606
 117104056, -0.1217591, 0.1420477, 0.2054115, -0.154229, -0.1140271, 0.1418326, 0.2059423, -0.1547208
 117304592, -0.1443366, 0.2041017, 0.2058007, -0.1542616, -0.1217591, 0.1420477, 0.2054115, -0.154229
 117504436, -0.1587309, 0.2246358, 0.206389, -0.1545501, -0.1443366, 0.2041017, 0.2058007, -0.1542616
 117704450, -0.1222044, 0.1653602, 0.2068514, -0.1549307, -0.1587309, 0.2246358, 0.206389, -0.1545501
 117904451, -0.07704317, -0.1433957, 0.2068323, -0.1550925, -0.1222044, 0.1653602, 0.2068514, -0.1549307
 118104453, -0.06239973, -0.1243846, 0.2074545, -0.1552839, -0.07704317, -0.1433957, 0.2068323, -0.1550925
 118304434, -0.06358868, -0.09672663, 0.2070278, -0.1551716, -0.06239973, -0.1243846, 0.2074545, -0.1552839
 118504589, -0.06607759, -0.0993855, 0.2067304, -0.1550693, -0.06358868, -0.09672663, 0.2070278, -0.1551716
 118704432, -0.08582193, -0.08646458, 0.2068094, -0.1551175, -0.06607759, -0.0993855, 0.2067304, -0.1550693
 118904799, -0.0817936, -0.05502097, 0.2067834, -0.1551469, -0.08582193, -0.08646458, 0.2068094, -0.1551175
 119104767, -0.08923252, 0.1253222, 0.2068899, -0.155495, -0.0817936, -0.05502097, 0.2067834, -0.1551469
 119304792, -0.0887198, 0.1439177, 0.2072775, -0.1554962, -0.08923252, 0.1253222, 0.2068899, -0.155495
 119504737, -0.09636232, 0.1379619, 0.2071453, -0.1556407, -0.0887198, 0.1439177, 0.2072775, -0.1554962
 119704773, -0.2229648, 0.1740277, 0.2075698, -0.1551702, -0.09636232, 0.1379619, 0.2071453, -0.1556407
 119904751, -0.2074318, 0.174193, 0.2080681, -0.1552717, -0.2229648, 0.1740277, 0.2075698, -0.1551702
 120104785, -0.2192023, 0.1473863, 0.2086683, -0.1554611, -0.2074318, 0.174193, 0.2080681, -0.1552717
 120304943, -0.2054409, 0.005157229, 0.2087681, -0.1549292, -0.2192023, 0.1473863, 0.2086683, -0.1554611
 120504879, -0.1930829, -0.004802056, 0.2084452, -0.1544958, -0.2054409, 0.005157229, 0.2087681, -0.1549292
 120704751, -0.1793676, -0.005405835, 0.2078008, -0.1552408, -0.1930829, -0.004802056, 0.2084452, -0.1544958
 120904781, -0.001406109, 0.05199743, 0.2077551, -0.156551, -0.1793676, -0.005405835, 0.2078008, -0.1552408
 121104761, -0.0008555315, 0.04951131, 0.2084824, -0.1561766, -0.001406109, 0.05199743, 0.2077551, -0.156551
 121304771, -0.02603235, 0.05862455, 0.208655, -0.1557228, -0.0008555315, 0.04951131, 0.2084824, -0.1561766
 121504905, -0.1171563, 0.1469333, 0.2091302, -0.1562719, -0.02603235, 0.05862455, 0.208655, -0.1557228
 121704742, -0.112227, 0.1260283, 0.2093791, -0.1565694, -0.1171563, 0.1469333, 0.2091302, -0.1562719
 121904804, -0.09356205, 0.09955296, 0.2085938, -0.1565124, -0.112227, 0.1260283, 0.2093791, -0.1565694
 122104922, -0.1034177, -0.08217049, 0.2087958, -0.1556997, -0.09356205, 0.09955296, 0.2085938, -0.1565124
 122304809, -0.120018, -0.09941146, 0.2089147, -0.155574, -0.1034177, -0.08217049, 0.2087958, -0.1556997
 122504836, -0.1173978, -0.09969679, 0.2092735, -0.1556233, -0.120018, -0.09941146, 0.2089147, -0.155574
 122704827, -0.1026674, -0.1359245, 0.2084381, -0.1557331, -0.1173978, -0.09969679, 0.2092735, -0.1556233
 122904761, -0.0895324, -0.1418624, 0.2086527, -0.1561941, -0.1026674, -0.1359245, 0.2084381, -0.1557331
 123104750, -0.07927586, -0.1407899, 0.2076494, -0.1571638, -0.0895324, -0.1418624, 0.2086527, -0.1561941
 123304808, 0.07228237, 0.266982, 0.2074134, -0.1572191, -0.07927586, -0.1407899, 0.2076494, -0.1571638
 123504744, 0.09786084, 0.2693214, 0.2067819, -0.1563847, 0.07228237, 0.266982, 0.2074134, -0.1572191
 123704765, 0.06054688, 0.3182335, 0.2078264, -0.1549265, 0.09786084, 0.2693214, 0.2067819, -0.1563847
 123904942, -0.4030083, 0.3561702, 0.209685, -0.1544987, 0.06054688, 0.3182335, 0.2078264, -0.1549265
 124104774, -0.4326721, 0.3441304, 0.2097318, -0.1543137, -0.4030083, 0.3561702, 0.209685, -0.1544987
 124305238, -0.4736819, 0.3205165, 0.2092343, -0.1565337, -0.4326721, 0.3441304, 0.2097318, -0.1543137
 124505257, -0.3904546, 0.1787949, 0.2089368, -0.1568665, -0.4736819, 0.3205165, 0.2092343, -0.1565337
 124705434, -0.3623822, 0.2065282, 0.2095969, -0.1575915, -0.3904546, 0.1787949, 0.2089368, -0.1568665
 124905224, -0.3353519, 0.2288417, 0.2102562, -0.1577526, -0.3623822, 0.2065282, 0.2095969, -0.1575915
 125105261, -0.5134176, -0.08245232, 0.211733, -0.1575532, -0.3353519, 0.2288417, 0.2102562, -0.1577526
 125305247, -0.4895986, -0.134266, 0.21149, -0.157652, -0.5134176, -0.08245232, 0.211733, -0.1575532
 125505206, -0.4954663, -0.1417738, 0.2117509, -0.1576374, -0.4895986, -0.134266, 0.21149, -0.157652
 125705575, -0.002003775, 0.2204541, 0.2097012, -0.1574809, -0.4954663, -0.1417738, 0.2117509, -0.1576374
 125905227, 0.04763575, 0.2180282, 0.2100082, -0.1574166, -0.002003775, 0.2204541, 0.2097012, -0.1574809
 126105218, 0.04604006, 0.2162615, 0.209826, -0.1572463, 0.04763575, 0.2180282, 0.2100082, -0.1574166
 126305276, -0.1993551, -0.04750738, 0.2092516, -0.1571311, 0.04604006, 0.2162615, 0.209826, -0.1572463
 126505250, -0.19198, -0.03902181, 0.2094664, -0.1577524, -0.1993551, -0.04750738, 0.2092516, -0.1571311
 126705201, -0.1618199, -0.04604499, 0.2091985, -0.1573452, -0.19198, -0.03902181, 0.2094664, -0.1577524
 126905377, 0.286338, 0.172378, 0.2100654, -0.1573569, -0.1618199, -0.04604499, 0.2091985, -0.1573452
 127105225, 0.3016629, 0.1987557, 0.210248, -0.1569276, 0.286338, 0.172378, 0.2100654, -0.1573569
 127305250, 0.2660885, 0.239475, 0.2096189, -0.1560409, 0.3016629, 0.1987557, 0.210248, -0.1569276
 127505446, -0.2256029, -0.07846131, 0.2081145, -0.1558174, 0.2660885, 0.239475, 0.2096189, -0.1560409
 127705209, -0.2242534, -0.08513404, 0.2082142, -0.155916, -0.2256029, -0.07846131, 0.2081145, -0.1558174
 127905233, -0.1563338, -0.07970762, 0.2071555, -0.156132, -0.2242534, -0.08513404, 0.2082142, -0.155916
 128105255, 0.1630276, 0.1898701, 0.2065184, -0.156609, -0.1563338, -0.07970762, 0.2071555, -0.156132
 128305256, 0.193144, 0.1267784, 0.2078876, -0.1552836, 0.1630276, 0.1898701, 0.2065184, -0.156609
 128505200, 0.2207875, 0.1688311, 0.2087374, -0.1561397, 0.193144, 0.1267784, 0.2078876, -0.1552836
 128705237, -0.001586692, 0.08021838, 0.2080108, -0.1563338, 0.2207875, 0.1688311, 0.2087374, -0.1561397
 128905463, -0.1259747, 0.1220697, 0.2085043, -0.1563401, -0.001586692, 0.08021838, 0.2080108, -0.1563338
 129105224, -0.1506892, 0.1532888, 0.2083838, -0.1556406, -0.1259747, 0.1220697, 0.2085043, -0.1563401
 129305485, -0.215035, 0.6632978, 0.2086024, -0.1600464, -0.1506892, 0.1532888, 0.2083838, -0.1556406
 129505192, -0.1528581, 0.6471033, 0.2079219, -0.1604729, -0.215035, 0.6632978, 0.2086024, -0.1600464
 129705205, -0.09887558, 0.5976059, 0.2067505, -0.1595439, -0.1528581, 0.6471033, 0.2079219, -0.1604729
 129905494, 0.04682355, 0.01288931, 0.2061273, -0.1575256, -0.09887558, 0.5976059, 0.2067505, -0.1595439
 130105214, 0.0483174, 0.01027455, 0.2052851, -0.1576199, 0.04682355, 0.01288931, 0.2061273, -0.1575256
 130305266, -0.05071752, 0.007101372, 0.2053872, -0.1577675, 0.0483174, 0.01027455, 0.2052851, -0.1576199
 130505240, 0.0249403, 0.31433, 0.2060143, -0.158839, -0.05071752, 0.007101372, 0.2053872, -0.1577675
 130705190, 0.04298758, 0.3548083, 0.2068901, -0.1600625, 0.0249403, 0.31433, 0.2060143, -0.158839
 130905241, 0.08082871, 0.3594553, 0.2062248, -0.1599661, 0.04298758, 0.3548083, 0.2068901, -0.1600625
 131105475, -0.249675, -0.03815129, 0.2077492, -0.1595272, 0.08082871, 0.3594553, 0.2062248, -0.1599661
 131305270, -0.2579984, -0.0004189879, 0.2076247, -0.1589222, -0.249675, -0.03815129, 0.2077492, -0.1595272
 131505186, -0.2740633, 0.01985201, 0.2087902, -0.1588212, -0.2579984, -0.0004189879, 0.2076247, -0.1589222
 131705267, -0.09120552, 0.2813671, 0.2077056, -0.1591071, -0.2740633, 0.01985201, 0.2087902, -0.1588212
 131905224, -0.05158683, 0.2413466, 0.2078278, -0.1594662, -0.09120552, 0.2813671, 0.2077056, -0.1591071
 132105243, -0.09645879, 0.2367559, 0.2071404, -0.1593984, -0.05158683, 0.2413466, 0.2078278, -0.1594662
 132305281, -0.09711977, 0.2670399, 0.2069899, -0.1585824, -0.09645879, 0.2367559, 0.2071404, -0.1593984
 132505184, -0.05579376, 0.3058818, 0.2064289, -0.157947, -0.09711977, 0.2670399, 0.2069899, -0.1585824
 132705249, -0.1021108, 0.2649076, 0.2061094, -0.1563134, -0.05579376, 0.3058818, 0.2064289, -0.157947
 132905471, -0.07191794, 0.2360135, 0.2061833, -0.1553431, -0.1021108, 0.2649076, 0.2061094, -0.1563134
 133105465, -0.2934294, -0.1892908, 0.2070771, -0.1551043, -0.07191794, 0.2360135, 0.2061833, -0.1553431
 133305241, -0.2556617, -0.1213774, 0.2088455, -0.1560723, -0.2934294, -0.1892908, 0.2070771, -0.1551043
 133505223, -0.2631301, -0.1550255, 0.2107244, -0.1573152, -0.2556617, -0.1213774, 0.2088455, -0.1560723
 133705214, 0.06928441, 0.1318597, 0.210348, -0.1587969, -0.2631301, -0.1550255, 0.2107244, -0.1573152
 133905245, 0.03569661, 0.1069936, 0.2120538, -0.1597937, 0.06928441, 0.1318597, 0.210348, -0.1587969
 134105479, 0.04829393, 0.1241624, 0.2124593, -0.1608665, 0.03569661, 0.1069936, 0.2120538, -0.1597937
 134305245, -0.08780268, 0.3955017, 0.2123215, -0.1619262, 0.04829393, 0.1241624, 0.2124593, -0.1608665
 134505278, -0.0745042, 0.356575, 0.2122346, -0.1623634, -0.08780268, 0.3955017, 0.2123215, -0.1619262
 134705485, -0.08079074, 0.3765189, 0.2117813, -0.1628537, -0.0745042, 0.356575, 0.2122346, -0.1623634
 134905242, -0.2843019, -0.2242991, 0.2121186, -0.162067, -0.08079074, 0.3765189, 0.2117813, -0.1628537
 135105239, -0.2597775, -0.1700042, 0.211981, -0.1615958, -0.2843019, -0.2242991, 0.2121186, -0.162067
 135305297, -0.2647651, -0.1802277, 0.2114283, -0.1620047, -0.2597775, -0.1700042, 0.211981, -0.1615958
 135505211, 0.2159885, 0.2421716, 0.2112038, -0.1615487, -0.2647651, -0.1802277, 0.2114283, -0.1620047
 135705209, 0.1286569, 0.239069, 0.2114534, -0.1603054, 0.2159885, 0.2421716, 0.2112038, -0.1615487
 135905258, 0.1192228, 0.2284575, 0.2106769, -0.1595955, 0.1286569, 0.239069, 0.2114534, -0.1603054
 136105229, -0.5796633, 0.05029856, 0.212139, -0.1596119, 0.1192228, 0.2284575, 0.2106769, -0.1595955
 136305246, -0.5221784, 0.02567999, 0.2121009, -0.1589258, -0.5796633, 0.05029856, 0.212139, -0.1596119
 136505468, -0.497338, 0.02076803, 0.2119254, -0.158091, -0.5221784, 0.02567999, 0.2121009, -0.1589258
 136705177, -0.009739298, 0.04817692, 0.2102265, -0.15847, -0.497338, 0.02076803, 0.2119254, -0.158091
 136905211, -0.03240116, 0.0161551, 0.2094642, -0.1584784, -0.009739298, 0.04817692, 0.2102265, -0.15847
 137105257, -0.01673687, 0.08002535, 0.2085499, -0.1581645, -0.03240116, 0.0161551, 0.2094642, -0.1584784
 137305470, -0.2244991, 0.4713857, 0.2078257, -0.1585069, -0.01673687, 0.08002535, 0.2085499, -0.1581645
 137505212, -0.188596, 0.4586757, 0.2076942, -0.1584588, -0.2244991, 0.4713857, 0.2078257, -0.1585069
 137705245, -0.1824895, 0.4099121, 0.2072113, -0.1574667, -0.188596, 0.4586757, 0.2076942, -0.1584588
 137905259, -0.1442003, -0.2776429, 0.2070593, -0.1565682, -0.1824895, 0.4099121, 0.2072113, -0.1574667
 138105237, -0.128207, -0.2021532, 0.2061685, -0.1558686, -0.1442003, -0.2776429, 0.2070593, -0.1565682
 138305615, -0.106893, -0.1978045, 0.2048897, -0.1550744, -0.128207, -0.2021532, 0.2061685, -0.1558686
 138505233, 0.1864854, 0.205959, 0.2049895, -0.1543691, -0.106893, -0.1978045, 0.2048897, -0.1550744
 138705187, 0.1358785, 0.1993525, 0.204409, -0.1538233, 0.1864854, 0.205959, 0.2049895, -0.1543691
 138905277, 0.1716803, 0.2230611, 0.2048348, -0.153753, 0.1358785, 0.1993525, 0.204409, -0.1538233
 139124781, -0.1315257, 0.3413437, 0.2059772, -0.1543592, 0.1716803, 0.2230611, 0.2048348, -0.153753
 139305249, -0.05925982, 0.06056055, 0.205615, -0.153112, -0.1315257, 0.3413437, 0.2059772, -0.1543592
 139505225, -0.07663226, 0.07686443, 0.2052944, -0.1535735, -0.05925982, 0.06056055, 0.205615, -0.153112
 139705243, -0.1504128, -0.1212695, 0.2055248, -0.1540178, -0.07663226, 0.07686443, 0.2052944, -0.1535735
 139905216, -0.1488333, -0.06504437, 0.2056384, -0.1553824, -0.1504128, -0.1212695, 0.2055248, -0.1540178
 140105502, -0.1484341, -0.08082353, 0.2057669, -0.154891, -0.1488333, -0.06504437, 0.2056384, -0.1553824
 140305270, -0.1091878, 0.01707173, 0.2064763, -0.1550797, -0.1484341, -0.08082353, 0.2057669, -0.154891
 140505223, -0.1156244, 0.02448861, 0.206967, -0.1547935, -0.1091878, 0.01707173, 0.2064763, -0.1550797
 140705249, -0.09981643, -0.02850698, 0.2061117, -0.1551037, -0.1156244, 0.02448861, 0.206967, -0.1547935
 140905240, 0.04818027, 0.1145695, 0.2051966, -0.1548417, -0.09981643, -0.02850698, 0.2061117, -0.1551037
 141105231, 0.01898175, 0.1093073, 0.2055498, -0.1551874, 0.04818027, 0.1145695, 0.2051966, -0.1548417
 141305277, -0.006572634, 0.1340989, 0.2051656, -0.1561018, 0.01898175, 0.1093073, 0.2055498, -0.1551874
 141505466, -0.157175, 0.2983344, 0.2058764, -0.1565795, -0.006572634, 0.1340989, 0.2051656, -0.1561018
 141705249, -0.1748056, 0.2769754, 0.2072505, -0.1572725, -0.157175, 0.2983344, 0.2058764, -0.1565795
 141905474, -0.1498774, 0.2910928, 0.2077586, -0.1581775, -0.1748056, 0.2769754, 0.2072505, -0.1572725
 142105247, -0.0764217, 0.1606644, 0.2068707, -0.1573092, -0.1498774, 0.2910928, 0.2077586, -0.1581775
 142305271, -0.09774487, 0.1514875, 0.2071052, -0.1573831, -0.0764217, 0.1606644, 0.2068707, -0.1573092
 142505448, -0.08684034, 0.1619285, 0.2080998, -0.1578986, -0.09774487, 0.1514875, 0.2071052, -0.1573831
 142705309, -0.1515329, -0.1648606, 0.2089486, -0.1578749, -0.08684034, 0.1619285, 0.2080998, -0.1578986
 142905214, -0.1583105, -0.1246669, 0.208514, -0.1578541, -0.1515329, -0.1648606, 0.2089486, -0.1578749
 143105260, -0.1700908, -0.1711175, 0.2087766, -0.1578478, -0.1583105, -0.1246669, 0.208514, -0.1578541
 143305307, -0.1187098, 0.05377519, 0.208919, -0.1583228, -0.1700908, -0.1711175, 0.2087766, -0.1578478
 143505230, -0.1418847, 0.04526164, 0.2088582, -0.1577756, -0.1187098, 0.05377519, 0.208919, -0.1583228
