TimeUS,CGpN,CGpE,CGpD,CGpe,PGpN,PGpE,PGpD,PGpe
 57731715, 0.038, -0.028, 0.061, 1.057, -0.06500001, 0.024, -0.036, 1.056
 57919211, 0.031, 0, -0.053, 1.057, 0.038, -0.028, 0.061, 1.057
 58119083, -0.012, 0.007, -0.02, 1.057, 0.031, 0, -0.053, 1.057
 58319078, -0.041, 0.035, 0.006, 1.057, -0.012, 0.007, -0.02, 1.057
 58519027, -0.022, -0.019, 0.019, 1.057, -0.041, 0.035, 0.006, 1.057
 58719072, 0.009000001, -0.008, 0.008, 1.057, -0.022, -0.019, 0.019, 1.057
 58919072, 0.023, 0.024, -0.03, 1.057, 0.009000001, -0.008, 0.008, 1.057
 59119041, 0.009000001, 0.041, -0.017, 1.057, 0.023, 0.024, -0.03, 1.057
 59319053, -0.019, -0.04, 0.011, 1.057, 0.009000001, 0.041, -0.017, 1.057
 59519030, -0.021, 0.032, -0.046, 1.057, -0.019, -0.04, 0.011, 1.057
 59719050, -0.001, -0.005, -0.008, 1.057, -0.021, 0.032, -0.046, 1.057
 59919044, 0.044, -0.021, 0.047, 1.057, -0.001, -0.005, -0.008, 1.057
 60119051, 0.012, -0.044, 0.071, 1.056, 0.044, -0.021, 0.047, 1.057
 60319076, -0.034, 0.007, 0.033, 1.056, 0.012, -0.044, 0.071, 1.056
 60499076, 0.034, -0.013, 0.029, 1.056, -0.034, 0.007, 0.033, 1.056
 60719093, -0.034, -0.015, -0.005, 1.056, 0.034, -0.013, 0.029, 1.056
 60919037, 0.008, -0.006, -0.071, 1.056, -0.034, -0.015, -0.005, 1.056
 61119034, -0.001, -0.021, -0.026, 1.056, 0.008, -0.006, -0.071, 1.056
 61319056, 0.003, -0.029, 0.055, 1.056, -0.001, -0.021, -0.026, 1.056
 61519112, -0.043, 0.059, -0.113, 1.056, 0.003, -0.029, 0.055, 1.056
 61719047, -0.013, 0.045, -0.107, 1.056, -0.043, 0.059, -0.113, 1.056
 61919059, -0.05, 0.025, -0.09900001, 1.056, -0.013, 0.045, -0.107, 1.056
 62119080, -0.027, 0.007, -0.04, 1.055, -0.05, 0.025, -0.09900001, 1.056
 62319089, 0.033, -0.037, -0.057, 1.055, -0.027, 0.007, -0.04, 1.055
 62519118, 0.026, 0.037, -0.05, 1.055, 0.033, -0.037, -0.057, 1.055
 62719075, 0.01, -0.051, -0.051, 1.055, 0.026, 0.037, -0.05, 1.055
 62919418, 0.035, 0.007, -0.089, 1.055, 0.01, -0.051, -0.051, 1.055
 63119419, -0.012, 0.013, -0.07, 1.055, 0.035, 0.007, -0.089, 1.055
 63319464, -0.022, -0.032, -0.038, 1.054, -0.012, 0.013, -0.07, 1.055
 63519410, 0.024, -0.107, -0.078, 1.054, -0.022, -0.032, -0.038, 1.054
 63719407, 0.035, -0.31, -0.266, 1.051, 0.024, -0.107, -0.078, 1.054
 63919406, 0.082, -0.5190001, -0.3, 1.051, 0.035, -0.31, -0.266, 1.051
 64119406, 0.222, -0.918, -0.576, 1.051, 0.082, -0.5190001, -0.3, 1.051
 64319556, 0.291, -1.743, -0.7320001, 1.051, 0.222, -0.918, -0.576, 1.051
 64519405, 0.285, -2.01, -0.965, 1.052, 0.291, -1.743, -0.7320001, 1.051
 64719500, 0.188, -1.724, -1.496, 1.056, 0.285, -2.01, -0.965, 1.052
 64919392, 0.14, -2.035, -1.751, 1.058, 0.188, -1.724, -1.496, 1.056
 65119402, 0.194, -1.764, -2.059, 1.061, 0.14, -2.035, -1.751, 1.058
 65319418, 0.317, -1.835, -2.427, 1.064, 0.194, -1.764, -2.059, 1.061
 65519406, 0.514, -2.064, -2.601, 1.068, 0.317, -1.835, -2.427, 1.064
 65719585, 0.578, -2.05, -2.883, 1.072, 0.514, -2.064, -2.601, 1.068
 65919470, 0.626, -1.949, -3.004, 1.076, 0.578, -2.05, -2.883, 1.072
 66119594, 0.841, -2.271, -2.749, 1.08, 0.626, -1.949, -3.004, 1.076
 66319510, 0.918, -2.214, -2.435, 1.084, 0.841, -2.271, -2.749, 1.08
 66519469, 1.005, -2.19, -2.193, 1.087, 0.918, -2.214, -2.435, 1.084
 66719452, 0.8010001, -2.232, -1.474, 1.09, 1.005, -2.19, -2.193, 1.087
 66919492, 0.9160001, -1.803, -1.104, 1.093, 0.8010001, -2.232, -1.474, 1.09
 67119480, 1.029, -1.933, -0.566, 1.096, 0.9160001, -1.803, -1.104, 1.093
 67319470, 1.272, -2.092, -0.192, 1.099, 1.029, -1.933, -0.566, 1.096
 67519485, 0.8660001, -1.657, -0.116, 1.104, 1.272, -2.092, -0.192, 1.099
 67719460, 0.988, -1.538, 0.079, 1.109, 0.8660001, -1.657, -0.116, 1.104
 67919604, 1.091, -1.504, 0.026, 1.114, 0.988, -1.538, 0.079, 1.109
 68119492, 0.994, -1.305, 0.129, 1.119, 1.091, -1.504, 0.026, 1.114
 68319472, 1.052, -1.244, 0.09500001, 1.125, 0.994, -1.305, 0.129, 1.119
 68519455, 0.744, -1.127, 0.032, 1.131, 1.052, -1.244, 0.09500001, 1.125
 68719483, 0.511, -1.082, -0.014, 1.132, 0.744, -1.127, 0.032, 1.131
 68919603, 0.174, -1.025, -0.002, 1.129, 0.511, -1.082, -0.014, 1.132
 69119454, -0.172, -1.065, 0.06500001, 1.126, 0.174, -1.025, -0.002, 1.129
 69319506, -0.362, -1.203, 0.089, 1.126, -0.172, -1.065, 0.06500001, 1.126
 69519454, -0.618, -1.283, 0.074, 1.131, -0.362, -1.203, 0.089, 1.126
 69719585, -0.83, -1.147, -0.032, 1.139, -0.618, -1.283, 0.074, 1.131
 69919620, -0.858, -1.181, 0.107, 1.145, -0.83, -1.147, -0.032, 1.139
 70119461, -0.937, -1.224, 0.097, 1.149, -0.858, -1.181, 0.107, 1.145
 70319485, -0.9810001, -1.271, 0.093, 1.15, -0.937, -1.224, 0.097, 1.149
 70519492, -0.9260001, -1.248, 0.244, 1.151, -0.9810001, -1.271, 0.093, 1.15
 70719453, -1.318, -1.163, 0.229, 1.157, -0.9260001, -1.248, 0.244, 1.151
 70919474, -1.319, -1.369, 0.236, 1.162, -1.318, -1.163, 0.229, 1.157
 71119493, -1.511, -1.006, 0.283, 1.163, -1.319, -1.369, 0.236, 1.162
 71319479, -1.758, -1.044, 0.135, 1.164, -1.511, -1.006, 0.283, 1.163
 71519606, -1.786, -1.207, 0.048, 1.164, -1.758, -1.044, 0.135, 1.164
 71719501, -1.972, -1.087, 0.031, 1.162, -1.786, -1.207, 0.048, 1.164
 71919478, -2.158, -0.955, 0.09500001, 1.161, -1.972, -1.087, 0.031, 1.162
 72119467, -2.171, -0.988, 0.146, 1.16, -2.158, -0.955, 0.09500001, 1.161
 72319509, -2.294, -0.946, 0.079, 1.156, -2.171, -0.988, 0.146, 1.16
 72519448, -2.417, -0.984, 0.155, 1.152, -2.294, -0.946, 0.079, 1.156
 72719459, -2.736, -0.613, 0.118, 1.151, -2.417, -0.984, 0.155, 1.152
 72919490, -2.849, -0.634, 0.113, 1.151, -2.736, -0.613, 0.118, 1.151
 73119576, -2.99, -0.628, 0.047, 1.152, -2.849, -0.634, 0.113, 1.151
 73319604, -3.24, -0.645, 0.051, 1.155, -2.99, -0.628, 0.047, 1.152
 73519482, -3.348, -0.669, 0.007, 1.158, -3.24, -0.645, 0.051, 1.155
 73719450, -3.5, -0.743, -0.121, 1.161, -3.348, -0.669, 0.007, 1.158
 73919450, -3.532, -0.984, -0.043, 1.164, -3.5, -0.743, -0.121, 1.161
 74119614, -3.666, -1.025, -0.089, 1.166, -3.532, -0.984, -0.043, 1.164
 74319480, -3.715, -1.098, -0.053, 1.167, -3.666, -1.025, -0.089, 1.166
 74519457, -3.881, -0.957, 0.031, 1.169, -3.715, -1.098, -0.053, 1.167
 74719484, -3.878, -1.137, 0.042, 1.17, -3.881, -0.957, 0.031, 1.169
 74919466, -3.965, -0.9490001, 0.026, 1.17, -3.878, -1.137, 0.042, 1.17
 75119594, -3.988, -0.961, 0.011, 1.17, -3.965, -0.9490001, 0.026, 1.17
 75319527, -3.9, -0.973, 0.046, 1.169, -3.988, -0.961, 0.011, 1.17
 75519459, -3.935, -0.973, -0.028, 1.169, -3.9, -0.973, 0.046, 1.169
 75719450, -3.788, -0.7, 0.034, 1.17, -3.935, -0.973, -0.028, 1.169
 75919477, -3.704, -0.758, 0.108, 1.17, -3.788, -0.7, 0.034, 1.17
 76119469, -3.484, -0.526, 0.013, 1.17, -3.704, -0.758, 0.108, 1.17
 76319488, -3.349, -0.408, -0.046, 1.172, -3.484, -0.526, 0.013, 1.17
 76519491, -3.171, -0.227, -0.06900001, 1.174, -3.349, -0.408, -0.046, 1.172
 76719458, -2.969, -0.254, 0.128, 1.173, -3.171, -0.227, -0.06900001, 1.174
 76919590, -2.786, -0.173, 0.08400001, 1.172, -2.969, -0.254, 0.128, 1.173
 77119480, -2.684, -0.058, 0, 1.173, -2.786, -0.173, 0.08400001, 1.172
 77319581, -2.546, -0.142, 0.04, 1.172, -2.684, -0.058, 0, 1.173
 77519462, -2.435, -0.288, -0.006, 1.171, -2.546, -0.142, 0.04, 1.172
 77719493, -2.371, -0.204, 0.038, 1.171, -2.435, -0.288, -0.006, 1.171
 77919462, -2.235, -0.343, 0.013, 1.17, -2.371, -0.204, 0.038, 1.171
 78119449, -2.208, -0.363, 0.034, 1.169, -2.235, -0.343, 0.013, 1.17
 78319631, -2.083, -0.312, -0.055, 1.17, -2.208, -0.363, 0.034, 1.169
 78519576, -1.963, -0.306, -0.023, 1.17, -2.083, -0.312, -0.055, 1.17
 78719682, -1.894, -0.249, -0.07300001, 1.172, -1.963, -0.306, -0.023, 1.17
 78919571, -1.554, -0.271, -0.096, 1.173, -1.894, -0.249, -0.07300001, 1.172
 79119554, -1.292, -0.137, -0.09100001, 1.176, -1.554, -0.271, -0.096, 1.173
 79319574, -1.034, -0.045, -0.142, 1.18, -1.292, -0.137, -0.09100001, 1.176
 79519580, -0.68, -0.182, -0.105, 1.184, -1.034, -0.045, -0.142, 1.18
 79719547, -0.583, -0.231, -0.16, 1.188, -0.68, -0.182, -0.105, 1.184
 79919561, -0.369, -0.163, -0.124, 1.189, -0.583, -0.231, -0.16, 1.188
 80119551, -0.358, -0.017, -0.272, 1.191, -0.369, -0.163, -0.124, 1.189
 80319577, -0.31, -0.066, -0.1, 1.193, -0.358, -0.017, -0.272, 1.191
 80519773, -0.21, -0.081, -0.187, 1.192, -0.31, -0.066, -0.1, 1.193
 80719550, -0.216, -0.059, -0.1, 1.191, -0.21, -0.081, -0.187, 1.192
 80939281, -0.049, -0.114, -0.129, 1.193, -0.216, -0.059, -0.1, 1.191
 81119561, -0.071, -0.114, -0.161, 1.194, -0.049, -0.114, -0.129, 1.193
 81319560, 0.02, -0.09500001, -0.008, 1.193, -0.071, -0.114, -0.161, 1.194
 81519658, 0.047, 0.06, -0.027, 1.194, 0.02, -0.09500001, -0.008, 1.193
 81719552, 0.043, 0.056, -0.052, 1.198, 0.047, 0.06, -0.027, 1.194
 81919550, 0.059, 0.044, -0.034, 1.201, 0.043, 0.056, -0.052, 1.198
 82119565, 0.09200001, 0.07700001, -0.086, 1.205, 0.059, 0.044, -0.034, 1.201
 82319708, 0.062, 0.078, -0.028, 1.209, 0.09200001, 0.07700001, -0.086, 1.205
 82519686, 0.029, 0.016, -0.028, 1.213, 0.062, 0.078, -0.028, 1.209
 82719540, 0.082, -0.003, -0.003, 1.215, 0.029, 0.016, -0.028, 1.213
 82919540, 0.004, 0.018, 0.008, 1.216, 0.082, -0.003, -0.003, 1.215
 83119547, 0.02, -0.008, 0.059, 1.216, 0.004, 0.018, 0.008, 1.216
 83319562, 0.039, -0.056, -0.012, 1.214, 0.02, -0.008, 0.059, 1.216
 83519550, -0.002, -0.021, 0.008, 1.212, 0.039, -0.056, -0.012, 1.214
 83719546, 0.078, -0.008, -0.025, 1.21, -0.002, -0.021, 0.008, 1.212
 83919556, 0.132, -0.064, -0.067, 1.208, 0.078, -0.008, -0.025, 1.21
 84119675, 0.058, -0.02, 0.014, 1.206, 0.132, -0.064, -0.067, 1.208
 84319561, 0.045, 0.063, -0.021, 1.204, 0.058, -0.02, 0.014, 1.206
 84519545, 0.031, 0.042, -0.017, 1.201, 0.045, 0.063, -0.021, 1.204
 84719559, 0.021, 0.027, -0.037, 1.199, 0.031, 0.042, -0.017, 1.201
 84919543, -0.102, 0.02, 0.012, 1.197, 0.021, 0.027, -0.037, 1.199
 85119562, -0.087, 0.012, -0.032, 1.194, -0.102, 0.02, 0.012, 1.197
 85319574, -0.149, 0.009000001, -0.004, 1.192, -0.087, 0.012, -0.032, 1.194
 85519571, -0.061, -0.019, 0.025, 1.189, -0.149, 0.009000001, -0.004, 1.192
 85719682, -0.097, -0.008, 0.011, 1.188, -0.061, -0.019, 0.025, 1.189
 85919678, -0.057, 0.018, -0.06900001, 1.187, -0.097, -0.008, 0.011, 1.188
 86119549, -0.031, 0.055, -0.002, 1.187, -0.057, 0.018, -0.06900001, 1.187
 86319609, 0.051, 0.032, 0.081, 1.18, -0.031, 0.055, -0.002, 1.187
 86519589, 0.017, 0.08000001, -0.06900001, 1.178, 0.051, 0.032, 0.081, 1.18
 86719675, 0.019, 0.161, 0.072, 1.172, 0.017, 0.08000001, -0.06900001, 1.178
 86919608, 0.125, 0.035, -0.013, 1.167, 0.019, 0.161, 0.072, 1.172
 87119549, 0.022, 0.06500001, 0.014, 1.166, 0.125, 0.035, -0.013, 1.167
 87319577, -0.003, 0.015, 0.055, 1.162, 0.022, 0.06500001, 0.014, 1.166
 87519584, -0.038, 0.043, -0.104, 1.162, -0.003, 0.015, 0.055, 1.162
 87719686, -0.012, 0.034, -0.032, 1.161, -0.038, 0.043, -0.104, 1.162
 87919547, -0.017, 0.078, 0.07300001, 1.159, -0.012, 0.034, -0.032, 1.161
 88119586, 0.044, 0.036, -0.036, 1.16, -0.017, 0.078, 0.07300001, 1.159
 88319567, 0.026, -0.02, 0.036, 1.158, 0.044, 0.036, -0.036, 1.16
 88519565, 0.064, 0.013, 0.06, 1.157, 0.026, -0.02, 0.036, 1.158
 88719581, 0.06, 0.051, -0.013, 1.155, 0.064, 0.013, 0.06, 1.157
 88919550, 0.003, 0.104, -0.035, 1.154, 0.06, 0.051, -0.013, 1.155
 89119559, 0.1, 0.009000001, -0.134, 1.153, 0.003, 0.104, -0.035, 1.154
 89319605, 0.051, 0.005, -0.006, 1.152, 0.1, 0.009000001, -0.134, 1.153
 89519697, 0.103, -0.05, 0.024, 1.153, 0.051, 0.005, -0.006, 1.152
 89719548, 0.09100001, 0.034, 0.026, 1.155, 0.103, -0.05, 0.024, 1.153
 89919704, 0.046, 0.072, -0.06, 1.157, 0.09100001, 0.034, 0.026, 1.155
 90119552, 0.048, 0.006, -0.047, 1.159, 0.046, 0.072, -0.06, 1.157
 90319572, 0.07, -0.023, 0.121, 1.161, 0.048, 0.006, -0.047, 1.159
 90519609, 0.08000001, -0.066, 0.075, 1.162, 0.07, -0.023, 0.121, 1.161
 90719547, 0.056, -0.026, 0.086, 1.163, 0.08000001, -0.066, 0.075, 1.162
 90919673, 0.051, -0.034, 0.094, 1.163, 0.056, -0.026, 0.086, 1.163
 91119581, 0.029, -0.022, 0.046, 1.161, 0.051, -0.034, 0.094, 1.163
 91319699, 0.034, -0.035, 0.011, 1.158, 0.029, -0.022, 0.046, 1.161
 91519545, 0.037, -0.047, 0.03, 1.156, 0.034, -0.035, 0.011, 1.158
 91719581, 0.001, 0.094, 0.09, 1.153, 0.037, -0.047, 0.03, 1.156
 91919547, -0.031, 0.09200001, 0.052, 1.15, 0.001, 0.094, 0.09, 1.153
 92119553, 0.023, 0.324, -0.03, 1.149, -0.031, 0.09200001, 0.052, 1.15
 92319600, -0.044, 0.218, -0.04, 1.149, 0.023, 0.324, -0.03, 1.149
 92519545, -0.04, 0.071, 0.057, 1.147, -0.044, 0.218, -0.04, 1.149
 92719555, 0.081, 0.136, 0.001, 1.145, -0.04, 0.071, 0.057, 1.147
 92939418, 0.146, 0.048, -0.068, 1.143, 0.081, 0.136, 0.001, 1.145
 93119692, 0.137, 0.148, 0.01, 1.14, 0.146, 0.048, -0.068, 1.143
 93319560, 0.162, 0.144, 0.053, 1.136, 0.137, 0.148, 0.01, 1.14
 93519579, 0.145, 0.115, 0.048, 1.135, 0.162, 0.144, 0.053, 1.136
 93719542, 0.09200001, 0.09900001, 0.139, 1.136, 0.145, 0.115, 0.048, 1.135
 93919570, 0.056, 0.005, 0.086, 1.138, 0.09200001, 0.09900001, 0.139, 1.136
 94119696, -0.034, -0.031, 0.003, 1.141, 0.056, 0.005, 0.086, 1.138
 94319562, 0.028, -0.124, 0.135, 1.145, -0.034, -0.031, 0.003, 1.141
 94519543, -0.022, -0.157, -0.005, 1.148, 0.028, -0.124, 0.135, 1.145
 94719583, -0.055, -0.224, -0.03, 1.152, -0.022, -0.157, -0.005, 1.148
 94919669, 0.001, -0.398, 0.024, 1.152, -0.055, -0.224, -0.03, 1.152
 95119671, 0.041, -0.408, -0.061, 1.155, 0.001, -0.398, 0.024, 1.152
 95319602, -0.013, -0.306, -0.089, 1.155, 0.041, -0.408, -0.061, 1.155
 95519546, 0.042, -0.176, -0.016, 1.154, -0.013, -0.306, -0.089, 1.155
 95719544, -0.112, -0.127, 0.013, 1.157, 0.042, -0.176, -0.016, 1.154
 95919604, -0.07700001, -0.04, -0.019, 1.159, -0.112, -0.127, 0.013, 1.157
 96119549, -0.106, -0.126, -0.023, 1.159, -0.07700001, -0.04, -0.019, 1.159
 96319568, -0.056, -0.17, 0.046, 1.158, -0.106, -0.126, -0.023, 1.159
 96519588, -0.048, -0.161, -0.032, 1.157, -0.056, -0.17, 0.046, 1.158
 96719681, 0.035, -0.248, 0.04, 1.156, -0.048, -0.161, -0.032, 1.157
 96919569, 0.063, -0.444, 0.03, 1.155, 0.035, -0.248, 0.04, 1.156
 97119578, 0.103, -0.476, 0.08000001, 1.155, 0.063, -0.444, 0.03, 1.155
 97319572, 0.108, -0.419, 0.021, 1.159, 0.103, -0.476, 0.08000001, 1.155
 97519548, -0.005, -0.191, -0.06500001, 1.166, 0.108, -0.419, 0.021, 1.159
 97719585, -0.029, -0.056, -0.093, 1.173, -0.005, -0.191, -0.06500001, 1.166
 97919903, -0.045, -0.054, 0.017, 1.179, -0.029, -0.056, -0.093, 1.173
 98119901, -0.102, 0.057, 0.059, 1.178, -0.045, -0.054, 0.017, 1.179
 98320131, -0.052, 0.066, 0.087, 1.18, -0.102, 0.057, 0.059, 1.178
 98520053, 0.016, -0.017, -0.031, 1.187, -0.052, 0.066, 0.087, 1.18
 98719857, -0.006, -0.009000001, -0.004, 1.189, 0.016, -0.017, -0.031, 1.187
 98919890, 0.101, -0.141, 0.049, 1.191, -0.006, -0.009000001, -0.004, 1.189
 99119893, 0.093, -0.19, 0.047, 1.195, 0.101, -0.141, 0.049, 1.191
 99320081, 0.097, -0.184, -0.008, 1.197, 0.093, -0.19, 0.047, 1.195
 99519975, 0.102, -0.154, 0.007, 1.2, 0.097, -0.184, -0.008, 1.197
 99719888, 0.051, -0.031, 0.123, 1.206, 0.102, -0.154, 0.007, 1.2
 99919879, 0.072, 0.147, -0.03, 1.206, 0.051, -0.031, 0.123, 1.206
 100119993, 0.1, 0.158, 0.026, 1.204, 0.072, 0.147, -0.03, 1.206
 100320091, 0.014, 0.133, 0.023, 1.205, 0.1, 0.158, 0.026, 1.204
 100519861, -0.02, 0.162, -0.075, 1.203, 0.014, 0.133, 0.023, 1.205
 100719886, -0.003, 0.125, -0.025, 1.204, -0.02, 0.162, -0.075, 1.203
 100919852, -0.023, 0.128, -0.033, 1.203, -0.003, 0.125, -0.025, 1.204
 101119972, -0.032, 0.03, 0.125, 1.203, -0.023, 0.128, -0.033, 1.203
 101319979, -0.045, 0.032, 0.118, 1.2, -0.032, 0.03, 0.125, 1.203
 101519887, -0.136, 0.113, 0.057, 1.2, -0.045, 0.032, 0.118, 1.2
 101719886, -0.07700001, 0.152, -0.027, 1.202, -0.136, 0.113, 0.057, 1.2
 101919868, -0.063, 0.159, 0.097, 1.209, -0.07700001, 0.152, -0.027, 1.202
 102099734, 0.024, 0.087, 0.105, 1.216, -0.063, 0.159, 0.097, 1.209
 102319895, 0.08000001, 0.107, -0.025, 1.219, 0.024, 0.087, 0.105, 1.216
 102520038, -0.026, 0.197, -0.004, 1.22, 0.08000001, 0.107, -0.025, 1.219
 102719845, 0.121, 0.09200001, 0.078, 1.222, -0.026, 0.197, -0.004, 1.22
 102919873, 0.132, 0.09500001, -0.055, 1.226, 0.121, 0.09200001, 0.078, 1.222
 103119961, 0.081, 0.01, -0.001, 1.229, 0.132, 0.09500001, -0.055, 1.226
 103319889, 0.093, -0.079, 0.089, 1.231, 0.081, 0.01, -0.001, 1.229
 103520064, 0.086, 0.041, 0.011, 1.232, 0.093, -0.079, 0.089, 1.231
 103719875, 0.07700001, -0.043, 0.128, 1.234, 0.086, 0.041, 0.011, 1.232
 103920049, 0.044, 0.038, 0.006, 1.237, 0.07700001, -0.043, 0.128, 1.234
 104119876, 0.05, 0.02, 0.029, 1.239, 0.044, 0.038, 0.006, 1.237
 104319898, -0.003, -0.008, 0.09500001, 1.241, 0.05, 0.02, 0.029, 1.239
 104519880, -0.128, -0.062, -0.058, 1.242, -0.003, -0.008, 0.09500001, 1.241
 104719886, 0.018, -0.116, 0.032, 1.242, -0.128, -0.062, -0.058, 1.242
 104919864, 0.015, -0.028, -0.062, 1.242, 0.018, -0.116, 0.032, 1.242
 105119875, -0.003, -0.117, 0.129, 1.242, 0.015, -0.028, -0.062, 1.242
 105319966, -0.002, -0.082, 0.132, 1.243, -0.003, -0.117, 0.129, 1.242
 105519881, 0.028, -0.118, 0.034, 1.246, -0.002, -0.082, 0.132, 1.243
 105720058, 0, -0.097, 0.071, 1.246, 0.028, -0.118, 0.034, 1.246
 105919899, -0.027, -0.146, -0.052, 1.246, 0, -0.097, 0.071, 1.246
 106119859, 0.053, -0.33, 0.031, 1.251, -0.027, -0.146, -0.052, 1.246
 106319895, -0.07600001, -0.254, -0.012, 1.257, 0.053, -0.33, 0.031, 1.251
 106519880, -0.022, -0.192, 0.063, 1.263, -0.07600001, -0.254, -0.012, 1.257
 106720082, 0.021, -0.233, 0.09500001, 1.268, -0.022, -0.192, 0.063, 1.263
 106919880, -0.07300001, -0.262, 0.031, 1.267, 0.021, -0.233, 0.09500001, 1.268
 107119882, -0.022, -0.097, 0.012, 1.265, -0.07300001, -0.262, 0.031, 1.267
 107319902, -0.011, -0.028, 0.126, 1.262, -0.022, -0.097, 0.012, 1.265
 107520078, 0.014, 0.008, 0.009000001, 1.258, -0.011, -0.028, 0.126, 1.262
 107720091, -0.052, -0.02, -0.055, 1.257, 0.014, 0.008, 0.009000001, 1.258
 107919889, 0.04, -0.025, 0.071, 1.257, -0.052, -0.02, -0.055, 1.257
 108119859, 0.07, 0.06500001, 0.096, 1.258, 0.04, -0.025, 0.071, 1.257
 108319899, -0.003, 0, -0.035, 1.258, 0.07, 0.06500001, 0.096, 1.258
 108519869, -0.003, 0, 0.045, 1.252, -0.003, 0, -0.035, 1.258
 108719873, -0.003, 0, 0.156, 1.239, -0.003, 0, 0.045, 1.252
 108919877, -0.003, 0, 0.102, 1.228, -0.003, 0, 0.156, 1.239
 109119864, -0.003, 0, 0.161, 1.225, -0.003, 0, 0.102, 1.228
 109320091, -0.003, 0, 0.094, 1.222, -0.003, 0, 0.161, 1.225
 109519863, -0.003, 0, 0.004, 1.218, -0.003, 0, 0.094, 1.222
 109719884, -0.003, 0, 0.032, 1.209, -0.003, 0, 0.004, 1.218
 109919864, -0.003, 0, 0.037, 1.202, -0.003, 0, 0.032, 1.209
 110119869, -0.003, 0, 0.094, 1.2, -0.003, 0, 0.037, 1.202
 110319894, -0.003, 0, -0.003, 1.199, -0.003, 0, 0.094, 1.2
 110519897, -0.003, 0, -0.104, 1.201, -0.003, 0, -0.003, 1.199
 110719870, -0.003, 0, 0.136, 1.203, -0.003, 0, -0.104, 1.201
 110920103, -0.003, 0, 0.07600001, 1.202, -0.003, 0, 0.136, 1.203
 111120111, -0.003, 0, -0.006, 1.201, -0.003, 0, 0.07600001, 1.202
 111319889, -0.003, 0, 0.016, 1.197, -0.003, 0, -0.006, 1.201
 111519965, -0.003, 0, 0, 1.199, -0.003, 0, 0.016, 1.197
 111719963, -0.003, 0, 0.02, 1.199, -0.003, 0, 0, 1.199
 111920051, -0.003, 0, -0.026, 1.196, -0.003, 0, 0.02, 1.199
 112119875, -0.003, 0, -0.04, 1.192, -0.003, 0, -0.026, 1.196
 112320046, -0.003, 0, -0.021, 1.187, -0.003, 0, -0.04, 1.192
 112519972, -0.003, 0, 0.039, 1.188, -0.003, 0, -0.021, 1.187
 112719867, -0.003, 0, -0.042, 1.192, -0.003, 0, 0.039, 1.188
 112920110, -0.003, 0, -0.075, 1.195, -0.003, 0, -0.042, 1.192
 113119853, -0.003, 0, 0.063, 1.197, -0.003, 0, -0.075, 1.195
 113319982, -0.003, 0, -0.06500001, 1.196, -0.003, 0, 0.063, 1.197
 113519898, -0.003, 0, -0.024, 1.196, -0.003, 0, -0.06500001, 1.196
 113719869, -0.003, 0, 0.08800001, 1.193, -0.003, 0, -0.024, 1.196
 113919868, -0.003, 0, -0.062, 1.186, -0.003, 0, 0.08800001, 1.193
 114139591, -0.003, 0, -0.062, 1.185, -0.003, 0, -0.062, 1.186
 114320010, -0.003, 0, 0.054, 1.185, -0.003, 0, -0.062, 1.185
 114519872, -0.003, 0, -0.09500001, 1.187, -0.003, 0, 0.054, 1.185
 114720112, -0.003, 0, -0.07700001, 1.184, -0.003, 0, -0.09500001, 1.187
 114919865, -0.003, 0, -0.04, 1.181, -0.003, 0, -0.07700001, 1.184
 115120068, -0.003, 0, -0.155, 1.182, -0.003, 0, -0.04, 1.181
 115320024, -0.003, 0, -0.057, 1.184, -0.003, 0, -0.155, 1.182
 115519870, -0.003, 0, -0.06900001, 1.186, -0.003, 0, -0.057, 1.184
 115719877, -0.003, 0, -0.107, 1.188, -0.003, 0, -0.06900001, 1.186
 115919964, -0.003, 0, -0.13, 1.19, -0.003, 0, -0.107, 1.188
 116120091, -0.003, 0, -0.025, 1.191, -0.003, 0, -0.13, 1.19
 116319898, -0.003, 0, -0.08000001, 1.192, -0.003, 0, -0.025, 1.191
 116520105, -0.003, 0, -0.055, 1.193, -0.003, 0, -0.08000001, 1.192
 116719868, -0.003, 0, -0.086, 1.193, -0.003, 0, -0.055, 1.193
 116919872, -0.003, 0, 0.035, 1.191, -0.003, 0, -0.086, 1.193
 117119965, -0.003, 0, -0.015, 1.187, -0.003, 0, 0.035, 1.191
 117319929, -0.003, 0, -0.013, 1.183, -0.003, 0, -0.015, 1.187
 117519880, -0.003, 0, 0.052, 1.179, -0.003, 0, -0.013, 1.183
 117719978, -0.003, 0, -0.016, 1.175, -0.003, 0, 0.052, 1.179
 117919879, -0.003, 0, 0.09200001, 1.172, -0.003, 0, -0.016, 1.175
 118119901, -0.003, 0, 0.09100001, 1.162, -0.003, 0, 0.09200001, 1.172
 118320225, -0.003, 0, 0.105, 1.152, -0.003, 0, 0.09100001, 1.162
 118519863, -0.003, 0, 0.023, 1.143, -0.003, 0, 0.105, 1.152
 118719864, -0.003, 0, 0.135, 1.135, -0.003, 0, 0.023, 1.143
 118920024, -0.003, 0, -0.067, 1.127, -0.003, 0, 0.135, 1.135
 119119886, -0.003, 0, -0.111, 1.124, -0.003, 0, -0.067, 1.127
 119320085, -0.003, 0, -0.045, 1.125, -0.003, 0, -0.111, 1.124
 119519980, -0.003, 0, -0.066, 1.128, -0.003, 0, -0.045, 1.125
 119719863, -0.003, 0, 0.058, 1.131, -0.003, 0, -0.066, 1.128
 119919968, -0.003, 0, 0.054, 1.135, -0.003, 0, 0.058, 1.131
 120120115, -0.003, 0, -0.005, 1.138, -0.003, 0, 0.054, 1.135
 120320085, -0.003, 0, 0.07700001, 1.141, -0.003, 0, -0.005, 1.138
 120519877, -0.003, 0, -0.019, 1.145, -0.003, 0, 0.07700001, 1.141
 120719969, -0.003, 0, 0.013, 1.143, -0.003, 0, -0.019, 1.145
 120919991, -0.003, 0, -0.024, 1.143, -0.003, 0, 0.013, 1.143
 121119994, -0.003, 0, 0.019, 1.146, -0.003, 0, -0.024, 1.143
 121319986, -0.003, 0, -0.038, 1.144, -0.003, 0, 0.019, 1.146
 121519869, -0.003, 0, 0.104, 1.141, -0.003, 0, -0.038, 1.144
 121719970, -0.003, 0, -0.003, 1.135, -0.003, 0, 0.104, 1.141
 121920215, -0.003, 0, 0.083, 1.129, -0.003, 0, -0.003, 1.135
 122119878, -0.003, 0, 0.03, 1.128, -0.003, 0, 0.083, 1.129
 122319925, -0.003, 0, -0.027, 1.126, -0.003, 0, 0.03, 1.128
 122519961, -0.003, 0, 0.015, 1.114, -0.003, 0, -0.027, 1.126
 122719978, -0.003, 0, 0.06900001, 1.113, -0.003, 0, 0.015, 1.114
 122919865, -0.003, 0, 0.01, 1.111, -0.003, 0, 0.06900001, 1.113
 123120049, -0.003, 0, 0.049, 1.113, -0.003, 0, 0.01, 1.111
 123319895, -0.003, 0, 0.25, 1.113, -0.003, 0, 0.049, 1.113
 123520071, -0.003, 0, 0.049, 1.116, -0.003, 0, 0.25, 1.113
 123919877, -0.003, 0, -0.024, 1.12, -0.003, 0, 0.143, 1.12
 124119861, -0.003, 0, 0.093, 1.123, -0.003, 0, -0.024, 1.12
 124319974, -0.003, 0, 0.028, 1.127, -0.003, 0, 0.093, 1.123
 124520058, -0.003, 0, 0.06500001, 1.13, -0.003, 0, 0.028, 1.127
 124719967, -0.003, 0, 0.087, 1.131, -0.003, 0, 0.06500001, 1.13
 124919974, -0.003, 0, 0.009000001, 1.135, -0.003, 0, 0.087, 1.131
 125119988, -0.003, 0, 0.186, 1.139, -0.003, 0, 0.009000001, 1.135
 125319903, -0.003, 0, 0.057, 1.141, -0.003, 0, 0.186, 1.139
 125520224, -0.003, 0, 0.159, 1.143, -0.003, 0, 0.057, 1.141
 125719857, -0.003, 0, 0.148, 1.137, -0.003, 0, 0.159, 1.143
 125919864, -0.003, 0, 0.142, 1.137, -0.003, 0, 0.148, 1.137
 126119902, -0.003, 0, 0.05, 1.139, -0.003, 0, 0.142, 1.137
 126319926, 6.701, 0.7360001, 0.175, 1.139, -0.003, 0, 0.05, 1.139
 126519856, 6.602, 0.766, 0.128, 1.139, 6.701, 0.7360001, 0.175, 1.139
 126719970, 6.727, 0.581, 0.292, 1.14, 6.602, 0.766, 0.128, 1.139
 126919863, 6.51, 0.753, 0.236, 1.143, 6.727, 0.581, 0.292, 1.14
 127119886, 6.351, 0.6440001, 0.071, 1.144, 6.51, 0.753, 0.236, 1.143
 127320239, 6.095, 0.506, 0.179, 1.144, 6.351, 0.6440001, 0.071, 1.144
 127519776, 5.951, 0.62, 0.131, 1.145, 6.095, 0.506, 0.179, 1.144
 127719901, 5.495, 0.625, 0.204, 1.144, 5.951, 0.62, 0.131, 1.145
 127919795, 5.032, 0.258, 0.379, 1.144, 5.495, 0.625, 0.204, 1.144
 128119768, 4.528, 0.299, 0.404, 1.142, 5.032, 0.258, 0.379, 1.144
 128319804, 3.646, 0.315, 0.377, 1.142, 4.528, 0.299, 0.404, 1.142
 128519971, 3.383, 0.08800001, 0.306, 1.143, 3.646, 0.315, 0.377, 1.142
 128719872, 3.001, -0.029, 0.139, 1.146, 3.383, 0.08800001, 0.306, 1.143
 128939516, 2.628, 0.031, 0.196, 1.15, 3.001, -0.029, 0.139, 1.146
 129120077, 2.384, 0.101, -0.109, 1.154, 2.628, 0.031, 0.196, 1.15
 129319769, 2.118, 0.164, -0.5, 1.158, 2.384, 0.101, -0.109, 1.154
 129519795, 1.961, 0.017, -0.428, 1.163, 2.118, 0.164, -0.5, 1.158
 129719866, 1.73, -0.145, -0.605, 1.166, 1.961, 0.017, -0.428, 1.163
 129919746, 1.174, 0.361, -0.775, 1.168, 1.73, -0.145, -0.605, 1.166
 130119728, 1.075, 0.146, -0.587, 1.171, 1.174, 0.361, -0.775, 1.168
 130319986, 0.8520001, -0.141, -0.8340001, 1.173, 1.075, 0.146, -0.587, 1.171
 130519735, 0.576, -0.395, -0.358, 1.171, 0.8520001, -0.141, -0.8340001, 1.173
 130719746, 0.121, -0.168, -0.233, 1.165, 0.576, -0.395, -0.358, 1.171
 130920083, -0.391, -0.075, -0.165, 1.159, 0.121, -0.168, -0.233, 1.165
 131119749, -0.489, -0.163, -0.573, 1.155, -0.391, -0.075, -0.165, 1.159
 131319771, -0.575, -0.636, -0.143, 1.147, -0.489, -0.163, -0.573, 1.155
 131519901, -0.9910001, -0.366, -0.179, 1.144, -0.575, -0.636, -0.143, 1.147
 131719745, -1.165, -0.521, -0.201, 1.142, -0.9910001, -0.366, -0.179, 1.144
 131920036, -1.526, -0.566, -0.067, 1.143, -1.165, -0.521, -0.201, 1.142
 132120026, -1.823, -0.73, 0.045, 1.147, -1.526, -0.566, -0.067, 1.143
 132319966, -2.382, -0.731, -0.026, 1.144, -1.823, -0.73, 0.045, 1.147
 132519858, -2.798, -0.817, 0.111, 1.146, -2.382, -0.731, -0.026, 1.144
 132720244, -3.118, -1.038, -0.015, 1.149, -2.798, -0.817, 0.111, 1.146
 132920035, -3.635, -0.8650001, 0.083, 1.152, -3.118, -1.038, -0.015, 1.149
 133119849, -3.996, -0.864, 0.108, 1.156, -3.635, -0.8650001, 0.083, 1.152
 133299620, -4.425, -0.725, 0.172, 1.157, -3.996, -0.864, 0.108, 1.156
 133519854, -4.397, -0.9810001, 0.165, 1.157, -4.425, -0.725, 0.172, 1.157
 133719856, -4.814, -0.594, 0.172, 1.158, -4.397, -0.9810001, 0.165, 1.157
 133920029, -5.016, -0.362, 0.214, 1.161, -4.814, -0.594, 0.172, 1.158
 134119979, -4.998, -0.511, 0.173, 1.161, -5.016, -0.362, 0.214, 1.161
 134319964, -5.351, -0.105, 0.048, 1.163, -4.998, -0.511, 0.173, 1.161
 134520266, -5.358, -0.09500001, 0.159, 1.167, -5.351, -0.105, 0.048, 1.163
 134719892, -5.401, -0.219, 0.183, 1.17, -5.358, -0.09500001, 0.159, 1.167
 134919844, -5.701, 0.159, 0.026, 1.171, -5.401, -0.219, 0.183, 1.17
 135120033, -5.835001, 0.252, 0.179, 1.167, -5.701, 0.159, 0.026, 1.171
 135320039, -5.953, 0.318, -0.003, 1.168, -5.835001, 0.252, 0.179, 1.167
 135519869, -6.066, 0.355, -0.08000001, 1.169, -5.953, 0.318, -0.003, 1.168
 135720038, -5.999, 0.472, -0.05, 1.169, -6.066, 0.355, -0.08000001, 1.169
 135919867, -5.831, 0.326, 0.042, 1.167, -5.999, 0.472, -0.05, 1.169
 136120097, -5.734, 0.28, 0.105, 1.171, -5.831, 0.326, 0.042, 1.167
 136320281, -5.476, 0.299, 0.09, 1.174, -5.734, 0.28, 0.105, 1.171
 136519880, -5.327, 0.309, 0.064, 1.173, -5.476, 0.299, 0.09, 1.174
 136719846, -5.186, 0.377, 0.12, 1.167, -5.327, 0.309, 0.064, 1.173
 136920008, -5.081, 0.618, 0.168, 1.169, -5.186, 0.377, 0.12, 1.167
 137120192, -4.966, 0.615, 0.114, 1.171, -5.081, 0.618, 0.168, 1.169
 137319625, -4.969, 0.9770001, 0.166, 1.168, -4.966, 0.615, 0.114, 1.171
 137519603, -4.801, 0.95, 0.209, 1.169, -4.969, 0.9770001, 0.166, 1.168
 137719618, -4.56, 1.236, -0.005, 1.164, -4.801, 0.95, 0.209, 1.169
 137919606, -4.412, 1.309, 0.085, 1.164, -4.56, 1.236, -0.005, 1.164
 138119794, -4.129, 1.391, 0.118, 1.165, -4.412, 1.309, 0.085, 1.164
 138319646, -3.876, 1.334, 0.031, 1.164, -4.129, 1.391, 0.118, 1.165
 138519612, -3.604, 1.25, -0.043, 1.165, -3.876, 1.334, 0.031, 1.164
 138719612, -3.448, 1.278, 0.007, 1.167, -3.604, 1.25, -0.043, 1.165
 138919621, -3.304, 1.28, -0.049, 1.167, -3.448, 1.278, 0.007, 1.167
 139119682, -3.172, 1.331, -0.05, 1.168, -3.304, 1.28, -0.049, 1.167
 139319621, -2.944, 1.31, -0.07600001, 1.169, -3.172, 1.331, -0.05, 1.168
 139519606, -2.742, 1.146, -0.038, 1.171, -2.944, 1.31, -0.07600001, 1.169
 139719599, -2.636, 1.059, 0.062, 1.174, -2.742, 1.146, -0.038, 1.171
 139919758, -2.565, 1.05, -0.039, 1.176, -2.636, 1.059, 0.062, 1.174
 140119619, -2.441, 0.997, -0.026, 1.173, -2.565, 1.05, -0.039, 1.176
 140319757, -2.206, 0.973, -0.167, 1.16, -2.441, 0.997, -0.026, 1.173
 140519601, -1.962, 0.771, -0.057, 1.16, -2.206, 0.973, -0.167, 1.16
 140719626, -1.783, 0.781, 0.106, 1.161, -1.962, 0.771, -0.057, 1.16
 140919627, -1.6, 0.858, -0.078, 1.163, -1.783, 0.781, 0.106, 1.161
 141119628, -1.335, 0.8290001, -0.005, 1.163, -1.6, 0.858, -0.078, 1.163
 141319846, -1.104, 0.737, -0.103, 1.145, -1.335, 0.8290001, -0.005, 1.163
 141519601, -0.9220001, 0.788, -0.016, 1.127, -1.104, 0.737, -0.103, 1.145
 141719757, -0.772, 0.799, 0.09900001, 1.118, -0.9220001, 0.788, -0.016, 1.127
 141919599, -0.629, 0.78, -0.058, 1.116, -0.772, 0.799, 0.09900001, 1.118
 142119608, -0.55, 0.914, 0.017, 1.119, -0.629, 0.78, -0.058, 1.116
 142319643, -0.512, 0.8980001, 0.089, 1.121, -0.55, 0.914, 0.017, 1.119
 142519602, -0.475, 1.11, 0.153, 1.122, -0.512, 0.8980001, 0.089, 1.121
 142719621, -0.551, 0.9620001, 0.06500001, 1.123, -0.475, 1.11, 0.153, 1.122
 142919631, -0.433, 0.7970001, 0.233, 1.126, -0.551, 0.9620001, 0.06500001, 1.123
 143119616, -0.443, 0.774, 0.127, 1.123, -0.433, 0.7970001, 0.233, 1.126
 143319633, -0.408, 0.832, 0.182, 1.115, -0.443, 0.774, 0.127, 1.123
 143519758, -0.381, 0.997, 0.022, 1.116, -0.408, 0.832, 0.182, 1.115
 143719606, -0.389, 0.8420001, 0.518, 1.115, -0.381, 0.997, 0.022, 1.116
 143919617, -0.387, 0.497, 0.266, 1.114, -0.389, 0.8420001, 0.518, 1.115
 144119621, -0.105, 0.311, 0.569, 1.114, -0.387, 0.497, 0.266, 1.114
 144319645, -0.052, 0.319, 0.765, 1.114, -0.105, 0.311, 0.569, 1.114
 144519743, 0.041, 0.199, 0.599, 1.114, -0.052, 0.319, 0.765, 1.114
 144719603, 0.103, 0.249, 0.592, 1.116, 0.041, 0.199, 0.599, 1.114
 144919626, 0.009000001, 0.229, 0.594, 1.119, 0.103, 0.249, 0.592, 1.116
 145119627, -0.085, 0.216, 0.726, 1.121, 0.009000001, 0.229, 0.594, 1.119
 145319777, -0.116, 0.122, 0.734, 1.12, -0.085, 0.216, 0.726, 1.121
 145519752, -0.163, 0.323, 0.5700001, 1.122, -0.116, 0.122, 0.734, 1.12
 145719622, -0.271, 0.248, 0.582, 1.123, -0.163, 0.323, 0.5700001, 1.122
 145919633, -0.318, -0.225, 0.768, 1.125, -0.271, 0.248, 0.582, 1.123
 146119622, -0.211, 0.306, 0.541, 1.125, -0.318, -0.225, 0.768, 1.125
 146319722, -0.149, 0.097, 0.516, 1.125, -0.211, 0.306, 0.541, 1.125
 146519602, -0.064, 0.034, 0.485, 1.128, -0.149, 0.097, 0.516, 1.125
 146719635, 0.111, 0.3, 0.8660001, 1.129, -0.064, 0.034, 0.485, 1.128
 146919631, 0.016, 0.551, 0.577, 1.129, 0.111, 0.3, 0.8660001, 1.129
 147119759, 0.169, 0.5470001, 0.501, 1.126, 0.016, 0.551, 0.577, 1.129
 147319641, 0.228, 0.465, 0.472, 1.122, 0.169, 0.5470001, 0.501, 1.126
 147519627, 0.395, 0.823, 0.6350001, 1.118, 0.228, 0.465, 0.472, 1.122
 147719629, 0.246, 0.78, 0.5930001, 1.114, 0.395, 0.823, 0.6350001, 1.118
 147919626, 0.17, 0.9440001, 0.626, 1.11, 0.246, 0.78, 0.5930001, 1.114
 148119624, 0.015, 0.9710001, 0.574, 1.103, 0.17, 0.9440001, 0.626, 1.11
 148319629, -0.158, 1.538, 0.511, 1.095, 0.015, 0.9710001, 0.574, 1.103
 148519621, -0.049, 1.604, 0.591, 1.094, -0.158, 1.538, 0.511, 1.095
 148719752, -0.144, 1.862, 0.493, 1.086, -0.049, 1.604, 0.591, 1.094
 148919757, -0.354, 2.057, 0.4, 1.082, -0.144, 1.862, 0.493, 1.086
 149119613, 0.202, 2.13, 0.543, 1.079, -0.354, 2.057, 0.4, 1.082
 149319701, 0.143, 1.78, 0.596, 1.078, 0.202, 2.13, 0.543, 1.079
 149519626, 0.013, 1.79, 0.496, 1.08, 0.143, 1.78, 0.596, 1.078
 149719746, 0.004, 1.482, 0.5, 1.08, 0.013, 1.79, 0.496, 1.08
 149919606, 0.214, 1.679, 0.585, 1.079, 0.004, 1.482, 0.5, 1.08
 150119639, 0.216, 1.465, 0.714, 1.079, 0.214, 1.679, 0.585, 1.079
 150319633, 0.129, 1.405, 0.7180001, 1.078, 0.216, 1.465, 0.714, 1.079
 150519639, 0.002, 1.23, 0.809, 1.079, 0.129, 1.405, 0.7180001, 1.078
 150719770, 0.038, 1.295, 0.897, 1.081, 0.002, 1.23, 0.809, 1.079
 150919610, -0.1, 1.3, 0.9250001, 1.081, 0.038, 1.295, 0.897, 1.081
 151119688, -0.19, 1.086, 0.703, 1.083, -0.1, 1.3, 0.9250001, 1.081
 151319635, -0.146, 1.37, 0.518, 1.085, -0.19, 1.086, 0.703, 1.083
 151519629, -0.215, 1.418, 0.675, 1.09, -0.146, 1.37, 0.518, 1.085
 151719597, -0.511, 1.12, 0.582, 1.093, -0.215, 1.418, 0.675, 1.09
 151919613, -0.326, 1.106, 0.71, 1.098, -0.511, 1.12, 0.582, 1.093
 152119613, -0.322, 1.089, 0.763, 1.106, -0.326, 1.106, 0.71, 1.098
 152319640, -0.218, 0.563, 0.9440001, 1.113, -0.322, 1.089, 0.763, 1.106
 152519751, -0.241, 0.3, 0.915, 1.122, -0.218, 0.563, 0.9440001, 1.113
 152719619, -0.128, 0.449, 0.598, 1.127, -0.241, 0.3, 0.915, 1.122
 152919726, -0.195, 0.214, -0.119, 1.131, -0.128, 0.449, 0.598, 1.127
 153119612, 0.105, -0.014, 0.135, 1.135, -0.195, 0.214, -0.119, 1.131
 153319632, -0.001, 0.004, 0.139, 1.138, 0.105, -0.014, 0.135, 1.135
 153519625, 0.025, -0.061, 0.053, 1.141, -0.001, 0.004, 0.139, 1.138
 153719600, 0.057, -0.007, 0.061, 1.146, 0.025, -0.061, 0.053, 1.141
 153919732, -0.026, 0.097, -0.014, 1.151, 0.057, -0.007, 0.061, 1.146
 154099589, -0.041, 0.067, 0.047, 1.157, -0.026, 0.097, -0.014, 1.151
 154319609, 0.005, 0.033, 0.044, 1.162, -0.041, 0.067, 0.047, 1.157
 154519537, 0.03, 0.07300001, 0.068, 1.167, 0.005, 0.033, 0.044, 1.162
 154719514, 0.048, -0.059, 0.125, 1.173, 0.03, 0.07300001, 0.068, 1.167
 154919546, -0.036, -0.016, 0.031, 1.178, 0.048, -0.059, 0.125, 1.173
 155119542, 0.024, -0.016, 0.058, 1.182, -0.036, -0.016, 0.031, 1.178
 155319577, -0.031, -0.067, 0.025, 1.186, 0.024, -0.016, 0.058, 1.182
 155519645, -0.005, -0.045, 0.081, 1.191, -0.031, -0.067, 0.025, 1.186
 155719518, 0.002, -0.05, 0.055, 1.197, -0.005, -0.045, 0.081, 1.191
 155919570, -0.054, 0.037, 0.081, 1.202, 0.002, -0.05, 0.055, 1.197
 156119502, -0.007, -0.001, -0.016, 1.208, -0.054, 0.037, 0.081, 1.202
 156319483, 0.014, -0.022, 0.058, 1.213, -0.007, -0.001, -0.016, 1.208
 156519458, -0.079, -0.007, 0.042, 1.217, 0.014, -0.022, 0.058, 1.213
 156699587, -0.041, -0.004, 0.025, 1.223, -0.079, -0.007, 0.042, 1.217
 156919459, 0.017, -0.048, 0.08800001, 1.229, -0.041, -0.004, 0.025, 1.223
 157119509, 0.008, -0.062, 0.087, 1.235, 0.017, -0.048, 0.08800001, 1.229
 157319562, 0.016, -0.024, 0.034, 1.239, 0.008, -0.062, 0.087, 1.235
 157519465, 0.016, 0.082, 0.011, 1.244, 0.016, -0.024, 0.034, 1.239
 157719484, -0.005, -0.032, -0.043, 1.249, 0.016, 0.082, 0.011, 1.244
 157919515, 0.01, -0.013, 0.081, 1.253, -0.005, -0.032, -0.043, 1.249
 158119507, 0, 0.079, 0.056, 1.258, 0.01, -0.013, 0.081, 1.253
 158319480, 0.032, -0.061, 0.102, 1.262, 0, 0.079, 0.056, 1.258
 158519484, -0.007, 0.004, 0.09100001, 1.266, 0.032, -0.061, 0.102, 1.262
 158719447, 0.028, -0.021, 0.038, 1.27, -0.007, 0.004, 0.09100001, 1.266
 158919456, -0.016, -0.085, 0.061, 1.275, 0.028, -0.021, 0.038, 1.27
 159119542, -0.07300001, 0.098, 0.009000001, 1.279, -0.016, -0.085, 0.061, 1.275
 159299493, -0.066, 0.079, -0.03, 1.283, -0.07300001, 0.098, 0.009000001, 1.279
 159519492, 0.113, -0.163, 0.027, 1.286, -0.066, 0.079, -0.03, 1.283
 159719521, 0.063, -0.058, 0, 1.29, 0.113, -0.163, 0.027, 1.286
 159919460, 0.018, -0.07300001, 0.019, 1.294, 0.063, -0.058, 0, 1.29
 160119447, 0.09500001, -0.192, 0.028, 1.297, 0.018, -0.07300001, 0.019, 1.294
 160319486, 0.248, -0.133, -0.108, 1.296, 0.09500001, -0.192, 0.028, 1.297
 160519464, -0.128, 0.219, -0.051, 1.299, 0.248, -0.133, -0.108, 1.296
 160719475, -0.037, -0.029, 0.087, 1.302, -0.128, 0.219, -0.051, 1.299
 160919465, -0.106, 0.171, -0.054, 1.303, -0.037, -0.029, 0.087, 1.302
 161119482, 0.07600001, -0.192, -0.063, 1.308, -0.106, 0.171, -0.054, 1.303
 161319549, -0.07600001, -0.196, 0.231, 1.314, 0.07600001, -0.192, -0.063, 1.308
 161519511, 0.067, 0.225, -0.259, 1.316, -0.07600001, -0.196, 0.231, 1.314
 161719479, -0.028, -0.029, -0.033, 1.32, 0.067, 0.225, -0.259, 1.316
 161919479, -0.052, 0.047, -0.005, 1.324, -0.028, -0.029, -0.033, 1.32
 162119474, -0.054, -0.041, 0.062, 1.33, -0.052, 0.047, -0.005, 1.324
 162319551, -0.053, 0.019, 0.012, 1.335, -0.054, -0.041, 0.062, 1.33
 162519475, 0.014, -0.012, -0.027, 1.339, -0.053, 0.019, 0.012, 1.335
 162719468, -0.113, 0.118, 0.071, 1.344, 0.014, -0.012, -0.027, 1.339
 162919483, -0.013, -0.012, 0.03, 1.349, -0.113, 0.118, 0.071, 1.344
 163119474, -0.025, -0.008, 0.035, 1.354, -0.013, -0.012, 0.03, 1.349
