TimeUS,CAN,CAE,CAD,CAe,NAN,NAE,NAD,NAe,m10,m00,Gye
 115810837, -0.1142575, -0.005941636, 0.01495872, 0.07671212, -0.03257728, -0.001399494, 0.00449575, 0.02818601, -0.9977819, 0.06059256, 84.39201
 116010748, -0.1067213, -0.005426961, 0.01542206, 0.06584543, -0.03996911, -0.001302792, 0.005726879, 0.03719483, -0.9977511, 0.06108658, 111.4421
 116210854, -0.1148926, -0.005914266, 0.01819833, 0.07485408, -0.0407409, -0.003698615, 0.005846643, 0.03719427, -0.9977219, 0.06155173, 126.6891
 116410757, -0.1159082, -0.007825162, 0.01607844, 0.07485424, -0.04170057, -0.003389619, 0.005305207, 0.03719501, -0.9976834, 0.0621689, 126.6894
 116610756, -0.1155068, -0.007448046, 0.01696973, 0.074855, -0.04134202, -0.003321085, 0.005712922, 0.03719594, -0.9976407, 0.06285769, 126.6906
 116810838, -0.116302, -0.007341932, 0.01642796, 0.074855, -0.04006501, -0.002007185, 0.005453057, 0.03719409, -0.9975957, 0.06354908, 126.6906
 117010706, -0.1154982, -0.006116178, 0.01640044, 0.07485406, -0.04164457, -0.002587507, 0.006200575, 0.03719483, -0.9975612, 0.0640687, 126.6891
 117210734, -0.1162898, -0.008189923, 0.01641774, 0.07485499, -0.04066157, -0.003501598, 0.005104602, 0.03719576, -0.9975287, 0.06458371, 126.6906
 117410747, -0.1153207, -0.008482837, 0.01751907, 0.0748563, -0.0402879, -0.001208782, 0.007204382, 0.03719446, -0.9975041, 0.06498791, 126.6928
 117610765, -0.1141591, -0.005245754, 0.0179551, 0.07485446, -0.04148461, -0.00242015, 0.006653633, 0.03719502, -0.9974707, 0.06551208, 126.6897
 117810742, -0.11706, -0.006419751, 0.01764362, 0.07485501, -0.04186574, -0.001783844, 0.007330302, 0.03719483, -0.9974398, 0.06596769, 126.6906
 118010866, -0.1163304, -0.007028271, 0.01808733, 0.074855, -0.04151471, -0.002397271, 0.006477576, 0.03719576, -0.9974068, 0.06646341, 126.6906
 118210746, -0.1156911, -0.007327961, 0.01725811, 0.07485519, -0.04103408, -0.004119544, 0.005023662, 0.03719427, -0.9973752, 0.06694537, 126.6909
 118410757, -0.1144236, -0.009441191, 0.01629739, 0.07485446, -0.04018316, -0.003277269, 0.006845034, 0.03719687, -0.9973446, 0.0674147, 126.6897
 118610774, -0.1290049, -0.02113438, 0.03032076, 0.07485517, -0.0992874, -0.009368724, 0.004988862, 0.0371939, -0.9972802, 0.06819075, 126.6909
 118810757, -0.1744492, -0.01489624, 0.01558612, 0.07485481, -0.0450824, -0.002082023, -0.0005436434, 0.03719614, -0.9972438, 0.06874033, 126.6903
 119010748, -0.1111974, -0.005478909, 0.01088518, 0.07485593, -0.04625439, -0.004255806, -0.0004548422, 0.03719483, -0.9971155, 0.07054807, 126.6922
 119210751, -0.1232852, -0.008188886, 0.01108674, 0.07485519, -0.1041349, -0.005037829, 0.03259911, 0.03719502, -0.9972023, 0.06979453, 126.6909
 119410838, -0.1784379, -0.006966331, 0.03985821, 0.07485481, -0.04047174, 0.005706721, 0.01818852, 0.0371952, -0.997148, 0.07021238, 126.6903
 119610802, -0.1142219, 0.002410409, 0.02881647, 0.07485501, -0.03364463, 0.002704643, 0.00452249, 0.03719501, -0.9971246, 0.0704944, 126.6906
 119810870, -0.1112702, -0.004505053, 0.01912142, 0.07485481, -0.03864954, -0.01763749, 0.02296255, 0.03719575, -0.997115, 0.07065507, 126.6903
 120010953, -0.1185984, -0.01660065, 0.02925669, 0.0748533, -0.04502208, -0.006279785, 0.001817185, 0.03719259, -0.9970982, 0.07086758, 126.6878
 120210750, -0.11988, -0.006072707, 0.009750092, 0.07485256, -0.05495669, 0.009457048, 0.007583025, 0.03719687, -0.9970652, 0.07118088, 126.6865
 120410756, -0.1322529, 0.005498682, 0.01804657, 0.07485649, -0.04553536, 0.009332575, -0.009237631, 0.03719445, -0.997088, 0.07094196, 126.6931
 120610845, -0.1186361, 0.002941791, -0.003161322, 0.07485462, -0.04430196, 0.004962886, 0.00639935, 0.0371952, -0.9970454, 0.07149347, 126.69
 120810769, -0.117696, 0.001469034, 0.01505492, 0.07485686, -0.03630107, -0.002509936, -0.005062749, 0.03719502, -0.99704, 0.07164699, 126.6938
 121010859, -0.110329, -0.00426005, 0.004359028, 0.07485499, -0.04374726, 0.01198751, 0.008284388, 0.03719594, -0.9970115, 0.07179572, 126.6906
 121210758, -0.1160068, 0.007156527, 0.02194188, 0.07485498, -0.04291102, -0.003446739, 0.008045598, 0.03719408, -0.9969887, 0.07220136, 126.6906
 121410760, -0.1139625, -0.01592333, 0.01675235, 0.07485405, -0.03794391, -0.01783986, 0.02882816, 0.03719502, -0.996974, 0.07247156, 126.6891
 121590758, -0.1048437, -0.023688, 0.03988841, 0.07113551, -0.02929093, -0.006171041, -0.004780777, 0.03347644, -0.9969693, 0.07242475, 120.3954
 121810768, -0.1081034, -0.01116025, 0.001244578, 0.07485498, -0.03421309, 0.005416343, -0.01734014, 0.04091359, -0.9969478, 0.07287069, 123.5234
 122010745, -0.1065829, -0.003345562, -0.0064171, 0.07857357, -0.03568915, -0.01019099, -0.00326434, 0.03719669, -0.9969097, 0.07334201, 132.9842
 122210759, -0.1129165, -0.02038882, 0.007273037, 0.07485351, -0.03908432, -0.01685644, 0.009475001, 0.03719186, -0.9968932, 0.07349556, 126.6881
 122410773, -0.1107638, -0.01620093, 0.01538835, 0.07485333, -0.04074165, 0.006400685, -0.002895989, 0.03719651, -0.996854, 0.0742192, 126.6878
 122610838, -0.1141791, 0.009233329, 0.003635744, 0.0748565, -0.05282429, 0.01747859, 0.005485337, 0.03719502, -0.9968128, 0.07468075, 126.6931
 122810768, -0.1288121, 0.01341792, 0.01515696, 0.07485501, -0.04850609, 0.0002253425, 0.003501789, 0.03719502, -0.9968296, 0.07442737, 126.6906
 123010751, -0.1212542, -0.009975169, 0.0194898, 0.07485498, -0.04349263, -0.02053633, 0.01681408, 0.03719557, -0.9968044, 0.07483277, 126.6906
 123210836, -0.1198633, -0.02883244, 0.02945982, 0.07485498, -0.05462074, -0.02428101, 0.01846465, 0.03719446, -0.9967688, 0.07522172, 126.6906
 123410776, -0.1243675, -0.03160907, 0.02847851, 0.07485445, -0.04951376, -0.02358085, 0.01902864, 0.03719557, -0.9967489, 0.07548964, 126.6897
 123610759, -0.1239815, -0.02892539, 0.02711313, 0.07485499, -0.0471551, -0.01089157, 0.01054893, 0.03719539, -0.9967446, 0.0755837, 126.6906
 123810774, -0.120193, -0.007492937, 0.01620261, 0.07485498, -0.05158412, 0.01901428, -0.001244004, 0.03719409, -0.9966936, 0.07631876, 126.6906
 124010748, -0.1269155, 0.01483819, 0.01044811, 0.07485481, -0.04174447, 0.012888, 0.0170423, 0.03719595, -0.99669, 0.07631885, 126.6903
 124210938, -0.1126498, 0.003650403, 0.02649966, 0.074855, -0.0402283, -0.0133702, 0.006200687, 0.03719409, -0.9966734, 0.0764636, 126.6906
 124410757, -0.1091582, -0.02370204, 0.01832932, 0.07485443, -0.02958293, -0.02699284, 0.006799127, 0.03719502, -0.9966583, 0.07666329, 126.6897
 124610777, -0.09919991, -0.031737, 0.0185212, 0.074855, -0.02789774, -0.001083753, 0.01179755, 0.03719539, -0.9966176, 0.07717899, 126.6906
 124810755, -0.1043364, -0.004857853, 0.01615552, 0.07485499, -0.04948826, 0.001855138, -0.002050614, 0.03719464, -0.9966018, 0.07745975, 126.6906
 125010757, -0.1251179, 0.0007518139, 0.005340185, 0.0748546, -0.05520836, 0.004237142, 0.0009508983, 0.0371952, -0.9965943, 0.07754135, 126.69
 125210865, -0.1273577, 0.0006760418, 0.01174425, 0.074855, -0.04244452, 0.00466953, 0.002760974, 0.03719521, -0.9965622, 0.07785404, 126.6906
 125430766, -0.1211084, -0.001073172, 0.01045442, 0.07857859, -0.05414544, -0.008954471, 0.02214541, 0.04091397, -0.9965315, 0.07830779, 132.9928
 125610758, -0.1165351, -0.01552389, 0.02935142, 0.07485481, -0.0328642, -0.004478837, -0.001213753, 0.03347626, -0.9965082, 0.07857379, 126.6903
 125810774, -0.1047315, -0.01239949, 0.01171033, 0.07113698, -0.03973697, -0.01050351, 0.01385663, 0.03719446, -0.9965072, 0.07862026, 120.398
 126010764, -0.114359, -0.017834, 0.02498508, 0.07485444, -0.05428514, -0.01182523, 0.02400353, 0.03719539, -0.9964971, 0.07871463, 126.6897
 126210771, -0.1251413, -0.01657983, 0.03080188, 0.074855, -0.04253852, -0.01095584, 0.006444721, 0.03719465, -0.9964466, 0.07931586, 126.6906
 126410747, -0.1174825, -0.01648898, 0.01161264, 0.07485519, -0.05316264, -0.006652622, 0.002545695, 0.03719558, -0.99645, 0.07940088, 126.6909
 126610776, -0.130503, -0.013347, 0.01094839, 0.07485612, -0.05613374, -0.008138726, -0.006381007, 0.03719576, -0.9964496, 0.07948779, 126.6925
 126810857, -0.1285963, -0.01974491, 0.006427434, 0.07485444, -0.02799071, -0.01210634, -0.003086632, 0.0371939, -0.996429, 0.07974112, 126.6897
 127010886, -0.1052005, -0.01509045, 0.00850823, 0.07485369, -0.05134684, 0.006618306, -0.005942308, 0.03719594, -0.9964319, 0.0797619, 126.6884
 127210865, -0.123372, -0.00188863, 0.006537977, 0.07485478, -0.01875001, -0.004235383, 0.005977503, 0.03719409, -0.9964247, 0.07996575, 126.6903
 127410775, -0.08647875, -0.005442291, 0.01057585, 0.07485389, -0.09779165, -0.02115028, 0.02572679, 0.03719483, -0.9964456, 0.08010364, 126.6887
 127610838, -0.166663, -0.0343637, 0.04227614, 0.07485536, -0.01049299, 0.02227056, 0.002757668, 0.03719483, -0.9965323, 0.08017579, 126.6913
 127810837, -0.09434583, 0.003826189, 0.005286353, 0.07485501, -0.0307878, -0.04743239, -0.0444921, 0.03719521, -0.9960727, 0.08263652, 126.6906
 128010852, -0.1129626, -0.06910829, -0.05976737, 0.07485556, -0.06297594, -0.06022494, 0.01635499, 0.03719502, -0.9955137, 0.0840995, 126.6916
 128210849, -0.1548553, -0.1807342, -0.07983148, 0.07485778, -0.07918219, -0.008751954, -0.08734805, 0.03719502, -0.993664, 0.08307623, 126.6954
 128411088, -0.1582477, -0.2302344, -0.09115347, 0.0748563, 0.006399855, -0.2166334, 0.1263338, 0.03719502, -0.9892386, 0.07189383, 126.6928
 128610801, -0.1057726, -0.532732, -0.03379277, 0.07485499, -0.07053319, -0.1593125, -0.1694756, 0.03719558, -0.9831555, 0.07348513, 126.6906
 128810885, -0.07380125, -0.5196589, -0.1999021, 0.07485554, 0.008917029, -0.2309431, -0.03285147, 0.03719446, -0.9801336, 0.07379515, 126.6916
 129010893, 0.06620209, -0.5493661, -0.07523499, 0.07485462, 0.04665972, -0.148714, -0.03664628, 0.03719502, -0.9834142, 0.07300762, 126.69
 129210853, 0.1449328, -0.4021601, -0.04693621, 0.07485498, 0.07208417, -0.1419356, 0.04379984, 0.03719502, -0.9878503, 0.07161248, 126.6906
 129410881, 0.1716333, -0.291121, 0.03976203, 0.07485499, 0.02261059, -0.02711599, -0.04443312, 0.03719595, -0.9930704, 0.07890295, 126.6906
 129610879, 0.08670411, -0.0919046, 0.005634625, 0.074855, 0.07243685, -0.05536334, 0.08716142, 0.03719465, -0.9956476, 0.07973157, 126.6906
 129810849, 0.06288781, -0.03062144, 0.163892, 0.07485407, -0.05769051, 0.08909506, -0.02769394, 0.03719446, -0.9964961, 0.08293649, 126.6891
 130010768, -0.1312309, 0.1440204, 0.01892934, 0.07485444, 0.01870777, -0.01700223, 0.02713772, 0.03719502, -0.9967748, 0.07978827, 126.6897
 130210868, -0.15393, 0.05762207, 0.04974376, 0.074855, -0.09046374, 0.06709307, 0.02997829, 0.03719502, -0.9969472, 0.07798734, 126.6906
 130410804, -0.3082976, 0.1234547, 0.08466382, 0.0748565, -0.1441255, 0.05979956, -0.006175237, 0.03719631, -0.9972727, 0.07370895, 126.6931
 130610894, -0.3829016, 0.09541265, 0.05042614, 0.07485666, -0.07558345, -0.01917256, 0.07296776, 0.0371941, -0.9967603, 0.07700713, 126.6935
 130810843, -0.3120604, -0.01026149, 0.08680999, 0.0748537, -0.1673441, 0.06247344, -0.07599082, 0.03719502, -0.9962954, 0.07892493, 126.6884
 131010773, -0.3637104, 0.01248902, -0.06129973, 0.07485742, -0.03773944, -0.08530528, 0.06544409, 0.03719465, -0.9943038, 0.08631279, 126.6947
 131210768, -0.2131012, -0.160763, 0.04637323, 0.07485443, -0.1107637, 0.03063135, -0.0936804, 0.03719502, -0.9926434, 0.09741458, 126.6897
 131410777, -0.2250141, -0.0580795, -0.07337439, 0.07485499, -0.04465371, -0.1004822, 0.04579958, 0.03719502, -0.9910037, 0.09662338, 126.6906
 131610863, -0.1299709, -0.2213326, 0.09262577, 0.07485556, -0.02199879, -0.05055351, -0.02745369, 0.03719502, -0.989785, 0.1066579, 126.6916
 131810778, -0.05796181, -0.1834803, -0.02494312, 0.074855, -0.04726649, -0.08730546, -0.06142026, 0.03719502, -0.9901571, 0.1015719, 126.6906
 132010859, 0.006955063, -0.1432729, -0.04464176, 0.074855, 0.04952264, -0.01287166, 0.06854709, 0.03719595, -0.9938084, 0.09991942, 126.6906
 132210843, 0.1194408, 0.06235814, 0.06819996, 0.07485501, 0.001857252, 0.1001466, -0.07285371, 0.03719408, -0.9955701, 0.09277722, 126.6906
 132410874, 0.03011036, 0.2782789, -0.05103161, 0.07485407, 0.03696096, 0.08648549, 0.06289573, 0.03719502, -0.9948093, 0.08834621, 126.6891
 132610871, -0.01384987, 0.3140162, 0.05551101, 0.074855, -0.05804588, 0.1968438, -0.1414843, 0.03719558, -0.993582, 0.08690647, 126.6906
 132810757, -0.1579834, 0.4201909, -0.130171, 0.07485482, -0.01904099, 0.08368878, 0.0873948, 0.03719446, -0.9932348, 0.09068396, 126.6903
 133010859, -0.1436759, 0.3023285, 0.09767994, 0.07485574, -0.07583791, 0.1545087, -0.001695663, 0.03719502, -0.9931443, 0.09477827, 126.6919
 133210838, -0.2085564, 0.3265282, 0.0337508, 0.07485501, -0.05027273, 0.04280218, 0.06094065, 0.03720934, -0.9942174, 0.09651215, 126.6906
 133410856, -0.2448644, 0.1998647, 0.07311843, 0.074855, -0.1663353, 0.1570104, -0.05110519, 0.03718051, -0.9943638, 0.09530009, 126.6906
 133610892, -0.4449713, 0.268624, -0.01831362, 0.0748416, -0.1328253, -0.0007043361, 0.06186123, 0.0371952, -0.9954116, 0.09179855, 126.668
 133810857, -0.5299627, 0.09633838, 0.08871939, 0.07485499, -0.304064, 0.08074486, -0.01534832, 0.03719613, -0.9955037, 0.0924419, 126.6906
 134010760, -0.7784497, 0.1404978, -0.004926845, 0.07485554, -0.2773844, -0.02848828, 0.0302141, 0.03719371, -0.9952763, 0.09696374, 126.6916
 134210899, -0.7488505, 0.01224753, 0.04074638, 0.07485386, -0.2752838, 0.06348649, -0.0155416, 0.03719521, -0.9945297, 0.1041257, 126.6887
 134410850, -0.6526187, 0.03419052, -0.02723702, 0.07485518, -0.1808818, -0.07261949, 0.02882908, 0.03719502, -0.9931547, 0.1120656, 126.6909
 134610859, -0.4332461, -0.07522889, 0.004738265, 0.07485518, -0.1492641, 0.03059106, -0.005814068, 0.03719613, -0.9933322, 0.1152831, 126.6909
 134810772, -0.3736996, 0.1033469, -0.0008492258, 0.07485498, -0.1385119, 0.04850365, -0.001892288, 0.03719445, -0.9911593, 0.1237038, 126.6906
 135010745, -0.3817594, 0.167626, 0.03329806, 0.07485387, -0.1319272, 0.06433088, 0.02329978, 0.03719446, -0.9915246, 0.1204204, 126.6887
 135210841, -0.3716457, 0.1273348, 0.01861333, 0.07485443, -0.1272801, 0.02409917, -0.01746611, 0.03719502, -0.9932333, 0.1152289, 126.6897
 135410836, -0.344815, 0.0580033, 0.01353121, 0.074855, -0.1146335, -0.004863009, 0.04633505, 0.03719576, -0.9933577, 0.1146925, 126.6906
 135610864, -0.3351567, 0.04515078, 0.05992291, 0.07485498, -0.1349779, 0.05490069, -0.0485465, 0.03719427, -0.992104, 0.1213289, 126.6906
 135810849, -0.3421407, 0.1255398, -0.03008321, 0.07485426, -0.0652426, 0.02900214, 0.068544, 0.03720934, -0.9930252, 0.1131399, 126.6894
 136010898, -0.2541956, 0.1688718, 0.058407, 0.07485501, -0.08921243, 0.0927562, -0.002110728, 0.0371807, -0.9907617, 0.108771, 126.6906
 136210860, -0.25036, 0.3231105, -0.00288569, 0.07484067, -0.08323182, 0.1832206, -0.0156252, 0.03719502, -0.9851768, 0.11222, 126.6664
 136410842, -0.2059715, 0.436029, 0.01814535, 0.07485499, -0.05939908, 0.1258091, -0.01072251, 0.03719483, -0.9849927, 0.111656, 126.6906
 136610802, -0.1860497, 0.3264204, -0.01878146, 0.074855, -0.09439734, 0.1046344, -0.02127325, 0.0371952, -0.9892963, 0.1100801, 126.6906
 136810957, -0.2114063, 0.2269713, -0.008820878, 0.07485555, -0.06266707, 0.06519968, -0.005261997, 0.03719502, -0.9915407, 0.112148, 126.6916
 137010781, -0.1490207, 0.1422551, 0.02137848, 0.07485498, -0.05526171, 0.0004953902, 0.03263889, 0.0371952, -0.991371, 0.117295, 126.6859
 137210848, -0.09341334, 0.07732537, 0.06544949, 0.07485498, -0.0008363383, 0.07037215, 0.00826208, 0.03719483, -0.9917674, 0.1188246, 126.6827
 137410836, -0.02796694, 0.1445105, 0.02732484, 0.07485481, -0.005208259, 0.01782517, 0.04847204, 0.03719502, -0.9921501, 0.1158309, 126.6824
 137610870, -0.03921974, 0.1181717, 0.07117014, 0.074855, 0.01383555, 0.07942793, -0.06888431, 0.03719502, -0.9906953, 0.1201105, 126.6827
 137810888, -0.04221718, 0.1889737, -0.0452859, 0.07485498, -0.05837075, 0.07703329, 0.0290671, 0.03719502, -0.9875187, 0.1268784, 126.6827
 138010758, -0.08344827, 0.1880291, 0.03102286, 0.07485534, 0.003792739, 0.02706614, -2.803502E-05, 0.03719651, -0.9907421, 0.1247393, 126.6881
 138210778, 0.1468138, 0.005296234, -0.003956299, 0.07485499, 0.05707502, -0.01208791, -0.06140663, 0.03719483, -0.9947427, 0.09368989, 126.6906
 138410770, 0.3335234, -0.1294875, -0.02139588, 0.07485349, 0.1604513, -0.09794153, 0.06207454, 0.03719372, -0.9942029, 0.08562227, 126.6881
 138610770, 0.4583134, -0.2239792, 0.1009171, 0.07485293, 0.1932594, -0.06513599, 0.09344243, 0.03719334, -0.993722, 0.08712626, 126.6872
 138810839, 0.5026401, -0.2125597, 0.1155054, 0.07485499, 0.129707, -0.1378003, 0.07038556, 0.03719744, -0.9931992, 0.09279365, 126.6906
 139010873, 0.4674011, -0.2422151, 0.08000633, 0.07485777, 0.1609097, -0.03371877, -0.04128671, 0.03719427, -0.9946642, 0.09310956, 126.6906
 139210848, 0.515411, -0.1098131, -0.05312316, 0.07485424, 0.1744603, -0.0339439, -0.03549308, 0.03719557, -0.9938007, 0.1066796, 126.6815
 139410852, 0.4930179, -0.08462247, -0.01038077, 0.0748561, 0.1656868, -0.0384178, -0.03417548, 0.03719446, -0.9924355, 0.1215373, 126.6846
 139610895, 0.3989958, -0.08613389, -0.05168524, 0.07485295, 0.0709171, -0.004204112, -0.07846875, 0.03719353, -0.992695, 0.1198486, 126.6793
 139810770, 0.2087783, -0.06004985, -0.08680862, 0.07485499, 0.00218625, -0.03821639, -0.01639547, 0.03719706, -0.9939947, 0.1085188, 126.6827
 140010748, 0.02941898, -0.09219062, -0.04816883, 0.07485668, 0.001131736, -0.02981949, -0.02242319, 0.03719595, -0.9949381, 0.09964498, 126.6903
 140210773, -0.04573269, -0.09046197, -0.05030909, 0.07485425, -0.04140971, -0.03526704, 0.04845935, 0.03719353, -0.9957675, 0.0915996, 126.6894
 140410762, -0.126932, -0.09557486, 0.03585639, 0.07485349, -0.03636548, -0.02478382, -0.002478166, 0.03719595, -0.9957958, 0.09102877, 126.6881
 140610840, -0.1175071, -0.09289703, -0.02727334, 0.07485498, -0.04862117, -0.03675516, 0.0002506928, 0.03719409, -0.9957129, 0.09044939, 126.6906
 140810858, -0.1000969, -0.1036625, -0.02281823, 0.07485405, -0.04222957, -0.0250311, 0.006422388, 0.03719502, -0.9953491, 0.09467535, 126.6891
 141010987, -0.05631956, -0.08243914, 0.007886001, 0.07485555, -0.009068554, -0.04980489, 0.03421972, 0.03719538, -0.9953963, 0.09514748, 126.6869
 141210859, -0.007572947, -0.07780156, 0.03531832, 0.07485499, 0.01249909, -7.782743E-05, 0.006009455, 0.03719519, -0.9952696, 0.09705716, 126.6827
 141410884, 0.03715394, -0.05071987, 0.005483495, 0.07485461, 0.01454328, -0.04575495, 0.02245582, 0.03719446, -0.9951968, 0.09730659, 126.6821
 141610868, 0.03583162, -0.09445308, 0.002418507, 0.07485444, 0.02983543, -0.01388413, -0.01211132, 0.03719502, -0.9951392, 0.09748796, 126.6818
 141810917, 0.05350754, -0.06248359, -0.005601038, 0.074855, 0.02042246, -0.07784687, 0.05745395, 0.03719502, -0.9950407, 0.0985947, 126.6827
 142011136, 0.12516, -0.1260028, 0.07872208, 0.07485592, 0.03732815, 0.05248374, -0.1368953, 0.03719613, -0.9952331, 0.09413774, 126.6889
 142210938, 0.1755793, -0.02893851, -0.1039751, 0.07485554, 0.1153051, -0.1553018, 0.1678787, 0.0371939, -0.9950252, 0.08950793, 126.6916
 142410938, 0.1950327, -0.2176873, 0.1537548, 0.07485389, 0.01588729, 0.06842291, -0.1093794, 0.03719483, -0.9953463, 0.09042235, 126.6887
 142610941, 0.04418548, -0.02752579, -0.0807241, 0.07485501, -0.02053121, -0.1670149, 0.1159392, 0.03719557, -0.9947143, 0.09032875, 126.6906
 142810920, -0.04140143, -0.2433847, 0.1035451, 0.07485519, 0.01778757, -0.05419469, 0.01493164, 0.03719465, -0.9946338, 0.0907134, 126.6909
 143010950, -0.07188692, -0.1369323, -0.008365821, 0.07485556, -0.1165411, 0.09407695, -0.1847188, 0.03719836, -0.9958005, 0.08779198, 126.6869
 143211143, -0.2346488, 0.02460522, -0.1655156, 0.07485498, -0.1165734, -0.1717158, 0.1526295, 0.03719167, -0.9957881, 0.08872103, 126.6827
 143410941, -0.2506272, -0.1697322, 0.1688871, 0.07485165, -0.02107027, 0.07254831, -0.008446933, 0.03719502, -0.995965, 0.08974283, 126.6771
 143610955, -0.1573023, 0.05353284, -0.0004150523, 0.07485535, -0.1366751, 0.001492218, -0.1082744, 0.03719502, -0.9960127, 0.08860493, 126.6833
 143810925, -0.2569776, -0.03880057, -0.1005832, 0.07485498, -0.0468327, -0.1395372, 0.1488621, 0.03719502, -0.9953201, 0.09263139, 126.6827
 144010957, -0.1738152, -0.1724976, 0.1592401, 0.07485499, -0.08465116, 0.1124652, -0.09915166, 0.03719724, -0.995649, 0.09150323, 126.6873
 144210947, -0.2020384, 0.03417436, -0.07284603, 0.0748548, -0.06139379, -0.1496833, 0.1305903, 0.03719335, -0.9951027, 0.08730735, 126.6903
 144410934, -0.1819128, -0.2129291, 0.1329848, 0.07485256, -0.05137471, -0.0005356928, -0.02336747, 0.03719446, -0.9955528, 0.08499211, 126.6865
 144610932, -0.1620842, -0.08584462, 0.02426996, 0.07485555, -0.09043001, -0.03583344, -0.04929104, 0.03719594, -0.9953738, 0.08609222, 126.6916
 144810922, -0.1966301, -0.1153368, -0.005848181, 0.07485499, -0.002116545, -0.1143751, 0.1453351, 0.03719409, -0.9956027, 0.08442859, 126.6906
 145011182, -0.1001571, -0.1544469, 0.2399755, 0.07485501, -0.07184225, 0.08701412, -0.05504954, 0.03719668, -0.9959359, 0.08878794, 126.6861
 145211128, -0.1621937, 0.05104486, 0.06407116, 0.074855, -0.08533201, -0.1012784, 0.1325316, 0.03719334, -0.9955814, 0.09186938, 126.6827
 145410940, -0.1594654, -0.1103793, 0.1697013, 0.07485332, -0.01065186, 0.01696342, -0.00383918, 0.03719502, -0.9958561, 0.08983673, 126.6799
 145610945, -0.08353811, 0.002057869, 0.06082792, 0.07485498, -0.04353291, 0.04834463, -0.02688904, 0.0371967, -0.9959221, 0.09001744, 126.6827
 145810936, -0.111276, 0.06301523, 0.02663564, 0.07485498, -0.03200981, -0.07951917, 0.1156743, 0.03719334, -0.9959102, 0.09022839, 126.6827
 146010891, -0.1180431, -0.02733517, 0.124791, 0.074852, -0.06176291, 0.1319708, -0.1188557, 0.03719855, -0.9959787, 0.08769879, 126.6822
 146211145, -0.1671308, 0.1516578, -0.05611152, 0.07485499, -0.0446726, -0.1028485, 0.1513447, 0.03719148, -0.9962372, 0.08664958, 126.6906
 146410930, -0.1681402, -0.06104224, 0.1831941, 0.07485221, -0.08988813, 0.1040557, -0.03744247, 0.03719502, -0.9961141, 0.08696305, 126.6859
 146610949, -0.2212343, 0.1258834, 0.005709671, 0.07485538, -0.09760183, 0.04768342, -0.05730865, 0.03719501, -0.9958203, 0.08817761, 126.6913
 146811148, -0.2310246, 0.08366506, -0.01233653, 0.0748548, -0.0631727, -0.09749974, 0.1539613, 0.03719502, -0.996123, 0.0872482, 126.6903
 147010950, -0.1937667, -0.04919195, 0.1574912, 0.07485482, -0.06515785, 0.1366843, -0.1004396, 0.03719483, -0.9959511, 0.0883515, 126.6858
 147210952, -0.1781539, 0.1379002, -0.09737136, 0.07485554, -0.06115513, -0.05363108, 0.04507584, 0.03719502, -0.9963256, 0.08564632, 126.6837
 147410937, -0.1685511, -0.04792632, 0.0684447, 0.07485516, -0.03536792, -0.02277721, 0.02716768, 0.03719521, -0.9964201, 0.08428444, 126.683
 147610948, -0.1388974, -0.02996442, 0.02336777, 0.07485518, -0.0948521, 0.08940512, -0.08586646, 0.03719482, -0.9965819, 0.08221228, 126.683
 147810935, -0.1880205, 0.06159144, -0.06613404, 0.07485498, -0.02837093, -0.08719496, 0.09647856, 0.03719613, -0.9962409, 0.0837132, 126.6827
 148010917, -0.1344439, -0.1056797, 0.04586142, 0.07485611, -0.08931698, 0.03670409, -0.1038062, 0.03719409, -0.9958583, 0.08949365, 126.6892
 148210944, -0.1758905, -0.002871253, -0.05945827, 0.07485405, -0.05435326, -0.07277133, 0.06164916, 0.03719595, -0.9957946, 0.0891674, 126.6891
 148410944, -0.1399189, -0.09052906, 0.08917961, 0.07485499, -0.03021953, 0.03497489, 0.002224977, 0.03719409, -0.9957795, 0.09050456, 126.6906
 148611177, -0.1179993, 0.01251923, 0.06232142, 0.07485407, -0.07626254, -0.03800709, 0.01561213, 0.03719519, -0.9957767, 0.09049226, 126.6891
 148810921, -0.1666174, -0.04084811, 0.0575188, 0.07485496, -0.01629097, -0.003131705, 0.01845812, 0.03719483, -0.9957446, 0.09150724, 126.6906
 149010947, -0.1231607, -0.003465888, 0.05332978, 0.07485536, -0.07403896, 0.02999843, -0.05475846, 0.03719502, -0.9956751, 0.09268712, 126.6868
 149210934, -0.1662125, 0.01003518, -0.06062117, 0.07485554, -0.05580756, -0.04246271, 0.006093015, 0.03719483, -0.9955059, 0.09453392, 126.6837
 149411130, -0.1460972, -0.0598806, 0.009686471, 0.07485498, -0.06919479, 0.0160573, -0.03812928, 0.03719521, -0.9957937, 0.09162023, 126.6827
 149610943, -0.1600555, -0.01035691, -0.02694883, 0.07485518, -0.04214377, -0.0252355, 0.04126261, 0.03719558, -0.995813, 0.09135821, 126.683
 149810941, -0.1391236, -0.04803739, 0.04080572, 0.07485499, -0.09336071, -0.00467857, -0.01787092, 0.03719446, -0.9961842, 0.08726439, 126.6827
 150010948, -0.1826297, -0.01945301, -0.00603608, 0.07485442, -0.03720346, -0.002632135, 0.00388581, 0.03719613, -0.9963762, 0.08505145, 126.6862
 150210929, -0.1343273, -0.006087324, 0.01784717, 0.07485536, -0.06362488, -0.01784204, -0.03510154, 0.03719389, -0.996246, 0.08639446, 126.6913
 150411195, -0.1771904, -0.005539028, -0.0272076, 0.07485516, -0.05988938, 0.01243969, -0.01168707, 0.03719502, -0.9961361, 0.08639409, 126.6909
 150610951, -0.1713407, 0.03013426, -0.01195239, 0.07485498, -0.05243921, 0.0004589358, -0.008622027, 0.03719502, -0.9961389, 0.08617557, 126.6906
 150810930, -0.1506752, 0.01555146, -0.004521826, 0.07485498, -0.06602482, 0.007877492, -0.03318033, 0.03719557, -0.9961354, 0.08665194, 126.6906
 151010934, -0.1637826, 0.0100635, -0.0195728, 0.07485536, -0.04316611, -0.009297363, 0.009915667, 0.0371952, -0.9963441, 0.0848955, 126.6868
 151210926, -0.1355053, -0.009687343, 0.05044672, 0.07485444, -0.04850779, 0.02451954, -0.0108854, 0.03719427, -0.9964167, 0.08413097, 126.6818
 151410939, -0.133918, 0.02628271, 0.02939994, 0.07485425, -0.05256902, -0.02224003, 0.02988934, 0.03719519, -0.9962915, 0.08578348, 126.6815
 151610917, -0.1458793, -0.001826191, 0.04631542, 0.07485481, -0.0713701, 0.0356028, -0.00671427, 0.03719483, -0.9962102, 0.0851674, 126.6824
 151810920, -0.1657095, 0.0384579, -0.008578753, 0.07485481, -0.03456104, -0.03337397, 0.03905407, 0.03719502, -0.9964156, 0.08401825, 126.6824
 152010939, -0.1333825, -0.03819895, 0.02664931, 0.07485554, -0.06118101, 0.01822266, -0.03024918, 0.03719576, -0.9965984, 0.08233475, 126.6881
 152211152, -0.1553526, -0.008057812, -0.04263362, 0.07485498, -0.03814863, -0.05063821, 0.006884831, 0.03719427, -0.9965588, 0.08241539, 126.6906
 152410942, -0.1197681, -0.08473213, 0.009503898, 0.07485406, -0.04686116, 0.004392169, -0.0647287, 0.03719501, -0.9963705, 0.08467186, 126.6891
 152610942, -0.1220666, -0.04009743, -0.06384321, 0.07485573, -0.04652528, -0.06882951, 0.006955421, 0.03719521, -0.9965177, 0.08232595, 126.6919
 152810924, -0.1170683, -0.1002737, 0.01740026, 0.07485499, -0.04947326, 0.01724147, -0.04588336, 0.03719483, -0.9967241, 0.08071355, 126.6906
 153010941, -0.1224708, -0.01569589, -0.04837945, 0.07485706, -0.05648629, -0.04022148, 0.03542457, 0.03719576, -0.9967471, 0.08056511, 126.6896
 153210937, -0.1322071, -0.05320212, 0.02471834, 0.0748548, -0.02439882, 0.03869857, 0.01066012, 0.03719427, -0.9967371, 0.08028281, 126.6824
 153410918, -0.09565514, 0.03210664, 0.03570313, 0.07485593, -0.03918314, -0.05072485, 0.02904077, 0.03719502, -0.9967786, 0.07990819, 126.6843
 153611139, -0.1138894, -0.03470703, 0.05308554, 0.07485498, -0.03627335, 0.04714047, -0.06253831, 0.03719502, -0.9966704, 0.08019803, 126.6827
 153810921, -0.1186811, 0.05606317, -0.05384896, 0.07485498, -0.04193853, -0.03294307, 0.0612407, 0.03719502, -0.9966477, 0.08088786, 126.6827
 154011178, -0.131526, -0.02023203, 0.06282977, 0.07485593, -0.05658527, 0.04008522, -0.01573819, 0.03719668, -0.9965448, 0.08187895, 126.6887
 154210928, -0.1389819, 0.04309525, 0.00743335, 0.07485477, -0.05962474, -0.03976157, 0.05560208, 0.03719371, -0.9967703, 0.07974759, 126.6903
 154410947, -0.1472049, -0.01869995, 0.0576853, 0.0748533, -0.08007877, 0.09136409, -0.104321, 0.03719465, -0.9967068, 0.07961927, 126.6878
 154611160, -0.1865396, 0.09927745, -0.06581338, 0.07485536, -0.04929361, -0.08512297, 0.107624, 0.03719483, -0.9967926, 0.079963, 126.6913
 154810928, -0.1768257, -0.06291927, 0.1380958, 0.07485497, -0.06955801, 0.1057389, -0.0840529, 0.03719521, -0.9968567, 0.07841843, 126.6906
 155010961, -0.1794379, 0.09118333, -0.07417159, 0.0748565, -0.01473951, -0.1132749, 0.1059928, 0.03719632, -0.9971042, 0.0756318, 126.6888
 155210918, -0.1053707, -0.1163995, 0.1124657, 0.07485666, -0.05475567, 0.09047111, -0.07538764, 0.03719371, -0.9972497, 0.07410045, 126.6855
 155410917, -0.1184734, 0.0604695, -0.05263013, 0.07485368, -0.04428826, -0.1020448, 0.04777352, 0.03719502, -0.9973656, 0.0715925, 126.6805
 155610979, -0.09713132, -0.1152984, 0.05960655, 0.07485703, 0.01918634, -0.00920309, 0.03633738, 0.03719483, -0.9971529, 0.07332795, 126.6862
 155811148, -0.03588797, -0.04085648, 0.05216961, 0.07485479, -0.08978602, 0.03551931, -0.03334842, 0.0371952, -0.9968122, 0.0770851, 126.6824
 156010972, -0.1172746, -0.02411524, -0.01057915, 0.07485572, 0.01680957, -0.1337241, 0.1767296, 0.03719575, -0.9961788, 0.07766026, 126.6883
 156210929, -0.007185642, -0.1684877, 0.1977887, 0.07485481, 0.06633221, 0.0535391, -0.004002641, 0.03719427, -0.9964948, 0.08072394, 126.6903
 156410947, 0.01551196, 0.01897437, -0.0306488, 0.07485422, -0.03428487, 0.1285528, -0.1787644, 0.03719484, -0.9966651, 0.08152222, 126.6894
 156610930, -0.1139135, 0.1006942, -0.1879258, 0.07485499, -0.1223425, -0.03017424, -0.005373136, 0.03719613, -0.9963488, 0.08412398, 126.6906
 156810954, -0.1980564, 0.004761144, -0.04351525, 0.07485592, -0.08477953, -0.1493111, 0.1340934, 0.03719408, -0.9962506, 0.08278626, 126.6922
 157010921, -0.1763156, -0.04266943, 0.1055599, 0.07485405, 0.005604463, -0.1055854, 0.1379941, 0.03719502, -0.9954102, 0.07702258, 126.6847
 157210912, -0.09141834, 0.01282047, 0.1635173, 0.07485501, 0.05102945, 0.06572351, 0.0327374, 0.03719501, -0.9963348, 0.07442749, 129.8498
 157410921, -0.07210667, 0.0909385, 0.05791736, 0.07485498, -0.02878023, 0.1337806, -0.08273369, 0.03719502, -0.9973925, 0.07152933, 126.6827
 157611169, -0.157314, 0.06560209, -0.01784705, 0.07485555, -0.1540264, 0.08923695, -0.1606679, 0.03719501, -0.9965092, 0.07788846, 126.6837
 157811131, -0.2844897, -0.01083363, -0.08361067, 0.07485498, -0.1305487, -0.0664115, 0.08358195, 0.03719502, -0.9958417, 0.08434862, 126.6827
 158010939, -0.2453579, -0.1452607, 0.1643879, 0.07485538, -0.08959746, -0.2148263, 0.1669035, 0.03719631, -0.9950383, 0.08909538, 126.6833
 158210928, -0.187245, -0.268072, 0.1822474, 0.07485589, 0.005137005, -0.1546877, 0.1113122, 0.03719372, -0.9948903, 0.09069978, 126.6843
 158410928, -0.09346262, -0.1764228, 0.0836499, 0.0748537, 0.05194761, -0.0187365, 0.08465385, 0.03719501, -0.9955192, 0.09098443, 126.6805
 158610933, -0.02660996, -0.003725942, 0.08579497, 0.07485498, 0.01225152, 0.1628369, -0.07079702, 0.03719502, -0.9960046, 0.08928359, 126.6827
 158811135, -0.04074618, 0.1691386, -0.02209732, 0.07485498, -0.01067756, 0.1744572, -0.1784261, 0.03719501, -0.995153, 0.09727163, 126.6827
 159010895, -0.08447675, 0.0834247, -0.1432082, 0.07485498, -0.09939612, -0.0816604, -0.001170347, 0.0371965, -0.9931368, 0.1004243, 126.6827
 159210939, -0.1650841, -0.2240279, -0.01472972, 0.07485499, -0.03191997, -0.2405583, 0.1221733, 0.03719427, -0.9910414, 0.1008284, 126.6827
 159411143, -0.1097621, -0.3676226, 0.08637186, 0.07485332, 0.03361145, -0.1333887, 0.1558558, 0.03719427, -0.990878, 0.1037723, 126.6799
 159610959, -0.04597899, -0.1957372, 0.1332569, 0.07485425, -0.03145907, 0.1021163, -0.136253, 0.03719502, -0.9940116, 0.1042596, 126.6815
 159810941, -0.1026157, 0.08498952, -0.1108003, 0.074855, -0.04397685, 0.06636523, -0.09864458, 0.03719502, -0.9943777, 0.1042047, 126.6827
 160010921, -0.1087875, 0.06843, -0.04553464, 0.07485536, -0.05144956, -0.1509413, 0.1232749, 0.03719595, -0.9941764, 0.1072371, 126.6833
 160210948, -0.1115176, -0.08782027, 0.1183074, 0.07485499, -0.0248397, -0.08882003, 0.1194962, 0.03719408, -0.9944986, 0.1040287, 126.6827
 160410923, -0.09595935, 0.000854142, 0.1153293, 0.07485407, -0.04838517, 0.1276113, -0.02988128, 0.03719501, -0.9951112, 0.09731063, 126.6811
 160590952, -0.1204751, 0.165964, -0.0157294, 0.07113548, -0.0652558, 0.176588, -0.2024312, 0.0334757, -0.9954979, 0.09474756, 120.3879
 160810929, -0.1576298, 0.1559488, -0.2019764, 0.07485498, -0.04533277, -0.02671081, -0.07366212, 0.04091414, -0.9953158, 0.09402435, 125.0992
 161010937, -0.1159211, -0.07605157, -0.04914628, 0.07857431, -0.02687541, -0.193706, 0.2242122, 0.0371952, -0.9945598, 0.09752055, 132.9772
 161211150, -0.09751327, -0.2029013, 0.2078473, 0.07485517, -0.001054667, -0.01264184, 0.01279071, 0.03719502, -0.9947695, 0.09943619, 126.683
 161410935, -0.07561225, -7.652678E-05, 0.01473572, 0.07485518, -0.05403689, 0.2021137, -0.1886704, 0.03719502, -0.9949114, 0.1003706, 126.683
 161610991, -0.1196143, 0.246036, -0.125235, 0.07485536, -0.0310169, 0.06995729, 0.002436722, 0.03719539, -0.9942452, 0.1008691, 126.6833
 161810942, -0.08520348, 0.1588391, 0.04283405, 0.07485536, -0.02601654, -0.1297569, 0.178366, 0.03719446, -0.9944444, 0.1016677, 126.6833
 162011152, -0.08071703, -0.01858153, 0.183878, 0.07485516, 0.004383645, -0.05655265, 0.1250114, 0.03719557, -0.9946662, 0.1000108, 126.683
 162210941, -0.0464913, 0.05700674, 0.1069549, 0.07485536, -0.02542576, 0.1602001, -0.06355371, 0.03719446, -0.9948734, 0.09697508, 126.6833
 162410934, -0.09466933, 0.2082569, -0.04092086, 0.07485463, -0.06386699, 0.2051901, -0.203499, 0.03719521, -0.9954312, 0.09356829, 126.6821
 162610946, -0.1529766, 0.1946319, -0.1578346, 0.07485519, -0.08864422, -0.01407764, -0.04723868, 0.03719501, -0.9957561, 0.09199967, 126.683
 162810952, -0.1842273, -0.04527532, -0.03723728, 0.07485498, -0.02758371, -0.225669, 0.2038756, 0.03719501, -0.99519, 0.09387229, 126.6827
 163011213, -0.1201088, -0.2487836, 0.1879313, 0.07485499, -0.01966666, -0.08098131, 0.07657191, 0.03719557, -0.9946759, 0.09630063, 126.6827
 163210913, -0.1176807, -0.119565, 0.05454405, 0.07485498, -0.1039068, 0.0940131, -0.1454337, 0.03719427, -0.9953439, 0.09240763, 126.6827
 163410923, -0.1975531, 0.03573579, -0.119201, 0.07485445, -0.08898995, 0.05985578, -0.09467418, 0.0371952, -0.9951249, 0.09428851, 126.6818
 163610949, -0.1723279, -0.01053104, -0.06686264, 0.07485516, -0.05362848, -0.1509694, 0.166992, 0.03719539, -0.9944813, 0.09297057, 126.683
 163810944, -0.1362102, -0.1888045, 0.1846403, 0.07485499, 0.0009387837, -0.1217281, 0.1374813, 0.03719464, -0.9945873, 0.09334885, 126.6827
 164010948, -0.08195534, -0.1068102, 0.1373302, 0.07485611, -0.03753748, 0.07965909, -0.005232943, 0.03719744, -0.9954043, 0.09527083, 126.6846
 164210954, -0.1206307, 0.1063977, 0.02014303, 0.074855, -0.07068952, 0.207208, -0.225367, 0.0371926, -0.9954263, 0.09440778, 126.6827
 164410929, -0.1494774, 0.2235628, -0.1834893, 0.07485258, -0.04378956, 0.02874879, -0.05902105, 0.03719557, -0.9955453, 0.09397509, 126.6786
 164610963, -0.09473591, 0.02719176, -0.04772142, 0.07485499, -0.001551761, -0.1681395, 0.1951608, 0.03719427, -0.9952289, 0.09374639, 126.6827
 164811150, -0.03942849, -0.1754922, 0.2090542, 0.07485443, 0.0147267, -0.07277534, 0.0896413, 0.03719521, -0.994793, 0.09431338, 126.6818
 165010884, -0.0387172, -0.09665392, 0.06974018, 0.07485386, -0.02785533, 0.1009352, -0.07757741, 0.03719631, -0.9952449, 0.09369757, 126.6808
 165210942, -0.0869939, 0.04377362, -0.0500344, 0.07485667, -0.06950584, 0.05890401, -0.09563009, 0.03719353, -0.9953538, 0.09351791, 126.6855
 165410942, -0.1405598, -0.0008220077, -0.05960082, 0.07485371, -0.05691158, -0.1738415, 0.1468129, 0.03719614, -0.994857, 0.09531709, 126.6805
 165610925, -0.1242754, -0.2016989, 0.1574593, 0.07485518, 0.003743412, -0.05919971, 0.09127288, 0.03719409, -0.9947962, 0.09546384, 126.683
 165810936, -0.06920306, -0.07435325, 0.100779, 0.07485406, -0.06650666, 0.1330388, -0.1372275, 0.03719502, -0.9955185, 0.09362245, 126.6811
 166010948, -0.1335866, 0.1157089, -0.1223237, 0.07485497, -0.06332975, 0.1535261, -0.1599912, 0.03719576, -0.9958073, 0.09134702, 126.6827
 166211132, -0.1194164, 0.1528799, -0.1249312, 0.074855, -0.03385778, -0.05208654, 0.04925745, 0.03719409, -0.9956816, 0.09199376, 126.6827
 166410938, -0.09123117, 0.0005051345, 0.0625713, 0.07485425, -0.03078379, -0.1488507, 0.1994668, 0.03719502, -0.9958211, 0.09057333, 126.6815
 166611170, -0.1048952, -0.07391711, 0.1637958, 0.07485611, -0.02930815, 0.02747821, -0.001647326, 0.03719576, -0.9959547, 0.08983619, 126.6846
 166810922, -0.1281188, 0.03344289, -0.0221194, 0.07485518, -0.1008012, 0.1331065, -0.2050853, 0.03719594, -0.9958231, 0.09090019, 126.683
 167010943, -0.1952944, 0.07058487, -0.1857174, 0.07485463, -0.08250946, 0.07670338, -0.1295521, 0.03719408, -0.9953678, 0.09024616, 126.6821
 167211135, -0.1760488, -0.0251339, -0.08622047, 0.07485332, -0.06519161, -0.1734426, 0.1494501, 0.03719446, -0.9943378, 0.08706904, 126.6799
 167410930, -0.1704467, -0.2530479, 0.1702865, 0.07485443, -0.004120464, -0.1675459, 0.1442199, 0.03719502, -0.9942281, 0.09028557, 126.6818
 167610945, -0.1026192, -0.2029012, 0.1575264, 0.07485499, -0.07602242, 0.07485948, -0.07255338, 0.0371965, -0.9951606, 0.09189144, 126.6827
 167810905, -0.171296, 0.04258478, -0.07256931, 0.07485482, -0.1008742, 0.1284442, -0.09480892, 0.03719353, -0.9957037, 0.09185438, 126.6824
 168010945, -0.2041199, 0.119354, -0.05227917, 0.07485424, -0.1090789, -0.03914398, 0.01200548, 0.03719669, -0.9955991, 0.09351831, 126.6815
 168210936, -0.200011, -0.01142483, 0.06193865, 0.07485572, -0.04077203, -0.1493447, 0.2158756, 0.03719334, -0.9952102, 0.09753701, 126.684
 168411142, -0.1286622, -0.07395917, 0.2290714, 0.0748537, 0.01253956, 0.03970515, 0.0589192, 0.03719501, -0.9950161, 0.09892331, 126.6805
 168610954, -0.07581083, 0.1146036, 0.05614112, 0.07485555, -0.04658032, 0.1979693, -0.1573859, 0.03719501, -0.9947886, 0.1000025, 126.6837
 168810957, -0.1113527, 0.2226422, -0.160308, 0.07485665, -0.01209858, 0.07090747, -0.08873132, 0.03719483, -0.9948483, 0.1012795, 126.6855
 169010932, -0.06516106, 0.06799301, -0.1001875, 0.07485518, 0.006180479, -0.1260646, 0.1621276, 0.03719576, -0.9946111, 0.1018975, 126.683
 169210938, -0.04888159, -0.1228753, 0.1104766, 0.07485593, -0.0622563, -0.03777995, -0.0154444, 0.03719446, -0.994678, 0.09443837, 126.6843
 169410930, -0.1157212, -0.07975341, -0.03454737, 0.07485426, -0.06645443, 0.07188091, -0.118221, 0.03719502, -0.9943754, 0.0926603, 126.6815
 169610920, -0.1361291, -0.01780624, -0.1188425, 0.074855, -0.04454047, -0.07948184, 0.01990454, 0.03719557, -0.9939164, 0.08803841, 126.6827
 169810915, -0.1144138, -0.1734648, 0.04557249, 0.07485536, 0.008102586, -0.1438611, 0.1111121, 0.03719446, -0.9933521, 0.0906337, 126.6833
 170010915, -0.04886133, -0.1990289, 0.1387685, 0.07485481, 0.001383362, -0.01899592, 0.0145094, 0.03719557, -0.9939392, 0.08927225, 126.6824
 170211148, -0.06437661, -0.07106423, 0.06058428, 0.07485498, -0.07204624, 0.08038867, -0.1276754, 0.03719538, -0.9942672, 0.09276395, 126.6827
 170411130, -0.1306085, 0.01751631, -0.05994885, 0.07485443, -0.08134019, -0.02478055, 0.01793807, 0.0371939, -0.9936533, 0.09833967, 126.6818
 170610958, -0.123583, -0.07049745, 0.09812008, 0.0748546, -0.04720896, -0.1735465, 0.1615116, 0.03719521, -0.9935851, 0.1017646, 126.6821
 170810928, -0.08810969, -0.1447957, 0.154258, 0.07485516, 0.01744506, 0.07644551, -0.02875091, 0.03719502, -0.9940325, 0.1080804, 126.683
 171010949, -0.03384228, 0.1296871, -0.05471948, 0.074855, -0.03696017, 0.2198248, -0.1926128, 0.0371965, -0.993838, 0.1101643, 126.6868
 171210922, -0.07862017, 0.283882, -0.2266294, 0.074855, 0.01808516, 0.07912824, -0.05751739, 0.03719446, -0.9935453, 0.1109744, 126.6906
 171411159, -0.03831246, 0.1522888, -0.08497088, 0.07485425, -0.001008722, -0.03567004, 0.05768559, 0.03719389, -0.9951924, 0.097933, 126.6894
 171610944, -0.07631692, -0.009400018, -0.01591514, 0.07485406, -0.08496875, 0.005725245, -0.02563949, 0.0371952, -0.995265, 0.09109171, 126.6891
 171810937, -0.1806364, -0.03889207, -0.02866778, 0.07485741, -0.09190506, 0.0815262, -0.0973619, 0.03719502, -0.9947901, 0.08672706, 126.6947
 172011117, -0.2064316, -0.01290893, -0.07481029, 0.07485368, -0.09535106, -0.06208072, -0.02462653, 0.03719761, -0.9943399, 0.08486223, 126.6843
 172210910, -0.2126706, -0.1383403, 0.002400133, 0.07485555, -0.002191409, -0.1297167, 0.1328421, 0.03719241, -0.9941559, 0.08698773, 126.6837
 172410940, -0.1181144, -0.1592575, 0.1595859, 0.07485221, -0.03163026, 0.03170597, 0.02451991, 0.03719558, -0.9951632, 0.08834852, 126.678
 172610934, -0.1412944, 0.02051412, 0.06212926, 0.07485501, -0.1018916, 0.09673505, -0.0859696, 0.03719651, -0.9958658, 0.08852506, 126.6827
 172810927, -0.1758018, 0.09541033, -0.05747211, 0.07485443, -0.08041204, -0.06462126, 0.09697325, 0.03719446, -0.9959656, 0.08758849, 126.6818
 173010939, -0.1421268, -0.02867756, 0.1176804, 0.07485314, 0.01981613, -0.02630866, 0.07660226, 0.03719352, -0.9957028, 0.09037409, 126.6836
 173210934, -0.05496915, 0.02310015, 0.07082045, 0.07485348, -0.04449704, 0.1397717, -0.07552006, 0.03719501, -0.9958481, 0.09088643, 126.6881
 173410948, -0.1082784, 0.1624404, -0.05849111, 0.07485498, -0.06297241, -0.007743219, -0.01786589, 0.03719892, -0.9958122, 0.09027798, 126.6906
 173590951, -0.1137137, 0.00533907, 0.006801661, 0.07113604, -0.02742788, -0.1172081, 0.1405195, 0.03347142, -0.9955508, 0.0909761, 120.3964
 173811150, -0.08028401, -0.1019121, 0.1621218, 0.07485108, -0.02471904, 0.0497772, -0.05582312, 0.04091471, -0.9954442, 0.09017159, 126.684
 174010906, -0.08939251, 0.04467368, -0.04103309, 0.07857488, -0.07240129, 0.1206226, -0.1069019, 0.03719613, -0.9957657, 0.09012906, 132.9822
 174210937, -0.138457, 0.1005255, -0.06425869, 0.074855, -0.06422824, -0.0522247, 0.02605717, 0.03719371, -0.9956777, 0.08898565, 126.6827
 174410943, -0.1410486, -0.06391022, 0.04766037, 0.07485367, -0.02156714, -0.1269773, 0.128782, 0.0371952, -0.9953285, 0.08972631, 126.6805
 174611157, -0.113988, -0.1194723, 0.1299495, 0.07485554, -0.02043424, 0.08009975, -0.06223452, 0.03719501, -0.9957234, 0.08693648, 126.6837
 174810931, -0.1218755, 0.05195879, -0.02976529, 0.074855, -0.07554661, 0.06755189, -0.1272876, 0.03719501, -0.9954532, 0.08925055, 126.6827
 175010974, -0.1582547, 0.02608756, -0.1189568, 0.07485629, -0.02504595, -0.1612361, 0.1495619, 0.03719594, -0.9948913, 0.09083304, 126.689
 175191136, -0.07915003, -0.179069, 0.1505555, 0.07113605, 0.0003874984, -0.02864202, 0.0186387, 0.03347458, -0.9950094, 0.08942666, 120.3964
 175410939, -0.05263628, -0.02046152, -0.01306112, 0.07485405, -0.02914785, 0.1445389, -0.1495642, 0.04091451, -0.9958002, 0.08707784, 126.6891
 175611234, -0.07141756, 0.1299204, -0.1121904, 0.07857522, -0.05154198, -0.002259435, 0.01194767, 0.03719501, -0.995939, 0.08580691, 132.9871
 175810936, -0.1046566, -0.004033421, 0.0559529, 0.07485499, 0.005435562, -0.1382935, 0.1550607, 0.03719502, -0.9954997, 0.08918119, 126.6906
 176010966, -0.0692865, -0.1117601, 0.1571917, 0.07485481, 0.008806328, 0.0295829, -0.004274891, 0.03719614, -0.9957711, 0.09029719, 126.6864
 176190946, -0.06333724, 0.04777107, -0.005211285, 0.07113551, -0.03089196, 0.1302156, -0.07739509, 0.03347514, -0.9959835, 0.08829157, 120.3879
 176410934, -0.1224835, 0.1207986, -0.07612249, 0.07485389, -0.0712576, -0.02252783, 0.02917677, 0.04091378, -0.995805, 0.08531021, 125.0973
 176610953, -0.1457128, -0.07153187, 0.0495341, 0.07857357, -0.02117249, -0.150024, 0.1079823, 0.03719873, -0.9949358, 0.08414842, 132.9759
 176810925, -0.08983564, -0.17884, 0.08832677, 0.07485499, -0.02051369, 0.06148583, -0.04168422, 0.03719111, -0.9952453, 0.08958504, 126.6827
 177010924, -0.07976335, 0.02420118, -0.02783145, 0.07485053, -0.06861195, 0.08378028, -0.1502575, 0.03719631, -0.9955334, 0.09175657, 126.679
 177210913, -0.1405002, 0.05960296, -0.1479492, 0.07485517, -0.0378135, -0.1176182, 0.09027302, 0.0371939, -0.9956731, 0.08876398, 126.6909
 177411152, -0.09849818, -0.1164809, 0.07231922, 0.07485441, -0.02754035, -0.05032765, 0.07622241, 0.03719502, -0.9957715, 0.08677863, 126.6897
 177610954, -0.09226713, -0.04769629, 0.1042569, 0.07485609, -0.06150333, 0.1215886, -0.1036811, 0.03719501, -0.9962831, 0.08415178, 126.6925
 177810935, -0.1424228, 0.1198809, -0.07242089, 0.07485498, -0.08177375, 0.07796823, -0.0765985, 0.03719502, -0.996545, 0.08260377, 126.6906
 178010933, -0.1617959, 0.09798329, -0.04523129, 0.07485536, -0.0554718, -0.1002082, 0.1030981, 0.03719576, -0.9963641, 0.08415055, 126.6875
 178210916, -0.1387761, -0.04977997, 0.1088175, 0.07485499, 0.004514222, -0.025748, 0.06257892, 0.03719427, -0.9962416, 0.08556627, 126.6827
 178410940, -0.0778114, 0.01339816, 0.05863965, 0.07485425, -0.0619852, 0.1386565, -0.09886014, 0.03719502, -0.9959434, 0.08957576, 126.6815
 178610948, -0.1312324, 0.1290416, -0.0786438, 0.07485536, -0.05444994, 0.03469151, -0.03400166, 0.03719594, -0.9957569, 0.08916427, 126.6833
 178811125, -0.1185861, 0.004801068, -0.005806167, 0.07485481, -0.009522872, -0.1635356, 0.1727327, 0.03719409, -0.9951027, 0.09016593, 126.6824
 179010936, -0.08339791, -0.185618, 0.156641, 0.07485406, -0.027056, 0.008481352, -0.002824267, 0.03719502, -0.9955845, 0.08669735, 126.6849
 179211152, -0.1097864, -0.02435513, 0.02854774, 0.07485498, -0.0654671, 0.09678405, -0.08381385, 0.03719502, -0.9961336, 0.08430605, 126.6906
 179410935, -0.1373161, 0.06044039, -0.04229372, 0.074855, -0.03217224, -0.08317184, 0.05281495, 0.03719669, -0.9960968, 0.07957405, 126.6906
 179610945, -0.1228205, -0.1051749, 0.08850931, 0.07485498, -0.01348902, -0.1016126, 0.1217679, 0.03719334, -0.9962, 0.07737696, 126.6906
 179811134, -0.1140097, -0.09372914, 0.1422309, 0.07485331, -0.06366083, 0.06698295, -0.06418406, 0.03719501, -0.9967166, 0.07757048, 126.6878
 180010921, -0.1638627, 0.05803614, -0.04983757, 0.07485496, -0.1074038, 0.1106389, -0.1303871, 0.0371952, -0.996616, 0.07982814, 126.6868
 180210937, -0.1909698, 0.0954221, -0.1117409, 0.07485647, -0.06486811, -0.08868235, 0.08177846, 0.03719483, -0.9961349, 0.08130445, 126.6852
 180410944, -0.1282673, -0.09722543, 0.08581503, 0.07485481, -0.0002780684, -0.06635962, 0.06426198, 0.03719502, -0.9958249, 0.08168697, 126.6824
 180610947, -0.06806826, -0.08525991, 0.05064715, 0.07485499, -0.04757725, 0.08943042, -0.06514716, 0.03719538, -0.9959917, 0.08236846, 126.6827
 180810937, -0.1009205, 0.0478951, -0.06205215, 0.07485499, -0.05148841, -0.01779043, -0.009845413, 0.0371952, -0.9958364, 0.08140635, 126.6827
 181011125, -0.0958351, -0.055944, -0.003739949, 0.07485314, 0.0007190698, -0.1174795, 0.0977589, 0.03719539, -0.9956217, 0.08195475, 126.6833
 181210932, -0.04448874, -0.1261997, 0.07588255, 0.07485443, -0.05795914, 0.04840306, -0.08213596, 0.03719502, -0.9961323, 0.0833758, 126.6897
 181410921, -0.1128382, 0.03504327, -0.08236813, 0.07485406, -0.05020781, 0.07402936, -0.05971757, 0.03719408, -0.9964532, 0.08141153, 126.6891
 181610965, -0.1000376, 0.07487752, -0.0213606, 0.07485463, -0.01457003, -0.1079849, 0.1493176, 0.03719688, -0.9962659, 0.08154848, 126.69
 181810926, -0.07211558, -0.08591823, 0.1738205, 0.07485499, 0.02269529, -0.04018238, 0.07496352, 0.03719316, -0.9960654, 0.08397584, 126.6906
 182010966, -0.04990039, -0.02176468, 0.08835027, 0.07485296, -0.05216524, 0.1237786, -0.06980559, 0.03719557, -0.9963854, 0.0836969, 126.6834
 182210929, -0.1303539, 0.1143612, -0.04031366, 0.07485498, -0.05123125, 0.04634187, -0.04680003, 0.03719446, -0.9963087, 0.08370013, 126.6827
 182410951, -0.1294881, 0.03420965, 0.0007363334, 0.07485443, -0.03964915, -0.1720753, 0.1704104, 0.03719502, -0.9954871, 0.08608218, 126.6818
 182610937, -0.1167422, -0.1669817, 0.162277, 0.07485479, -0.002263758, -0.01299451, 0.01547951, 0.03719502, -0.9955886, 0.08671772, 126.6824
 182811157, -0.0807282, -0.02035438, 0.02695961, 0.07485593, -0.03204279, 0.149233, -0.1727724, 0.03719502, -0.9959636, 0.08795611, 126.6843
 183011129, -0.09063595, 0.1255658, -0.160735, 0.07485499, -0.03445984, -0.04996991, 0.003437183, 0.03719632, -0.9954085, 0.09126593, 126.6864
 183210918, -0.08517783, -0.07788659, 0.0003545671, 0.07485499, -0.02686515, -0.1385323, 0.1061739, 0.03719371, -0.9948235, 0.08983513, 126.6906
 183410913, -0.08507684, -0.160728, 0.07452238, 0.07485369, -0.01737594, 0.03565956, -0.07093313, 0.03719502, -0.9953731, 0.08807243, 126.6884
 183610950, -0.08191749, 0.0004434894, -0.06800858, 0.07485555, -0.0626663, 0.09666441, -0.1237099, 0.03719502, -0.9960047, 0.08465052, 126.6916
 183810933, -0.1295731, 0.06708498, -0.08769929, 0.07485499, -0.05056484, -0.06608105, 0.04971344, 0.03719594, -0.9960845, 0.08435459, 126.6906
 183990938, -0.1214613, -0.06720959, 0.07487742, 0.07113548, 0.005993235, -0.09225955, 0.1483565, 0.03347514, -0.9965747, 0.08046756, 120.392
 184210946, -0.08368165, -0.05674384, 0.1567075, 0.07485408, 0.004113444, 0.05546983, -0.002688118, 0.04091396, -0.9970258, 0.07644229, 126.6811
 184410933, -0.07145855, 0.07198471, 0.02365988, 0.07857395, -0.065098, 0.1087744, -0.08464106, 0.03719502, -0.9971974, 0.07390179, 132.9766
 184611160, -0.1295334, 0.1052446, -0.05381193, 0.07485499, -0.05055367, -0.0845806, 0.1062912, 0.03719501, -0.9963335, 0.07770991, 126.6827
 184810937, -0.1100768, -0.09003217, 0.12562, 0.07485481, 0.02808046, -0.04179654, 0.04326912, 0.03719501, -0.9960724, 0.07845748, 126.6824
 185010957, -0.04661379, -0.06020482, 0.0459919, 0.0748561, -0.04982707, 0.07650001, -0.1180556, 0.03719874, -0.9961399, 0.08101002, 126.6883
 185210959, -0.1164301, 0.03181862, -0.09557358, 0.07485497, -0.06927734, -0.06676728, 0.004294217, 0.0371913, -0.9956406, 0.08198197, 126.6906
 185410942, -0.1306536, -0.09451093, 0.00817732, 0.07485125, 0.005504992, -0.04019292, 0.06626993, 0.03719502, -0.9954334, 0.0851816, 126.6843
 185610965, -0.07604626, -0.06322675, 0.100871, 0.07485498, -0.04502413, 0.05545652, -0.03658201, 0.0371954, -0.9959745, 0.0841817, 126.6906
 185810912, -0.1326077, 0.02763582, 0.01605373, 0.07485499, -0.09002167, -0.003432059, -0.02299039, 0.03719464, -0.9962303, 0.08317142, 126.6906
 186010966, -0.1998946, -0.001740345, 0.009318997, 0.07485537, 0.0001358612, -0.1171058, 0.1647142, 0.03719502, -0.9965831, 0.08096878, 126.6877
 186210944, -0.1086113, -0.07583579, 0.1573291, 0.07485498, -0.0357211, 0.05331698, -0.0435175, 0.03719502, -0.9968852, 0.07876826, 126.6827
 186411149, -0.1301097, 0.07337588, -0.0423303, 0.07485499, -0.08307578, 0.100344, -0.07502083, 0.03719502, -0.9969752, 0.07761183, 126.6827
 186610951, -0.1686066, 0.09170401, -0.06562878, 0.07485498, -0.01921086, -0.09867133, 0.1050083, 0.03719502, -0.9966522, 0.07819465, 126.6827
 186810937, -0.09899741, -0.105496, 0.1009039, 0.07485499, -0.04968157, -0.008955065, -0.01369569, 0.03719502, -0.996155, 0.0796761, 126.6827
 187010952, -0.1504546, -0.05539308, -0.01874682, 0.07485498, -0.06773357, 0.06283648, -0.02626434, 0.03719502, -0.996149, 0.07859863, 126.6863
 187211120, -0.1574113, 0.006923385, -0.002387175, 0.07485498, -0.07768085, -0.09602604, 0.05354916, 0.03719502, -0.9957609, 0.08035856, 126.6906
 187410924, -0.1611978, -0.1284079, 0.07966193, 0.07485498, -0.03443808, -0.0185678, -0.001428443, 0.03719502, -0.9958625, 0.08447408, 126.6906
 187610941, -0.118221, -0.04412602, 0.03580351, 0.07485534, -0.07584363, 0.0758645, -0.09498142, 0.03719575, -0.9961426, 0.08621421, 126.6913
 187810954, -0.1378693, 0.07824626, -0.06621557, 0.07485478, -0.05294433, -0.01602463, 0.02400293, 0.03719427, -0.9966835, 0.08094683, 126.6903
 188010950, -0.09816915, 0.01805387, 0.0310531, 0.07485405, 0.01599745, -0.04269173, 0.07170065, 0.03719557, -0.9967872, 0.07970807, 126.6855
 188211207, -0.02607452, -0.00672576, 0.04207705, 0.07485498, 0.008666909, 0.09005567, -0.06517957, 0.03719446, -0.9965189, 0.08333728, 126.6827
 188410919, -0.01034739, 0.1023915, -0.05329465, 0.07485443, -0.05763068, 0.02569772, -0.07557486, 0.03719502, -0.9963978, 0.08457212, 126.6818
 188610944, -0.08119995, 0.0418344, -0.06203403, 0.07485592, 0.01783389, -0.1068366, 0.1320678, 0.03719502, -0.9963779, 0.08292991, 126.6843
 188810938, -0.002694056, -0.0815565, 0.1347091, 0.07485554, -0.03488069, 0.07787755, -0.08576743, 0.03719502, -0.9965388, 0.08258083, 126.6837
 189010947, -0.0789505, 0.0767252, -0.08472382, 0.07485574, -0.04449751, 0.05043303, -0.08905631, 0.03719539, -0.9965912, 0.08204449, 126.6875
 189210950, -0.1117351, 0.02480509, -0.06607798, 0.07485666, -0.02233766, -0.1358548, 0.1586719, 0.03719465, -0.9962971, 0.08183748, 126.6935
 189410931, -0.1068394, -0.1504935, 0.1628774, 0.07485463, -0.02445986, 0.02369568, -0.01462224, 0.03719502, -0.9965441, 0.08052499, 126.69
 189610948, -0.1187744, -0.00750515, 0.00496163, 0.07485498, -0.08554103, 0.09433337, -0.09133985, 0.03719576, -0.9967912, 0.07773291, 126.6906
 189810921, -0.1749134, 0.05541299, -0.04942666, 0.07485481, -0.06646281, -0.1098006, 0.1062638, 0.03719464, -0.996628, 0.07689022, 126.6903
 190011127, -0.15554, -0.1290711, 0.1285763, 0.07485294, -0.005652614, -0.06979159, 0.07962479, 0.03719446, -0.9967133, 0.07749225, 126.6836
 190210937, -0.08728268, -0.07633041, 0.0983127, 0.07485516, -0.03302281, 0.09220967, -0.1226274, 0.03719521, -0.9969055, 0.0780817, 126.683
 190410945, -0.08807559, 0.07611274, -0.1086647, 0.07485518, -0.06834946, -0.009558005, -0.03081768, 0.03719502, -0.9969042, 0.07786159, 126.683
 190610944, -0.1039307, -0.03062968, -0.005407788, 0.074855, 0.008962994, -0.1242773, 0.1109588, 0.03719651, -0.9964454, 0.08152639, 126.6827
 190810917, -0.0397936, -0.1238251, 0.117445, 0.07485498, -0.01026735, 0.06155849, -0.08677436, 0.03719335, -0.9963789, 0.08428218, 126.6827
 191010883, -0.07879598, 0.04478661, -0.09479905, 0.07485221, -0.05477208, 0.01767407, -0.05950217, 0.03719836, -0.9963909, 0.08432804, 126.6815
 191210927, -0.1209435, -0.0027718, -0.07836526, 0.0748559, -0.05053975, -0.05913622, 0.03511449, 0.03719185, -0.9966198, 0.08105923, 126.6922
 191411133, -0.107029, -0.08751614, 0.03481627, 0.07485183, -0.02726121, 0.01100199, -0.01635137, 0.03719502, -0.996703, 0.07938251, 126.6853
 191610941, -0.07274027, -0.03599601, 0.006395705, 0.07485498, -0.01780996, -0.0300353, 0.02017526, 0.03719483, -0.9966998, 0.07929212, 126.6906
 191811161, -0.06186441, -0.06737149, 0.02864042, 0.07485498, -0.02875868, -0.03371077, 0.03399799, 0.0371952, -0.9968572, 0.0781201, 126.6906
 192010958, -0.07849739, -0.05295241, 0.03235817, 0.07485554, -0.04006224, 0.02628518, -0.03119971, 0.03719501, -0.9970391, 0.07688037, 126.6881
 192210935, -0.1012, 0.02122977, -0.01104423, 0.074855, -0.05873188, -0.01360485, 0.0306196, 0.03719595, -0.9969776, 0.07749337, 126.6827
 192411147, -0.1456978, 0.008253139, 0.04527434, 0.07485555, -0.06186239, 0.03064158, -0.01323449, 0.03719409, -0.9970798, 0.07394426, 126.6837
 192610946, -0.159512, 0.0553225, -0.0007105563, 0.07485402, -0.05561791, 0.002287609, 0.02257326, 0.03719502, -0.9970168, 0.07422437, 126.6811
 192810934, -0.1629953, 0.01121995, 0.06203334, 0.07485499, -0.05854918, 0.001053246, 0.0376623, 0.03719502, -0.9970437, 0.07472451, 126.6827
 193010955, -0.1903407, -0.002760911, 0.04102315, 0.07485908, -0.05451072, 0.02052302, 0.02504152, 0.03719613, -0.9973198, 0.07183585, 126.6931
 193210940, -0.1680081, 6.206334E-05, 0.05422446, 0.07485498, -0.06635911, -0.04969794, -0.002522059, 0.0371939, -0.9973205, 0.07293979, 126.6906
 193410925, -0.1705487, -0.05206157, 0.01497578, 0.07485424, -0.07267019, 0.03376947, -0.003742103, 0.03719558, -0.9968677, 0.0765116, 126.6894
 193611167, -0.1644721, 0.05228073, 0.01544731, 0.07485501, -0.06445445, 0.005872886, -0.003233887, 0.03719446, -0.9966008, 0.07676854, 126.6906
 193810915, -0.1532177, 0.04431906, 0.006531442, 0.07485537, -0.04886513, 0.002355115, 0.01375054, 0.03719502, -0.9964737, 0.07737676, 126.6913
 194010893, -0.1310005, 0.04684262, 0.01892845, 0.07485499, -0.06131041, 0.07238761, -0.02561829, 0.03719502, -0.9963435, 0.07765926, 126.6873
 194210901, -0.1296693, 0.1084592, -0.009506523, 0.0748548, -0.05391487, -0.01887431, -0.01254666, 0.03719502, -0.9967403, 0.07622121, 126.6824
 194410945, -0.1060269, 0.01527613, -0.004368634, 0.07485481, -0.04293998, 0.0212902, -0.02539996, 0.03719482, -0.9969594, 0.07475583, 126.6824
 194610949, -0.08266418, 0.04065016, -0.01175106, 0.07485498, -0.02003588, 0.04667736, -0.05752756, 0.03719557, -0.9972592, 0.07221375, 126.6827
 194810946, -0.05004414, 0.05218515, -0.04236534, 0.07485513, -0.00317854, -0.04456338, 0.07686172, 0.03719557, -0.9973809, 0.07221054, 126.683
 195010960, -0.03964471, -0.04181864, 0.08878653, 0.07485462, -0.01352228, 0.03750697, -0.01863272, 0.03719781, -0.9974232, 0.07160904, 126.6855
 195210951, -0.06593353, 0.02097532, -0.005148744, 0.07485406, -0.02925049, -0.0258251, 0.05395499, 0.0371913, -0.9973189, 0.07315823, 126.6891
 195411155, -0.09757174, -0.04525134, 0.0813418, 0.07485128, -0.02116105, -0.01398042, 0.01172159, 0.03719502, -0.997088, 0.07529775, 126.6843
 195611155, -0.09161669, -0.05337819, 0.01609782, 0.07485554, -0.04569879, -0.006312261, 0.01844776, 0.03719502, -0.9969358, 0.07684562, 126.6916
 195810947, -0.1118799, -0.05101456, 0.02854942, 0.07485499, -0.03272733, -0.05808357, 0.03670971, 0.03719501, -0.9967177, 0.07853243, 126.6906
 196010940, -0.08752164, -0.100048, 0.0538624, 0.0748548, -0.03859584, 0.0169001, -0.03761403, 0.03719576, -0.9968343, 0.07788107, 126.6869
 196210937, -0.08662166, -0.0251985, -0.02697573, 0.07485498, -0.04131318, -0.03788855, 0.03111799, 0.03719427, -0.996982, 0.07646473, 126.6827
 196410943, -0.09270367, -0.06322955, 0.04217588, 0.07485424, -0.04619821, -0.02007921, -0.02415617, 0.03719502, -0.9971185, 0.07496662, 126.6815
 196611157, -0.1005171, -0.04533637, -0.01726602, 0.07485497, -0.0265313, 0.0253416, 0.0171483, 0.03719502, -0.9972848, 0.07278487, 126.6827
 196810934, -0.0940605, 0.003494566, 0.04254984, 0.074855, -0.02298835, -0.05521258, 0.02657827, 0.03719483, -0.997427, 0.07059176, 126.6827
 197010910, -0.1029692, -0.05836296, 0.02867126, 0.074855, -0.06174012, 0.03194637, -0.008113911, 0.03719706, -0.9973978, 0.07204507, 126.6861
 197211159, -0.1560752, 0.02767479, -0.0006824103, 0.07485518, -0.04634985, -0.01509748, 0.002009416, 0.03719316, -0.9972401, 0.07400253, 128.2746
 197410920, -0.1477746, -0.01963203, 0.0197272, 0.07485314, -0.04082268, -0.01582995, 0.05188955, 0.03719575, -0.99713, 0.07483221, 126.6875
 197610949, -0.1328351, -0.02134133, 0.06254326, 0.07485497, -0.06242801, 0.01375748, -0.07353014, 0.03719594, -0.9970056, 0.07587778, 126.6906
 197810933, -0.1402459, -0.01241225, -0.0620377, 0.07485646, -0.0350173, -0.04480249, 0.06680457, 0.03719334, -0.9966462, 0.07758533, 126.6931
 198010967, -0.1010517, -0.07450571, 0.06996129, 0.07485314, -0.03511386, 0.006722104, -0.03199807, 0.03719706, -0.9964046, 0.07860295, 126.6841
 198210927, -0.09138177, -0.04702389, -0.02604308, 0.074855, -0.02172858, -0.0292105, 0.01491422, 0.03719297, -0.996025, 0.07999375, 126.6827
 198410926, -0.07356804, -0.0900491, 0.02545052, 0.07485296, -0.0203778, -0.06455252, 0.04415335, 0.03719502, -0.9960614, 0.07946612, 126.6793
 198610944, -0.05603455, -0.1032342, 0.05924117, 0.07485497, -0.04774508, 0.02763529, -0.06203763, 0.03719502, -0.9967772, 0.07606676, 126.6827
 198810941, -0.07886954, -0.01255116, -0.04561581, 0.074855, -0.02023045, -0.06053309, 0.0313391, 0.03719502, -0.996847, 0.07520381, 126.6827
 199011179, -0.06638548, -0.08193234, 0.05586434, 0.074855, -0.03709808, 6.662461E-05, 0.03245959, 0.03719557, -0.9970667, 0.07420141, 126.6861
 199210944, -0.09766108, -0.0192788, 0.04565037, 0.074855, -0.04697627, 0.00342141, -0.006942124, 0.03719446, -0.9969376, 0.07713997, 126.6906
 199410916, -0.1261645, -0.009571077, 0.00966537, 0.07485441, -0.06773466, -0.03655023, -5.866913E-05, 0.03719502, -0.9966752, 0.08076097, 126.6897
 199610942, -0.1706457, -0.02665446, 0.00903349, 0.07485572, -0.04197131, 0.04146379, -0.01198636, 0.03719539, -0.9966095, 0.0820948, 126.6919
