TimeUS,CAN,CAE,CAD,CAe
 43758386, -0.018034, 0.0002949678, 0.003141753, 0.009542567
 43829501, -0.02576598, 0.0009741845, 0.004261977, 0.01325258
 43915571, -0.01788933, 0.0006383775, 0.002626625, 0.009298195
 43975623, -0.02125472, 0.00025825, 0.003469418, 0.01115906
 44025529, -0.01769566, 0.0005621513, 0.00262671, 0.009299497
 44080577, -0.01958544, 0.0005004202, 0.002467537, 0.01022733
 44135898, -0.01941911, 0.0005851072, 0.002445415, 0.01022993
 44190547, -0.01916651, 0.0003018143, 0.002924023, 0.01022733
 44245549, -0.01918043, 0.0002773286, 0.00303204, 0.01022974
 44300569, -0.01954622, 0.0001463663, 0.003319914, 0.01022751
 44355555, -0.01901998, 0.001044985, 0.002944243, 0.01022863
 44405527, -0.01814877, 0.0004668308, 0.002904719, 0.009298755
 44461028, -0.01943705, 0.000695939, 0.00351301, 0.01022863
 44515547, -0.01985222, 0.0003401685, 0.002905748, 0.01022863
 44570552, -0.01934527, 0.0006593991, 0.003035441, 0.01022863
 44625573, -0.01931529, 0.0007604936, 0.00357682, 0.01022863
 44680609, -0.02004659, -6.459869E-05, 0.002428721, 0.01022863
 44735996, -0.01948276, 0.0001844392, 0.003090446, 0.01022937
 44790527, -0.01894833, 0.0002783193, 0.003980201, 0.01022807
 44840562, -0.01780876, 0.0005221906, 0.003103794, 0.009298938
 44895548, -0.01964033, 0.0005061995, 0.002953538, 0.01022807
 44950598, -0.01947657, 0.0001944407, 0.002851019, 0.01022881
 45005558, -0.01951468, 0.0006945672, 0.002705799, 0.01022844
 45061020, -0.01906333, -0.000248438, 0.003690924, 0.01022881
 45115550, -0.02004857, 0.0004434645, 0.002933423, 0.01022863
 45170535, -0.01928537, 0.0005892041, 0.002674482, 0.01022844
 45220575, -0.01772678, 0.0003941799, 0.002772971, 0.009298752
 45275583, -0.01992228, 0.0003231868, 0.002909435, 0.01022863
 45330547, -0.01980666, 0.0007837442, 0.003090495, 0.01022881
 45385996, -0.01929688, -3.297722E-05, 0.003746979, 0.01022863
 45440529, -0.01945796, 0.00106096, 0.002871558, 0.010229
 45495545, -0.01954895, 9.734361E-05, 0.0028667, 0.01022919
 45550555, -0.01930261, 0.0006900097, 0.003555663, 0.01022788
 45605523, -0.01984382, -0.0002195714, 0.003108851, 0.01022844
 45661035, -0.01944727, 0.0002413916, 0.00298475, 0.01022863
 45710986, -0.01693587, 0.0004527869, 0.003123771, 0.009298753
 45765537, -0.01956901, 0.0003410609, 0.002426968, 0.01023067
 45820564, -0.01922697, 0.0004302001, 0.003505999, 0.01022658
 45875583, -0.01945911, 0.0004934711, 0.00240011, 0.01022919
 45930547, -0.02005495, 0.0003639247, 0.003542965, 0.01022807
 45986139, -0.01960975, 0.0001316925, 0.003187776, 0.01022844
 46035992, -0.01764204, -0.0001014776, 0.002769762, 0.00929894
 46090557, -0.01946286, 0.0003273227, 0.002835296, 0.01022974
 46145530, -0.02011458, 0.0003983861, 0.003342937, 0.01022751
 46200611, -0.01918367, 0.0002747949, 0.002749576, 0.01023012
 46255616, -0.01927091, 0.000467601, 0.004470204, 0.0102277
 46311008, -0.01974864, 0.0003375647, 0.003457424, 0.01022826
 46365574, -0.01954944, 0.0004373776, 0.002406871, 0.01022919
 46420544, -0.01980419, 0.0001669006, 0.003342659, 0.01022788
 46475607, -0.01948387, -2.038367E-05, 0.004166432, 0.01022863
 46525565, -0.01783078, 0.0005309235, 0.002774612, 0.009299496
 46580584, -0.01934267, 0.0005043924, 0.003161052, 0.01022789
 46635983, -0.01966461, 0.0002608568, 0.002753819, 0.01022937
 46690531, -0.01904933, -0.0001456405, 0.002906225, 0.0102277
 46745561, -0.01917555, 8.38848E-05, 0.003679515, 0.01022881
 46800596, -0.0194244, 0.0007850875, 0.00266167, 0.01022863
 46850577, -0.01748393, 0.001105214, 0.002371002, 0.009298753
 46905547, -0.01942641, 9.948257E-05, 0.003109473, 0.01022863
 46960990, -0.01968434, 0.0005537765, 0.003035376, 0.01022863
 47015565, -0.0200394, 0.0008709949, 0.003411259, 0.01023105
 47070529, -0.01932154, 8.623508E-05, 0.003516073, 0.01022621
 47125575, -0.01994098, 2.407539E-05, 0.00348667, 0.01022863
 47175639, -0.01764571, 0.0005345845, 0.002913412, 0.00929931
 47235998, -0.02152372, 0.0005054639, 0.003578076, 0.01115869
 47290603, -0.01909799, 0.0003549546, 0.00308375, 0.01023012
 47340555, -0.01763561, 0.0003769487, 0.002943994, 0.009296521
 47395534, -0.0194148, 0.00050113, 0.003196593, 0.01022863
 47450603, -0.01948017, 0.0007445949, 0.003118471, 0.01022863
 47505565, -0.01955711, -0.0002148737, 0.003220098, 0.01022863
 47561118, -0.01919384, 0.0001912596, 0.002714629, 0.01022863
 47615531, -0.01975665, 0.0005234169, 0.002759556, 0.01022956
 47665569, -0.01787224, 0.000120544, 0.002867945, 0.009300613
 47720552, -0.02017736, 0.0003189015, 0.002758403, 0.01022584
 47775665, -0.02001106, 0.0006209362, 0.003787571, 0.01022881
 47830614, -0.01997121, 0.0009315324, 0.002877014, 0.01022844
 47886004, -0.01894421, 0.0003918537, 0.003286016, 0.01022863
 47940557, -0.01977162, -0.0002738199, 0.002990748, 0.01022974
 47990535, -0.01802444, 0.0005340802, 0.002360774, 0.009299496
 48050574, -0.02121273, 0.000342863, 0.003683373, 0.01115664
 48105553, -0.01968757, 0.0004884945, 0.00413685, 0.01022863
 48155528, -0.01811862, 0.0001967444, 0.002342147, 0.009298753
 48210981, -0.01945102, 0.001119919, 0.003168382, 0.01022863
 48265559, -0.01959174, -0.0002137465, 0.003954663, 0.01022974
 48320535, -0.01915103, 0.0007365197, 0.002301214, 0.01022807
 48375757, -0.01974276, 0.0008161787, 0.002805563, 0.01022826
 48430544, -0.01926411, 0.0004190816, 0.002687558, 0.01022844
 48480563, -0.01775737, 0.0001220454, 0.003007982, 0.009298752
 48535990, -0.01992396, 0.0004076382, 0.002298406, 0.01022863
 48590548, -0.01966702, 8.447954E-05, 0.003555494, 0.01023123
 48645551, -0.01920082, 0.00116757, 0.002598387, 0.01022602
 48700566, -0.01967002, 0.0004115218, 0.003006426, 0.01022881
 48755564, -0.01931401, 0.0002919581, 0.002449531, 0.01022844
 48805577, -0.01794615, 0.0001131294, 0.003013424, 0.009298753
 48865620, -0.02238776, 0.0006083529, 0.003253201, 0.01115888
 48915539, -0.01751098, 0.0003693193, 0.003048172, 0.009299311
 48970543, -0.02002333, -0.0002546798, 0.003142438, 0.0102277
 49025562, -0.01949916, -0.0001494385, 0.003351486, 0.01022937
 49080576, -0.01926921, 0.0004375126, 0.003214839, 0.01022788
 49136121, -0.01949875, 0.0005174011, 0.002800203, 0.01022881
 49190550, -0.01965293, -0.0002550209, 0.002986636, 0.01022844
 49240557, -0.01773082, 0.0004462333, 0.002905772, 0.009298753
 49295565, -0.01916492, 0.0002983924, 0.002830196, 0.01022863
 49350610, -0.01916058, 0.0006948716, 0.00253557, 0.01022919
 49405586, -0.01964126, 0.00032817, 0.003212115, 0.01022807
 49461425, -0.01920402, 0.0003796751, 0.003447891, 0.01022881
 49515539, -0.01871624, 0.000470204, 0.003028988, 0.01022863
 49570554, -0.01960568, 0.0003044593, 0.003221917, 0.01022844
 49625548, -0.01947236, 0.0001527984, 0.002572381, 0.01022974
 49680569, -0.01959529, 0.0002872394, 0.003153643, 0.01022733
 49730554, -0.0179246, 9.822263E-05, 0.003053542, 0.009298939
 49786028, -0.01880153, 0.0001285507, 0.003053763, 0.01022863
 49840561, -0.01933802, -1.299628E-05, 0.002734564, 0.01023142
 49895537, -0.01933841, 0.0006458803, 0.003104625, 0.01022677
 49950570, -0.01952484, 0.0007640712, 0.002957209, 0.01022881
 50005579, -0.01979448, 0.0005086218, 0.003262407, 0.01022751
 50061417, -0.01941857, 0.0005926957, 0.003360563, 0.01022863
 50110981, -0.01721605, -0.0002311062, 0.002708078, 0.009298754
 50165564, -0.02027557, 0.0005029007, 0.003709364, 0.01023216
 50220553, -0.01966103, 0.000501407, 0.003773584, 0.01022509
 50275598, -0.01908449, -0.0001022898, 0.002862628, 0.01022863
 50330541, -0.01924165, 0.0008414453, 0.002223354, 0.01022882
 50386014, -0.01973335, 0.0003485951, 0.003146078, 0.01022844
 50435988, -0.01796778, 8.410568E-05, 0.002893293, 0.009300613
 50495544, -0.02165334, 0.0003374872, 0.003180697, 0.01115664
 50545560, -0.01786876, 0.001212396, 0.002536649, 0.009298754
 50600560, -0.01918472, 0.0002681335, 0.00311822, 0.01022863
 50655556, -0.01938561, 0.0006396225, 0.003593043, 0.01022844
 50711122, -0.01965607, 0.0002763603, 0.002927779, 0.01023049
 50765572, -0.01959709, 0.0003751766, 0.003059922, 0.01022751
 50820583, -0.01970293, 0.0002192718, 0.002488111, 0.01022863
 50875628, -0.0195332, 0.0007106389, 0.002350184, 0.01022919
 50925588, -0.01742986, 0.0004225696, 0.003570696, 0.009297451
 50980627, -0.01925939, 0.0003184509, 0.002258366, 0.01022974
 51035991, -0.01941828, -9.371377E-05, 0.00313707, 0.01022844
 51090537, -0.01991035, 0.0006078897, 0.002888571, 0.01022789
 51145558, -0.0198709, 0.0007556413, 0.002425727, 0.01022881
 51200573, -0.01963602, -3.359871E-05, 0.003518961, 0.010229
 51255571, -0.01937056, 0.0006896011, 0.003311799, 0.01022807
 51311003, -0.01922467, 0.0005933071, 0.003135381, 0.01022844
 51360935, -0.01780394, -4.06964E-05, 0.003288139, 0.009300428
 51415547, -0.01903051, 0.0005676983, 0.003054914, 0.01022714
 51470551, -0.01977863, 0.0002074216, 0.002923471, 0.01022863
 51525562, -0.01947685, 0.0005771097, 0.003331815, 0.01022993
 51580579, -0.01947926, 0.0003732002, 0.0032659, 0.01022733
 51635994, -0.01935218, 0.0003794385, 0.002624676, 0.01022919
 51690544, -0.01975909, -0.0001068569, 0.003473205, 0.01022807
 51740592, -0.01801676, 0.0001319558, 0.003045744, 0.009298753
 51795538, -0.01958213, 0.000820465, 0.003349389, 0.010229
 51850592, -0.01969559, 0.0007603295, 0.003064686, 0.01022881
 51905540, -0.01948505, 0.0007449632, 0.002527306, 0.01022807
 51960984, -0.0195057, 0.0005616384, 0.002696358, 0.01022863
 52015636, -0.01987925, 0.0005867599, 0.00276996, 0.01022863
 52065550, -0.01815311, 0.0004180171, 0.003280593, 0.009298939
 52125566, -0.02173092, 7.336075E-05, 0.003159922, 0.01115832
 52175642, -0.01780471, 0.0006313569, 0.003248053, 0.009298753
 52230530, -0.01956157, 0.0002174255, 0.003116214, 0.01022863
 52286144, -0.01976222, 6.773692E-05, 0.00365704, 0.01022863
 52340553, -0.01925706, 0.0003804979, 0.002971468, 0.01022919
 52395580, -0.01913835, 0.0004928329, 0.003331816, 0.01022919
 52450620, -0.01982263, 0.0007749868, 0.002701861, 0.01022751
 52500599, -0.01759029, 5.076409E-05, 0.002480071, 0.009299125
 52555601, -0.01961719, 0.000138602, 0.003064126, 0.01022807
 52610995, -0.02000458, 0.0003253881, 0.002640268, 0.01022881
 52665534, -0.01944681, 0.0003146667, 0.003450935, 0.01022863
 52720552, -0.01962463, 0.000278106, 0.002763159, 0.01022974
 52775757, -0.01918242, -0.0001750403, 0.002850715, 0.0102277
 52830561, -0.01946116, 6.233253E-05, 0.003492181, 0.01022844
 52880583, -0.01766882, -0.0001045332, 0.003330557, 0.009298753
 52940556, -0.02172179, 0.0004863954, 0.003415564, 0.0111585
 52990553, -0.01768813, 0.0005711092, 0.0030396, 0.009298753
 53045556, -0.01981259, 0.0003958691, 0.002272418, 0.01022974
 53100565, -0.01959519, 0.0002043685, 0.003009329, 0.01022751
 53155547, -0.01879335, 0.0003723717, 0.00271641, 0.01022863
 53210994, -0.01944105, 0.0002465172, 0.002009211, 0.01022882
 53265563, -0.01960769, 0.0007476935, 0.002421774, 0.01023012
 53315553, -0.01723555, 0.0004912921, 0.002167088, 0.009297079
 53370564, -0.01971109, 1.690749E-05, 0.003274284, 0.01022974
 53425562, -0.01883365, 0.0002473626, 0.003262162, 0.0102277
 53480566, -0.0193963, 0.0005628821, 0.003183316, 0.01022863
 53535985, -0.01964439, 0.0003718793, 0.002672318, 0.01022918
 53590536, -0.01918618, 8.279903E-07, 0.003472969, 0.01022788
 53645481, -0.01932545, -0.0001076338, 0.003118453, 0.01022863
 53695490, -0.0176486, 0.000195793, 0.003009519, 0.009299868
 53750534, -0.01972647, 0.0003262913, 0.003016808, 0.01022881
 53805484, -0.01970069, 0.0003286054, 0.003320226, 0.01022733
 53861552, -0.01918402, 0.0006855664, 0.003987435, 0.01022863
 53915485, -0.01930995, 0.0003678976, 0.003452577, 0.01022844
 53970533, -0.01949175, 8.538415E-05, 0.003466987, 0.01022881
 54025563, -0.01975845, 0.0001781186, 0.003629327, 0.01022881
 54080486, -0.01943894, 0.0004509739, 0.003020933, 0.01022844
 54130538, -0.01795602, 9.98161E-05, 0.002952009, 0.009298752
 54185875, -0.01986781, 0.0004744089, 0.003083688, 0.01022937
 54240527, -0.01975099, -0.0003095938, 0.003508799, 0.01022919
 54295520, -0.01951708, 0.0008005289, 0.002617244, 0.01022733
 54350516, -0.01989544, 0.0007699251, 0.003237946, 0.01022956
 54405488, -0.0197872, 0.0002273987, 0.00373754, 0.0102277
 54461379, -0.01978425, -0.0001939556, 0.002698783, 0.01023049
 54510871, -0.01766916, 0.0001121933, 0.002458587, 0.009297451
 54565496, -0.01949164, 0.0007353238, 0.003309251, 0.01022788
 54620489, -0.0196628, 0.0003512762, 0.003177691, 0.01022881
 54675515, -0.01955593, 0.0006368164, 0.002993097, 0.01022863
 54730489, -0.01969665, 0.0003558595, 0.003299122, 0.010229
 54785993, -0.01896836, -5.583984E-05, 0.003782306, 0.01022826
 54840525, -0.01930826, 0.0003841133, 0.003223923, 0.01022881
 54895517, -0.01930756, 5.816705E-05, 0.00356927, 0.01023067
 54950514, -0.01974225, 0.0002285898, 0.003580769, 0.0102264
 55000495, -0.0176701, 0.000520564, 0.002736993, 0.009298753
 55055476, -0.01933501, 0.0008997061, 0.003277375, 0.01022863
 55110867, -0.01956592, -1.083275E-05, 0.003333281, 0.01022863
 55165559, -0.01950745, 0.0004377477, 0.003291856, 0.01022919
 55220472, -0.01998597, 0.0002862077, 0.004028988, 0.01022807
 55275537, -0.0198073, 0.0001774394, 0.002776446, 0.01022919
 55330481, -0.01916235, 0.0001279763, 0.002759774, 0.01023049
 55385881, -0.01965304, 3.820072E-05, 0.002485226, 0.01022621
 55436077, -0.01740044, 0.0001275177, 0.00319882, 0.00930117
 55490471, -0.01942605, -0.0006641533, 0.003308646, 0.01022602
 55545560, -0.01955782, -4.865981E-05, 0.002661196, 0.01022881
 55600551, -0.01938271, 0.0006074209, 0.003743967, 0.01022863
 55655489, -0.01959334, 0.0003891559, 0.003772343, 0.01022863
 55710860, -0.01984451, 0.001063959, 0.003638312, 0.01022863
 55765501, -0.01957359, 0.0005001454, 0.003216372, 0.01023049
 55815494, -0.01752784, 0.0003551087, 0.00249372, 0.009297451
 55870502, -0.02016819, 0.000253227, 0.003719595, 0.01022807
 55925480, -0.01952073, 0.0008208915, 0.00308489, 0.01022863
 55980516, -0.01991726, 0.0002656308, 0.003859765, 0.01022863
 56035862, -0.01951153, 0.0009354218, 0.002966064, 0.0102303
 56090481, -0.01969095, 0.0003656503, 0.003096821, 0.01022881
 56145493, -0.01979568, -6.35807E-05, 0.002916376, 0.01022677
 56200528, -0.01937406, 0.0002662936, 0.002908898, 0.01022863
 56255527, -0.01995944, 0.0007968921, 0.003282649, 0.01022863
 56305507, -0.01759437, 0.0005895151, 0.002969732, 0.009298754
 56360891, -0.01954374, -0.0001350192, 0.003614762, 0.01022937
 56415475, -0.01912775, 0.0004515267, 0.003050246, 0.01022788
 56470565, -0.01924961, 0.0005565759, 0.003642377, 0.01022863
 56525484, -0.01909107, 0.0002093761, 0.00336184, 0.01022937
 56580495, -0.01944301, 0.0003835153, 0.003297642, 0.01022789
 56630505, -0.0176675, 9.142566E-05, 0.00235707, 0.009298753
 56685872, -0.01918532, -8.559322E-06, 0.003444025, 0.01022863
 56740559, -0.01960748, 8.475159E-06, 0.0026557, 0.01022881
 56795495, -0.01968839, 0.0005735466, 0.002772624, 0.010229
 56850527, -0.01959858, 0.0001999253, 0.003274727, 0.01022881
 56905500, -0.01922927, 0.0009317786, 0.003437065, 0.01022789
 56960860, -0.0198237, 0.0005652531, 0.00337455, 0.0102303
 57015548, -0.01984735, 0.0004867648, 0.003263596, 0.01022751
 57070530, -0.0196308, 0.0004227975, 0.003224815, 0.01022807
 57120516, -0.01729803, 0.0003077334, 0.002612105, 0.009300427
 57175642, -0.01929263, -7.769039E-05, 0.002295552, 0.0102277
 57230493, -0.01957524, 0.0002468976, 0.003394537, 0.01022788
 57285875, -0.02017183, 0.0004510266, 0.001885044, 0.01022956
 57340497, -0.01978272, 0.0002559676, 0.002663982, 0.0102277
 57395503, -0.01896856, 0.0001951052, 0.003081009, 0.01022863
 57450507, -0.01963772, 0.0007593475, 0.003484027, 0.01022863
 57500492, -0.01770539, 0.0004382373, 0.002736413, 0.009299682
 57555508, -0.01975945, 0.0004516474, 0.003790511, 0.01022751
 57610870, -0.01988636, 0.0005151861, 0.003236172, 0.01022974
 57665503, -0.01957884, 0.0008181714, 0.002694598, 0.0102277
 57720484, -0.01987611, 0.0002020162, 0.003023349, 0.01022863
 57775633, -0.01936794, 0.0007375898, 0.002997831, 0.01022863
 57830505, -0.02021403, 0.0004155384, 0.002945612, 0.01022863
 57885877, -0.01936572, 0.0008941344, 0.004056885, 0.01022863
 57935863, -0.01785878, 0.0003987343, 0.002477968, 0.009299126
 57990481, -0.01951215, 0.0008406211, 0.002570123, 0.010229
 58045550, -0.02002442, 0.0004073528, 0.002297202, 0.01022788
 58100500, -0.019334, -2.137372E-05, 0.002942371, 0.01022919
 58155489, -0.01936675, 0.0001011887, 0.003065153, 0.01022807
 58210860, -0.01971367, 0.000374535, 0.00300217, 0.01022863
 58265479, -0.01994471, 0.0005528932, 0.002824669, 0.01022863
 58315538, -0.01755933, 0.0004581282, 0.003774326, 0.009299869
 58370497, -0.01925434, 5.563586E-05, 0.003258234, 0.01022807
 58425470, -0.01976771, 0.0001939491, 0.003599085, 0.01022807
 58480526, -0.0196562, 7.841032E-05, 0.00323374, 0.010229
 58535860, -0.01978949, 0.0005585663, 0.003192041, 0.01024109
 58590525, -0.02009945, 0.0001161111, 0.003769803, 0.0102158
 58645553, -0.01950436, 0.0002896664, 0.003387837, 0.01022863
 58700499, -0.02015905, 0.0007414502, 0.003681506, 0.01022881
 58750585, -0.01775763, 0.0002969957, 0.003189547, 0.009298567
 58805511, -0.01915313, 0.0003868573, 0.002763843, 0.01022863
 58861409, -0.01937283, 0.0009038994, 0.003054665, 0.01022863
 58915505, -0.01948889, 0.000331377, 0.003405451, 0.01023012
 58970477, -0.0195333, 0.0004103773, 0.002847181, 0.0102277
 59025482, -0.01988497, 0.0004517161, 0.002804955, 0.01022807
 59080562, -0.01965207, 0.0006992585, 0.002880576, 0.01023123
 59135850, -0.01988803, 0.0002555308, 0.003576017, 0.01023309
 59185877, -0.01775408, 0.0008305865, 0.002154795, 0.009291501
 59240557, -0.01995187, 0.0005856385, 0.004078055, 0.010229
 59295487, -0.01953745, 0.0005590459, 0.003960008, 0.010229
 59350568, -0.019426, 0.0006473213, 0.002928114, 0.01022807
 59405490, -0.01937029, 0.0003010334, 0.002516965, 0.01022863
 59461384, -0.01943339, 0.0005969966, 0.003418803, 0.01022863
 59515499, -0.01948068, 0.0006856461, 0.002337845, 0.01022863
 59570486, -0.01928904, 0.0003597977, 0.003441773, 0.01022863
 59620510, -0.01792282, 0.0001104644, 0.003589182, 0.009298753
 59675510, -0.01965302, 0.0002878583, 0.002395724, 0.01022863
 59730483, -0.01940503, 0.0007097591, 0.00291748, 0.01022881
 59785886, -0.01965596, -2.825876E-05, 0.003085365, 0.01022844
 59840501, -0.01935733, 0.0004768664, 0.003134262, 0.01022937
 59895473, -0.01973219, 0.001042044, 0.002928818, 0.01022844
 59950502, -0.01988138, 9.73722E-05, 0.003430242, 0.01022807
 60005542, -0.01980006, 0.0003953478, 0.002711174, 0.01022919
 60055473, -0.01788343, 0.0001540612, 0.002951174, 0.009298939
 60110861, -0.01983492, -9.103246E-05, 0.002863142, 0.01022788
 60165535, -0.01974785, 0.0007106457, 0.003033716, 0.01022863
 60220517, -0.01959164, 0.0001163778, 0.00261243, 0.01022863
 60275544, -0.01957479, 0.0003760598, 0.003321748, 0.01022863
 60330483, -0.01988456, 0.0006630947, 0.003034358, 0.01022863
 60386097, -0.01942585, 0.000796719, 0.00348403, 0.010229
 60435860, -0.01811386, 0.0001934326, 0.003247194, 0.009298381
 60490475, -0.01985304, 0.000993607, 0.00316061, 0.01022937
 60545500, -0.0196339, 8.403735E-05, 0.002405785, 0.01022789
 60600498, -0.01933808, 0.0005088951, 0.002989198, 0.010229
 60655526, -0.01915143, 9.09665E-05, 0.002513889, 0.01022826
 60710860, -0.01929712, 0.0004541216, 0.003366598, 0.01022863
 60765508, -0.01950156, 0.0002386936, 0.002748644, 0.01022844
 60820490, -0.01970365, 0.0008530123, 0.003300259, 0.01022937
 60870496, -0.01803843, 0.0006360544, 0.00284985, 0.009298195
 60925537, -0.01964063, 0.0007760406, 0.003181556, 0.01022919
 60980525, -0.01917988, 0.0003453624, 0.003274538, 0.01022807
 61035477, -0.01960402, 0.0002198832, 0.002978166, 0.01022974
 61090498, -0.01943487, 0.0007668818, 0.002776545, 0.01022751
 61146148, -0.01978117, 0.001012903, 0.003122371, 0.01022863
 61200481, -0.01927237, 0.001332991, 0.002776679, 0.01022863
 61250499, -0.01793372, 0.0003241303, 0.003511152, 0.009299311
 61305505, -0.01947566, 6.440792E-05, 0.00296154, 0.01022807
 61360509, -0.01969022, 0.0006641728, 0.002616181, 0.01022844
 61415505, -0.01944184, 0.0001478305, 0.002492253, 0.01022881
 61470864, -0.01914901, 0.0001270645, 0.003106509, 0.01022863
 61525491, -0.01994325, 0.001104176, 0.003395302, 0.01022863
 61580507, -0.01958563, 0.0005729205, 0.003334562, 0.01022863
 61635538, -0.01967804, 0.0003817877, 0.002766875, 0.01022881
 61685493, -0.0182268, 0.0004407577, 0.003140054, 0.009298567
 61740559, -0.01982788, 1.278814E-05, 0.0031785, 0.010229
 61796095, -0.02002129, 0.0005003982, 0.003020337, 0.01022881
 61850555, -0.01895726, 0.0008398933, 0.003195599, 0.01022807
 61905496, -0.01993733, 0.0001113359, 0.003213007, 0.01022863
 61960540, -0.01991895, 0.000735046, 0.002465587, 0.01022937
 62015508, -0.01975096, 0.0004613833, 0.003213942, 0.01022788
 62070868, -0.01974765, 0.0003977126, 0.003037623, 0.01022844
 62120843, -0.01729522, 0.0005925991, 0.002995057, 0.009298938
 62175592, -0.01942069, 0.0007994987, 0.003072242, 0.01022863
 62230519, -0.01991371, 0.0003644531, 0.002343579, 0.01022863
 62285527, -0.01987786, 0.0004142451, 0.003195368, 0.01022956
 62340480, -0.01889538, 0.0005542476, 0.002668541, 0.01022826
 62395848, -0.01929171, 0.0005238837, 0.002705385, 0.01022807
 62450520, -0.01930503, 0.00111263, 0.003398927, 0.01022956
 62500554, -0.01730397, 0.0005461769, 0.003134032, 0.009298009
 62555484, -0.01915162, 0.0003717275, 0.002623568, 0.01022844
 62610488, -0.01978656, 0.000769623, 0.003469816, 0.01022863
 62665498, -0.0187552, 0.0001175166, 0.003122555, 0.01022881
 62720860, -0.01921823, 0.0001998974, 0.002663266, 0.01022863
 62775589, -0.01868988, -0.0001840247, 0.00242615, 0.01022881
 62830490, -0.0188368, 0.0002474153, 0.003592507, 0.01022937
 62885522, -0.01963221, 0.0007923605, 0.002521294, 0.01022863
 62935511, -0.01780786, 0.0005257634, 0.002526764, 0.009301728
 62990482, -0.01981534, 0.000759495, 0.002738922, 0.01022454
 63046150, -0.01975932, 0.0002715658, 0.00298872, 0.01022863
 63100485, -0.01983335, 0.000545037, 0.002718199, 0.01022919
 63155477, -0.01965348, 0.000517022, 0.002504049, 0.01022807
 63210551, -0.02034712, 0.0008540396, 0.003300966, 0.01023012
 63265534, -0.01934328, 0.0006583782, 0.002690385, 0.0102277
 63320984, -0.01954022, 0.0006164518, 0.00247559, 0.01022807
 63371088, -0.0176928, 0.0004910554, 0.002451039, 0.009298753
 63425472, -0.01938138, 0.0004602593, 0.003237813, 0.01022937
 63480485, -0.01936535, 0.0005972902, 0.004036942, 0.01022789
 63535534, -0.01967978, 0.0005679786, 0.002855765, 0.01022974
 63590523, -0.01952737, 0.0005314778, 0.003377506, 0.01022807
 63646150, -0.01971049, 0.0006176798, 0.003186183, 0.01022807
 63695874, -0.01744534, 0.0007229526, 0.003278878, 0.009299125
 63750497, -0.02035565, 0.0002069269, 0.003874811, 0.01022826
 63805579, -0.01992143, 0.000784202, 0.002821138, 0.01022993
 63860511, -0.01931396, 0.0004118828, 0.003033056, 0.01022844
 63915484, -0.01968805, 0.0007089062, 0.002650837, 0.01022751
 63970860, -0.01951196, 0.0006770735, 0.0033604, 0.01022863
 64025489, -0.01944244, 0.0007994373, 0.002870737, 0.01022863
 64080518, -0.01914681, 0.0008897711, 0.002469229, 0.01022863
 64135491, -0.01968601, 0.0005795625, 0.003028163, 0.01022863
 64185504, -0.01806284, 0.0003378529, 0.002649022, 0.009300427
 64240519, -0.01919479, 0.0005047827, 0.003463729, 0.01022695
 64295888, -0.01943891, -4.577686E-06, 0.002332442, 0.01022863
 64350490, -0.01942882, 0.0006679914, 0.003117441, 0.01022863
 64405515, -0.01975139, 0.0006927088, 0.00288903, 0.01022937
 64460506, -0.01962259, 0.0008148076, 0.003526635, 0.01022788
 64515491, -0.01997755, 3.1773E-05, 0.002895194, 0.01022863
 64565525, -0.01802655, 0.0008913881, 0.001882418, 0.009298752
 64620860, -0.0193259, 0.0005970226, 0.003284226, 0.01022881
 64675520, -0.01906706, 0.0008334073, 0.003161123, 0.01022844
 64730493, -0.01952627, 0.0003684446, 0.003006094, 0.01022844
 64785555, -0.01943178, 0.0007833456, 0.002961725, 0.01022882
 64840574, -0.01889148, 0.0003886849, 0.002414493, 0.01022863
 64895879, -0.01952032, 0.0003218168, 0.003285503, 0.01022863
 64950479, -0.01967011, 0.0006657447, 0.003141692, 0.01022937
 65000478, -0.01739027, 0.0004413709, 0.003446268, 0.009298009
 65055486, -0.01938731, 0.001108065, 0.002341705, 0.01022863
 65110551, -0.0192809, 0.0004709606, 0.003025071, 0.01022863
 65165500, -0.01929642, 0.0002272837, 0.002645336, 0.01023477
 65220838, -0.01943059, 0.0005350661, 0.002358674, 0.01022249
 65275506, -0.02000071, 0.0008645204, 0.002505058, 0.01022863
 65330489, -0.01943546, 0.001056237, 0.004238577, 0.01022863
 65380571, -0.01712646, 0.0004692611, 0.00276252, 0.009300613
 65440486, -0.02123579, 0.0005704865, 0.004170776, 0.01115664
 65490487, -0.01756969, 0.000213995, 0.002637995, 0.009298754
 65546138, -0.01936885, 0.001010698, 0.002741554, 0.01022882
 65600489, -0.01970818, 0.0003024334, 0.003524715, 0.01022844
 65655490, -0.01967643, 0.0002371276, 0.002943553, 0.01022863
 65710494, -0.01915733, 0.001124694, 0.003249763, 0.01023012
 65765511, -0.01998857, 0.0002964576, 0.003381985, 0.01022695
 65820882, -0.01988322, 0.0003399363, 0.002300484, 0.01022882
 65870882, -0.01764687, 0.0007040307, 0.002229951, 0.009298567
 65925493, -0.01962142, 0.0008973079, 0.003036195, 0.01022863
 65980521, -0.01938101, 0.0003705969, 0.003160333, 0.01022881
 66035513, -0.01956326, 0.0003363544, 0.00364328, 0.01022863
 66090489, -0.01972257, 0.001334568, 0.003177565, 0.01022863
 66146287, -0.01964876, 0.000816227, 0.003310865, 0.01022863
 66200466, -0.02000491, 0.0006937568, 0.003218199, 0.01023049
 66255544, -0.01987803, 0.001382506, 0.003145821, 0.01022733
 66310559, -0.01974121, 2.760799E-05, 0.003545929, 0.01022807
 66360579, -0.01736774, 0.0006684047, 0.003331797, 0.009298569
 66415542, -0.02008591, 0.0002629173, 0.00274125, 0.01022881
 66470850, -0.01986027, 0.0002284072, 0.003123985, 0.01022863
 66525499, -0.01938356, 0.0003528339, 0.003524751, 0.01023012
 66580506, -0.01968576, 0.0005116708, 0.003583462, 0.01022714
 66635504, -0.01971707, 0.0004166454, 0.003444012, 0.01022863
 66690497, -0.02014222, 0.0005333091, 0.002753821, 0.010229
 66740494, -0.01818641, 0.0008167368, 0.003014269, 0.009298381
 66795863, -0.01966532, 0.0006381759, 0.003282633, 0.01022863
 66850513, -0.01968439, 0.000283629, 0.003598351, 0.01022863
 66905476, -0.0198382, 0.0003195396, 0.003232008, 0.01022863
 66960500, -0.01961924, 0.0002566688, 0.002957517, 0.01022863
 67015513, -0.01974257, 0.0004216626, 0.00254663, 0.01022919
 67070845, -0.01996673, 0.0007711268, 0.003831441, 0.01022807
 67125499, -0.01910148, 0.0001688067, 0.003234274, 0.01022881
 67175579, -0.01800834, -4.690541E-05, 0.003215604, 0.00929838
 67230485, -0.0195081, 0.0001524368, 0.003134276, 0.01022881
 67285529, -0.02005703, 0.0007750187, 0.002708732, 0.01022881
 67340509, -0.019878, 0.000314411, 0.003086311, 0.01022919
 67395845, -0.02005334, 0.0003430524, 0.003221582, 0.01022788
 67450553, -0.02011475, 0.0003165404, 0.002592757, 0.01022993
 67505506, -0.01977584, 0.0004727235, 0.002734258, 0.01022733
 67555496, -0.0182316, 0.0004611643, 0.003009807, 0.009298754
 67610531, -0.01997983, 0.0006398783, 0.002725138, 0.01022844
 67665498, -0.01973484, 0.0007239335, 0.003159868, 0.01022974
 67720997, -0.02064937, 0.0005876057, 0.003440881, 0.0102277
 67775652, -0.02014508, 0.0006944379, 0.002713067, 0.01022919
 67830535, -0.01943556, 0.0004171635, 0.002596377, 0.01022807
 67885554, -0.01972787, 0.0004327491, 0.003478361, 0.01022881
 67940500, -0.01950079, 0.0007549344, 0.002773243, 0.01022844
 67990552, -0.01828241, 0.0005274632, 0.002668954, 0.009301356
 68046152, -0.01957509, 0.0004025633, 0.003069368, 0.01022584
 68100490, -0.01972626, 0.001184147, 0.002339693, 0.01022974
 68155473, -0.01908354, 0.0004633533, 0.003289691, 0.0102277
 68210500, -0.0196039, 0.001004901, 0.002101861, 0.01022863
 68265498, -0.01960866, 0.0006151238, 0.003482988, 0.01022863
 68320880, -0.01963185, 0.00114678, 0.002842488, 0.01022863
 68370861, -0.01760344, 0.0007948109, 0.002731951, 0.009299125
 68425482, -0.01958438, 0.0005192965, 0.003304756, 0.01022807
 68480504, -0.01990163, 0.0003325932, 0.00287299, 0.01022881
 68535510, -0.01971396, 0.001030637, 0.002865229, 0.01022863
 82015560, -0.01807111, 0.0008762738, 0.00295009, 0.009299312
 82070990, -0.0197371, 0.0005508105, 0.002801396, 0.01022807
 82125538, -0.02035277, 0.0008026221, 0.002582425, 0.01022882
 82180584, -0.01972416, 0.0004726652, 0.00234807, 0.01022844
 82235578, -0.01944574, 0.0006258112, 0.003108611, 0.01022863
 82290546, -0.01963441, 0.0006698016, 0.003027286, 0.01022863
 82346361, -0.01957993, 0.000652542, 0.002999651, 0.01022919
 82400541, -0.01950834, 0.000616018, 0.002769017, 0.01022956
 82450547, -0.01727583, 0.0004636311, 0.001900418, 0.009298567
 82505547, -0.01958151, 0.0005311368, 0.003380713, 0.01022733
 82560561, -0.01930571, 0.001013334, 0.003831912, 0.01022863
 82615615, -0.0196232, 0.0004285708, 0.003210497, 0.01022863
 82670892, -0.01928985, 0.0008415056, 0.003173213, 0.01022863
 82725554, -0.01989731, 0.0006988577, 0.002817261, 0.01022863
 82780565, -0.01920119, 0.0006278912, 0.002689612, 0.01022863
 82830546, -0.01810743, 0.0007451588, 0.002569854, 0.009299311
 82885594, -0.02001553, 0.0007288466, 0.003058729, 0.01022937
 82940525, -0.01967115, 0.000372999, 0.003280153, 0.01022807
 82995974, -0.01933546, 0.0007639144, 0.003210331, 0.01022789
 83050542, -0.01985435, 0.0006082153, 0.002595309, 0.01023105
 83105541, -0.01977842, 0.0002844899, 0.00359352, 0.01022621
 83160605, -0.01977275, 0.00088851, 0.003683113, 0.01022863
 83215567, -0.01971187, 0.0005522343, 0.002743654, 0.01023012
 83265607, -0.01784467, 0.000489798, 0.003314296, 0.009297266
 83321121, -0.01976245, 0.0003224266, 0.00384234, 0.01022937
 83375640, -0.01943677, 0.0007101028, 0.002860509, 0.01022844
 83430546, -0.01937168, 0.0003440756, 0.003559894, 0.01022789
 83485532, -0.01939916, 0.0009806033, 0.00317495, 0.01022919
 83540541, -0.0197553, 0.0005128253, 0.002815113, 0.01022937
 83595989, -0.01964679, 0.0004733889, 0.003059575, 0.0102277
 83650589, -0.01920553, 0.0003822016, 0.002504517, 0.01023216
 83700547, -0.01752785, 0.001008889, 0.002346012, 0.009296335
 83755539, -0.01962043, 0.0006012313, 0.003052438, 0.01022733
 83810589, -0.01948692, 0.0006734791, 0.002783666, 0.01022863
 83865542, -0.01952088, 0.000371471, 0.002952463, 0.0102303
 83921107, -0.01952147, 0.0002788794, 0.00384904, 0.01022695
 83975650, -0.01971572, 0.0009579161, 0.002815173, 0.01022918
 84030527, -0.01955483, 0.001223724, 0.003708885, 0.01022807
 84080588, -0.01811038, 0.0005897923, 0.002856897, 0.009298753
 84135560, -0.01954463, 0.001124071, 0.002771236, 0.01022844
 84190568, -0.01916493, 0.0007815863, 0.002605915, 0.01022993
 84246190, -0.02016336, 0.0004533251, 0.00322052, 0.01022733
 84300545, -0.01989328, 0.0003705693, 0.002716472, 0.01022881
 84355569, -0.01987246, 0.0008582216, 0.003340268, 0.01022863
 84410556, -0.01952397, 0.0001047174, 0.003031645, 0.01022919
 84460610, -0.01733611, 0.001147884, 0.002632192, 0.009298196
 84515560, -0.01971194, -0.0002671414, 0.003099535, 0.01022974
 84570991, -0.01957783, 0.001323388, 0.003500484, 0.01022751
 84625556, -0.01966695, 0.0005921801, 0.002772307, 0.01022863
 84680571, -0.02173353, 0.001395187, 0.005367165, 0.01022863
 84735628, -0.01303282, 0.002379991, 0.0008140295, 0.01022863
 84790593, -0.02356097, 0.0001987, 0.003063011, 0.01022844
 84846262, -0.01757899, 0.0007301153, 0.002821992, 0.01022881
 84896128, -0.01868815, 0.0008921797, 0.002848931, 0.009298753
 84950560, -0.01987529, -3.59139E-05, 0.002575749, 0.01022844
 85005589, -0.01964581, 0.0009637362, 0.002572519, 0.01022882
 85060581, -0.01979088, 0.0005279125, 0.002953575, 0.01022863
 85115557, -0.01902878, 0.0008583487, 0.002760738, 0.01022863
 85170984, -0.02176618, 0.001604744, 3.332325E-05, 0.01022863
 85220986, -0.01642091, -0.002111766, 0.003134615, 0.009299311
 85275560, -0.0237329, 0.005448733, -0.003165022, 0.010229
 85330573, -0.004132749, -0.00080918, 0.0187976, 0.0102277
 85385585, -0.02814852, -0.001721798, -0.002164985, 0.01022863
 85440543, -0.01936777, 0.001739388, -5.228884E-05, 0.01022863
 85496130, -0.02020645, 0.0005557307, 0.00217683, 0.01023012
 85550553, -0.02011302, 0.0007418656, 0.00174564, 0.0102316
 85605580, -0.01874049, 0.001558488, 0.001594213, 0.01022417
 85660557, -0.01916188, 0.001276005, 0.00192283, 0.01022881
 85710572, -0.01757831, -0.001728909, 0.002451062, 0.009299312
 85765623, -0.01905276, 0.0002361295, 0.002866547, 0.0102277
 85821010, -0.01852895, 0.001617986, 0.002295981, 0.010229
 85875577, -0.01968437, 0.001756306, 0.003364141, 0.0102316
 85930532, -0.02018785, 0.00135778, 0.001672545, 0.01022547
 85985560, -0.02160706, -0.002106082, 0.00272578, 0.01022863
 86040538, -0.01927837, 0.0003563471, 0.002465837, 0.01022863
 86095990, -0.01934299, 0.0009632488, 0.001674384, 0.01022863
 86150545, -0.01962768, 0.0003932296, 0.00334567, 0.01023012
 86200557, -0.01601566, 0.003049155, 0.001886069, 0.009297824
 86255574, -0.0207971, -0.0008034713, 0.004137007, 0.01022807
 86310622, -0.0191657, -0.0003609899, 0.0009751613, 0.01022863
 86365605, -0.02002674, -0.0005043262, 0.002121821, 0.01022863
 86420805, -0.01778484, 0.0008572144, 0.003440374, 0.01022863
 86475568, -0.0197268, 0.001771082, 0.002710762, 0.01022863
 86525553, -0.01902509, 0.001100149, 0.001909524, 0.009299311
 86580584, -0.01850886, 0.000290771, 0.001460764, 0.01022807
 86635571, -0.01930475, 0.0004809832, 0.002741478, 0.01022844
 86690544, -0.01878237, 0.0006821484, 0.003566204, 0.01022881
 86746204, -0.02135127, 0.0005601551, 0.003309333, 0.01023198
 86800599, -0.01816045, 0.00248586, 0.001820407, 0.01022881
 86855580, -0.01970865, -5.804419E-05, 0.002088368, 0.01022658
 86910578, -0.01867887, 0.0009010615, 0.003359733, 0.01022863
 86965549, -0.02208544, -0.0009672773, 0.002440254, 0.01022844
 87015576, -0.0177382, 0.0006951512, 0.00164139, 0.009298939
 87071124, -0.01901037, 0.0004744415, 0.001507216, 0.01022863
 87125539, -0.01824663, 0.0003962828, 0.004401174, 0.01022751
 87180597, -0.01983222, 0.001756708, 0.003267911, 0.01022826
 87235588, -0.01880768, -6.027508E-05, 0.001383476, 0.01022993
 87290580, -0.01774162, 0.003616809, 0.003287056, 0.01023123
 87340593, -0.01998534, -0.0005828147, 0.002578278, 0.009296892
 87396004, -0.0235644, -0.004548778, 0.001659988, 0.01022807
 87450560, -0.01717322, 0.00308775, 0.001092006, 0.01022863
 87505567, -0.02111995, -0.0001440951, 0.001657531, 0.01022863
 87560595, -0.0165177, 0.004893911, 0.002117882, 0.0102316
 87615557, -0.02158764, -0.002635917, 0.002056672, 0.01022565
 87671003, -0.0225322, -0.0001665452, 0.001772854, 0.01022937
 87725548, -0.01476307, 0.002732979, 0.001995826, 0.01022788
 87780633, -0.01869739, 0.00148933, 0.0006847162, 0.01022695
 87830575, -0.02274931, -0.00191805, 0.003911352, 0.009298939
 87885624, -0.01457575, 0.001479978, 0.001276485, 0.01023142
 87940619, -0.01909013, 0.002575184, 0.0008558942, 0.01022733
 87995976, -0.02693595, -0.001797581, 0.002948619, 0.01022807
 88050563, -0.01270168, 0.004688711, 0.0006176072, 0.01022919
 88105640, -0.02181417, 0.0006404204, 0.001693656, 0.01022919
 88155544, -0.01659748, -0.000767175, 0.003633854, 0.009298194
 88210583, -0.02311894, 0.0001889219, 0.0008575643, 0.01022863
 88265572, -0.01656406, 0.000679613, 0.002427689, 0.01022863
 88321034, -0.02300281, 0.0003781345, 0.002992278, 0.01023012
 88375799, -0.0156757, 0.002091674, -0.002006584, 0.01022714
 88430541, -0.01959194, 0.0009822011, 0.002586856, 0.01022733
 88485558, -0.0195119, -0.0001377659, 0.004486702, 0.01022863
 88535576, -0.02073679, -0.001081343, 0.0002480801, 0.00930024
 88590548, -0.01831769, -0.0002639345, 0.0007398913, 0.01022695
 88646340, -0.02002232, 0.004978326, 0.005439117, 0.01022974
 88700534, -0.01941053, -0.0005718218, -0.001900054, 0.01022807
 88755579, -0.02114949, 0.0006064616, 0.005289711, 0.01022807
 88810582, -0.01601958, 0.000902774, -0.002353695, 0.01022863
 88865562, -0.0239071, 0.0002516618, -0.00250939, 0.01022956
 88915634, -0.02373067, 0.0003345357, -0.0007385297, 0.009297823
 88970998, -0.01749449, 0.002758061, -0.009631193, 0.01022974
 89025594, -0.01742168, 0.000576621, -0.003928073, 0.01022751
 89080570, -0.01916584, -0.01399817, 0.02398724, 0.01023012
 89135582, -0.03923539, 0.008301528, -0.02262576, 0.01022733
 89190547, -0.03498748, 0.02453224, -0.04359982, 0.01022844
 89246221, -0.02065407, -0.0222775, -0.005011234, 0.01022863
 89300568, -0.05513716, 0.008247957, -0.04182198, 0.01023011
 89355628, -0.05194782, 0.0151137, -0.05307897, 0.01022863
 89410619, -0.03451655, -0.02593474, -0.05148461, 0.01022863
 89460652, -0.05716235, -0.01182164, -0.05058367, 0.009298753
 89515618, -0.05410483, -0.006081553, -0.06376836, 0.01022919
 89570976, -0.04143179, -0.04504499, -0.02633634, 0.01022807
 89625566, -0.06318776, -0.03482976, -0.06908983, 0.01022863
 89680618, -0.05828995, -0.02579547, -0.07536457, 0.01022863
 89735613, -0.03810322, -0.05774162, -0.03243762, 0.01022974
 89790553, -0.06071351, -0.0475827, -0.04706725, 0.01022751
 89846229, -0.05373158, -0.02546347, -0.07104436, 0.01022844
 89900553, -0.03659131, -0.05897154, -0.04712397, 0.01023049
 89955562, -0.0499541, -0.05369949, -0.07098975, 0.01022696
 90010590, -0.05260376, -0.03231963, -0.1104264, 0.010229
 90065546, -0.02430079, -0.05972399, -0.06687032, 0.01022826
 90121005, -0.04205201, -0.04948667, -0.07695861, 0.0102303
 90170999, -0.0313457, -0.01808836, -0.09285469, 0.009297079
 90225558, -0.01165422, -0.06230427, -0.04522423, 0.01022937
 90280592, -0.03691911, -0.0283455, -0.08556093, 0.01022826
 90335602, -0.00887171, -0.01931248, -0.08615586, 0.01022863
 90390552, 0.001425088, -0.05071526, -0.04526141, 0.01022826
 90446363, -0.02380932, -0.007425607, -0.09460522, 0.01022863
 90500565, 0.007733917, -0.0097504, -0.07736738, 0.01022863
 90555574, 0.007055446, -0.02882272, -0.05067863, 0.01022863
 90610591, -0.01368728, 0.01262368, -0.09393714, 0.01022863
 90665552, 0.01396065, 0.008113164, -0.071711, 0.01022863
 90721110, 0.008971809, -0.007997567, -0.04783303, 0.01022844
 90775659, -0.008499457, 0.03295978, -0.08913369, 0.01022881
 90830585, 0.01967186, 0.02126363, -0.06523718, 0.01022863
 90885576, 0.01304477, 0.006075241, -0.04468327, 0.01022956
 90935599, -0.006252999, 0.0407968, -0.08019441, 0.009298009
 90990540, 0.01794577, 0.02488688, -0.05905305, 0.01022826
 91046206, 0.009587345, 0.0150733, -0.05126352, 0.01022881
 91100580, -0.00334152, 0.04261211, -0.08694347, 0.0102316
 91155574, 0.01327949, 0.03095353, -0.06787925, 0.01022565
 91210624, 0.005744456, 0.01877413, -0.05728349, 0.01022863
 91265571, -0.005975288, 0.04065364, -0.08235333, 0.01022863
 91321025, 0.006863859, 0.03348348, -0.07115664, 0.01022863
 91375746, 0.0007656015, 0.02126468, -0.06120359, 0.01023067
 91430563, -0.009244594, 0.03699541, -0.07374761, 0.01022751
 91485578, -0.006632375, 0.03439175, -0.06911587, 0.0102277
 91540557, -0.00492667, 0.02491586, -0.06043149, 0.01022863
 91596028, -0.01204893, 0.02937392, -0.06387646, 0.01022863
 91647165, -0.01305692, 0.03092844, -0.06224509, 0.009298753
 91700542, -0.01047914, 0.02458165, -0.05493919, 0.01022863
 91755588, -0.01646546, 0.02418006, -0.05563588, 0.01022956
 91810587, -0.01932029, 0.02873982, -0.05728272, 0.0102277
 91865585, -0.01834016, 0.02036899, -0.03089413, 0.010229
 91921017, -0.02001029, 0.0159923, -0.006721106, 0.01022826
 91975893, -0.01804392, 0.01879767, 0.009346608, 0.01022863
 92030567, -0.02053901, 0.01457723, 0.02994559, 0.01022863
 92085596, -0.01736199, 0.006762925, 0.04576553, 0.01022863
 92140609, -0.01721823, 0.0106727, 0.052627, 0.01022863
 92196020, -0.02058017, 0.0097485, 0.0842228, 0.01022863
 92250592, -0.01355763, 0.0006971571, 0.1396873, 0.01023439
 92305566, -0.009585156, 0.005788815, 0.1786785, 0.01022286
 92355564, -0.01377009, 0.00288257, 0.1988696, 0.009298567
 92410585, -0.008853031, -0.002126185, 0.2452134, 0.01022881
 92465549, -0.00589886, 0.002229881, 0.2520743, 0.0102303
 92520935, -0.00903971, -0.002393809, 0.265215, 0.01022919
 92575755, -0.002107885, -0.002480639, 0.265157, 0.01022658
 92630558, -0.003860796, -0.001591187, 0.2544427, 0.01022844
 92685564, -0.006535105, -0.003279536, 0.2586613, 0.01022956
 92740624, -0.0003190262, -0.001999496, 0.2468515, 0.01022751
 92796045, -0.001631291, -0.001725565, 0.2476392, 0.01022937
 92850590, -0.0001068584, -0.001715328, 0.236318, 0.01022733
 92905544, 0.0006360933, -0.001598184, 0.2384432, 0.01022937
 92960590, -0.001670267, -0.0009246869, 0.2312197, 0.01023012
 93015580, 0.0009270341, 0.002792884, 0.2242057, 0.01022751
 93065548, -0.001631603, 0.000719708, 0.203743, 0.009298939
 93121004, -0.0009587453, 0.005675238, 0.2166311, 0.01022807
 93175568, -0.001037483, 0.006033072, 0.2086125, 0.01023049
 93230577, -0.00270828, 0.00525739, 0.2010947, 0.01022677
 93285600, -0.002585541, 0.01363012, 0.1877734, 0.01022863
 93340577, -0.005922957, 0.01457798, 0.1788968, 0.01022863
 93396126, -0.007796716, 0.02307075, 0.1692602, 0.01022863
 93450603, -0.01242064, 0.02869784, 0.1638203, 0.01022863
 93505623, -0.01392305, 0.03873289, 0.1532839, 0.01022956
 93560599, -0.01665468, 0.04331675, 0.1363887, 0.01022919
 93615566, -0.01677903, 0.04341662, 0.1257907, 0.01022807
 93670991, -0.01877629, 0.0532507, 0.1106745, 0.0102277
 93725566, -0.02833609, 0.05383446, 0.1078582, 0.01022863
 93775790, -0.02467027, 0.04095425, 0.09184647, 0.009300241
 93830573, -0.0183968, 0.05442644, 0.1016559, 0.01022714
 93885565, -0.0346343, 0.02962545, 0.1117451, 0.01022863
 93940564, -0.01359844, 0.0501042, 0.08730954, 0.01022863
 93995993, -0.01877617, 0.02760838, 0.1184518, 0.01022844
 94055565, -0.02761361, -0.001235231, 0.1209549, 0.01115869
 94105555, -0.0253006, 0.02082321, 0.08664247, 0.009298753
 94160582, -0.02008354, -0.001551221, 0.109719, 0.01022863
 94215566, -0.01905359, -0.0175071, 0.1109241, 0.01023067
 94271163, -0.03985525, -0.009823119, 0.05939533, 0.01022695
 94325581, -0.03622336, -0.028129, 0.06084312, 0.01022881
 94380575, -0.03002928, -0.05191517, 0.07325776, 0.01022807
 94435592, -0.04457744, -0.04101425, 0.0516415, 0.01022863
 94490546, -0.04990507, -0.03996048, 0.01248954, 0.0102303
 94540592, -0.03137314, -0.07820328, 0.02080791, 0.009298195
 94596017, -0.06533394, -0.07294308, -0.02525018, 0.01022751
 94655566, -0.06955092, -0.09442881, -0.08195319, 0.0111585
 94705565, -0.04561674, -0.1003852, -0.05186693, 0.009298939
 94760593, -0.06378491, -0.1126005, -0.06393057, 0.01023012
 94815610, -0.06625632, -0.1149032, -0.2093759, 0.01022695
 94871133, -0.07211741, -0.1459497, -0.2525755, 0.010229
 94925574, -0.06821662, -0.1006408, -0.3784381, 0.01022826
 94980570, -0.06626212, -0.05781207, -0.5262593, 0.01022863
 95035613, -0.06118499, -0.0003562744, -0.5589061, 0.01022863
 95090654, -0.06605187, 0.09290245, -0.6265041, 0.01022919
 95147157, -0.087712, 0.1658172, -0.6621663, 0.01022974
 95200536, -0.1034586, 0.2478834, -0.6734056, 0.01022807
 95255580, -0.1299869, 0.3075781, -0.6661758, 0.01022751
 95305630, -0.1306142, 0.3262322, -0.600454, 0.009300428
 95360582, -0.1551149, 0.3908547, -0.6451814, 0.01022733
 95415568, -0.1672572, 0.4048531, -0.6119256, 0.01022825
 95471026, -0.1619226, 0.3818185, -0.5112298, 0.01023012
 95525585, -0.1410809, 0.3327655, -0.389836, 0.01022714
 95580577, -0.1236317, 0.2820655, -0.2962093, 0.01022919
 95635591, -0.1059923, 0.2355873, -0.220831, 0.01022826
 95690551, -0.08607972, 0.1917453, -0.1610043, 0.010229
 95747171, -0.06913685, 0.1455644, -0.1143667, 0.01022974
 95800621, -0.05557817, 0.1012237, -0.06959908, 0.01022695
 95855571, -0.04367144, 0.0526456, -0.03405207, 0.01022863
 95910586, -0.02851944, -0.0007665379, -0.01762054, 0.01022919
 95960622, -0.01613343, -0.05194227, 0.002635772, 0.009298752
 96015576, -0.01138947, -0.09836198, -0.009725278, 0.01022807
 96071145, -0.0009119993, -0.1670052, 0.005146929, 0.01022863
 96125545, 0.009412701, -0.2175486, 0.01788908, 0.01023049
 96180631, 0.01608254, -0.2583128, 0.01535759, 0.01022677
 96235652, 0.02060201, -0.3033829, 0.02940365, 0.01023012
 96290578, 0.02924849, -0.3379382, 0.04261167, 0.0102277
 96347206, 0.03700223, -0.3697801, 0.03881432, 0.01022807
 96400559, 0.03906401, -0.3925388, 0.04458145, 0.01022937
 96455591, 0.04380269, -0.4102573, 0.05829164, 0.01022788
 96510589, 0.04871912, -0.4294793, 0.07023018, 0.01022956
 96565626, 0.04937463, -0.4491534, 0.06007673, 0.01022751
 96621027, 0.05164828, -0.4620607, 0.05884731, 0.01022881
 96671020, 0.04526216, -0.4119731, 0.05091591, 0.009298753
 96725570, 0.04340725, -0.4279913, 0.05507607, 0.01022882
 96780590, 0.03886329, -0.3759735, 0.03842556, 0.010229
 96835656, 0.0354326, -0.3028568, 0.04611193, 0.01022882
 96890552, 0.02842309, -0.2374865, 0.08060019, 0.01022788
 96947161, 0.02451858, -0.1783948, 0.07240027, 0.01023012
 97000560, 0.02662905, -0.1299699, 0.06720474, 0.01023067
 97055552, 0.02453028, -0.09834079, 0.07239532, 0.01022491
 97110576, 0.02330676, -0.06220787, 0.06304542, 0.01022956
 97165553, 0.02416495, -0.02893908, 0.04769581, 0.0102277
 97221014, 0.02156353, -0.005629621, 0.04111741, 0.01022882
 97275582, 0.01679122, 0.01809803, 0.0301833, 0.01022974
 97330612, 0.01540839, 0.04878922, 0.006621324, 0.01022826
 97385580, 0.009859215, 0.07379431, -0.008627655, 0.01022863
 97435585, 0.004132939, 0.08356961, -0.01247338, 0.009298009
 97490572, 0.001068846, 0.1136299, -0.02429409, 0.01022863
 97547269, -0.006610073, 0.1402305, -0.03832114, 0.01022863
 97600615, -0.008985334, 0.1604823, -0.04585261, 0.01022863
 97655566, -0.01446108, 0.1763565, -0.04730219, 0.01022863
 97710586, -0.02433001, 0.1901845, -0.05010333, 0.01022863
 97765559, -0.02602008, 0.2118371, -0.05884079, 0.01022863
 97821023, -0.02917944, 0.2249171, -0.05988155, 0.01022974
 97875579, -0.03693926, 0.2315312, -0.05959113, 0.0102277
 97925547, -0.03420824, 0.2178453, -0.05381787, 0.009298568
 97980579, -0.03952721, 0.2483324, -0.05985552, 0.01022863
 98030554, -0.03811026, 0.2191421, -0.04764974, 0.009298753
 98085582, -0.04396471, 0.2425355, -0.05205652, 0.01022919
 98140596, -0.04421818, 0.2441102, -0.0523477, 0.01022807
 98200568, -0.05170095, 0.255008, -0.05079634, 0.01116055
 98260570, -0.050244, 0.2435833, -0.04571591, 0.01115701
 98315574, -0.04198247, 0.2150497, -0.03504334, 0.01022826
 98370988, -0.04213932, 0.2070059, -0.03335641, 0.01022844
 98421015, -0.0403975, 0.1713794, -0.0187764, 0.009299869
 98475572, -0.03759577, 0.1772924, -0.01929337, 0.01022751
 98525557, -0.03158896, 0.1519687, -0.01782385, 0.009299311
 98585570, -0.03966497, 0.1650569, -0.01541685, 0.01115795
 98640563, -0.03201735, 0.1347658, -0.01508961, 0.01022937
 98695887, -0.02958155, 0.1247293, -0.01482665, 0.01022788
 98750597, -0.02378034, 0.1093206, -0.01127733, 0.01022937
 98800787, -0.0201745, 0.08199777, 0.0004114695, 0.009297824
 98855778, -0.01529871, 0.0614637, 0.01634813, 0.01022882
 98908766, -0.01731736, 0.04437273, 0.009852199, 0.009763506
 98963484, -0.002248132, -0.009141079, 0.0112691, 0.01022881
 99018609, -0.009159815, -0.02011606, -0.008372528, 0.01022919
 99078394, -0.003766616, -0.05394414, 0.01471073, 0.0111585
 99138419, 0.004712089, -0.08847053, 0.05513305, 0.0111585
 99188426, -0.001258109, -0.07769152, 0.04753301, 0.009298567
 99243562, -0.005539402, -0.07083471, 0.05163125, 0.01022807
 99296173, -0.0005344995, -0.08103029, 0.09559648, 0.009763877
 99350772, -0.01003328, -0.07178866, 0.09739703, 0.0102277
 99405740, -0.0108231, -0.05293904, 0.09676702, 0.01022956
 99455756, -0.007752497, -0.05347909, 0.1177167, 0.009298752
 99510774, -0.01700709, -0.04516336, 0.1358725, 0.01022919
 99565759, -0.01418362, -0.0295362, 0.1429478, 0.01022807
 99621144, -0.0127047, -0.03394841, 0.1536413, 0.01022863
 99675807, -0.01676724, -0.02683891, 0.1513179, 0.010229
 99730755, -0.0158811, -0.01308587, 0.1436052, 0.01022826
 99785776, -0.01784491, -0.01420283, 0.1618695, 0.01022937
 99840772, -0.0176066, -0.01229714, 0.1694533, 0.01022788
 99890760, -0.01679768, 0.00797187, 0.1402773, 0.009298753
 99947314, -0.01958746, -0.00513886, 0.183879, 0.01023067
 100000767, -0.01688723, -0.01285398, 0.1862778, 0.01022658
 100055757, -0.02183042, 0.006237285, 0.1626465, 0.01022844
 100110776, -0.01949146, -0.008324355, 0.1744328, 0.01022974
 100165993, -0.0178452, -0.02835189, 0.1836916, 0.01022937
 100215759, -0.02780282, -0.002536889, 0.1432101, 0.009297451
 100271158, -0.02056286, -0.02829203, 0.1862798, 0.01022826
 100325792, -0.01613669, -0.0331519, 0.1707836, 0.01022919
 100380915, -0.02855721, -0.01721082, 0.1305014, 0.01023049
 100436041, -0.02601835, -0.02899852, 0.1440528, 0.01022714
 100490751, -0.01344211, -0.03770975, 0.1500545, 0.01022826
 100547305, -0.03522846, -0.01635837, 0.1309571, 0.01022807
 100596175, -0.01851748, -0.0268202, 0.1247967, 0.009300428
 100655759, -0.01635829, -0.03363992, 0.1671156, 0.01115664
 100705999, -0.03512117, -0.01070499, 0.1332474, 0.009298939
 100760807, -0.01532388, -0.02916386, 0.1493896, 0.01022956
 100815777, -0.02059736, -0.03464494, 0.1532002, 0.01022826
 100871153, -0.04453804, -0.01733418, 0.1274267, 0.01022807
 100925750, -0.01019703, -0.03525839, 0.1375734, 0.01022863
 100975997, -0.03514337, -0.03878207, 0.1392382, 0.009299125
 101030757, -0.03187532, -0.02456861, 0.1137717, 0.01022937
 101085782, -0.01670813, -0.05581709, 0.1294954, 0.01022863
 101140768, -0.0498747, -0.04374034, 0.10522, 0.01022751
 101196252, -0.02658166, -0.03468474, 0.06990102, 0.01022863
 101250796, -0.02836759, -0.06986469, 0.1204384, 0.01023123
 101305762, -0.05208346, -0.03535355, 0.06655917, 0.01022658
 101355782, -0.02138562, -0.04179257, 0.05675189, 0.009298011
 101410717, -0.04580362, -0.06202743, 0.07707647, 0.01023197
 101465784, -0.05214737, -0.02651616, 0.02328481, 0.01022677
 101521170, -0.01953404, -0.05331447, 0.04756032, 0.01022993
 101575888, -0.05892435, -0.0520184, 0.03785791, 0.01022621
 101630720, -0.03831293, -0.0193416, -0.001284597, 0.01022919
 101680767, -0.02514273, -0.05217982, 0.03441245, 0.009299682
 101735795, -0.0540184, -0.02152482, 0.01631026, 0.01022863
 101790774, -0.02170171, -0.01727012, 0.02335692, 0.01022807
 101847351, -0.03557267, -0.04177089, 0.05562091, 0.01022807
 101900783, -0.04367474, -0.01904515, 0.01110421, 0.01022826
 101955888, -0.01964908, -0.02493975, 0.006720196, 0.01022844
 102010781, -0.02609842, -0.05249874, 0.02285983, 0.01022863
 102060883, -0.03534662, -0.02919818, -0.01961076, 0.009299682
 102115953, -0.0143985, -0.04901395, -0.001079044, 0.01022826
 102171230, -0.01733346, -0.06298427, 0.02043866, 0.01023179
 102225763, -0.02561523, -0.04328685, -0.01660926, 0.01022658
 102278421, 0.001690395, -0.07216796, 0.02698602, 0.009762574
 102333736, -0.01604275, -0.07129084, 0.009804863, 0.01022863
 102390758, -0.01713805, -0.06279096, -0.02031089, 0.01069301
 102447330, -0.001091096, -0.08532726, 0.01717678, 0.01022863
 102496125, -0.01528006, -0.07436686, -0.005324997, 0.009298753
 102555754, -0.01646618, -0.07083022, -0.01417397, 0.0111585
 102605748, 0.005047696, -0.0858377, 0.02287631, 0.009298568
 102660758, -0.02686088, -0.07063022, -0.02207481, 0.01022881
 102715784, -0.009122564, -0.06174092, -0.02870559, 0.01022863
 102771174, -0.004548924, -0.08494891, 0.0006619125, 0.01022844
 102821296, -0.0354101, -0.04017972, -0.03423721, 0.009298939
 102875800, -0.005307119, -0.05932654, -0.02491625, 0.01022863
 102930768, -0.02147489, -0.05699591, -0.006843026, 0.01022863
 102985722, -0.03916988, -0.02202176, -0.02386164, 0.01022863
 103040759, -0.003814286, -0.04881772, 0.01166655, 0.01022863
 103096129, -0.0349718, -0.04063904, 0.005619253, 0.01022863
 103147321, -0.02939475, -0.01006635, -0.04047912, 0.009298754
 103200763, -0.01336318, -0.04124715, -0.009307405, 0.01022863
 103255775, -0.03826276, -0.02169018, -0.02057719, 0.010229
 103310796, -0.02264538, 0.004008706, -0.01338643, 0.01022863
 103365760, -0.008692466, -0.02535852, 0.01071786, 0.01022974
 103421149, -0.03147251, 0.007482332, -0.005568372, 0.01022714
 103475750, -0.01028171, 0.006816055, -0.002933535, 0.01022919
 103525771, -0.01885637, -0.01765574, 0.01263522, 0.009298194
 103580789, -0.01443613, 0.01960402, -0.01470236, 0.01022881
 103635994, 0.0008230408, -0.007097478, 0.01509363, 0.01022844
 103690886, -0.01408535, -0.003377705, 0.007174208, 0.01022881
 103747330, 0.003525573, 0.02140086, -0.01871291, 0.01022826
 103800765, 0.007453843, -0.006854094, 0.0145667, 0.01022937
 103856012, 0.007050602, 0.001239891, 0.005803732, 0.01022807
 103905761, 0.02337323, 0.02806568, -0.01863419, 0.009298752
 103960788, 0.02136957, -0.01213271, 0.02081824, 0.01023105
 104015794, 0.0343543, 0.02272418, -0.02598001, 0.01022621
 104068420, 0.03079942, 0.01852516, -0.01377182, 0.009763692
 104123332, 0.02875417, 0.002748406, 0.002347109, 0.01023086
 104178416, 0.04936631, 0.04979359, -0.01456151, 0.0102264
 104233730, 0.01310054, 0.01246296, 0.02130949, 0.01022863
 104285791, 0.04341202, 0.03665085, 0.01609525, 0.009762201
 104340768, 0.01925914, 0.03297454, 0.01009576, 0.01023086
 104396387, 0.01132893, 0.02033739, 0.01018258, 0.01022788
 104450748, 0.03804903, 0.03239198, -0.007532955, 0.0102277
 104505773, -0.006379918, 0.0101999, -0.0005574378, 0.01022956
 104555772, 0.001942626, 0.01833444, -0.003206654, 0.009299311
 104610790, 0.001047255, 0.01086862, 0.005390964, 0.01022789
 104666000, -0.03969367, -0.007306339, 0.02611867, 0.01022881
 104721145, -0.02410934, 0.01339077, -0.01542767, 0.01022881
 104775994, -0.02405939, -0.01001736, -0.003890162, 0.01022993
 104830759, -0.07247782, -0.02456694, -0.0004447442, 0.01022714
 104885778, -0.0504323, 0.01995849, -0.04762873, 0.01022863
 104936011, -0.05149749, -0.0289884, 0.007028326, 0.009298753
 104990755, -0.08879312, 0.006004857, -0.03639549, 0.01022863
 105047364, -0.04978012, 0.01783396, -0.03507094, 0.01022937
 105100768, -0.08181714, -0.01830588, 0.01408327, 0.01022844
 105155773, -0.08737303, 0.04832313, -0.04688872, 0.01022807
 105210979, -0.05093922, 0.02482137, -0.01346481, 0.01022863
 105260773, -0.08583091, 0.03372844, 0.001933769, 0.009298753
 105316005, -0.06517798, 0.08147382, -0.02741239, 0.01022863
 105371253, -0.05511936, 0.06132876, 0.01466933, 0.01022844
 105425762, -0.08306576, 0.09540214, 0.01658767, 0.01022919
 105480789, -0.04798935, 0.1216855, -0.004545496, 0.01022826
 105535798, -0.04892686, 0.09682787, 0.02180258, 0.01022919
 105590750, -0.06498068, 0.1280138, 0.0118071, 0.01022807
 105640765, -0.02142241, 0.1303733, -0.005203993, 0.009297266
 105696160, -0.05267177, 0.1266531, -0.006717413, 0.01022863
 105755789, -0.03835338, 0.1616822, 0.004094509, 0.01115999
 105805751, -0.01678418, 0.1060715, 0.02991444, 0.009297265
 105863368, -0.03354954, 0.1421684, 0.02053695, 0.01069766
 105913370, -0.01521149, 0.12191, 0.009907287, 0.009296335
 105965745, -0.01518375, 0.1036134, 0.02471233, 0.009764062
 106021182, -0.01649954, 0.1295271, 0.0097868, 0.01023067
 106075769, -0.0026349, 0.1090886, 0.02583796, 0.01022695
 106130771, -0.006028723, 0.09058169, 0.03168658, 0.0102277
 106185766, -0.002219006, 0.106582, 0.002185459, 0.01022863
 106241006, -0.002819515, 0.07053123, 0.01920306, 0.01022881
 106296127, -0.006580206, 0.07072307, 0.004501522, 0.01022695
 106347347, 0.001180106, 0.06653204, -0.01087124, 0.009298753
 106400805, -0.008869054, 0.03819639, 0.01084917, 0.01023067
 106455768, -0.009844918, 0.06669531, -0.02477374, 0.01022826
 106511041, -0.01015439, 0.05870273, 9.574404E-06, 0.01023011
 106565758, -0.01872974, 0.04298891, 0.02560074, 0.01022547
 106621141, -0.003959278, 0.09503131, -0.009803381, 0.01023011
 106671133, -0.01146067, 0.07431566, 0.0200085, 0.009298753
 106725785, -0.01107367, 0.09945245, 0.0171066, 0.01022881
 106781029, -0.01087492, 0.1439306, -0.007400084, 0.01022863
 106835815, -0.01573893, 0.134944, 0.0113142, 0.01022844
 106890905, -0.02253609, 0.1624234, 0.0123828, 0.01022881
 106947413, -0.02299481, 0.2040192, -0.003570687, 0.01022844
 106996371, -0.02694732, 0.1788583, 0.002405717, 0.009298753
 107055782, -0.042964, 0.2245976, -0.004278201, 0.0111585
 107105753, -0.03810682, 0.2145011, -0.01656366, 0.009300241
 107160783, -0.05399527, 0.2214697, -0.01991792, 0.01022826
 107215736, -0.05201586, 0.2041515, -0.003364613, 0.01022751
 107271167, -0.05548237, 0.2033919, -0.006070123, 0.01022863
 107321296, -0.05494968, 0.1721845, 0.003995139, 0.009298567
 107375898, -0.0481452, 0.1562456, 0.02521148, 0.01022974
 107430764, -0.05065051, 0.1553187, 0.01899612, 0.0102277
 107485765, -0.05316233, 0.133775, 0.01705007, 0.01022863
 107540760, -0.03190549, 0.113344, 0.009883431, 0.01022863
 107596258, -0.03882914, 0.07989915, 0.01549791, 0.01022937
 107647324, -0.03813496, 0.06643877, -0.02100567, 0.009297823
 107700762, -0.0003534628, 0.03898582, 0.01206395, 0.01022789
 107755789, -0.03498209, -0.007224552, 0.02831524, 0.01022956
 107810800, -0.01421167, 0.01346669, -0.006584477, 0.01022863
 107865759, 0.01306026, -0.04145334, 0.02669158, 0.01022881
 107921153, -0.04498962, -0.054693, 0.02127961, 0.01022826
 107971151, 0.006780206, -0.03308361, -0.01241092, 0.009299684
 108025764, -0.02070374, -0.09376306, 0.0367693, 0.01022881
 108086024, -0.05390261, -0.08263194, -0.02382134, 0.01115739
 108135778, -0.007493236, -0.06226809, -0.01186925, 0.009299682
 108190749, -0.04596911, -0.1105282, 0.03820959, 0.01022807
 108247349, -0.05231939, -0.07249488, -0.02253728, 0.01022974
 108298458, -0.01778476, -0.07244052, -0.0008307642, 0.009762575
 108356004, -0.04949677, -0.1007306, 0.03366082, 0.01069338
 108405770, -0.03786738, -0.03259378, -0.03542143, 0.009300613
 108460753, -0.02358223, -0.06290946, 0.01840851, 0.01022677
 108515791, -0.04303171, -0.05998004, 0.02355875, 0.01022863
 108571257, -0.02038291, 0.003630859, -0.04158946, 0.0102303
 108626056, -0.01918732, -0.03791748, 0.02134216, 0.01022881
 108675992, -0.02154753, 0.0005270415, -0.007371635, 0.009297451
 108730876, -0.01678942, 0.03014107, -0.02057374, 0.01022807
 108785802, -0.01533991, -0.009312214, 0.02094207, 0.01023086
 108840779, -0.01406239, 0.0369978, -0.02565302, 0.01022695
 108896271, -0.01911776, 0.0505664, -0.02746158, 0.01022844
 108950751, -0.009359906, 0.02478664, 0.006479439, 0.01022677
 109000796, -0.01529829, 0.04199413, -0.01467805, 0.009300798
 109055776, -0.02153428, 0.06188664, -0.01302502, 0.01022807
 109110793, -0.008026509, 0.02661804, 0.01773176, 0.01022881
 109166001, -0.02987705, 0.04673311, -0.01005117, 0.01022974
 109221149, -0.02887223, 0.06510013, -0.02436026, 0.01022733
 109275800, -0.01745225, 0.03133625, 0.007691456, 0.01022881
 109325790, -0.03844076, 0.04293237, -0.01006973, 0.009300241
 109380785, -0.02856067, 0.05844451, -0.0110706, 0.01022677
 109435812, -0.02219641, 0.02512715, 0.02051518, 0.01022881
 109490743, -0.0362212, 0.03640868, 0.003047875, 0.01022844
 109547318, -0.03220916, 0.05149198, -0.01432595, 0.01022881
 109600745, -0.02294148, 0.01136194, 0.02140082, 0.01022863
 109655767, -0.0277716, 0.02158983, 0.004334363, 0.0102303
 109705998, -0.02709287, 0.03613368, -0.009564197, 0.009298381
 109760800, -0.01000646, -0.002677561, 0.02795969, 0.01022732
 109815776, -0.02504489, 0.01680789, 0.01152198, 0.01022863
 109871167, -0.02253272, 0.025473, -0.005258698, 0.01022919
 109925800, -0.01057654, -0.0116974, 0.029954, 0.01022974
 109976102, -0.0276727, 0.00757759, -0.005080382, 0.009297266
 110030788, -0.01533625, 0.007485854, -0.007582076, 0.010229
 110085790, -0.01128515, -0.02331208, 0.02214472, 0.01022807
 110140761, -0.02110035, -0.004145065, -0.008104756, 0.01022863
 110196249, -0.01557312, 0.001439653, -0.00422637, 0.01022863
 110251003, -0.008310553, -0.0303829, 0.03123977, 0.01022937
 110300720, -0.0141296, -0.005115259, 0.0006560264, 0.009298196
 110355942, -0.01447254, -0.004175985, -0.004805838, 0.01022919
 110410998, -0.003913222, -0.03089745, 0.02429515, 0.01022789
 110465742, -0.01057443, -0.009335095, -0.005432444, 0.01022937
 110521183, -0.01443896, -0.00267464, 0.0002320533, 0.0102277
