TimeUS,COFN,COFE,CNe,CEe,POFN,POFE,PNe,PEe
 56773702, 0.002133986, -0.0004492077, 0.006715087, -0.005361526, 0.01047543, -0.02978992, 0.006841542, -0.006050369
 56829363, -0.0001013925, 0.01941929, 0.006711786, -0.005614711, 0.002133986, -0.0004492077, 0.006715087, -0.005361526
 56884580, -0.004037738, 0.009072834, 0.006808128, -0.005491565, -0.0001013925, 0.01941929, 0.006711786, -0.005614711
 56939313, 0.004555983, -0.02121392, 0.006964825, -0.005851933, -0.004037738, 0.009072834, 0.006808128, -0.005491565
 56994341, 0.002814976, -0.005651916, 0.00701637, -0.005622136, 0.004555983, -0.02121392, 0.006964825, -0.005851933
 57049354, 0.002215902, -0.0005027844, 0.007052987, -0.005629205, 0.002814976, -0.005651916, 0.00701637, -0.005622136
 57104313, -0.001308776, 0.03143417, 0.007164653, -0.0062881, 0.002215902, -0.0005027844, 0.007052987, -0.005629205
 57154301, 0.001678874, 0.004882638, 0.007122623, -0.00569596, -0.001308776, 0.03143417, 0.007164653, -0.0062881
 57209574, 0.002831451, -0.005742438, 0.0071362, -0.005714519, 0.001678874, 0.004882638, 0.007122623, -0.00569596
 57264312, 0.008771911, -0.01044823, 0.007190208, -0.005780717, 0.002831451, -0.005742438, 0.0071362, -0.005714519
 57319319, 0.00288622, -0.005883232, 0.007157948, -0.005731284, 0.008771911, -0.01044823, 0.007190208, -0.005780717
 57374290, -0.001876498, 0.03636745, 0.007179669, -0.006481692, 0.00288622, -0.005883232, 0.007157948, -0.005731284
 57429298, 0.001629204, 0.004750557, 0.006970096, -0.005569667, -0.001876498, 0.03636745, 0.007179669, -0.006481692
 57484867, 0.002796781, -0.005650258, 0.006848207, -0.005481802, 0.001629204, 0.004750557, 0.006970096, -0.005569667
 57539302, 0.002687844, -0.005432063, 0.006768579, -0.005416304, 0.002796781, -0.005650258, 0.006848207, -0.005481802
 57594347, 0.002720922, -0.005491931, 0.006857092, -0.005485615, 0.002687844, -0.005432063, 0.006768579, -0.005416304
 57649269, -0.002448345, 0.04078709, 0.007057634, -0.006608032, 0.002720922, -0.005491931, 0.006857092, -0.005485615
 57704317, 0.0009838063, 0.009418418, 0.006609005, -0.005325873, -0.002448345, 0.04078709, 0.007057634, -0.006608032
 57759587, 0.002447618, -0.005005592, 0.006220922, -0.004977042, 0.0009838063, 0.009418418, 0.006609005, -0.005325873
 57814318, 0.003583842, -0.01456235, 0.006383272, -0.005255878, 0.002447618, -0.005005592, 0.006220922, -0.004977042
 57864359, 0.006787806, 0.0001156402, 0.006463781, -0.005113866, 0.003583842, -0.01456235, 0.006383272, -0.005255878
 57919309, -0.0006643357, 0.02245894, 0.006159731, -0.005327478, 0.006787806, 0.0001156402, 0.006463781, -0.005113866
 57974275, 0.005879114, 0.004563071, 0.006087474, -0.004824454, -0.0006643357, 0.02245894, 0.006159731, -0.005327478
 58029293, 0.003483864, -0.0143442, 0.006217313, -0.005126564, 0.005879114, 0.004563071, 0.006087474, -0.004824454
 58084839, 0.00723503, -0.004605562, 0.006386438, -0.005071302, 0.003483864, -0.0143442, 0.006217313, -0.005126564
 58139304, 0.008396982, -0.009973838, 0.006882181, -0.005520886, 0.00723503, -0.004605562, 0.006386438, -0.005071302
 58194366, 0.01381759, 0.03805569, 0.007385841, -0.006436818, 0.008396982, -0.009973838, 0.006882181, -0.005520886
 58249368, 0.001674055, 0.004812979, 0.007106345, -0.00566354, 0.01381759, 0.03805569, 0.007385841, -0.006436818
 58304331, 0.003496832, -0.01101501, 0.007140976, -0.005754217, 0.001674055, 0.004812979, 0.007106345, -0.00566354
 58359840, 0.002803979, -0.005719316, 0.007151211, -0.005706019, 0.003496832, -0.01101501, 0.007140976, -0.005754217
 58414330, 0.001623288, 0.004795799, 0.007161528, -0.005704118, 0.002803979, -0.005719316, 0.007151211, -0.005706019
 58469285, -0.001360352, 0.03128127, 0.007235047, -0.006303545, 0.001623288, 0.004795799, 0.007161528, -0.005704118
 58519337, 0.0004353969, 0.01517992, 0.007048936, -0.005739427, -0.001360352, 0.03128127, 0.007235047, -0.006303545
 58574319, 0.003923981, -0.01592668, 0.006910722, -0.005659993, 0.0004353969, 0.01517992, 0.007048936, -0.005739427
 58629344, 0.001607817, 0.004687191, 0.006965393, -0.005544218, 0.003923981, -0.01592668, 0.006910722, -0.005659993
 58684897, 0.008605205, -0.01029417, 0.007085104, -0.005672631, 0.001607817, 0.004687191, 0.006965393, -0.005544218
 58739324, -0.001351764, 0.03040726, 0.00696865, -0.006105313, 0.008605205, -0.01029417, 0.007085104, -0.005672631
 58794285, 0.001565262, 0.00464762, 0.006953978, -0.005532334, -0.001351764, 0.03040726, 0.00696865, -0.006105313
 58849329, -0.002479947, -0.006405358, 0.007157578, -0.005699118, 0.001565262, 0.00464762, 0.006953978, -0.005532334
 58904337, 0.007731232, 0.0001378208, 0.007392342, -0.005835818, -0.002479947, -0.006405358, 0.007157578, -0.005699118
 58959594, 0.003481148, -0.01116975, 0.007112033, -0.005721976, 0.007731232, 0.0001378208, 0.007392342, -0.005835818
 59014293, 0.002598318, 0.04155316, 0.007167968, -0.006626956, 0.003481148, -0.01116975, 0.007112033, -0.005721976
 59069322, 0.001565468, 0.004765288, 0.007056836, -0.005609885, 0.002598318, 0.04155316, 0.007167968, -0.006626956
 59124371, 0.004320184, -0.01772335, 0.007203719, -0.005899096, 0.001565468, 0.004765288, 0.007056836, -0.005609885
 59179322, 0.01355328, 0.0003743728, 0.007484417, -0.005836625, 0.004320184, -0.01772335, 0.007203719, -0.005899096
 59229346, 0.00285817, -0.005917462, 0.007468676, -0.005946467, 0.01355328, 0.0003743728, 0.007484417, -0.005836625
 59284915, -0.002282359, 0.03873388, 0.007658866, -0.006811894, 0.00285817, -0.005917462, 0.007468676, -0.005946467
 59339451, 0.001703999, 0.004986497, 0.007348154, -0.005838605, -0.002282359, 0.03873388, 0.007658866, -0.006811894
 59394383, 0.01565197, -0.02548508, 0.007253337, -0.006086795, 0.001703999, 0.004986497, 0.007348154, -0.005838605
 59449294, 0.007760018, -0.004871351, 0.006737958, -0.005330046, 0.01565197, -0.02548508, 0.007253337, -0.006086795
 59504344, 0.00133212, 0.004273264, 0.006287326, -0.004993686, 0.007760018, -0.004871351, 0.006737958, -0.005330046
 59559625, -0.001311696, 0.0278096, 0.006483664, -0.005707742, 0.00133212, 0.004273264, 0.006287326, -0.004993686
 59614315, 0.0008874669, 0.00451253, 0.006491194, -0.005156119, -0.001311696, 0.0278096, 0.006483664, -0.005707742
 59669381, 0.0104902, -0.02593145, 0.006904465, -0.005906459, 0.0008874669, 0.00451253, 0.006491194, -0.005156119
 59724331, 0.0159938, -0.008819696, 0.00728718, -0.005713101, 0.0104902, -0.02593145, 0.006904465, -0.005906459
 59779344, 0.01287516, -0.02516512, 0.006708211, -0.00573627, 0.0159938, -0.008819696, 0.00728718, -0.005713101
 59834639, -0.007255313, 0.03661111, 0.006481444, -0.006145709, 0.01287516, -0.02516512, 0.006708211, -0.00573627
 59885119, 0.002020122, 0.004543042, 0.006426942, -0.005101304, -0.007255313, 0.03661111, 0.006481444, -0.006145709
 59939364, 0.009931157, -0.02361372, 0.006446991, -0.005537327, 0.002020122, 0.004543042, 0.006426942, -0.005101304
 59994296, 0.0008911144, 0.003622322, 0.006057622, -0.004810246, 0.009931157, -0.02361372, 0.006446991, -0.005537327
 60049349, 0.0008661966, 0.003425653, 0.00615033, -0.004878712, 0.0008911144, 0.003622322, 0.006057622, -0.004810246
 60104326, -0.002773527, 0.04123086, 0.006664665, -0.00643416, 0.0008661966, 0.003425653, 0.00615033, -0.004878712
 60159739, 0.002304743, -0.0007585093, 0.006756688, -0.005348377, -0.002773527, 0.04123086, 0.006664665, -0.00643416
 60214298, 0.006026731, -0.0310992, 0.006988357, -0.006148423, 0.002304743, -0.0007585093, 0.006756688, -0.005348377
 60269404, 0.006835979, 0.005471838, 0.007153652, -0.005647889, 0.006026731, -0.0310992, 0.006988357, -0.006148423
 60324320, 0.006792765, 0.004644217, 0.007373507, -0.005812, 0.006835979, 0.005471838, 0.007153652, -0.005647889
 60379340, -0.0009474702, 0.02066647, 0.007312433, -0.006033607, 0.006792765, 0.004644217, 0.007373507, -0.005812
 60434610, 0.000824589, 0.003503834, 0.007252057, -0.005744231, -0.0009474702, 0.02066647, 0.007312433, -0.006033607
 60489323, -0.001587853, -0.02274263, 0.007279696, -0.006040314, 0.000824589, 0.003503834, 0.007252057, -0.005744231
 60544400, 0.001880626, -0.0009942226, 0.007219811, -0.005710929, -0.001587853, -0.02274263, 0.007279696, -0.006040314
 60594343, 0.001306461, 0.01023491, 0.007410525, -0.005920555, 0.001880626, -0.0009942226, 0.007219811, -0.005710929
 60649297, 0.003585875, 0.03242346, 0.007587527, -0.006491557, 0.001306461, 0.01023491, 0.007410525, -0.005920555
 60704343, 0.002116208, 0.004626648, 0.007387385, -0.005849525, 0.003585875, 0.03242346, 0.007587527, -0.006491557
 60759612, -0.006647121, -0.02934469, 0.007429832, -0.006264297, 0.002116208, 0.004626648, 0.007387385, -0.005849525
 60814365, 0.001946769, -0.00197537, 0.007282029, -0.005762314, -0.006647121, -0.02934469, 0.007429832, -0.006264297
 60869332, 0.007240524, 0.004454199, 0.00728594, -0.005735864, 0.001946769, -0.00197537, 0.007282029, -0.005762314
 60924366, 0.0173783, 0.0102047, 0.007446329, -0.005730889, 0.007240524, 0.004454199, 0.00728594, -0.005735864
 60979342, 0.001435788, -0.007076197, 0.007072521, -0.005630781, 0.0173783, 0.0102047, 0.007446329, -0.005730889
 61034619, -0.001560741, -0.05709666, 0.007233611, -0.00744766, 0.001435788, -0.007076197, 0.007072521, -0.005630781
 61089495, 0.003494021, -0.00985375, 0.006852405, -0.005491874, -0.001560741, -0.05709666, 0.007233611, -0.00744766
 61139329, 0.001273333, -0.03165459, 0.006851399, -0.00606712, 0.003494021, -0.00985375, 0.006852405, -0.005491874
 61199335, -0.00665458, -0.03453165, 0.00702195, -0.006195394, 0.001273333, -0.03165459, 0.006851399, -0.00606712
 61254322, 0.002368331, -0.01997434, 0.006994193, -0.005802589, -0.00665458, -0.03453165, 0.00702195, -0.006195394
 61304306, 0.0002551981, -0.0351983, 0.007119432, -0.006355025, 0.002368331, -0.01997434, 0.006994193, -0.005802589
 61359623, -0.009850224, -0.03981, 0.007309129, -0.006528746, 0.0002551981, -0.0351983, 0.007119432, -0.006355025
 61414389, -0.005655142, -0.02007631, 0.007165994, -0.005884727, -0.009850224, -0.03981, 0.007309129, -0.006528746
 61469321, -0.007797292, -0.04072306, 0.007322896, -0.006615243, -0.005655142, -0.02007631, 0.007165994, -0.005884727
 61524315, -0.008409436, -0.1150583, 0.008067554, -0.01149222, -0.007797292, -0.04072306, 0.007322896, -0.006615243
 61579328, -0.07958534, -0.1726459, 0.0128653, -0.01507563, -0.008409436, -0.1150583, 0.008067554, -0.01149222
 61629318, -0.06283608, -0.2017306, 0.01205809, -0.01789363, -0.07958534, -0.1726459, 0.0128653, -0.01507563
 61684873, -0.03508309, -0.2300714, 0.01055552, -0.0208757, -0.06283608, -0.2017306, 0.01205809, -0.01789363
 61739320, -0.04084057, -0.2918254, 0.01164406, -0.02630651, -0.03508309, -0.2300714, 0.01055552, -0.0208757
 61794322, 0.01361449, -0.4896803, 0.01128714, -0.04488897, -0.04084057, -0.2918254, 0.01164406, -0.02630651
 61844329, 0.1052064, -0.6884824, 0.01343677, -0.06377442, 0.01361449, -0.4896803, 0.01128714, -0.04488897
 61899323, 0.1250736, -0.6115278, 0.01421417, -0.05605024, 0.1052064, -0.6884824, 0.01343677, -0.06377442
 61954333, 0.08241253, -0.6681884, 0.01201239, -0.06029837, 0.1250736, -0.6115278, 0.01421417, -0.05605024
 62009576, -0.07927991, -0.7073935, 0.01805751, -0.06289802, 0.08241253, -0.6681884, 0.01201239, -0.06029837
 62064341, -0.1099558, -0.6808256, 0.01901457, -0.06227413, -0.07927991, -0.7073935, 0.01805751, -0.06289802
 62119320, -0.3913542, -0.859755, 0.04369717, -0.07926644, -0.1099558, -0.6808256, 0.01901457, -0.06227413
 62174312, -0.2937959, -0.6809592, 0.03131644, -0.06520538, -0.3913542, -0.859755, 0.04369717, -0.07926644
 62229376, -0.2324908, -0.8731483, 0.02543466, -0.08361069, -0.2937959, -0.6809592, 0.03131644, -0.06520538
 62279362, -0.1788999, -0.9712206, 0.02322569, -0.09212456, -0.2324908, -0.8731483, 0.02543466, -0.08361069
 62334634, -0.09249252, -1.117287, 0.02036471, -0.1057157, -0.1788999, -0.9712206, 0.02322569, -0.09212456
 62389325, -0.01399396, -1.223745, 0.01797888, -0.1161543, -0.09249252, -1.117287, 0.02036471, -0.1057157
 62444321, 0.06398822, -1.566913, 0.01799362, -0.1347073, -0.01399396, -1.223745, 0.01797888, -0.1161543
 62499348, 0.102766, -1.975917, 0.02165513, -0.1603099, 0.06398822, -1.566913, 0.01799362, -0.1347073
 62554387, 0.1785913, -2.380979, 0.02500622, -0.1860727, 0.102766, -1.975917, 0.02165513, -0.1603099
 62609630, 0.2146977, -2.770432, 0.02993796, -0.2157716, 0.1785913, -2.380979, 0.02500622, -0.1860727
 62664368, 0.4289007, -3.741366, 0.03928584, -0.2965909, 0.2146977, -2.770432, 0.02993796, -0.2157716
 62719357, 0.557452, -4.192123, 0.05222495, -0.3480702, 0.4289007, -3.741366, 0.03928584, -0.2965909
 62774330, 0.4104697, -1.419313, 0.03862224, -0.1242831, 0.557452, -4.192123, 0.05222495, -0.3480702
 62824366, -0.08841431, 0.00477768, 0.01121716, -0.00551679, 0.4104697, -1.419313, 0.03862224, -0.1242831
 62879395, 0.3684499, -1.470581, 0.03294766, -0.1272051, -0.08841431, 0.00477768, 0.01121716, -0.00551679
 62934587, 0.2006242, -1.593072, 0.0193018, -0.1323285, 0.3684499, -1.470581, 0.03294766, -0.1272051
 62989334, 0.2756251, -1.898126, 0.02430304, -0.1468991, 0.2006242, -1.593072, 0.0193018, -0.1323285
 63044337, 0.3412391, -2.292649, 0.02950382, -0.1657401, 0.2756251, -1.898126, 0.02430304, -0.1468991
 63099310, 0.4517337, -2.605998, 0.03591931, -0.1792825, 0.3412391, -2.292649, 0.02950382, -0.1657401
 63154308, 0.5279633, -3.458489, 0.04101644, -0.2232934, 0.4517337, -2.605998, 0.03591931, -0.1792825
 63209570, 0.5666333, -4.464955, 0.04588983, -0.2808147, 0.5279633, -3.458489, 0.04101644, -0.2232934
 63264377, 0.7214276, -5.927329, 0.05754723, -0.3779314, 0.5666333, -4.464955, 0.04588983, -0.2808147
 63314469, 0.09993595, -5.306722, 0.08047778, -0.3421141, 0.7214276, -5.927329, 0.05754723, -0.3779314
 63369323, 0.1319372, -0.2484199, 0.01564755, -0.01879463, 0.09993595, -5.306722, 0.08047778, -0.3421141
 63424370, 0.03226332, 0.06986981, 0.01176181, -0.0075932, 0.1319372, -0.2484199, 0.01564755, -0.01879463
 63479317, -0.4382761, 0.5490522, 0.0360514, -0.04332351, 0.03226332, 0.06986981, 0.01176181, -0.0075932
 63534741, -0.1066291, 0.4048838, 0.01807819, -0.02974701, -0.4382761, 0.5490522, 0.0360514, -0.04332351
 63589326, 0.008834987, 0.2226914, 0.01546619, -0.01423815, -0.1066291, 0.4048838, 0.01807819, -0.02974701
 63644326, 0.03269071, 0.2035062, 0.01580057, -0.01224362, 0.008834987, 0.2226914, 0.01546619, -0.01423815
 63699330, 0.2038483, 0.1756485, 0.02296862, -0.006167097, 0.03269071, 0.2035062, 0.01580057, -0.01224362
 63754370, 0.2932503, 0.1529581, 0.02699892, -0.004945244, 0.2038483, 0.1756485, 0.02296862, -0.006167097
 63809616, 0.4114659, 0.1566834, 0.03386578, -0.004680041, 0.2932503, 0.1529581, 0.02699892, -0.004945244
 63859625, 0.6337076, 0.1240945, 0.04780543, -0.001765013, 0.4114659, 0.1566834, 0.03386578, -0.004680041
 63914484, 0.9145653, 0.1444217, 0.06755812, 0.001361792, 0.6337076, 0.1240945, 0.04780543, -0.001765013
 63969332, 1.592134, -0.217025, 0.1207112, -0.01741249, 0.9145653, 0.1444217, 0.06755812, 0.001361792
 64024295, 0.2492356, -0.1174752, 0.02212781, -0.01156212, 1.592134, -0.217025, 0.1207112, -0.01741249
 64079346, -0.1540051, -0.2142213, 0.01948287, -0.01538938, 0.2492356, -0.1174752, 0.02212781, -0.01156212
 64134685, -0.3767817, -1.094607, 0.05861242, -0.08591994, -0.1540051, -0.2142213, 0.01948287, -0.01538938
 64189339, 0.1736549, -0.9519649, 0.01932673, -0.08675371, -0.3767817, -1.094607, 0.05861242, -0.08591994
 64244303, 0.7145737, -1.159083, 0.0667025, -0.1076607, 0.1736549, -0.9519649, 0.01932673, -0.08675371
 64299397, 1.038882, -1.026544, 0.09643373, -0.09520438, 0.7145737, -1.159083, 0.0667025, -0.1076607
 64354352, -0.03949832, -0.09273358, 0.00871921, -0.009707617, 1.038882, -1.026544, 0.09643373, -0.09520438
 64409569, 0.005411074, 0.0006617887, 0.007085436, -0.005801365, -0.03949832, -0.09273358, 0.00871921, -0.009707617
 64459573, -0.2627696, -0.5553805, 0.03588429, -0.0454054, 0.005411074, 0.0006617887, 0.007085436, -0.005801365
 64514423, 0.5599738, -0.807129, 0.05345581, -0.07656414, -0.2627696, -0.5553805, 0.03588429, -0.0454054
 64569393, 0.7680797, -0.9535755, 0.07301505, -0.09040487, 0.5599738, -0.807129, 0.05345581, -0.07656414
 64624355, 0.01923023, -0.1794734, 0.008104873, -0.0173435, 0.7680797, -0.9535755, 0.07301505, -0.09040487
 64679315, 0.1179928, -0.2514699, 0.01315666, -0.02403974, 0.01923023, -0.1794734, 0.008104873, -0.0173435
 64734558, 0.4637686, -0.8774098, 0.04362388, -0.08158392, 0.1179928, -0.2514699, 0.01315666, -0.02403974
 64789336, 0.008133944, -0.115542, 0.007554247, -0.01187472, 0.4637686, -0.8774098, 0.04362388, -0.08158392
 64844332, -0.01391783, -0.01105608, 0.007162136, -0.005900434, 0.008133944, -0.115542, 0.007554247, -0.01187472
 64899380, -0.08519969, -0.04369596, 0.01106589, -0.006278513, -0.01391783, -0.01105608, 0.007162136, -0.005900434
 64954290, -0.06583296, 0.007274073, 0.009365855, -0.005685467, -0.08519969, -0.04369596, 0.01106589, -0.006278513
 65009585, -0.003961732, -0.0128172, 0.006888833, -0.005794136, -0.06583296, 0.007274073, 0.009365855, -0.005685467
 65064373, -0.1519907, 0.006038712, 0.01603201, -0.005161781, -0.003961732, -0.0128172, 0.006888833, -0.005794136
 65119308, 0.02377896, -0.0336084, 0.007465945, -0.006675012, -0.1519907, 0.006038712, 0.01603201, -0.005161781
 65169407, 0.004411773, 0.007711802, 0.007280374, -0.006051645, 0.02377896, -0.0336084, 0.007465945, -0.006675012
 65224388, 0.01670654, -0.01205412, 0.007356719, -0.006056054, 0.004411773, 0.007711802, 0.007280374, -0.006051645
 65279309, 0.006628025, 0.01049872, 0.007108905, -0.005932555, 0.01670654, -0.01205412, 0.007356719, -0.006056054
 65334813, 0.009743535, -0.01910852, 0.006940226, -0.00597387, 0.006628025, 0.01049872, 0.007108905, -0.005932555
 65389323, 0.05941125, -0.0422038, 0.008840965, -0.00694664, 0.009743535, -0.01910852, 0.006940226, -0.00597387
 65444376, -0.1628848, -0.06027872, 0.0175172, -0.006108516, 0.05941125, -0.0422038, 0.008840965, -0.00694664
 65499327, -0.2873656, -0.2984729, 0.03168765, -0.0228991, -0.1628848, -0.06027872, 0.0175172, -0.006108516
 65549294, 0.09729129, -0.283246, 0.01170496, -0.02621472, -0.2873656, -0.2984729, 0.03168765, -0.0228991
 65604371, -0.02097624, -0.009257496, 0.007552593, -0.005962982, 0.09729129, -0.283246, 0.01170496, -0.02621472
 65659725, 0.09586968, -0.1324346, 0.01140438, -0.0133737, -0.02097624, -0.009257496, 0.007552593, -0.005962982
 65714426, 0.2985621, -0.449128, 0.02615538, -0.03771266, 0.09586968, -0.1324346, 0.01140438, -0.0133737
 65769374, 0.2577688, -0.3662365, 0.02248903, -0.02997548, 0.2985621, -0.449128, 0.02615538, -0.03771266
 65824310, 0.2822121, -0.4396552, 0.02323108, -0.03298416, 0.2577688, -0.3662365, 0.02248903, -0.02997548
 65879336, 0.2658853, -0.3432409, 0.02191149, -0.02489183, 0.2822121, -0.4396552, 0.02323108, -0.03298416
 65934610, 0.2083299, -0.4011309, 0.02059616, -0.0271784, 0.2658853, -0.3432409, 0.02191149, -0.02489183
 65989331, 0.2489579, -0.3924254, 0.02354725, -0.02663502, 0.2083299, -0.4011309, 0.02059616, -0.0271784
 66039359, 0.2242455, -0.3895901, 0.02570145, -0.02702807, 0.2489579, -0.3924254, 0.02354725, -0.02663502
 66094340, 0.2410861, -0.4752081, 0.02939699, -0.0317004, 0.2242455, -0.3895901, 0.02570145, -0.02702807
 66149291, 0.2776237, -0.4515216, 0.0326534, -0.03192757, 0.2410861, -0.4752081, 0.02939699, -0.0317004
 66204389, 0.2356259, -0.4134795, 0.03594053, -0.0327188, 0.2776237, -0.4515216, 0.0326534, -0.03192757
 66259611, 0.03229594, -0.5540388, 0.04056584, -0.03947624, 0.2356259, -0.4134795, 0.03594053, -0.0327188
 66314432, 0.01092235, -0.5289432, 0.04701728, -0.04241402, 0.03229594, -0.5540388, 0.04056584, -0.03947624
 66369389, -0.1170093, -0.4549325, 0.05146351, -0.04240322, 0.01092235, -0.5289432, 0.04701728, -0.04241402
 66424308, -0.1944552, -0.58583, 0.06111252, -0.05047878, -0.1170093, -0.4549325, 0.05146351, -0.04240322
 66479332, -0.2029695, -0.4825619, 0.06752592, -0.05308608, -0.1944552, -0.58583, 0.06111252, -0.05047878
 66534608, -0.2902313, -0.3897933, 0.07562595, -0.05672177, -0.2029695, -0.4825619, 0.06752592, -0.05308608
 66584878, -0.3428856, -0.3782775, 0.08394577, -0.0621694, -0.2902313, -0.3897933, 0.07562595, -0.05672177
 66639371, -0.5727581, -0.4755025, 0.09925609, -0.07116788, -0.3428856, -0.3782775, 0.08394577, -0.0621694
 66694343, -0.4429895, -0.4100807, 0.102183, -0.07501587, -0.5727581, -0.4755025, 0.09925609, -0.07116788
 66749291, -0.6460838, -0.2390786, 0.1171506, -0.08320165, -0.4429895, -0.4100807, 0.102183, -0.07501587
 66804354, -0.4982528, -0.6137677, 0.1240315, -0.09296475, -0.6460838, -0.2390786, 0.1171506, -0.08320165
 66859632, -0.6503403, -0.4165293, 0.1370829, -0.09995667, -0.4982528, -0.6137677, 0.1240315, -0.09296475
 66914482, -0.7657676, -0.2715587, 0.1483649, -0.1070348, -0.6503403, -0.4165293, 0.1370829, -0.09995667
 66969356, -0.7968822, -0.3594349, 0.1566096, -0.1136451, -0.7657676, -0.2715587, 0.1483649, -0.1070348
 67024376, -0.8657292, -0.4894477, 0.168369, -0.1228442, -0.7968822, -0.3594349, 0.1566096, -0.1136451
 67079306, -0.8356498, -0.6904239, 0.1792595, -0.1335715, -0.8657292, -0.4894477, 0.168369, -0.1228442
 67134833, -0.836513, -0.781171, 0.1883031, -0.1380778, -0.8356498, -0.6904239, 0.1792595, -0.1335715
 67185868, -1.175944, -0.9863009, 0.204237, -0.1470941, -0.836513, -0.781171, 0.1883031, -0.1380778
 67239313, -1.309596, -0.9812621, 0.2163802, -0.1549288, -1.175944, -0.9863009, 0.204237, -0.1470941
 67294352, -1.20409, -1.257197, 0.2235876, -0.1649964, -1.309596, -0.9812621, 0.2163802, -0.1549288
 67349312, -1.259006, -1.53722, 0.2328057, -0.1741097, -1.20409, -1.257197, 0.2235876, -0.1649964
 67404381, -1.173272, -1.517446, 0.2383749, -0.179898, -1.259006, -1.53722, 0.2328057, -0.1741097
 67459625, -0.9800565, -1.766845, 0.2458298, -0.1923963, -1.173272, -1.517446, 0.2383749, -0.179898
 67514472, -1.326189, -1.867632, 0.2592876, -0.1985317, -0.9800565, -1.766845, 0.2458298, -0.1923963
 67569336, -1.202181, -2.140936, 0.2643365, -0.2083614, -1.326189, -1.867632, 0.2592876, -0.1985317
 67624312, -1.131631, -1.834045, 0.2678334, -0.2078141, -1.202181, -2.140936, 0.2643365, -0.2083614
 67679335, -0.945926, -1.710201, 0.2724364, -0.2125457, -1.131631, -1.834045, 0.2678334, -0.2078141
 67729336, -0.9882599, -1.868165, 0.2770479, -0.2177071, -0.945926, -1.710201, 0.2724364, -0.2125457
 67785850, -1.011452, -2.037361, 0.2848497, -0.2252096, -0.9882599, -1.868165, 0.2770479, -0.2177071
 67839383, -0.6457489, -2.292872, 0.2867751, -0.2361863, -1.011452, -2.037361, 0.2848497, -0.2252096
 67894347, -0.7748499, -2.063522, 0.2917108, -0.2362676, -0.6457489, -2.292872, 0.2867751, -0.2361863
 67949301, -0.7087125, -2.588005, 0.2952673, -0.2497359, -0.7748499, -2.063522, 0.2917108, -0.2362676
 68004337, -0.2756252, -2.06725, 0.2934849, -0.2442373, -0.7087125, -2.588005, 0.2952673, -0.2497359
 68059665, -0.7391751, -2.146519, 0.2996792, -0.2476162, -0.2756252, -2.06725, 0.2934849, -0.2442373
 68114458, -0.3796104, -2.544571, 0.3005248, -0.258986, -0.7391751, -2.146519, 0.2996792, -0.2476162
 68169384, -0.6460778, -1.786726, 0.3012365, -0.2454185, -0.3796104, -2.544571, 0.3005248, -0.258986
 68219331, -0.1871327, -2.621995, 0.3023177, -0.2629276, -0.6460778, -1.786726, 0.3012365, -0.2454185
 68274317, -0.7003297, -2.227529, 0.3060358, -0.253233, -0.1871327, -2.621995, 0.3023177, -0.2629276
 68329299, -0.4311953, -2.477215, 0.3052791, -0.2592764, -0.7003297, -2.227529, 0.3060358, -0.253233
 68385854, -0.08927457, -2.426106, 0.30411, -0.2590888, -0.4311953, -2.477215, 0.3052791, -0.2592764
 68439432, -0.4133541, -1.796183, 0.3042715, -0.2467739, -0.08927457, -2.426106, 0.30411, -0.2590888
 68494389, -0.3173423, -2.273399, 0.3059372, -0.2543639, -0.4133541, -1.796183, 0.3042715, -0.2467739
 68549458, -0.02010308, -1.907474, 0.3038377, -0.2488257, -0.3173423, -2.273399, 0.3059372, -0.2543639
 68604420, 0.1531443, -1.618582, 0.301678, -0.2437284, -0.02010308, -1.907474, 0.3038377, -0.2488257
 68659667, 0.5156688, -2.167537, 0.3019972, -0.2521873, 0.1531443, -1.618582, 0.301678, -0.2437284
 68714491, 0.03483881, -2.379237, 0.3007338, -0.253369, 0.5156688, -2.167537, 0.3019972, -0.2521873
 68764379, 0.3314591, -2.061084, 0.2976956, -0.2473404, 0.03483881, -2.379237, 0.3007338, -0.253369
 68819377, 0.4042705, -1.979874, 0.294718, -0.2445894, 0.3314591, -2.061084, 0.2976956, -0.2473404
 68874395, 0.2843138, -2.622142, 0.2934712, -0.2563813, 0.4042705, -1.979874, 0.294718, -0.2445894
 68929450, 0.8316903, -2.345976, 0.2901115, -0.2499855, 0.2843138, -2.622142, 0.2934712, -0.2563813
 68985899, 0.6290687, -1.987032, 0.2847099, -0.2397541, 0.8316903, -2.345976, 0.2901115, -0.2499855
 69039374, 0.9454315, -1.701294, 0.2825477, -0.233298, 0.6290687, -1.987032, 0.2847099, -0.2397541
 69094339, 0.7777441, -2.080499, 0.2765279, -0.2375637, 0.9454315, -1.701294, 0.2825477, -0.233298
 69149361, 1.13623, -1.867546, 0.2756714, -0.2336603, 0.7777441, -2.080499, 0.2765279, -0.2375637
 69204418, 1.163096, -2.146537, 0.2718077, -0.236811, 1.13623, -1.867546, 0.2756714, -0.2336603
 69259700, 1.180938, -2.111558, 0.2682298, -0.2341651, 1.163096, -2.146537, 0.2718077, -0.236811
 69309687, 1.015849, -1.828079, 0.2630726, -0.226662, 1.180938, -2.111558, 0.2682298, -0.2341651
 69364368, 1.284267, -1.936231, 0.2628921, -0.2269291, 1.015849, -1.828079, 0.2630726, -0.226662
 69419381, 1.111453, -1.872479, 0.2574878, -0.2232615, 1.284267, -1.936231, 0.2628921, -0.2269291
 69474395, 1.16596, -1.53627, 0.256586, -0.2156547, 1.111453, -1.872479, 0.2574878, -0.2232615
 69529441, 1.02713, -1.916992, 0.2530767, -0.2195369, 1.16596, -1.53627, 0.256586, -0.2156547
 69585845, 1.139108, -1.528441, 0.2519089, -0.2098859, 1.02713, -1.916992, 0.2530767, -0.2195369
 69639387, 1.195722, -1.796019, 0.2511948, -0.2125871, 1.139108, -1.528441, 0.2519089, -0.2098859
 69694380, 1.257213, -1.827416, 0.2501703, -0.2114779, 1.195722, -1.796019, 0.2511948, -0.2125871
 69749358, 1.142698, -1.433452, 0.2478222, -0.2026724, 1.257213, -1.827416, 0.2501703, -0.2114779
 69799463, 1.308479, -1.728702, 0.2485677, -0.2066176, 1.142698, -1.433452, 0.2478222, -0.2026724
 69854379, 1.474017, -1.145447, 0.2497899, -0.1949091, 1.308479, -1.728702, 0.2485677, -0.2066176
 69909851, 1.254101, -1.389058, 0.2461187, -0.1972625, 1.474017, -1.145447, 0.2497899, -0.1949091
 69964517, 1.394032, -1.102099, 0.2470186, -0.191223, 1.254101, -1.389058, 0.2461187, -0.1972625
 70019395, 1.300478, -1.472463, 0.245053, -0.1955671, 1.394032, -1.102099, 0.2470186, -0.191223
 70074391, 1.62581, -1.098262, 0.2497585, -0.1880226, 1.300478, -1.472463, 0.245053, -0.1955671
 70129329, 1.898302, -1.087389, 0.2542671, -0.1858512, 1.62581, -1.098262, 0.2497585, -0.1880226
 70185854, 1.4384, -1.229871, 0.246109, -0.1865963, 1.898302, -1.087389, 0.2542671, -0.1858512
 70239415, 1.471927, -1.403554, 0.2458235, -0.187505, 1.4384, -1.229871, 0.246109, -0.1865963
 70294366, 1.56269, -1.240711, 0.2463384, -0.1832615, 1.471927, -1.403554, 0.2458235, -0.187505
 70344391, 1.695853, -1.335212, 0.2483405, -0.1837214, 1.56269, -1.240711, 0.2463384, -0.1832615
 70399371, 1.754968, -1.298104, 0.2488351, -0.1818312, 1.695853, -1.335212, 0.2483405, -0.1837214
 70454424, 2.098713, -1.661471, 0.2548482, -0.1881172, 1.754968, -1.298104, 0.2488351, -0.1818312
 70509846, 1.767322, -1.102591, 0.2479821, -0.1765716, 2.098713, -1.661471, 0.2548482, -0.1881172
 70564364, 1.920384, -1.645322, 0.249774, -0.1857084, 1.767322, -1.102591, 0.2479821, -0.1765716
 70619374, 2.449472, -1.462136, 0.2601572, -0.1805063, 1.920384, -1.645322, 0.249774, -0.1857084
 70674438, 2.025164, -1.38129, 0.2501803, -0.1781992, 2.449472, -1.462136, 0.2601572, -0.1805063
 70729420, 2.498631, -1.626108, 0.2596503, -0.1821427, 2.025164, -1.38129, 0.2501803, -0.1781992
 70785878, 2.221223, -1.496493, 0.2523613, -0.1784096, 2.498631, -1.626108, 0.2596503, -0.1821427
 70839328, 2.42077, -1.527976, 0.2555139, -0.1779711, 2.221223, -1.496493, 0.2523613, -0.1784096
 70894366, 2.462143, -1.469435, 0.2554885, -0.1755784, 2.42077, -1.527976, 0.2555139, -0.1779711
 70944370, 1.816805, -1.157104, 0.2406832, -0.1688944, 2.462143, -1.469435, 0.2554885, -0.1755784
 70999351, 2.74194, -1.580313, 0.2606373, -0.1761792, 1.816805, -1.157104, 0.2406832, -0.1688944
 71054412, 2.561828, -1.366895, 0.255314, -0.1700025, 2.74194, -1.580313, 0.2606373, -0.1761792
 71109652, 2.696172, -1.769765, 0.2582494, -0.1785216, 2.561828, -1.366895, 0.255314, -0.1700025
 71164368, 2.633134, -1.809837, 0.2558516, -0.1789246, 2.696172, -1.769765, 0.2582494, -0.1785216
 71219380, 2.855674, -1.736362, 0.2609787, -0.1767787, 2.633134, -1.809837, 0.2558516, -0.1789246
 71274439, 3.379164, -2.428706, 0.2754701, -0.1960521, 2.855674, -1.736362, 0.2609787, -0.1767787
 71329415, 3.303228, -1.837571, 0.2723263, -0.1789068, 3.379164, -2.428706, 0.2754701, -0.1960521
 71379519, 3.459335, -2.335161, 0.2760566, -0.1935548, 3.303228, -1.837571, 0.2723263, -0.1789068
 71434899, 3.612719, -2.018765, 0.2802908, -0.1839757, 3.459335, -2.335161, 0.2760566, -0.1935548
 71494381, 3.311407, -1.946261, 0.2696743, -0.1823532, 3.612719, -2.018765, 0.2802908, -0.1839757
 71544439, 3.721786, -2.273293, 0.2815312, -0.1920043, 3.311407, -1.946261, 0.2696743, -0.1823532
 71599374, 3.447332, -1.87607, 0.2718778, -0.1804296, 3.721786, -2.273293, 0.2815312, -0.1920043
 71654348, 3.618168, -1.572498, 0.2773134, -0.1717398, 3.447332, -1.87607, 0.2718778, -0.1804296
 71709654, 3.984977, -2.28533, 0.2891303, -0.1910562, 3.618168, -1.572498, 0.2773134, -0.1717398
 71764373, 3.849319, -1.678507, 0.2841681, -0.173292, 3.984977, -2.28533, 0.2891303, -0.1910562
 71819382, 3.972824, -1.929523, 0.2876047, -0.1797908, 3.849319, -1.678507, 0.2841681, -0.173292
 71874440, 4.163918, -1.992672, 0.293399, -0.181538, 3.972824, -1.929523, 0.2876047, -0.1797908
 71924342, 4.217833, -1.390856, 0.2954374, -0.165721, 4.163918, -1.992672, 0.293399, -0.181538
 71979382, 4.243918, -1.829651, 0.2945643, -0.176885, 4.217833, -1.390856, 0.2954374, -0.165721
 72034660, 4.443078, -1.549112, 0.3018003, -0.1685229, 4.243918, -1.829651, 0.2945643, -0.176885
 72094373, 4.405411, -1.25097, 0.3004254, -0.1606398, 4.443078, -1.549112, 0.3018003, -0.1685229
 72144441, 4.448433, -1.443541, 0.3012347, -0.1650328, 4.405411, -1.25097, 0.3004254, -0.1606398
 72199343, 4.333897, -1.063493, 0.2969133, -0.1562483, 4.448433, -1.443541, 0.3012347, -0.1650328
 72254377, 4.403486, -1.213473, 0.2982098, -0.1588666, 4.333897, -1.063493, 0.2969133, -0.1562483
 72309885, 4.276283, -1.491554, 0.2922011, -0.165589, 4.403486, -1.213473, 0.2982098, -0.1588666
 72364394, 4.268706, -1.451621, 0.2910188, -0.1637358, 4.276283, -1.491554, 0.2922011, -0.165589
 72414431, 3.994544, -2.224154, 0.2791683, -0.1852676, 4.268706, -1.451621, 0.2910188, -0.1637358
 72469322, 3.824401, -1.948144, 0.272497, -0.1768844, 3.994544, -2.224154, 0.2791683, -0.1852676
 72524408, 4.21536, -1.916606, 0.2861802, -0.1752017, 3.824401, -1.948144, 0.272497, -0.1768844
 72579412, 3.784477, -1.631323, 0.2700571, -0.1671889, 4.21536, -1.916606, 0.2861802, -0.1752017
 72634659, 3.675104, -2.073569, 0.2654056, -0.1791329, 3.784477, -1.631323, 0.2700571, -0.1671889
 72689382, 3.999529, -1.600572, 0.2768942, -0.1646602, 3.675104, -2.073569, 0.2654056, -0.1791329
 72744499, 3.455702, -1.697559, 0.2563988, -0.1673992, 3.999529, -1.600572, 0.2768942, -0.1646602
 72799382, 3.38762, -1.615548, 0.2527534, -0.1643789, 3.455702, -1.697559, 0.2563988, -0.1673992
 72849417, 3.497111, -1.75588, 0.2554508, -0.1681173, 3.38762, -1.615548, 0.2527534, -0.1643789
 72904384, 2.912497, -1.452567, 0.2349771, -0.1604388, 3.497111, -1.75588, 0.2554508, -0.1681173
 72959679, 3.070586, -1.493753, 0.2391062, -0.1609837, 2.912497, -1.452567, 0.2349771, -0.1604388
 73014401, 3.167534, -1.702922, 0.2411495, -0.1662839, 3.070586, -1.493753, 0.2391062, -0.1609837
 73069353, 2.781224, -1.471559, 0.2279635, -0.161107, 3.167534, -1.702922, 0.2411495, -0.1662839
 73124374, 2.826053, -1.605496, 0.2283883, -0.1646344, 2.781224, -1.471559, 0.2279635, -0.161107
 73179393, 2.713979, -1.423201, 0.2241355, -0.1601088, 2.826053, -1.605496, 0.2283883, -0.1646344
 73234662, 2.671066, -1.165694, 0.2228081, -0.1535977, 2.713979, -1.423201, 0.2241355, -0.1601088
 73289348, 2.596242, -1.330119, 0.2205973, -0.1560753, 2.671066, -1.165694, 0.2228081, -0.1535977
 73339400, 2.758571, -1.075947, 0.2259735, -0.1494268, 2.596242, -1.330119, 0.2205973, -0.1560753
 73394399, 2.550158, -1.117728, 0.219506, -0.1496465, 2.758571, -1.075947, 0.2259735, -0.1494268
 73449344, 2.500249, -0.9601288, 0.2182709, -0.1460277, 2.550158, -1.117728, 0.219506, -0.1496465
 73504356, 2.584758, -1.191632, 0.2204526, -0.1500306, 2.500249, -0.9601288, 0.2182709, -0.1460277
 73559670, 2.445303, -1.163111, 0.2164166, -0.1489668, 2.584758, -1.191632, 0.2204526, -0.1500306
 73614466, 2.589273, -0.9330705, 0.2208171, -0.143188, 2.445303, -1.163111, 0.2164166, -0.1489668
 73669377, 2.570296, -0.885902, 0.2204138, -0.1414694, 2.589273, -0.9330705, 0.2208171, -0.143188
 73724349, 2.319676, -0.9182929, 0.2132414, -0.1422953, 2.570296, -0.885902, 0.2204138, -0.1414694
 73779375, 2.592243, -0.9731235, 0.2212974, -0.1423658, 2.319676, -0.9182929, 0.2132414, -0.1422953
 73834668, 2.354855, -0.7575088, 0.2145671, -0.1382507, 2.592243, -0.9731235, 0.2212974, -0.1423658
 73886173, 2.297413, -0.9937847, 0.2124376, -0.1422162, 2.354855, -0.7575088, 0.2145671, -0.1382507
 73939385, 2.548242, -0.9179881, 0.2195676, -0.1398799, 2.297413, -0.9937847, 0.2124376, -0.1422162
 73994366, 2.545036, -1.294144, 0.2185722, -0.147797, 2.548242, -0.9179881, 0.2195676, -0.1398799
 74049363, 2.380025, -1.290415, 0.2135901, -0.1477198, 2.545036, -1.294144, 0.2185722, -0.147797
 74104352, 2.946664, -1.171008, 0.2310353, -0.1440691, 2.380025, -1.290415, 0.2135901, -0.1477198
 74159666, 2.789798, -1.301242, 0.2257215, -0.146982, 2.946664, -1.171008, 0.2310353, -0.1440691
 74214498, 2.829525, -1.416976, 0.2267301, -0.1493695, 2.789798, -1.301242, 0.2257215, -0.146982
 74269407, 2.901174, -1.445823, 0.2290438, -0.1495372, 2.829525, -1.416976, 0.2267301, -0.1493695
 74324379, 3.186666, -1.620845, 0.2385177, -0.1537402, 2.901174, -1.445823, 0.2290438, -0.1495372
 74374420, 3.145988, -1.360296, 0.2375679, -0.1466934, 3.186666, -1.620845, 0.2385177, -0.1537402
 74429362, 3.146331, -1.415724, 0.2376272, -0.1481851, 3.145988, -1.360296, 0.2375679, -0.1466934
 74485881, 3.093629, -1.209727, 0.2362542, -0.1431439, 3.146331, -1.415724, 0.2376272, -0.1481851
 74539341, 3.221663, -1.497633, 0.2402519, -0.1503568, 3.093629, -1.209727, 0.2362542, -0.1431439
 74594377, 3.141584, -1.194502, 0.2380756, -0.1428841, 3.221663, -1.497633, 0.2402519, -0.1503568
 74649401, 3.435882, -1.585096, 0.2478555, -0.1528627, 3.141584, -1.194502, 0.2380756, -0.1428841
 74704375, 3.308316, -1.30463, 0.243894, -0.1458646, 3.435882, -1.585096, 0.2478555, -0.1528627
 74759711, 3.335829, -1.758808, 0.2444602, -0.158422, 3.308316, -1.30463, 0.243894, -0.1458646
 74814352, 3.216184, -1.681854, 0.2406478, -0.1566907, 3.335829, -1.758808, 0.2444602, -0.158422
 74869400, 3.256147, -1.821678, 0.2420685, -0.1609772, 3.216184, -1.681854, 0.2406478, -0.1566907
 74919434, 3.349772, -1.476767, 0.2461301, -0.1517346, 3.256147, -1.821678, 0.2420685, -0.1609772
 74974369, 3.539824, -1.620979, 0.2529038, -0.1558325, 3.349772, -1.476767, 0.2461301, -0.1517346
 75029375, 3.466317, -1.205564, 0.2511446, -0.1455001, 3.539824, -1.620979, 0.2529038, -0.1558325
 75085848, 3.406894, -1.653145, 0.2485922, -0.1574614, 3.466317, -1.205564, 0.2511446, -0.1455001
 75139395, 3.605788, -1.352292, 0.2566544, -0.1495913, 3.406894, -1.653145, 0.2485922, -0.1574614
 75194366, 3.691583, -1.660967, 0.2597926, -0.1583338, 3.605788, -1.352292, 0.2566544, -0.1495913
 75249333, 3.607547, -1.468843, 0.2574796, -0.1534808, 3.691583, -1.660967, 0.2597926, -0.1583338
 75304411, 3.870329, -1.525577, 0.2673038, -0.1551782, 3.607547, -1.468843, 0.2574796, -0.1534808
 75359724, 3.901181, -1.390899, 0.2692382, -0.1525044, 3.870329, -1.525577, 0.2673038, -0.1551782
 75409676, 4.014478, -1.48745, 0.2735575, -0.1552996, 3.901181, -1.390899, 0.2692382, -0.1525044
 75464384, 3.860188, -1.591232, 0.2678787, -0.1585555, 4.014478, -1.48745, 0.2735575, -0.1552996
 75519357, 4.013477, -1.399025, 0.2741818, -0.1535417, 3.860188, -1.591232, 0.2678787, -0.1585555
 75574442, 4.494417, -1.395556, 0.2928712, -0.1531615, 4.013477, -1.399025, 0.2741818, -0.1535417
 75629353, 4.564734, -1.687309, 0.295332, -0.1616706, 4.494417, -1.395556, 0.2928712, -0.1531615
 75686226, 4.18366, -1.416301, 0.2811447, -0.1549171, 4.564734, -1.687309, 0.295332, -0.1616706
 75739449, 4.078069, -1.622412, 0.2770931, -0.1607557, 4.18366, -1.416301, 0.2811447, -0.1549171
 75794363, 3.974499, -1.386734, 0.2737092, -0.154199, 4.078069, -1.622412, 0.2770931, -0.1607557
 75849364, 4.351108, -1.100936, 0.2890734, -0.1470664, 3.974499, -1.386734, 0.2737092, -0.154199
 75899396, 4.538284, -1.235958, 0.2961791, -0.1502835, 4.351108, -1.100936, 0.2890734, -0.1470664
 75954455, 4.135535, -1.07938, 0.281581, -0.1477104, 4.538284, -1.235958, 0.2961791, -0.1502835
 76009654, 4.386317, -1.112218, 0.2916392, -0.1480213, 4.135535, -1.07938, 0.281581, -0.1477104
 76064361, 4.317083, -0.634604, 0.2910522, -0.1394397, 4.386317, -1.112218, 0.2916392, -0.1480213
 76119387, 4.43426, -0.4946105, 0.2968349, -0.1380319, 4.317083, -0.634604, 0.2910522, -0.1394397
 76174386, 4.435803, -0.298768, 0.2977287, -0.1365373, 4.43426, -0.4946105, 0.2968349, -0.1380319
 76229414, 4.646598, -0.6773469, 0.3051324, -0.1435869, 4.435803, -0.298768, 0.2977287, -0.1365373
 76285839, 4.770062, -0.2166956, 0.3121221, -0.1375067, 4.646598, -0.6773469, 0.3051324, -0.1435869
 76339344, 5.086329, -0.01285796, 0.3260676, -0.1357203, 4.770062, -0.2166956, 0.3121221, -0.1375067
 76394396, 4.928521, 0.3208514, 0.3217221, -0.1354862, 5.086329, -0.01285796, 0.3260676, -0.1357203
 76444386, 5.56842, 0.003524867, 0.3470982, -0.1361657, 4.928521, 0.3208514, 0.3217221, -0.1354862
 76499373, 5.622843, 0.4966949, 0.3521899, -0.1339193, 5.56842, 0.003524867, 0.3470982, -0.1361657
 76554395, 5.647112, 0.5389667, 0.3537908, -0.1344201, 5.622843, 0.4966949, 0.3521899, -0.1339193
 76609653, 5.840811, 0.4952608, 0.3623844, -0.1341858, 5.647112, 0.5389667, 0.3537908, -0.1344201
 76664381, 5.706856, 0.4720753, 0.3575087, -0.1350438, 5.840811, 0.4952608, 0.3623844, -0.1341858
 76719428, 5.427674, -0.2803089, 0.3437382, -0.1428739, 5.706856, 0.4720753, 0.3575087, -0.1350438
 76774373, 5.355477, 0.6562898, 0.3452149, -0.1369326, 5.427674, -0.2803089, 0.3437382, -0.1428739
 76829465, 5.158514, 0.4271549, 0.3362921, -0.1398336, 5.355477, 0.6562898, 0.3452149, -0.1369326
 76885875, 5.340686, 0.3248827, 0.3439286, -0.1402445, 5.158514, 0.4271549, 0.3362921, -0.1398336
 76934670, 5.401422, 0.5611677, 0.3484543, -0.1389772, 5.340686, 0.3248827, 0.3439286, -0.1402445
 76994367, 5.313613, 0.6681522, 0.3461038, -0.1389829, 5.401422, 0.5611677, 0.3484543, -0.1389772
 77044368, 5.302828, 0.1768456, 0.3436941, -0.1408239, 5.313613, 0.6681522, 0.3461038, -0.1389829
 77099444, 5.176855, 1.047096, 0.3434372, -0.1398486, 5.302828, 0.1768456, 0.3436941, -0.1408239
 77154514, 4.933226, -0.1406557, 0.3279202, -0.1459324, 5.176855, 1.047096, 0.3434372, -0.1398486
 77209829, 5.043725, 0.3972871, 0.3346192, -0.1418501, 4.933226, -0.1406557, 0.3279202, -0.1459324
 77264335, 4.711795, 0.8651409, 0.3239183, -0.1439776, 5.043725, 0.3972871, 0.3346192, -0.1418501
 77319385, 4.814, 0.5977095, 0.3261848, -0.1445899, 4.711795, 0.8651409, 0.3239183, -0.1439776
 77374400, 4.817502, 0.2828567, 0.3246585, -0.1459798, 4.814, 0.5977095, 0.3261848, -0.1445899
 77424421, 4.637318, 0.3670237, 0.3178352, -0.1463268, 4.817502, 0.2828567, 0.3246585, -0.1459798
 77479386, 4.504914, 0.4592409, 0.3132194, -0.1466888, 4.637318, 0.3670237, 0.3178352, -0.1463268
 77534645, 4.292552, 1.083399, 0.3088891, -0.1493192, 4.504914, 0.4592409, 0.3132194, -0.1466888
 77594363, 4.559102, 0.8881937, 0.3179225, -0.1475069, 4.292552, 1.083399, 0.3088891, -0.1493192
 77644371, 4.392417, 0.7736143, 0.3107556, -0.1487705, 4.559102, 0.8881937, 0.3179225, -0.1475069
 77699430, 3.934993, 1.493073, 0.2972357, -0.1567117, 4.392417, 0.7736143, 0.3107556, -0.1487705
 77754426, 4.1087, 0.7378165, 0.2987615, -0.149982, 3.934993, 1.493073, 0.2972357, -0.1567117
 77809671, 4.108015, 1.123155, 0.3008909, -0.1509353, 4.1087, 0.7378165, 0.2987615, -0.149982
 77864372, 3.771381, 0.7617207, 0.2866929, -0.1500996, 4.108015, 1.123155, 0.3008909, -0.1509353
 77919390, 3.731643, 1.284555, 0.2877733, -0.1530709, 3.771381, 0.7617207, 0.2866929, -0.1500996
 77969374, 3.370613, 1.263001, 0.2749327, -0.1546042, 3.731643, 1.284555, 0.2877733, -0.1530709
 78024403, 3.315946, 1.107194, 0.2719989, -0.1534993, 3.370613, 1.263001, 0.2749327, -0.1546042
 78079378, 3.19094, 1.602499, 0.2701094, -0.1608475, 3.315946, 1.107194, 0.2719989, -0.1534993
 78134656, 3.375309, 1.720387, 0.2764819, -0.1624466, 3.19094, 1.602499, 0.2701094, -0.1608475
 78194375, 2.994397, 2.283439, 0.2661313, -0.1767468, 3.375309, 1.720387, 0.2764819, -0.1624466
 78244369, 3.17862, 2.075021, 0.2698263, -0.1721571, 2.994397, 2.283439, 0.2661313, -0.1767468
 78299435, 3.007504, 1.870936, 0.2623286, -0.1693099, 3.17862, 2.075021, 0.2698263, -0.1721571
 78354399, 2.659547, 1.539799, 0.2495992, -0.1649302, 3.007504, 1.870936, 0.2623286, -0.1693099
 78404369, 2.88052, 2.316468, 0.2603886, -0.1791044, 2.659547, 1.539799, 0.2495992, -0.1649302
 78459668, 2.735348, 1.829732, 0.2513731, -0.1709331, 2.88052, 2.316468, 0.2603886, -0.1791044
 78514464, 2.731467, 1.699166, 0.249227, -0.1696221, 2.735348, 1.829732, 0.2513731, -0.1709331
 78569400, 2.406024, 1.871487, 0.2391299, -0.1748558, 2.731467, 1.699166, 0.249227, -0.1696221
 78624395, 2.56939, 2.281025, 0.2451917, -0.1833217, 2.406024, 1.871487, 0.2391299, -0.1748558
 78679406, 2.069323, 2.135231, 0.2300482, -0.1821312, 2.56939, 2.281025, 0.2451917, -0.1833217
 78734650, 1.93382, 2.011551, 0.2262293, -0.1786293, 2.069323, 2.135231, 0.2300482, -0.1821312
 78789398, 2.18409, 1.914236, 0.2333136, -0.1734793, 1.93382, 2.011551, 0.2262293, -0.1786293
 78844370, 1.950162, 1.33124, 0.2252849, -0.1627845, 2.18409, 1.914236, 0.2333136, -0.1734793
 78899441, 1.949867, 1.723281, 0.2273618, -0.1684671, 1.950162, 1.33124, 0.2252849, -0.1627845
 78949373, 1.802392, 1.193794, 0.2214367, -0.1600759, 1.949867, 1.723281, 0.2273618, -0.1684671
 79004358, 1.945653, 1.318511, 0.2254598, -0.1605712, 1.802392, 1.193794, 0.2214367, -0.1600759
 79059876, 1.742648, 1.036914, 0.2194165, -0.1575405, 1.945653, 1.318511, 0.2254598, -0.1605712
 79114465, 1.741916, 1.110334, 0.2197929, -0.157943, 1.742648, 1.036914, 0.2194165, -0.1575405
 79169438, 1.714699, 1.275051, 0.2200264, -0.1597492, 1.741916, 1.110334, 0.2197929, -0.157943
 79224365, 1.697402, 0.8991201, 0.2181716, -0.1550822, 1.714699, 1.275051, 0.2200264, -0.1597492
 79279355, 1.752209, 0.3765847, 0.2178055, -0.151457, 1.697402, 0.8991201, 0.2181716, -0.1550822
 79334677, 1.652189, 0.5165123, 0.2161193, -0.1521119, 1.752209, 0.3765847, 0.2178055, -0.151457
 79389371, 1.654229, 0.2190136, 0.2155499, -0.1512928, 1.652189, 0.5165123, 0.2161193, -0.1521119
 79439365, 1.96947, 0.1557427, 0.2223976, -0.1502795, 1.654229, 0.2190136, 0.2155499, -0.1512928
 79494467, 1.446041, 0.2161218, 0.2112018, -0.1513322, 1.96947, 0.1557427, 0.2223976, -0.1502795
 79549521, 2.069023, 0.7208353, 0.2265317, -0.1508123, 1.446041, 0.2161218, 0.2112018, -0.1513322
 79604474, 1.884938, 0.414481, 0.2206968, -0.1501092, 2.069023, 0.7208353, 0.2265317, -0.1508123
 79659809, 1.975923, 0.2427385, 0.2222364, -0.1495163, 1.884938, 0.414481, 0.2206968, -0.1501092
 79714586, 1.649778, -0.01073492, 0.2141216, -0.1507013, 1.975923, 0.2427385, 0.2222364, -0.1495163
 79769508, 1.791299, 0.4419916, 0.217887, -0.1508524, 1.649778, -0.01073492, 0.2141216, -0.1507013
 79824655, 1.803268, 0.3005975, 0.2174116, -0.1507858, 1.791299, 0.4419916, 0.217887, -0.1508524
 79879491, 1.544175, 0.2399594, 0.211686, -0.1512287, 1.803268, 0.3005975, 0.2174116, -0.1507858
 79929491, 0.6741338, 0.305397, 0.1982705, -0.1536285, 1.544175, 0.2399594, 0.211686, -0.1512287
 79985956, 1.246514, 0.8481429, 0.2071183, -0.1559533, 0.6741338, 0.305397, 0.1982705, -0.1536285
 80039507, 0.8044247, 0.8543634, 0.2008691, -0.1567954, 1.246514, 0.8481429, 0.2071183, -0.1559533
 80094646, 0.9124234, 0.4277719, 0.2011075, -0.1533101, 0.8044247, 0.8543634, 0.2008691, -0.1567954
 80149600, 0.8696505, 0.9880019, 0.202132, -0.157797, 0.9124234, 0.4277719, 0.2011075, -0.1533101
 80204442, 1.009372, 0.5506765, 0.2031691, -0.1534394, 0.8696505, 0.9880019, 0.202132, -0.157797
 80259854, 0.589605, 0.6415402, 0.1985266, -0.1554427, 1.009372, 0.5506765, 0.2031691, -0.1534394
 80314595, 0.8521764, 0.9019518, 0.2024672, -0.1571194, 0.589605, 0.6415402, 0.1985266, -0.1554427
 80369487, 0.8249222, 0.4251492, 0.2013917, -0.1535694, 0.8521764, 0.9019518, 0.2024672, -0.1571194
 80419486, 0.6418949, 0.7240226, 0.2000284, -0.1565, 0.8249222, 0.4251492, 0.2013917, -0.1535694
 80474462, 0.7040076, 0.8068382, 0.2009653, -0.1575353, 0.6418949, 0.7240226, 0.2000284, -0.1565
 80529475, 0.4308778, 0.5944977, 0.1982911, -0.1566602, 0.7040076, 0.8068382, 0.2009653, -0.1575353
 80585942, 0.2072288, 0.6416211, 0.1971226, -0.1578317, 0.4308778, 0.5944977, 0.1982911, -0.1566602
 80639512, 0.68995, 0.7391501, 0.2008765, -0.1576994, 0.2072288, 0.6416211, 0.1971226, -0.1578317
 80694450, 0.1264106, 0.2965702, 0.1963764, -0.1558686, 0.68995, 0.7391501, 0.2008765, -0.1576994
 80749463, 0.4662139, 0.9474624, 0.1988456, -0.160717, 0.1264106, 0.2965702, 0.1963764, -0.1558686
 80804507, 0.6513644, 0.6925887, 0.1999765, -0.1579486, 0.4662139, 0.9474624, 0.1988456, -0.160717
 80860091, -0.1973945, 0.3429978, 0.1961359, -0.1573217, 0.6513644, 0.6925887, 0.1999765, -0.1579486
 80909835, 0.1418038, 0.8821272, 0.1964753, -0.1625006, -0.1973945, 0.3429978, 0.1961359, -0.1573217
 80964516, -0.03797538, 0.5797353, 0.195693, -0.1604201, 0.1418038, 0.8821272, 0.1964753, -0.1625006
 81019466, -0.08013321, 0.34052, 0.1954779, -0.1593089, -0.03797538, 0.5797353, 0.195693, -0.1604201
 81074478, 0.04502344, 0.7100269, 0.1960957, -0.1622502, -0.08013321, 0.34052, 0.1954779, -0.1593089
 81129612, -0.4258852, 0.3270584, 0.1970374, -0.1598172, 0.04502344, 0.7100269, 0.1960957, -0.1622502
 81185953, -0.2255007, 0.2154872, 0.1966496, -0.159712, -0.4258852, 0.3270584, 0.1970374, -0.1598172
 81236872, 0.05006788, 0.6156203, 0.1970851, -0.1621417, -0.2255007, 0.2154872, 0.1966496, -0.159712
 81294469, -0.1374932, 0.5320476, 0.1974526, -0.1618907, 0.05006788, 0.6156203, 0.1970851, -0.1621417
 81349543, 0.1622349, 0.2477009, 0.1976244, -0.1603522, -0.1374932, 0.5320476, 0.1974526, -0.1618907
 81399626, 0.375798, 0.6137593, 0.1993008, -0.1624012, 0.1622349, 0.2477009, 0.1976244, -0.1603522
 81454435, -0.02366099, 0.07805786, 0.1982993, -0.1604587, 0.375798, 0.6137593, 0.1993008, -0.1624012
 81509883, 0.1677381, 0.08699603, 0.1989358, -0.1606119, -0.02366099, 0.07805786, 0.1982993, -0.1604587
 81564602, 0.1360814, 0.4196909, 0.1995281, -0.1619166, 0.1677381, 0.08699603, 0.1989358, -0.1606119
 81619596, -0.2459263, -0.1677917, 0.1997724, -0.1609004, 0.1360814, 0.4196909, 0.1995281, -0.1619166
 81674479, 0.1272463, 0.1840332, 0.1994452, -0.1610543, -0.2459263, -0.1677917, 0.1997724, -0.1609004
 81729450, 0.3361718, -0.008212379, 0.2009086, -0.1606235, 0.1272463, 0.1840332, 0.1994452, -0.1610543
 81786104, 0.0002023078, -0.1858235, 0.2009968, -0.1606499, 0.3361718, -0.008212379, 0.2009086, -0.1606235
 81839536, 0.4799905, 0.2467512, 0.2032464, -0.1606326, 0.0002023078, -0.1858235, 0.2009968, -0.1606499
 81894666, 0.3618729, -0.2804675, 0.202991, -0.1615002, 0.4799905, 0.2467512, 0.2032464, -0.1606326
 81944479, 0.03384846, -0.1829765, 0.2027775, -0.1611069, 0.3618729, -0.2804675, 0.202991, -0.1615002
 81999432, 0.4859215, 0.04691879, 0.204788, -0.16093, 0.03384846, -0.1829765, 0.2027775, -0.1611069
 82054458, 0.2114857, -0.06497905, 0.2039126, -0.1610877, 0.4859215, 0.04691879, 0.204788, -0.16093
 82109864, -0.04115104, -0.4784541, 0.2044126, -0.1626421, 0.2114857, -0.06497905, 0.2039126, -0.1610877
 82164609, 0.6828341, 0.313409, 0.2081972, -0.1613077, -0.04115104, -0.4784541, 0.2044126, -0.1626421
 82219466, 0.11967, -0.3504854, 0.2057942, -0.162104, 0.6828341, 0.313409, 0.2081972, -0.1613077
 82274470, 0.470626, -0.2341855, 0.2074094, -0.1616276, 0.11967, -0.3504854, 0.2057942, -0.162104
 82329482, 0.5837774, -0.1483105, 0.2085987, -0.161366, 0.470626, -0.2341855, 0.2074094, -0.1616276
 82379496, 0.2178411, -0.192156, 0.2074074, -0.1616005, 0.5837774, -0.1483105, 0.2085987, -0.161366
 82434942, 0.3547182, -0.3299792, 0.2084599, -0.1627382, 0.2178411, -0.192156, 0.2074074, -0.1616005
 82494476, 0.5992588, 0.2274422, 0.2107549, -0.1623043, 0.3547182, -0.3299792, 0.2084599, -0.1627382
 82544445, 0.2383202, -0.5360843, 0.2092895, -0.1645678, 0.5992588, 0.2274422, 0.2107549, -0.1623043
 82599511, 0.513751, -0.2283885, 0.2106654, -0.163524, 0.2383202, -0.5360843, 0.2092895, -0.1645678
 82654475, 0.2301115, -0.05757684, 0.2096169, -0.1634738, 0.513751, -0.2283885, 0.2106654, -0.163524
 82709846, 0.2648571, -0.4683376, 0.2098935, -0.1653369, 0.2301115, -0.05757684, 0.2096169, -0.1634738
 82764474, 0.1239856, 0.2048299, 0.2097055, -0.1644283, 0.2648571, -0.4683376, 0.2098935, -0.1653369
 82819473, -0.2873653, 0.02807153, 0.2101604, -0.1644355, 0.1239856, 0.2048299, 0.2097055, -0.1644283
 82869486, -0.09215267, -0.138657, 0.2096417, -0.1648496, -0.2873653, 0.02807153, 0.2101604, -0.1644355
 82924480, 0.1777557, 0.003996135, 0.2096924, -0.1649718, -0.09215267, -0.138657, 0.2096417, -0.1648496
 82979513, -0.415213, -0.03460975, 0.2106206, -0.1649591, 0.1777557, 0.003996135, 0.2096924, -0.1649718
 83034935, 0.05013135, -0.334582, 0.209577, -0.1662804, -0.415213, -0.03460975, 0.2106206, -0.1649591
 83089601, -0.07612389, 0.1640271, 0.2093196, -0.1661808, 0.05013135, -0.334582, 0.209577, -0.1662804
 83144440, -0.06547285, -0.6329147, 0.2102031, -0.1688482, -0.07612389, 0.1640271, 0.2093196, -0.1661808
 83199632, -0.1187603, 0.05099922, 0.2099697, -0.1668558, -0.06547285, -0.6329147, 0.2102031, -0.1688482
 83254463, 0.0702294, 0.2813274, 0.2102591, -0.1677895, -0.1187603, 0.05099922, 0.2099697, -0.1668558
 83309876, -0.1622011, -0.465097, 0.2107205, -0.1687518, 0.0702294, 0.2813274, 0.2102591, -0.1677895
 83364486, -0.03280397, 0.08498772, 0.2105423, -0.1675854, -0.1622011, -0.465097, 0.2107205, -0.1687518
 83414467, -0.101623, 0.3761105, 0.2110187, -0.1682658, -0.03280397, 0.08498772, 0.2105423, -0.1675854
 83469612, -0.1348981, -0.6220603, 0.2118078, -0.1692363, -0.101623, 0.3761105, 0.2110187, -0.1682658
 83524467, 0.1460791, 0.1274438, 0.2115308, -0.1672261, -0.1348981, -0.6220603, 0.2118078, -0.1692363
 83579534, -0.1242408, 0.1441288, 0.2117249, -0.1677043, 0.1460791, 0.1274438, 0.2115308, -0.1672261
 83634766, -0.169483, -0.266919, 0.2123012, -0.1684917, -0.1242408, 0.1441288, 0.2117249, -0.1677043
 83689466, 0.18114, 0.1889138, 0.2123777, -0.1687981, -0.169483, -0.266919, 0.2123012, -0.1684917
 83744473, -0.1033749, -0.02981238, 0.2123799, -0.1687394, 0.18114, 0.1889138, 0.2123777, -0.1687981
 83799449, -0.06490524, -0.3227597, 0.2127632, -0.1690971, -0.1033749, -0.02981238, 0.2123799, -0.1687394
 83849528, 0.2069557, 0.2604008, 0.2133298, -0.1687374, -0.06490524, -0.3227597, 0.2127632, -0.1690971
 83904483, -0.04590329, 0.0201608, 0.2132566, -0.1683993, 0.2069557, 0.2604008, 0.2133298, -0.1687374
 83959823, -0.2270209, -0.1444504, 0.2136554, -0.1682666, -0.04590329, 0.0201608, 0.2132566, -0.1683993
 84014480, -0.1519068, 0.1461679, 0.2133961, -0.1683211, -0.2270209, -0.1444504, 0.2136554, -0.1682666
 84069485, -0.103113, -0.2037847, 0.2134002, -0.1683281, -0.1519068, 0.1461679, 0.2133961, -0.1683211
 84124447, 0.03026439, -0.1000916, 0.2130043, -0.1684859, -0.103113, -0.2037847, 0.2134002, -0.1683281
 84179473, -0.0454659, 0.07603422, 0.2127214, -0.1687808, 0.03026439, -0.1000916, 0.2130043, -0.1684859
 84234952, 0.06578359, -0.2370712, 0.2125954, -0.1693135, -0.0454659, 0.07603422, 0.2127214, -0.1687808
 84289460, 0.07125009, -0.2779153, 0.2126458, -0.1694054, 0.06578359, -0.2370712, 0.2125954, -0.1693135
 84344490, 0.1040765, -0.1413694, 0.2127742, -0.1687254, 0.07125009, -0.2779153, 0.2126458, -0.1694054
 84394461, 0.06866498, -0.2781662, 0.2129465, -0.1685997, 0.1040765, -0.1413694, 0.2127742, -0.1687254
 84449472, 0.11899, -0.06688077, 0.2129133, -0.1680513, 0.06866498, -0.2781662, 0.2129465, -0.1685997
 84504654, 0.2304294, 0.002677614, 0.2131201, -0.1679543, 0.11899, -0.06688077, 0.2129133, -0.1680513
 84559950, 0.3298579, -0.3770859, 0.2133124, -0.1691567, 0.2304294, 0.002677614, 0.2131201, -0.1679543
 84614473, 0.05631232, 0.06517509, 0.2123193, -0.1685911, 0.3298579, -0.3770859, 0.2133124, -0.1691567
 84669475, 0.2621409, -0.2083375, 0.2125341, -0.1688278, 0.05631232, 0.06517509, 0.2123193, -0.1685911
 84724494, -0.0210903, -0.4488282, 0.2125333, -0.1692252, 0.2621409, -0.2083375, 0.2125341, -0.1688278
 84779464, 0.2954523, -0.502792, 0.213085, -0.1693938, -0.0210903, -0.4488282, 0.2125333, -0.1692252
 84829467, 0.2594051, -0.09124288, 0.2128554, -0.1676526, 0.2954523, -0.502792, 0.213085, -0.1693938
 84886087, 0.2258575, -0.3273689, 0.2128313, -0.1686388, 0.2594051, -0.09124288, 0.2128554, -0.1676526
 84939514, 0.1993082, 0.2534324, 0.2126301, -0.1686913, 0.2258575, -0.3273689, 0.2128313, -0.1686388
 84994454, 0.2157804, 0.1695973, 0.212329, -0.1681574, 0.1993082, 0.2534324, 0.2126301, -0.1686913
 85049478, -0.123952, -0.4654965, 0.2122702, -0.1690711, 0.2157804, 0.1695973, 0.212329, -0.1681574
 85104467, -0.0763398, 0.05547987, 0.2117928, -0.1676386, -0.123952, -0.4654965, 0.2122702, -0.1690711
 85159812, -0.1990544, 0.09779058, 0.211641, -0.1675702, -0.0763398, 0.05547987, 0.2117928, -0.1676386
 85214473, 0.1697827, -0.4773634, 0.2112016, -0.1688142, -0.1990544, 0.09779058, 0.211641, -0.1675702
 85269621, -0.2310738, 0.3899713, 0.2110964, -0.1682965, 0.1697827, -0.4773634, 0.2112016, -0.1688142
 85324515, -0.3807026, -0.07477596, 0.211659, -0.1670876, -0.2310738, 0.3899713, 0.2110964, -0.1682965
 85374521, 0.1527485, -0.06498351, 0.2108709, -0.167104, -0.3807026, -0.07477596, 0.211659, -0.1670876
 85429453, -0.05935521, 0.08769415, 0.2105497, -0.1673196, 0.1527485, -0.06498351, 0.2108709, -0.167104
 85486053, -0.2173096, -0.07731208, 0.2105922, -0.1669605, -0.05935521, 0.08769415, 0.2105497, -0.1673196
 85539611, 0.003279431, -0.249783, 0.2098678, -0.1672792, -0.2173096, -0.07731208, 0.2105922, -0.1669605
 85594456, 0.05362435, 0.3930768, 0.2099383, -0.1678805, 0.003279431, -0.249783, 0.2098678, -0.1672792
 85649507, -0.1333771, -0.1234253, 0.2099979, -0.1668414, 0.05362435, 0.3930768, 0.2099383, -0.1678805
 85704446, 0.1571069, 0.09255921, 0.2100347, -0.1667468, -0.1333771, -0.1234253, 0.2099979, -0.1668414
 85759819, -0.09098907, 0.4277648, 0.2098311, -0.1681361, 0.1571069, 0.09255921, 0.2100347, -0.1667468
 85814477, -0.09234978, -0.2734005, 0.2099051, -0.1675047, -0.09098907, 0.4277648, 0.2098311, -0.1681361
 85864464, -0.03785704, 0.001404449, 0.2098154, -0.1672398, -0.09234978, -0.2734005, 0.2099051, -0.1675047
 85919546, -0.3318438, 0.1600977, 0.2101559, -0.1675633, -0.03785704, 0.001404449, 0.2098154, -0.1672398
 85974661, 0.0768468, -0.6379364, 0.2097449, -0.1699994, -0.3318438, 0.1600977, 0.2101559, -0.1675633
 86029592, -0.06623812, 0.10848, 0.2096787, -0.16734, 0.0768468, -0.6379364, 0.2097449, -0.1699994
 86085938, -0.009155518, 0.2945865, 0.2095226, -0.1681992, -0.06623812, 0.10848, 0.2096787, -0.16734
 86139478, -0.2978334, -0.3388377, 0.2100845, -0.1685099, -0.009155518, 0.2945865, 0.2095226, -0.1681992
 86194535, -0.1600012, 0.2783903, 0.2093614, -0.1687991, -0.2978334, -0.3388377, 0.2100845, -0.1685099
 86249531, 0.2247514, 0.08953076, 0.2093244, -0.1685664, -0.1600012, 0.2783903, 0.2093614, -0.1687991
 86304635, -0.1042842, -0.03069113, 0.209328, -0.1683013, 0.2247514, 0.08953076, 0.2093244, -0.1685664
 86354468, 0.1573729, 0.2095544, 0.2093799, -0.1686826, -0.1042842, -0.03069113, 0.209328, -0.1683013
 86409820, -0.0484752, 0.274448, 0.2091379, -0.1690644, 0.1573729, 0.2095544, 0.2093799, -0.1686826
 86464465, 0.1431163, -0.3313252, 0.2090419, -0.169586, -0.0484752, 0.274448, 0.2091379, -0.1690644
 86519459, 0.1507337, 0.5932003, 0.2093603, -0.1713763, 0.1431163, -0.3313252, 0.2090419, -0.169586
 86574494, -0.154178, 0.002873317, 0.2090378, -0.1694099, 0.1507337, 0.5932003, 0.2093603, -0.1713763
 86629460, -0.1060331, 0.1101488, 0.209026, -0.169595, -0.154178, 0.002873317, 0.2090378, -0.1694099
 86686081, 0.243339, 0.5923572, 0.2098434, -0.1715268, -0.1060331, 0.1101488, 0.209026, -0.169595
 86739483, -0.02922143, -0.02085814, 0.2095214, -0.1693817, 0.243339, 0.5923572, 0.2098434, -0.1715268
 86794519, -0.04386508, 0.07124113, 0.2097313, -0.1692876, -0.02922143, -0.02085814, 0.2095214, -0.1693817
 86849505, 0.09017776, 0.3109295, 0.2098709, -0.1696738, -0.04386508, 0.07124113, 0.2097313, -0.1692876
 86899488, -0.117416, -0.09014168, 0.2098084, -0.1690018, 0.09017776, 0.3109295, 0.2098709, -0.1696738
 86954446, 0.2498624, 0.1723702, 0.210045, -0.1691094, -0.117416, -0.09014168, 0.2098084, -0.1690018
 87009765, -0.03180897, 0.3606989, 0.2094577, -0.1700873, 0.2498624, 0.1723702, 0.210045, -0.1691094
 87064511, -0.1697607, 0.03768124, 0.2096109, -0.1691476, -0.03180897, 0.3606989, 0.2094577, -0.1700873
 87119512, 0.248628, 0.2558289, 0.2098696, -0.1698259, -0.1697607, 0.03768124, 0.2096109, -0.1691476
 87174451, 0.2475663, 0.2406437, 0.20997, -0.1698836, 0.248628, 0.2558289, 0.2098696, -0.1698259
 87229484, -0.2728958, -0.05319838, 0.2100597, -0.1691629, 0.2475663, 0.2406437, 0.20997, -0.1698836
 87286094, 0.3161621, 0.08643652, 0.2100878, -0.1689625, -0.2728958, -0.05319838, 0.2100597, -0.1691629
 87339667, 0.1206627, 0.3253116, 0.2097033, -0.1697217, 0.3161621, 0.08643652, 0.2100878, -0.1689625
 87394623, 0.2470623, -0.07277211, 0.2099131, -0.1692117, 0.1206627, 0.3253116, 0.2097033, -0.1697217
 87444592, 0.08266374, 0.3930803, 0.2096437, -0.1706136, 0.2470623, -0.07277211, 0.2099131, -0.1692117
 87499617, 0.05355436, 0.04215001, 0.2097082, -0.1697998, 0.08266374, 0.3930803, 0.2096437, -0.1706136
 87554452, 0.1376957, -0.04481178, 0.2095431, -0.1696249, 0.05355436, 0.04215001, 0.2097082, -0.1697998
 87609960, -0.1712905, 0.4504448, 0.2094238, -0.1711205, 0.1376957, -0.04481178, 0.2095431, -0.1696249
 87664506, 0.358675, -0.03841086, 0.2100224, -0.1694338, -0.1712905, 0.4504448, 0.2094238, -0.1711205
 87719472, 0.2940629, -0.1436234, 0.2096623, -0.169768, 0.358675, -0.03841086, 0.2100224, -0.1694338
 87774466, -0.07157843, 0.5440323, 0.2094247, -0.1716895, 0.2940629, -0.1436234, 0.2096623, -0.169768
 87829467, 0.2233073, -0.1016863, 0.2096865, -0.169819, -0.07157843, 0.5440323, 0.2094247, -0.1716895
 87879622, 0.1195081, -0.001005492, 0.2095682, -0.1697629, 0.2233073, -0.1016863, 0.2096865, -0.169819
 87934853, 0.2486985, 0.6669493, 0.210627, -0.1721428, 0.1195081, -0.001005492, 0.2095682, -0.1697629
 87994491, 0.2117347, -0.1905128, 0.2100194, -0.1697974, 0.2486985, 0.6669493, 0.210627, -0.1721428
 88044473, -0.1038179, -0.03008068, 0.2100436, -0.1695515, 0.2117347, -0.1905128, 0.2100194, -0.1697974
 88099463, -0.01839788, 0.6313946, 0.2103688, -0.1722477, -0.1038179, -0.03008068, 0.2100436, -0.1695515
 88154493, -0.1705165, -0.1897196, 0.2101739, -0.1697839, -0.01839788, 0.6313946, 0.2103688, -0.1722477
 88209871, -0.03287303, -0.09261213, 0.2097275, -0.1698043, -0.1705165, -0.1897196, 0.2101739, -0.1697839
 88264466, -0.0397127, 0.5771015, 0.2100406, -0.1724948, -0.03287303, -0.09261213, 0.2097275, -0.1698043
 88319491, -0.01251595, 0.02674055, 0.2100862, -0.1707943, -0.0397127, 0.5771015, 0.2100406, -0.1724948
 88374514, 0.1332755, 0.07127822, 0.2100555, -0.1706953, -0.01251595, 0.02674055, 0.2100862, -0.1707943
