TimeUS,CAN,CAE,CAD,CAe
 66960011, -0.02020958, -7.667494E-05, 0.003837797, 0.01080403
 67086516, -0.01847147, 0.0004394235, 0.003276464, 0.009871742
 67121669, -0.01233769, 0.0002388501, 0.001639208, 0.006572731
 67176594, -0.01950614, 0.0004440497, 0.003111403, 0.01022751
 67231632, -0.01947464, 0.0006714196, 0.003493505, 0.01022863
 67281586, -0.01763965, 0.0004355544, 0.003189637, 0.009298753
 67336968, -0.01927188, 0.0002749003, 0.003040483, 0.01022863
 67391662, -0.019438, 0.0008371902, 0.002535091, 0.01022974
 67446681, -0.01899001, 0.0002048473, 0.002735648, 0.01022826
 67501653, -0.01908225, 0.0007126762, 0.003384679, 0.01022788
 67556601, -0.018945, 0.0002374341, 0.004233712, 0.01022844
 67612323, -0.0193734, 0.0007600782, 0.002772475, 0.01022882
 67662208, -0.01828159, 0.0001074212, 0.003120034, 0.009298568
 67716664, -0.01955722, -0.0001612232, 0.00336697, 0.01022881
 67771616, -0.01999917, 0.0002092449, 0.002973842, 0.01022863
 67826644, -0.01990072, 0.0006313946, 0.002910781, 0.01023049
 67881623, -0.01945467, 0.0007131073, 0.002961277, 0.01022677
 67936975, -0.01985258, 0.0005171497, 0.003749919, 0.01022863
 67991606, -0.02002125, -0.0002104904, 0.004190383, 0.01022974
 68046678, -0.01895544, 0.0003004466, 0.002898131, 0.0102277
 68096599, -0.01778869, 0.0005971121, 0.002665279, 0.009299125
 68151619, -0.01913576, 0.0009106021, 0.003781964, 0.01022807
 68206628, -0.02006183, 0.0004920866, 0.003283367, 0.01022844
 68261971, -0.01930046, 0.0004263996, 0.003145571, 0.01022863
 68316607, -0.01935796, 0.0003713131, 0.003974013, 0.01022881
 68371640, -0.01957702, 0.0004736331, 0.002942011, 0.01022863
 68426662, -0.01924055, 0.0006004943, 0.003096438, 0.01022863
 68476629, -0.01772606, 0.0008610769, 0.003130687, 0.009298752
 68531642, -0.01941068, 0.0003440718, 0.00348773, 0.01022844
 68586988, -0.01910257, 0.0006348575, 0.002684762, 0.01022882
 68641625, -0.01945582, 5.480672E-05, 0.00326387, 0.01022863
 68696674, -0.01892708, 0.0001328197, 0.003534793, 0.01023086
 68751631, -0.01957237, 0.0003346898, 0.002738972, 0.0102277
 68806643, -0.01946158, -0.0002807846, 0.003606162, 0.01022733
 68861966, -0.01929545, 0.0001779281, 0.003665357, 0.01022863
 68912467, -0.01787792, 4.313114E-05, 0.00337177, 0.009298753
 68966716, -0.01983603, 0.0003116142, 0.003152505, 0.01022881
 69021603, -0.0191406, 7.510837E-06, 0.003110406, 0.01022844
 69076616, -0.01956802, 0.0005047222, 0.002948569, 0.01022937
 69131651, -0.01928514, 0.0004798108, 0.003390273, 0.01022807
 69187364, -0.01942344, -9.718104E-05, 0.004092237, 0.01022881
 69241617, -0.01994865, 0.0003178516, 0.003398905, 0.01022844
 69291664, -0.0174171, 0.0004170815, 0.002278407, 0.009298567
 69346618, -0.01944862, 0.0001288041, 0.002980302, 0.01022863
 69401648, -0.02018687, 0.0001321428, 0.003435603, 0.01022863
 69456610, -0.02077518, -0.0005269948, 0.003355914, 0.01022974
 69512540, -0.018276, 0.001033571, 0.001922383, 0.01022937
 69566638, -0.02025577, -0.000745633, 0.003680719, 0.01022937
 69621604, -0.01994522, 0.0005212336, 0.002795232, 0.01022602
 69671626, -0.0170208, -0.000270547, 0.003428733, 0.009298752
 69726629, -0.01941126, -5.761144E-05, 0.003204861, 0.01023067
 69781658, -0.02007275, 0.0007146921, 0.003399153, 0.01022844
 69837015, -0.01897224, -0.0008427146, 0.002874499, 0.01022881
 69891616, -0.02039728, 0.0008642829, 0.002993169, 0.01022863
 69946663, -0.02008305, 0.0001729014, 0.001300625, 0.01022807
 70001705, -0.01812123, 0.00113511, 0.0002957341, 0.01022863
 70051649, -0.01797598, 0.001355201, 0.004872014, 0.009298568
 70106663, -0.02281311, 0.0008506066, -0.01607977, 0.01022881
 70161985, -0.008045536, 0.001893925, -0.01592127, 0.01022937
 70221661, -0.02534285, -0.001277224, -0.02588027, 0.01115776
 70271644, -0.02766864, 0.007027472, -0.02614408, 0.009297451
 70326657, -0.03718928, 0.000179555, -0.02476966, 0.01022844
 70381654, -0.03551971, -0.008510929, -0.01782398, 0.01022993
 70436989, -0.04222446, 0.001163144, -0.02752105, 0.01022919
 70491616, -0.03743422, -0.008721957, -0.01641109, 0.01022881
 70546616, -0.03555697, -0.02369534, 0.006475563, 0.01022807
 70601668, -0.0459937, -0.008070583, -0.01307605, 0.01022863
 70656665, -0.03984324, -0.01666019, 0.001873419, 0.010229
 70712514, -0.04291977, -0.02293114, -0.0126168, 0.01022826
 70766710, -0.04965429, -0.01413145, -0.01352185, 0.0102316
 70816684, -0.03446022, -0.01163489, -0.01706003, 0.009298009
 70871616, -0.03295716, -0.01173861, -0.02082247, 0.01022993
 70926682, -0.03544374, -0.008238148, -0.0408616, 0.0102251
 70981650, -0.02382969, 0.0002479262, -0.05602473, 0.01023067
 71037201, -0.01704564, -0.001308054, -0.07066312, 0.0102264
 71091658, -0.01764248, 0.007630789, -0.1000219, 0.01023012
 71146644, -0.006269211, 0.02010257, -0.1135986, 0.01022733
 71201651, 0.001016743, 0.01715465, -0.1170584, 0.010229
 71256664, -0.0006685419, 0.03021007, -0.126148, 0.010229
 71312498, 0.003353293, 0.04840269, -0.1358588, 0.01022788
 71366658, 0.006121437, 0.04098053, -0.1283803, 0.01022919
 71421620, 0.002568052, 0.05779532, -0.1414136, 0.01022807
 71476630, 0.005412099, 0.07373658, -0.1485592, 0.01022863
 71531695, 0.00685391, 0.06553095, -0.1388406, 0.01022863
 71581669, 0.0001070516, 0.06977664, -0.1280572, 0.009298753
 71636988, 0.002198647, 0.08354112, -0.1457646, 0.01022844
 71691631, 0.002535292, 0.07643045, -0.1386401, 0.010229
 71746612, -0.0004322361, 0.08210652, -0.1417075, 0.01022826
 71801692, -0.002876261, 0.08726698, -0.1410033, 0.01022863
 71856657, -0.001970345, 0.08020234, -0.1308686, 0.01022863
 71912519, -0.003678046, 0.08136009, -0.1292619, 0.01022881
 71966647, -0.00719783, 0.08630046, -0.1270035, 0.01022863
 72021694, -0.004309438, 0.07951403, -0.118016, 0.01022863
 72076660, -0.004616094, 0.07325585, -0.1125189, 0.01022863
 72131695, -0.01033418, 0.0750767, -0.1129573, 0.01023142
 72187021, -0.008280907, 0.06993605, -0.09790039, 0.01022621
 72241696, -0.00697138, 0.05714154, -0.07427856, 0.0102303
 72296725, -0.01138725, 0.0527717, -0.06036436, 0.01022714
 72346656, -0.008766898, 0.04466084, -0.04373156, 0.009298195
 72401715, -0.01112067, 0.03478764, -0.0342513, 0.01022863
 72456676, -0.01901958, 0.03094993, -0.02610447, 0.01022844
 72514257, -0.01621426, 0.02581882, -0.008954012, 0.01069375
 72569255, -0.02350471, 0.01188658, 0.01263502, 0.01022863
 72624535, -0.02199323, 0.006652502, 0.02876969, 0.01022863
 72674547, -0.02365563, 0.004010433, 0.03271569, 0.009299311
 72729249, -0.01608122, -0.004302189, 0.05297713, 0.01022807
 72784266, -0.02382612, -0.01002611, 0.07439077, 0.01022956
 72839245, -0.0177674, -0.01093341, 0.09171477, 0.0102277
 72894248, -0.01243015, -0.01432443, 0.1025277, 0.01022863
 72949708, -0.01695182, -0.02417568, 0.1237324, 0.01022919
 73009276, -0.01313218, -0.02450345, 0.145421, 0.01115776
 73059272, -0.008550661, -0.02054612, 0.1318604, 0.009298753
 73114229, -0.0117419, -0.03189502, 0.1610002, 0.01022881
 73169227, -0.01010191, -0.02782402, 0.1558806, 0.01022844
 73224548, -0.009225031, -0.02898813, 0.1555669, 0.01022993
 73279237, -0.01005877, -0.03774521, 0.1629098, 0.0102303
 73334413, -0.009031019, -0.03306354, 0.1558749, 0.0102264
 73389258, -0.009460584, -0.0315168, 0.1541628, 0.01022974
 73439415, -0.00603748, -0.03598081, 0.1489667, 0.009297079
 73494214, -0.006444228, -0.03099871, 0.153504, 0.01022788
 73549562, -0.007651417, -0.03161784, 0.1562143, 0.01022807
 73609254, -0.006210992, -0.03831108, 0.1786008, 0.0111598
 73659230, -0.005769878, -0.02549733, 0.1369344, 0.009297266
 73714413, -0.008547531, -0.02685331, 0.1480053, 0.01022993
 73769294, -0.004619929, -0.03115417, 0.1395103, 0.01022751
 73824527, -0.006765612, -0.02394783, 0.1132884, 0.01022863
 73879229, -0.009458394, -0.02162109, 0.09823402, 0.01023198
 73934233, -0.005992972, -0.02680022, 0.09514254, 0.01022621
 73989269, -0.007251475, -0.01820885, 0.07924496, 0.0102277
 74044270, -0.01208069, -0.01360968, 0.07011, 0.01022863
 74094261, -0.005338503, -0.0197635, 0.06135729, 0.009298755
 74149546, -0.009786553, -0.009345273, 0.04826107, 0.01022974
 74209464, -0.01499776, -0.005359461, 0.04639509, 0.01115906
 74259235, -0.006260575, -0.01437192, 0.04347264, 0.009298194
 74314245, -0.01348986, 1.219066E-05, 0.02543504, 0.01023216
 74369213, -0.01596677, 0.002743252, 0.02226224, 0.01022528
 74424526, -0.01108326, -0.00679452, 0.02590867, 0.01022863
 74479410, -0.01721497, 0.006386722, 0.01025389, 0.01022937
 74534257, -0.01627327, 0.009642645, 0.006401772, 0.01022788
 74589273, -0.01312074, 1.836818E-05, 0.01886611, 0.010229
 74644249, -0.01943761, 0.01206811, 0.003509952, 0.01022826
 74700996, -0.01855304, 0.01667797, 0.001382624, 0.01022863
 74754218, -0.01619542, 0.0046189, 0.01524348, 0.01022863
 74809264, -0.02033632, 0.01644909, 0.00426861, 0.01023086
 74859237, -0.0175982, 0.0163635, 0.003243142, 0.009296522
 74914219, -0.01759448, 0.005651086, 0.01694818, 0.01022937
 74969338, -0.02148879, 0.01229453, 0.01089041, 0.01022993
 75024658, -0.02567107, 0.009195581, 0.02204242, 0.01023012
 75079351, -0.01583473, -0.04508974, 0.04845287, 0.01022565
 75134330, -0.04671335, -0.0005430125, -0.03438051, 0.01022807
 75189355, -0.02761091, -0.05966398, 0.03063109, 0.01022881
 75244491, -0.04488066, -0.05826217, 0.01032997, 0.01022919
 75300766, -0.05664165, -0.03815459, -0.01845214, 0.01022788
 75354337, -0.04025472, -0.08955886, 0.04644971, 0.01022863
 75409351, -0.06977372, -0.04963246, -0.02233874, 0.01022863
 75464386, -0.05260887, -0.05527288, -0.001310509, 0.01022863
 75514503, -0.0508152, -0.06786352, 0.02570174, 0.009299311
 75569366, -0.06860606, -0.02208653, -0.02395939, 0.01022937
 75624643, -0.03478903, -0.05962108, 0.03432715, 0.01022714
 75679357, -0.07262627, -0.03016165, -0.0001858971, 0.01022993
 75734356, -0.04553309, -0.01539617, -0.01285161, 0.01022751
 75789376, -0.04039244, -0.04722862, 0.03033514, 0.01022863
 75844359, -0.07046219, -0.008681962, -0.01195693, 0.01022863
 75904336, -0.03517434, -0.01338389, -0.006746334, 0.01115795
 75954361, -0.03989712, -0.0408565, 0.0261699, 0.009300241
 76009503, -0.05372098, 0.004817121, -0.0270746, 0.01022826
 76059355, -0.01217574, -0.02814234, 0.01940729, 0.009298195
 76114349, -0.0533016, -0.02090506, 0.004699852, 0.01022863
 76169492, -0.02206664, 0.003283105, -0.02616454, 0.01022881
 76224616, -0.01988535, -0.04312058, 0.0322153, 0.01022844
 76279487, -0.04414098, -0.009428505, -0.004059547, 0.01022844
 76334355, -0.001273988, -0.006576454, -0.004876471, 0.01022919
 76389356, -0.01974319, -0.04572231, 0.03433159, 0.01022881
 76444353, -0.02600974, -0.002895646, -0.02415144, 0.010229
 76500823, 0.01251224, -0.02259611, 0.008293239, 0.01023253
 76554357, -0.0233677, -0.04443178, 0.03770609, 0.01022472
 76609337, 0.005411914, 0.01161067, -0.03641274, 0.0102277
 76664409, 0.006576572, -0.04652235, 0.03831067, 0.01022844
 76719342, -0.01517027, -0.01445965, -0.01023718, 0.01023123
 76774776, 0.01982301, 0.01071605, -0.02904618, 0.0102277
 76824624, -0.008040039, -0.04358747, 0.03886012, 0.009298381
 76879323, -0.002317577, 0.02848525, -0.04421249, 0.01022807
 76934322, 0.01258423, -0.01527835, 0.02353337, 0.01022807
 76989376, -0.01980398, -0.005217342, 0.008166355, 0.01022974
 77044524, 0.006696264, 0.0392064, -0.03664516, 0.01022751
 77100764, -0.01198151, -0.02768062, 0.04029532, 0.01022863
 77154356, -0.01791173, 0.02730498, -0.02200431, 0.01022863
 77209348, -0.007547833, 0.02176357, -0.00724417, 0.01022844
 77264344, -0.0232499, -0.02823459, 0.03641862, 0.01022881
 77319347, -0.02346875, 0.04298433, -0.04613063, 0.01022863
 77374637, -0.01667192, -0.01356024, 0.0213898, 0.01022863
 77429530, -0.03815899, -0.01258648, 0.004071474, 0.01022919
 77484341, -0.02624788, 0.03368476, -0.04121359, 0.01022807
 77539497, -0.03134652, -0.03528728, 0.0363646, 0.01022937
 77589372, -0.03864887, 0.01216173, -0.03300337, 0.00929838
 77644336, -0.03022907, 3.960682E-05, -0.01427977, 0.01022919
 77700746, -0.04074696, -0.04036843, 0.0150578, 0.01022751
 77754347, -0.05046198, 0.01924658, -0.0423901, 0.01022881
 77809482, -0.02725118, -0.02338168, 0.01406287, 0.01022919
 77864335, -0.0514224, -0.0312409, 0.01678346, 0.01022788
 77919332, -0.04801172, 0.01378098, -0.02878918, 0.01022937
 77974645, -0.02777752, -0.04007405, 0.03084803, 0.01022807
 78029362, -0.05738484, -0.01908245, 0.01004349, 0.01022993
 78084367, -0.03102532, 0.002608474, -0.01271852, 0.01022844
 78137194, -0.03262364, -0.05141972, 0.05040339, 0.009763132
 78191992, -0.04772047, -0.004880871, -0.007380282, 0.01022956
 78246852, -0.01604912, -0.01534464, 0.005077302, 0.01022881
 78301750, -0.036108, -0.04767897, 0.03302314, 0.01022807
 78356790, -0.02848398, 0.0108637, -0.03019115, 0.01022751
 78412361, -0.004698819, -0.02487739, 0.0231244, 0.01022844
 78466782, -0.03471471, -0.02706599, 0.01876943, 0.01022881
 78521806, 0.001687447, 0.02934049, -0.03266887, 0.01022844
 78576799, -0.009549321, -0.0360254, 0.04298633, 0.01022974
 78631787, -0.02049462, 0.02320914, -0.02172138, 0.0102277
 78687469, 0.01214558, 0.01923508, -0.008829182, 0.01022844
 78742005, -0.01962678, -0.01454045, 0.02296839, 0.01022919
 78791765, 0.003660316, 0.05984354, -0.02913081, 0.009299496
 78849636, 7.795324E-05, -0.004876947, 0.05009174, 0.01069264
 78904341, -0.01126978, 0.04441305, 0.0007375358, 0.01024778
 78959360, 0.006293943, 0.05777455, -0.006496735, 0.01021319
 79014371, -0.009348827, -0.0003448559, 0.05023439, 0.01022472
 79069491, -0.009811438, 0.07364231, -0.01936605, 0.01022844
 79124623, 0.006609764, 0.02826001, 0.02291749, 0.01022881
 79179335, -0.02104688, 0.009041287, 0.01387956, 0.01022993
 79234360, -0.002221302, 0.07246634, -0.03493379, 0.01022733
 79289351, -0.008531272, -0.005534465, 0.03186626, 0.01022863
 79339488, -0.02405252, 0.03482738, -0.01675461, 0.009298753
 79394337, -0.006474161, 0.0326936, -0.006567455, 0.01022863
 79449659, -0.02697113, -0.01911578, 0.04035666, 0.01022863
 79509364, -0.02670781, 0.0406267, -0.02788555, 0.0111585
 79559364, -0.01055898, -0.00164436, 0.01289469, 0.009298753
 79614356, -0.02685291, -0.006215767, 0.007662814, 0.01022974
 79669331, -0.0161828, 0.03860005, -0.03592088, 0.01022751
 79724643, -0.0196463, -0.02936292, 0.03742277, 0.01022863
 79779344, -0.02532373, 0.01151755, -0.01291725, 0.01022974
 79834483, -0.01806715, 0.01551195, -0.02148412, 0.01022751
 79889358, -0.02006484, -0.03026009, 0.02199932, 0.01022863
 79944349, -0.02968213, 0.01642948, -0.03458318, 0.01022956
 80000826, -0.01990978, -0.0009041023, -0.00937029, 0.0102277
 80054524, -0.0188763, -0.02419357, 0.0170535, 0.01023253
 80109332, -0.02991367, 0.01347268, -0.03029607, 0.0102264
 80159505, -0.02103382, -0.01033744, 0.009221807, 0.009297079
 80219342, -0.02068286, -0.01632937, 0.008548789, 0.01115906
 80269333, -0.03461943, 0.02357968, -0.02871353, 0.009298195
 80324644, -0.02345375, -0.02782729, 0.0256369, 0.01022863
 80379340, -0.03815193, 0.005151672, -0.0130636, 0.010229
 80434344, -0.03905565, 0.01834708, -0.01387971, 0.01022807
 80489374, -0.03153507, -0.02503929, 0.03120479, 0.01023049
 80544354, -0.06428958, 0.02565553, -0.01901871, 0.01022695
 80600965, -0.03738858, 0.004526442, 0.01278151, 0.01022863
 80654349, -0.05349265, -0.004654968, 0.01806994, 0.01022863
 80709372, -0.06297052, 0.0407561, -0.01674229, 0.01022919
 80764346, -0.03814123, -0.004798075, 0.03505443, 0.01022863
 80819349, -0.06588534, 0.01965081, 0.01285233, 0.01022826
 80869485, -0.04862352, 0.03144607, 0.0003848284, 0.009299496
 80929325, -0.05180342, -0.0004680057, 0.02938664, 0.01115776
 80984346, -0.0708072, 0.02336581, 0.00426346, 0.010229
 81039363, -0.04888429, 0.0309761, -0.000264112, 0.01022956
 81094507, -0.04830819, -0.002762679, 0.0331953, 0.01022881
 81149627, -0.07065072, 0.03389759, -0.006422037, 0.01022695
 81209499, -0.0488935, 0.02713618, 0.005623185, 0.0111585
 81259356, -0.0457185, -0.00471204, 0.02609179, 0.009300427
 81314536, -0.06553829, 0.04190469, -0.01754662, 0.01022695
 81369349, -0.03549192, 0.01039518, 0.01850344, 0.01022919
 81424624, -0.06016333, 0.00792261, 0.01662128, 0.010229
 81479319, -0.05410745, 0.04266503, -0.02003404, 0.0102303
 81534372, -0.04147638, -0.0005877316, 0.02410605, 0.01022602
 81589495, -0.06178476, 0.01193874, 0.01164844, 0.01022919
 81644349, -0.05509368, 0.03354355, -0.01258832, 0.01022863
 81700757, -0.04767273, -0.007278711, 0.02821413, 0.01022826
 81749622, -0.06664483, 0.01590814, -0.00184122, 0.009298753
 81809351, -0.05997813, 0.02458857, -0.01002959, 0.0111585
 81859487, -0.0460432, -0.01079583, 0.01925356, 0.009298753
 81914325, -0.06704773, 0.01484066, -0.003406221, 0.01022844
 81969345, -0.04980909, 0.009661125, 0.003323964, 0.01022881
 82024658, -0.04972913, -0.01863064, 0.02423422, 0.01022844
 82079349, -0.06607905, 0.008240117, -0.005061149, 0.01023105
 82134336, -0.04661939, -0.0007071722, 0.005682508, 0.01022695
 82189354, -0.04718586, -0.02772105, 0.03184075, 0.01022788
 82244349, -0.06725593, 0.005522946, -0.008464109, 0.01022863
 82300795, -0.03954402, -0.005020748, 0.01170944, 0.01022956
 82351794, -0.0534531, -0.02468757, 0.03262233, 0.009762575
 82409335, -0.06304107, 0.0115998, -0.01157764, 0.01069375
 82459399, -0.03879367, -0.01638105, 0.01955737, 0.009298939
 82519367, -0.05821168, -0.01261749, 0.01284578, 0.01115999
 82574958, -0.06076568, 0.01286574, -0.01512932, 0.01022714
 82624759, -0.03784133, -0.01645628, 0.01821965, 0.00930024
 82679530, -0.05739146, -0.006393723, -0.004046777, 0.01023123
 82729333, -0.04101879, 0.009486291, -0.01905801, 0.00929522
 82784513, -0.04278315, -0.02081846, 0.01169337, 0.01022807
 82844370, -0.05319791, -0.001858216, -0.005652672, 0.0111585
 82900764, -0.03952758, 0.01555646, -0.01194508, 0.01022974
 82959325, -0.03914751, -0.01584706, 0.03165774, 0.0111559
 83009346, -0.04017192, 0.004587179, 4.242058E-05, 0.009302286
 83059365, -0.02745745, 0.01557142, -0.005851226, 0.00930024
 83114339, -0.03585571, -0.01213239, 0.02342685, 0.01022509
 83164504, -0.04249541, 0.02343257, -0.01518007, 0.009298567
 83219362, -0.03247797, 0.007300514, 0.0009727683, 0.01023309
 83274627, -0.0356174, -0.003855068, 0.01007261, 0.0102264
 83329330, -0.04251581, 0.02549597, -0.01127972, 0.01022658
 83384355, -0.02831561, 0.01340814, 0.003679184, 0.01022714
 83439346, -0.03943596, -0.01283286, 0.04206117, 0.0102303
 83489371, -0.03283485, 0.02810634, -0.005674849, 0.009300054
 83544357, -0.03249389, 0.006418067, 0.01322741, 0.01022789
 83600765, -0.0425189, -0.0141488, 0.01875603, 0.01022881
 83654363, -0.03426199, 0.0224107, -0.0190294, 0.01022993
 83709342, -0.04320623, 0.006702639, 0.0007922559, 0.01022751
 83764356, -0.03826342, -0.01594429, 0.01272197, 0.01022751
 83814365, -0.03552488, 0.0184491, -0.02079692, 0.00929838
 83869325, -0.03745854, 0.002928073, 0.002073133, 0.01022881
 83924639, -0.02852364, -0.0167473, 0.009857516, 0.01022956
 83979341, -0.0437371, 0.01735755, -0.01865887, 0.01022789
 84034349, -0.02978362, -0.001864731, 0.001186183, 0.01022844
 84089373, -0.02730577, -0.01853303, 0.01393982, 0.01022881
 84144340, -0.04570487, 0.009578757, -0.01514819, 0.01022863
 84194348, -0.02277327, -0.005857961, 0.001683337, 0.009297265
 84249646, -0.03343605, -0.01383231, 0.01393877, 0.0102316
 84304354, -0.04544742, 0.01655719, -0.01782606, 0.01022547
 84359512, -0.02477597, -0.01025461, 0.01700214, 0.01023049
 84414340, -0.04316702, -0.006998648, 0.0006815599, 0.01022844
 84469508, -0.04269258, 0.01190341, -0.02306528, 0.01023086
 84519366, -0.01742237, -0.01394975, 0.009374567, 0.009297078
 84574649, -0.04442807, -0.00487387, -0.01108078, 0.01022956
 84629340, -0.02160099, 0.008071819, -0.01797257, 0.01022714
 84684337, -0.02381752, -0.02492395, 0.01675688, 0.01022863
 84739481, -0.03172567, -0.009502027, -0.001921306, 0.01022863
 84794370, -0.0173394, -0.002646142, -0.00916152, 0.01023067
 84849638, -0.01694562, -0.02569145, 0.01435824, 0.01022621
 84900724, -0.02346193, -0.01188636, -0.009837754, 0.009298568
 84954329, -0.017341, -0.005866568, -0.007049878, 0.010229
 85009499, -0.01272343, -0.0199954, 0.01197287, 0.01022863
 85064415, -0.02886541, -0.006454578, -0.003056923, 0.01023049
 85119351, -0.01599986, 0.001629791, -0.005605721, 0.01022696
 85174624, -0.01180906, -0.006569141, 0.003730712, 0.01022844
 85224629, -0.02740183, 0.006059245, -0.006323088, 0.009299869
 85279489, -0.009843862, 0.009099917, -0.005572691, 0.0102277
 85334352, -0.006326864, -0.001921412, 0.01227722, 0.01022863
 85389354, -0.01992793, 0.01616516, -0.001017036, 0.01022844
 85444364, 0.006711265, 0.01707827, -0.0008756858, 0.01022881
 85500804, 0.01120107, -0.005133274, 0.01595716, 0.01022881
 85549786, -0.002260934, 0.02098211, -0.01020607, 0.009300055
 85609346, 0.02008421, 0.01922695, -0.003458267, 0.01115739
 85659330, 0.01314838, -0.01148141, 0.02665949, 0.009296892
 85714364, 0.009604516, 0.02798775, 0.002493549, 0.01022882
 85769351, 0.02617875, 0.02625571, 0.008150955, 0.01022993
 85824636, 0.015633, -0.007812829, 0.03676137, 0.01022919
 85874637, 0.01543871, 0.04849329, -0.01966113, 0.009299125
 85929319, 0.01721447, 0.01343015, 0.0176656, 0.01022751
 85984365, 0.01507868, -6.389429E-05, 0.01672594, 0.010229
 86039520, 0.02037059, 0.05219819, -0.03097879, 0.01022826
 86094357, 0.02455187, 0.002330263, 0.02183016, 0.01023086
 86149629, 0.02114689, -0.001038402, 0.01789039, 0.01022807
 86200758, 0.01844344, 0.05266315, -0.03023711, 0.009298194
 86254360, 0.01979114, -0.0239173, 0.03816294, 0.0102277
 86309330, 0.01709328, 0.01391097, -0.004686281, 0.01023067
 86364346, 0.01528538, 0.02323124, -0.01271021, 0.01022714
 86419349, 0.01935174, -0.03108702, 0.03581928, 0.01022863
 86474652, 0.01883125, 0.005966946, -0.01464019, 0.01022826
 86526846, 0.02162163, 0.009076788, -0.008655727, 0.009763691
 86581822, 0.01543915, -0.03394936, 0.0334482, 0.01022826
 86637178, 0.02456582, 0.0130397, -0.00969648, 0.01022714
 86691792, 0.009108761, -0.008287184, 0.01939023, 0.0102303
 86741832, 0.01548815, -0.03959387, 0.04002734, 0.009299125
 86796746, 0.02001001, 0.01470554, -0.02034339, 0.01022826
 86851792, 0.010338, -0.02960658, 0.03275273, 0.01022863
 86909350, 0.02044915, -0.02724683, 0.009256869, 0.01069357
 86959356, 0.01953657, 0.01597063, -0.03773188, 0.009299124
 87014376, 0.02131337, -0.02383009, 0.002875781, 0.01022807
 87069365, 0.03549153, -0.01091433, -0.01068185, 0.01022937
 87124753, 0.02073296, 0.01521679, -0.02325572, 0.01022807
 87179334, 0.03231238, -0.01419421, 0.01280773, 0.01022956
 87229384, 0.02817917, -0.01008883, 0.004741493, 0.009297823
 87284323, 0.02110623, 0.01803397, -0.01907536, 0.01022714
 87339332, 0.03543392, -0.02356628, 0.01303475, 0.0102316
 87394483, 0.02137155, -0.006285092, -0.01633679, 0.01022974
 87449647, 0.02085623, 0.009834521, -0.02475912, 0.01022565
 87504331, 0.02802745, -0.0240053, 0.007179301, 0.01022751
 87554332, 0.01491481, -0.008340874, -0.01267485, 0.009300242
 87609344, 0.02318577, 0.0009245132, -0.02150292, 0.01022863
 87664465, 0.02208258, -0.0211405, -0.003248517, 0.01022714
 87719524, 0.01025824, -0.01874552, -0.006437531, 0.01022863
 87774597, 0.01810428, -0.007940517, -0.02028545, 0.01023012
 87829336, 0.01464829, -0.0200328, 0.002508569, 0.0102303
 87884350, 0.01061834, -0.01626834, 0.001732595, 0.01022695
 87934477, 0.01073987, -0.004203295, -0.004453259, 0.009298568
 87989356, 0.01012782, -0.01362999, 0.004225359, 0.01023272
 88044376, 0.006136558, -0.008152778, -0.008681829, 0.01022472
 88100789, 0.007863558, 0.005158275, -0.01617732, 0.01022844
 88154340, 0.005934536, -0.004557014, -0.005389721, 0.0102303
 88209351, 0.01004135, 0.006258193, -0.01043968, 0.01022751
 88259382, 0.01192504, 0.01094338, -0.01711464, 0.009298381
 88314330, 0.02360483, 0.005365599, -0.01094433, 0.01022863
 88369351, 0.03267901, 0.01194077, -0.01674019, 0.01022863
 88424635, 0.05332292, 0.02028108, -0.02594487, 0.01023105
 88479353, 0.06577568, 0.01658768, -0.008981992, 0.01022677
 88534369, 0.08193383, 0.0233679, -0.006206537, 0.01022826
 88584365, 0.07906634, 0.04553188, -0.02290547, 0.009298568
 88639358, 0.09811264, 0.03321792, 0.007850141, 0.01022974
 88694356, 0.1029286, 0.03515994, 0.01581593, 0.01022881
 88749626, 0.1039149, 0.06383675, 0.005917178, 0.01022714
 88804354, 0.09859908, 0.04563271, 0.02361841, 0.01022733
 88859328, 0.09661631, 0.03152891, 0.02624812, 0.01022993
 88909334, 0.08452531, 0.0585019, -0.01126161, 0.009298754
 88964366, 0.08005969, 0.03261064, 0.02187051, 0.01022919
 89019334, 0.07196306, 0.01335749, 0.04442496, 0.010229
 89074650, 0.06670643, 0.04625297, 0.007803136, 0.0102277
 89129330, 0.0578259, 0.01793499, 0.03733136, 0.01022844
 89184343, 0.05036663, -0.007325809, 0.045153, 0.010229
 89234350, 0.0350963, 0.0319519, -0.004827616, 0.00930024
 89289341, 0.03087809, -0.01042985, 0.02594948, 0.01022714
 89344348, 0.02203718, -0.01044183, -0.002251894, 0.01022714
 89401050, 0.01152488, 0.0206837, -0.02642955, 0.0102303
 89454370, 0.005153765, -0.01130996, 0.02749762, 0.01022826
 89509499, -0.002463743, -0.01950018, 0.03039821, 0.01022733
 89559350, -0.007286145, -0.002637365, -0.006553154, 0.009298753
 89614355, -0.01234053, -0.03136683, -0.0008209507, 0.01023067
 89669335, -0.01225329, -0.03122183, -0.004691184, 0.01022788
 89724619, -0.01867826, -0.01823409, 0.0003882172, 0.01022882
 89779487, -0.0173395, -0.03221039, 0.02399259, 0.01023402
 89834351, -0.01861811, -0.03861331, 0.02123281, 0.01022324
 89884345, -0.02234474, -0.0200678, -0.01125386, 0.00929838
 89939363, -0.02491586, -0.03879432, 0.008977708, 0.01022956
 89994346, -0.02618001, -0.0383061, 0.005226747, 0.01022974
 90049795, -0.02810001, -0.02485648, -0.0117479, 0.01022751
 90104335, -0.02983035, -0.03463363, 0.00224097, 0.0102264
 90159348, -0.02960673, -0.03779481, 0.004572027, 0.0102303
 90209352, -0.0276593, -0.01962414, -0.01221576, 0.00929987
 90264325, -0.03128397, -0.03229678, 0.004575685, 0.01022788
 90319484, -0.0322715, -0.03321857, 0.002460263, 0.01022863
 90374629, -0.03308771, -0.01877062, -0.0191731, 0.01022844
 90429336, -0.02753079, -0.02897321, 0.003278096, 0.01022826
 90479357, -0.03266786, -0.03034468, 0.008096928, 0.009300984
 90534368, -0.03158325, -0.01054969, -0.009229076, 0.0102264
 90589495, -0.02999431, -0.02622745, 0.006079903, 0.01022956
 90644361, -0.03535287, -0.02648963, 0.001574794, 0.01022788
 90700773, -0.03024003, -0.005923657, -0.01057385, 0.01022844
 90751793, -0.02824626, -0.01426871, 0.001884651, 0.009763691
 90806804, -0.03786144, -0.02120642, 0.008021343, 0.01022844
 90862209, -0.03370336, -0.002601452, -0.009877685, 0.01022881
 90916755, -0.03275421, -0.009113926, -0.00123737, 0.01022937
 90972002, -0.03819252, -0.01348039, 0.01109109, 0.01022807
 91021799, -0.02770608, 0.002233869, -0.003058156, 0.009300798
 91076821, -0.03857652, -0.005590026, 0.008127972, 0.0102264
 91132022, -0.03349452, -0.009524866, 0.009443261, 0.01022881
 91187192, -0.0277132, 0.002988315, 7.285317E-05, 0.01022844
 91241989, -0.0337953, -0.00350666, 0.007758125, 0.01022863
 91296773, -0.02705792, -0.01074564, 0.01529199, 0.01022863
 91346775, -0.02064035, 0.003725715, -0.002959763, 0.009298939
 91404362, -0.02758091, -0.008345, 0.005359621, 0.01069598
 91459340, -0.02280498, -0.01201965, 0.007186085, 0.01022733
 91509361, -0.01907363, 0.002008652, -0.002754617, 0.009297451
 91564363, -0.02244825, -0.007825277, 0.010699, 0.01022881
 91619322, -0.0196882, -0.01094193, 0.01673594, 0.01022919
 91674638, -0.0206463, 0.003200679, -0.0002521453, 0.01023142
 91729330, -0.02149864, -0.001468455, 0.00197, 0.01022509
 91784310, -0.02317245, -0.006411263, 0.009027431, 0.01022863
 91834360, -0.01920565, 0.01178807, -0.006621331, 0.009298939
 91889350, -0.01962788, -0.001629184, 0.01421634, 0.01022844
 91944355, -0.02432466, 0.0004157442, 0.01173819, 0.01023086
 92000837, -0.02217787, 0.01589934, -0.006592655, 0.01022695
 92054332, -0.02075655, 0.004088754, 0.0112452, 0.01022881
 92109364, -0.02408371, -0.0009730567, 0.01546179, 0.01022863
 92159343, -0.02349123, 0.02331286, -0.007203467, 0.009298009
 92214383, -0.0214973, 0.001779608, 0.01773141, 0.01022937
 92269340, -0.03020847, 0.004677943, 0.005055084, 0.01022807
 92324626, -0.0289817, 0.02535564, -0.01251895, 0.01022844
 92379325, -0.02431793, 0.006185187, 0.01532556, 0.01023086
 92434482, -0.03113777, 0.004010937, 0.01430963, 0.01022695
 92484346, -0.03052047, 0.02892556, -0.01462652, 0.009298753
 92539365, -0.02869922, 0.003708761, 0.01790393, 0.01023179
 92594342, -0.03745227, 0.005752364, 0.0109066, 0.01022547
 92649649, -0.03710423, 0.02899114, -0.008150963, 0.01022826
 92704491, -0.02787675, 0.001118025, 0.02356484, 0.01022714
 92759501, -0.0418779, 0.004095372, 0.006776242, 0.01023012
 92809356, -0.0385038, 0.02566036, -0.01672063, 0.009298753
 92864505, -0.02908047, -0.001789952, 0.01728691, 0.01022863
 92919340, -0.04406333, 0.003442341, 0.008280957, 0.01022844
 92974777, -0.03953481, 0.02437533, -0.01426496, 0.01024574
 93029356, -0.02884336, -0.0005684169, 0.01194244, 0.01021189
 93084402, -0.03882764, -0.0001027464, 0.003670687, 0.01022863
 93134323, -0.03535859, 0.02550438, -0.01944526, 0.009298194
 93189352, -0.02695944, 0.0002121641, 0.01291428, 0.01023309
 93244557, -0.03700441, 0.005176729, 0.003030542, 0.01022417
 93300753, -0.03387437, 0.02831589, -0.01717656, 0.01022881
 93354352, -0.02213431, -2.478971E-05, 0.01807249, 0.01022881
 93409347, -0.0319873, 0.009082324, 0.01288849, 0.01022844
 93459376, -0.02405011, 0.02737165, -0.009947293, 0.009299868
 93514504, -0.02160857, 0.002501986, 0.01993853, 0.01022751
 93569350, -0.03051914, 0.01253741, 0.003236202, 0.010229
 93624638, -0.02685014, 0.02644279, -0.00884239, 0.010229
 93679341, -0.01847093, 0.003146082, 0.01316569, 0.01022881
 93734350, -0.03027029, 0.008796716, 0.00607861, 0.01022826
 93784484, -0.02055681, 0.02696165, -0.006193126, 0.009298195
 93839407, -0.01997461, -0.002531341, 0.01823827, 0.01022844
 93894339, -0.03007681, 0.01282223, 0.0002811207, 0.010229
 93949657, -0.02263255, 0.02318927, -0.008808116, 0.010229
 94004354, -0.01848194, -0.003296365, 0.01914096, 0.01022677
 94059366, -0.03105875, 0.008051878, 0.001187687, 0.01023012
 94109350, -0.0228538, 0.02051929, -0.01159379, 0.009298567
 94164341, -0.02115143, -0.00437342, 0.02284719, 0.01022882
 94219362, -0.03574893, 0.01498803, 0.005746933, 0.0102303
 94274636, -0.02742173, 0.02729579, -0.006326269, 0.01022733
 94329331, -0.02354572, -0.001202047, 0.0187951, 0.01022844
 94379329, -0.03840608, 0.02121367, -0.004892783, 0.009303031
 94434369, -0.02594149, 0.0256336, 0.0006356715, 0.01022398
 94489365, -0.0243433, -0.005635808, 0.02849682, 0.01023105
 94544529, -0.04177748, 0.02859209, -0.01211673, 0.01022621
 94600809, -0.0216022, 0.02075001, 0.002663874, 0.01022937
 94654344, -0.02197867, -0.005679921, 0.02414474, 0.01022788
 94709340, -0.04429974, 0.0268956, -0.01382038, 0.01022974
 94759347, -0.009395432, 0.006566326, 0.01353804, 0.009298195
 94814387, -0.0297584, -0.005095041, 0.01974434, 0.01022807
 94869347, -0.03623022, 0.02398677, -0.02114265, 0.01023235
 94924626, -0.01095068, -0.0005720628, 0.003880038, 0.01022584
 94979378, -0.02839423, -0.009918764, 0.006342623, 0.01023086
 95029349, -0.03040382, 0.01737069, -0.02693626, 0.009295405
 95084354, -0.008395832, -0.0113756, 0.008864538, 0.01023068
 95139367, -0.03104294, -0.008596264, 0.009514121, 0.01022826
 95194372, -0.02227871, 0.01295694, -0.01175785, 0.01022714
 95249715, -0.008859457, -0.0137964, 0.01206603, 0.01023142
 95304356, -0.02890864, -0.01429736, 0.00472407, 0.01022454
 95354361, -0.01482693, 0.009318303, -0.01921207, 0.009300055
 95409355, -0.01583599, -0.01826643, 0.009430278, 0.01022882
 95464358, -0.02446691, -0.01006953, 0.003173095, 0.010229
 95519327, -0.0183255, 0.004794089, -0.00907895, 0.01022807
 95574651, -0.01881624, -0.01314323, 0.01622234, 0.01022956
 95629472, -0.0271656, -0.006621085, 0.00645776, 0.01022807
 95679320, -0.0190736, 0.004899384, -0.002435461, 0.009298381
 95734360, -0.02418496, -0.01450757, 0.02055078, 0.01022863
 95789365, -0.0303322, 0.001914845, 0.007194703, 0.01022863
 95844346, -0.02749568, 0.008686488, 0.001550127, 0.01022882
 95900886, -0.0253787, -0.0105519, 0.02282338, 0.01022937
 95954379, -0.03171121, 0.003132272, 0.005002286, 0.0102277
 96009352, -0.0308156, 0.008685632, 0.001011636, 0.010229
 96059328, -0.01864694, -0.01326652, 0.02852216, 0.009298753
 96114350, -0.0351235, 0.007470806, 0.003721388, 0.01022956
 96169498, -0.02561835, 0.007843416, 0.006402296, 0.01022751
 96224873, -0.02408354, -0.01517765, 0.02655126, 0.01022956
 96274625, -0.03699042, 0.0106967, 0.0009406244, 0.009297638
 96329533, -0.02502229, 0.006832581, 0.005000803, 0.01022881
 96384330, -0.02815229, -0.01480632, 0.02197424, 0.01022826
 96439488, -0.04346512, 0.01484058, -0.01219661, 0.01023068
 96494370, -0.02753009, 0.00746174, -0.002556253, 0.01022733
 96549654, -0.02785022, -0.01437459, 0.01668411, 0.010229
 96600758, -0.03747545, 0.02065365, -0.01674053, 0.009297824
 96654354, -0.01891607, -0.005746095, 0.02096463, 0.0102303
 96709497, -0.02488981, -0.01217005, 0.01879381, 0.01022956
 96764344, -0.03356696, 0.01611038, -0.01810163, 0.01022621
 96819349, -0.01308811, -0.008232016, 0.009814797, 0.01022863
 96874652, -0.02368612, -0.01663381, 0.01106439, 0.01022956
 96925409, -0.02804212, 0.01400855, -0.0183772, 0.009298567
 96979513, -0.0149397, -0.01150801, 0.004637465, 0.01022826
 97034356, -0.0208071, -0.01388583, 0.01017418, 0.01022807
 97089408, -0.0303408, 0.01074848, -0.01256382, 0.01022881
 97144348, -0.01120672, -0.005396495, 0.008481672, 0.01022863
 97200755, -0.02003494, -0.01788853, 0.02239785, 0.01022937
 97249757, -0.02572395, 0.01413258, -0.01271659, 0.009297824
 97309368, -0.01518102, -0.009261298, 0.009677062, 0.0111585
 97359354, -0.01981208, -0.01710189, 0.01119255, 0.009300427
 97414349, -0.02419585, 0.008984155, -0.01990463, 0.01022695
 97469359, -0.01138949, -0.01282712, 0.01047573, 0.01022937
 97525455, -0.02118531, -0.0200296, 0.01712912, 0.010229
 97574651, -0.02250692, 0.002308634, -0.009411706, 0.009297824
 97629328, -0.01469912, -0.01649748, 0.01271249, 0.01022844
 97684358, -0.02402153, -0.02155385, 0.01108131, 0.01022863
 97739348, -0.02335231, -0.006137251, -0.006249564, 0.01022881
 97794358, -0.01912856, -0.01746403, 0.007119493, 0.01023067
 97844347, -0.0217668, -0.01916487, 0.01124841, 0.009296522
 97900755, -0.025381, -0.005684433, -9.709492E-05, 0.01023049
 97954371, -0.02207023, -0.01788031, 0.01122364, 0.01022658
 98009527, -0.0297126, -0.02044785, 0.01042415, 0.01022881
 98064368, -0.03039358, -0.005960086, -0.002178201, 0.01022919
 98119326, -0.02126049, -0.01383659, 0.009256359, 0.01022807
 98169353, -0.02928358, -0.01624776, 0.007301797, 0.009298753
 98224639, -0.02838907, -0.0005026631, -0.00671779, 0.01022881
 98279348, -0.02087193, -0.0106133, 0.00883717, 0.01022863
 98334349, -0.02851029, -0.01022045, 0.009066785, 0.01022714
 98389341, -0.02848595, 0.001813138, 0.001075734, 0.01023012
 98444376, -0.02155343, -0.003846398, 0.007256152, 0.01022881
 98494364, -0.02789013, -0.009349775, 0.01095687, 0.009298752
 98549652, -0.02728989, 0.004239533, -0.002873946, 0.01023067
 98609340, -0.02534631, -0.0007679223, 0.001206012, 0.01115609
 98659357, -0.02537504, -0.006892573, 0.0091392, 0.00929894
 98714352, -0.0290451, 0.004088092, 0.002013588, 0.01022974
 98764341, -0.0178976, 0.005480818, 0.001098803, 0.009297637
 98819319, -0.0238905, -0.003872672, 0.007354598, 0.01022844
 98874648, -0.02552945, 0.004878632, -0.0009169109, 0.01023625
 98929344, -0.01703752, 0.007024174, -0.002723421, 0.01022193
 98984340, -0.01690163, -0.003249416, 0.004839552, 0.01022956
 99039353, -0.0222101, 0.0002133037, 3.418664E-05, 0.01022733
 99089372, -0.01132152, 0.008739366, -0.00702015, 0.009298194
 99144356, -0.01242661, 0.0008920577, 0.004401947, 0.01022919
 99200785, -0.01928242, 0.00741496, -0.000553983, 0.01022863
 99254317, -0.009848142, 0.01832161, -0.006322254, 0.01023086
 99309356, -0.01105554, 0.009563885, 0.005106464, 0.01022603
 99364493, -0.01532203, 0.01074743, 0.003610077, 0.01022844
 99414368, -0.006357989, 0.0211121, -0.006307591, 0.009299682
 99469365, -0.008104708, 0.01410561, 0.00321412, 0.01022788
 99525448, -0.009553997, 0.008950564, 0.007856708, 0.01022863
 99579380, -0.006670474, 0.01988275, -0.00137066, 0.01022919
 99634557, -0.002236939, 0.01288873, 0.004432135, 0.01022807
 99689571, -0.007361344, 0.00797128, 0.006175017, 0.01022844
 99739347, -0.008433452, 0.01690554, -0.003921042, 0.009298938
 99794520, -0.005402548, 0.01384559, 0.003387443, 0.01022844
 99849642, -0.01164145, 0.004863648, 0.0141315, 0.0102303
 99904479, -0.01686335, 0.01660122, 0.003834418, 0.01026452
 99959330, -0.01196651, 0.01392741, 0.01058342, 0.01019125
 100014373, -0.01995567, 0.003528635, 0.0207268, 0.010229
 100064371, -0.01820185, 0.01306751, 0.009669348, 0.009298753
 100119356, -0.0213497, 0.007264359, 0.01310644, 0.01023142
 100174773, -0.02565384, -0.001617967, 0.01455278, 0.01022602
 100229346, -0.02949302, 0.007075544, -0.0008581842, 0.01022788
 100284360, -0.02181124, 0.004067431, 0.000601772, 0.01022863
 100339337, -0.02891797, -0.007944116, 0.0128702, 0.01022863
 100389386, -0.0287709, -0.0008775946, 0.002436997, 0.009299125
 100444489, -0.02551409, -0.001390927, 0.001664969, 0.01022844
 100500832, -0.03024411, -0.0145343, 0.009317927, 0.01022863
 100554383, -0.031112, -0.007206037, 0.002016859, 0.01022844
 100609352, -0.03071445, -0.005252964, -0.001423986, 0.01022863
 100659351, -0.02803297, -0.01686591, 0.006770071, 0.009298938
 100714503, -0.03292293, -0.01399394, -0.004832011, 0.01022863
 100769334, -0.02759092, -0.006704608, -0.005126081, 0.01023123
 100824639, -0.02695527, -0.01427844, 0.007587251, 0.01022603
 100879342, -0.02984197, -0.01584072, 0.004472069, 0.01022844
 100934316, -0.02478579, -0.00450318, -0.003428183, 0.0102303
 100984510, -0.019016, -0.006936064, 0.005354058, 0.009297266
 101039348, -0.02509931, -0.01361085, 0.01125617, 0.01023012
 101094380, -0.02154454, -0.00398578, 0.001406973, 0.01022695
 101149646, -0.01834784, -0.006145957, 0.005515258, 0.01022863
 101204356, -0.0207936, -0.01361209, 0.01099934, 0.01022733
 101259340, -0.02047192, -0.005832415, 0.0001269954, 0.01022993
 101309341, -0.01910271, -0.0003935742, 0.0005602557, 0.009298939
 101364358, -0.01949201, -0.009785192, 0.013346, 0.01022844
 101419351, -0.02078682, -0.008034308, 0.009423796, 0.01022881
 101474917, -0.02415123, 6.77309E-05, 0.0006076744, 0.01022919
 101529377, -0.02328108, -0.005111167, 0.009352092, 0.0102277
 101584358, -0.02753771, -0.01006096, 0.01345046, 0.01022937
 101634335, -0.0225947, 0.002286849, -0.007091126, 0.009298195
 101689342, -0.02761568, -0.00240929, -0.001301413, 0.01022863
 101744357, -0.02674638, -0.00809902, 0.007044136, 0.01023049
 101800758, -0.02529194, 0.003461048, -0.001369194, 0.01022826
 101854338, -0.02329758, 0.004989934, 0.003817987, 0.01022881
 101909354, -0.02516138, -0.004999177, 0.01272809, 0.01022788
 101959342, -0.02212053, 0.006892354, -0.004245812, 0.009298753
 102014366, -0.02176443, 0.008728026, 0.0008394814, 0.01022956
 102069356, -0.02204259, -0.000518738, 0.01003236, 0.01022751
 102125428, -0.02377891, 0.009595502, -7.446436E-05, 0.01022788
 102179339, -0.01856043, 0.01691316, 0.001057742, 0.01023216
 102234356, -0.01972815, 0.001566945, 0.01331162, 0.01022509
 102284337, -0.01842135, 0.006100286, 0.002954475, 0.009300613
 102339358, -0.01836241, 0.01672722, -0.002915355, 0.01022919
 102394358, -0.01536546, -0.001254698, 0.01486025, 0.0102277
 102449675, -0.0213462, 0.001810469, 0.01269965, 0.01022733
 102504383, -0.02032828, 0.01849435, -0.006185578, 0.01022695
 102559502, -0.01641822, 0.002230255, 0.009768776, 0.01023012
 102609344, -0.01864212, 0.001173993, 0.007848726, 0.009298939
 102664393, -0.022533, 0.0196541, -0.01237982, 0.01022863
 102719346, -0.01688639, 0.002569193, 0.007287622, 0.01022844
 102774634, -0.02151145, 0.0005861591, 0.00455879, 0.01022863
 102829484, -0.02125767, 0.01871759, -0.01475018, 0.010229
 102884363, -0.01499873, 0.003281044, 0.001760695, 0.01022826
 102934359, -0.01952457, -0.005565591, 0.005805553, 0.009298939
 102989370, -0.01958621, 0.01604475, -0.01246934, 0.01022918
 103044371, -0.01237458, 0.0007454724, 0.005734291, 0.01022788
 103100985, -0.0183743, -0.00670157, 0.009361356, 0.01022993
 103154515, -0.01917051, 0.01158351, -0.0124269, 0.01022733
 103209348, -0.01020537, 0.001751732, 0.001184756, 0.01022937
 103259491, -0.01590379, -0.009734625, 0.01325282, 0.009298009
 103314354, -0.01748919, 0.00950859, -0.007452433, 0.01022844
 103369486, -0.01042442, 0.001513423, 0.001045242, 0.01022956
 103424635, -0.01610526, -0.00997417, 0.01358099, 0.0102277
 103479374, -0.01816721, 0.007385758, 0.0004571719, 0.0102303
 103529343, -0.00891433, 0.003330499, 0.002087752, 0.00929708
 103584360, -0.0192259, -0.007181307, 0.01440237, 0.01023216
 103639482, -0.01812486, 0.005237416, 0.0002874093, 0.01022528
 103694362, -0.01459233, 0.005911755, 0.0002063043, 0.01022863
 103749639, -0.02079714, -0.004787269, 0.00941106, 0.01022863
 103804357, -0.0195024, 0.001942206, 0.004646139, 0.01022733
 103854344, -0.01385708, 0.009186366, -0.002405836, 0.009301541
 103909488, -0.02014034, -0.004744588, 0.0136766, 0.01022733
 103964367, -0.01911796, 0.002033529, 0.003130952, 0.01022863
 104019349, -0.01731055, 0.009457152, -0.00269018, 0.01022863
 104074651, -0.01378203, -0.006146967, 0.01159752, 0.01022863
 104129344, -0.0199116, 0.001986616, 0.005400517, 0.010229
 104179487, -0.01595403, 0.003761133, 0.003602087, 0.009298567
 104234357, -0.01331867, -0.01108823, 0.01629291, 0.01022826
 104289347, -0.02205424, 0.001739876, -0.0008912766, 0.01022844
 104344360, -0.01684391, 0.004026133, -0.002179198, 0.01022956
 104400783, -0.01720412, -0.01313555, 0.01794106, 0.01022788
 104449852, -0.02175241, 0.006752608, -0.003617913, 0.009299311
 104509335, -0.02374507, 0.001332608, -0.0004851283, 0.0111585
 104559368, -0.02179332, -0.01435403, 0.01453438, 0.009298753
 104614372, -0.02790421, 0.007045841, -0.009845116, 0.01022863
 104669352, -0.021881, 0.004227682, 0.002550195, 0.01022807
 104725455, -0.02159981, -0.01202404, 0.01963792, 0.01022937
 104774625, -0.02460405, 0.008091712, -0.007124718, 0.009297823
 104829337, -0.01918397, 0.006722122, -0.0019927, 0.01022937
 104884352, -0.01841057, -0.006936519, 0.01636656, 0.01022789
 104939502, -0.02739992, 0.01325798, -0.002046358, 0.01022863
 104994355, -0.01657138, 0.01488883, 0.004122192, 0.01022937
 105049748, -0.01487373, -0.005730137, 0.02241804, 0.01022937
 105100775, -0.02677454, 0.01922378, -0.003165583, 0.009298939
 105154350, -0.01275045, 0.01309999, 0.01195807, 0.0102277
 105209363, -0.01892193, -0.006149076, 0.02489443, 0.01022807
 105264344, -0.0293407, 0.02045314, -0.008051753, 0.01022881
 105319335, -0.01510234, 0.01377254, 0.001710398, 0.01022863
 105374636, -0.0151293, -0.006151132, 0.02307881, 0.01022881
 105424628, -0.02957706, 0.01546288, -0.006488348, 0.009298567
 105479334, -0.008700991, 0.01542149, 0.005226899, 0.01022937
 105534371, -0.01605133, -0.006484809, 0.02868955, 0.01022789
 105589355, -0.02280733, 0.02564737, -0.01152228, 0.010229
 105644340, -0.009630758, 0.01813029, -0.005319009, 0.01022826
 105700748, -0.01550436, 0.0007750284, 0.00743942, 0.01022844
 105749717, -0.01681886, 0.01811314, -0.02071029, 0.009298939
 105809347, -0.01481292, 0.009178354, -0.002242354, 0.01115832
 105859337, -0.01950613, -0.01166871, 0.01437845, 0.009299311
 105914351, -0.02013672, 0.006831291, -0.008200795, 0.01022807
 105969357, -0.01759885, -0.006699528, 0.002039658, 0.01022974
 106024827, -0.02470066, -0.0190157, 0.01351708, 0.01022733
 106074647, -0.01860809, 0.003068737, -0.01177177, 0.009299497
 106134364, -0.02135061, -0.01926612, 0.01482731, 0.01115813
 106184332, -0.023459, -0.01953577, 0.01689503, 0.009298567
 106239334, -0.02017449, -0.004014206, -0.006170556, 0.01022881
 106294482, -0.01936047, -0.0264558, 0.01802433, 0.01022844
 106344363, -0.02011924, -0.01838269, 0.00465109, 0.009300984
 106400754, -0.01968717, -0.005143282, -0.006962808, 0.01022658
 106454370, -0.01921888, -0.02689438, 0.01658755, 0.01024332
 106509352, -0.01502477, -0.01822321, 0.0131165, 0.01021431
 106564542, -0.01863295, 0.004273881, -0.008202212, 0.01022826
 106619508, -0.01372084, -0.03078011, 0.03268791, 0.01022844
 106669351, -0.02201427, -0.0009385813, -0.0037542, 0.009299682
 106725701, -0.01321595, 0.005414848, 0.007849, 0.0102277
 106779333, -0.01170608, -0.02946568, 0.04279391, 0.01022863
 106834487, -0.03268111, 0.02348516, -0.01861079, 0.01022863
 106889357, -0.006751292, -0.001299837, 0.008915979, 0.01022863
 106944336, -0.02540005, -0.005652519, 0.006217699, 0.01022863
 106994346, -0.02808158, 0.03498149, -0.03055179, 0.009300055
 107049792, -0.006373159, -0.01327426, 0.03351146, 0.01022733
 107109339, -0.04965091, 0.02478373, -0.02352122, 0.0111585
 107159354, -0.002756043, 0.01447058, 0.001301683, 0.009298753
 107214368, -0.03791101, 0.002377913, 0.01817028, 0.01022844
 107269320, -0.02628074, 0.03487578, -0.02069624, 0.01022881
 107319344, -0.009947103, -0.01028964, 0.02488884, 0.009301355
 107374750, -0.05329448, 0.02326835, -0.009571417, 0.01022602
 107429327, -0.001770339, 0.007516367, -0.006035297, 0.010229
 107484440, -0.0455901, -0.01834247, 0.02011185, 0.01022881
 107539342, -0.01836888, 0.02842475, -0.03264571, 0.01022881
 107594349, -0.007538502, -0.02997819, 0.02059747, 0.01022993
 107644485, -0.0444386, 0.01154606, -0.02501581, 0.009297823
 107700792, 0.007342472, -0.01209184, -0.003436693, 0.01022788
 107754352, -0.04605313, -0.01918645, -0.008743268, 0.01022826
 107809332, 0.01057513, 0.02638756, -0.03776951, 0.01022863
 107864374, -0.01635087, -0.03527506, 0.04179963, 0.01022937
 107916751, -0.00968317, 0.04281871, -0.02220358, 0.009762947
 107972225, 0.009585461, -0.01966676, 0.04154044, 0.01023123
 108027006, -0.02668763, 0.02838421, -0.0119919, 0.01022844
 108081793, 0.03810998, 0.0216484, 0.005779378, 0.01022621
 108131775, -0.02887654, 0.005404387, 0.01579757, 0.00929987
 108186793, 0.03606217, 0.03771825, -0.0009415417, 0.01022751
 108241799, -0.01439505, -0.01026602, 0.03687754, 0.01022863
 108298597, 0.016735, 0.05392887, 0.001907444, 0.01022844
 108351998, 0.01851965, -0.01981479, 0.05704949, 0.01022863
 108406776, -0.0103575, 0.04196016, -0.01886987, 0.01022882
 108457024, 0.02851127, -0.01130601, 0.02584824, 0.009298753
 108511820, -0.01558808, 0.02560895, -0.02894463, 0.01022937
 108567003, 0.02595477, 0.002760303, 0.02442641, 0.01023049
 108622120, -0.02679948, -0.01720019, 0.03126963, 0.01022602
 108676797, 0.01709744, 0.02672421, -0.002759955, 0.01023123
 108726791, -0.02515199, -0.05130964, 0.05211035, 0.009296148
 108781789, -0.007196606, 0.02802301, -0.03039841, 0.01022863
 108836961, -0.01889292, -0.05802655, 0.04640526, 0.01022863
 108891788, -0.05139206, -0.01522247, -0.01655487, 0.01022826
 108947212, -0.02631428, -0.01841448, -0.00397883, 0.01022974
 109001807, -0.06193527, -0.075225, 0.0476958, 0.01023848
 109051748, -0.03790457, 0.01573387, -0.04646232, 0.009288153
 109106991, -0.05968027, -0.086289, 0.06406688, 0.01022863
 109161771, -0.06249079, -0.001292711, -0.04107749, 0.01023142
 109216810, -0.06258134, -0.04593452, 0.02043838, 0.01022621
 109272103, -0.07077154, -0.05518808, 0.00760429, 0.01022807
 109326778, -0.07391769, -0.0001073292, -0.05125675, 0.01022919
 109376992, -0.05933921, -0.06985786, 0.03542221, 0.009298938
 109431798, -0.08498031, -0.00679829, -0.07078035, 0.01022863
 109486811, -0.07728569, -0.05700052, -0.002070404, 0.01022807
 109541804, -0.07173364, -0.04933181, -0.03264339, 0.01022844
 109598467, -0.08247474, -0.01068168, -0.05867147, 0.01022881
 109651779, -0.0597129, -0.07964953, 0.02802943, 0.01022881
 109706784, -0.08078953, -0.01179255, -0.05648534, 0.01022844
 109756786, -0.04904531, -0.04774234, 0.009759532, 0.009298568
 109811799, -0.06415059, -0.03650516, -0.01417137, 0.01022881
 109866775, -0.056368, 0.0001640719, -0.0245801, 0.01022863
 109922877, -0.0355185, -0.05931751, 0.0477636, 0.01022974
 109976795, -0.06699777, 0.009400971, -0.03097389, 0.01022956
 110026793, -0.0177178, -0.02659845, 0.02173835, 0.009299869
 110081813, -0.05692913, -0.007833799, 0.006347693, 0.01022547
 110137006, -0.01830412, 0.02119975, -0.002591504, 0.01022863
 110191786, -0.03247381, -0.03162985, 0.0554642, 0.01022919
 110247186, -0.03369096, 0.03824424, -0.01560377, 0.01022807
 110298445, 0.001753718, -0.01827773, 0.03878181, 0.009298753
 110351789, -0.03760425, 0.02679488, -0.006694042, 0.01022844
 110406759, 0.01993053, 0.02518527, 0.008013989, 0.01022937
 110461783, -0.02683604, 0.005535627, 0.02247819, 0.01022993
 110516802, 0.02527, 0.06799867, -0.008822752, 0.01022974
 110572224, 0.004112458, 0.001243374, 0.05375744, 0.01022677
 110622119, 0.01303405, 0.06985725, -0.003640445, 0.009297636
 110676794, 0.01797586, 0.01561468, 0.05137653, 0.01022882
 110731789, 0.003446809, 0.04197044, 0.01101272, 0.010229
 110786775, 0.03147124, 0.06154525, -0.002152405, 0.01022807
 110841763, 0.005291861, 0.003156594, 0.03694368, 0.01022863
 110898464, 0.0268319, 0.07661784, -0.0253539, 0.01022863
 110947198, 0.004654412, 9.750389E-05, 0.0406687, 0.009299125
 111006757, 0.01736478, 0.04782307, 0.003309751, 0.01115832
 111056787, 0.01466884, 0.03852673, 0.003157408, 0.009298567
 111111812, 0.003926421, -0.003424903, 0.03171175, 0.01022863
 111166780, 0.01468534, 0.06198216, -0.04028482, 0.01022863
 111222379, -0.0007835916, -0.01876198, 0.03636883, 0.01022863
 111272123, 0.009136252, 0.03885796, -0.02442205, 0.009298753
 111326754, -0.001294564, 0.005876771, 0.007044612, 0.01022863
 111381763, 0.002729348, -0.004977153, 0.005158886, 0.01022863
 111436788, -0.005569551, 0.0372449, -0.0387481, 0.01022863
 111492000, -0.006357152, -0.04260466, 0.04005628, 0.01023011
 111541799, -0.002957077, 0.03340669, -0.05826542, 0.009297638
 111598456, -0.01483778, -0.03247233, 0.0222298, 0.01022844
 111651757, -0.004648099, -0.01648762, -0.01663092, 0.01022844
 111706798, -0.01512261, 0.01171208, -0.03617507, 0.01023346
 111761974, -0.009107414, -0.04897529, 0.02653432, 0.01022547
 111817005, -0.01309621, 0.01451385, -0.04349306, 0.01022677
 111866803, -0.01707841, -0.02239843, 0.006497378, 0.009298939
 111923248, -0.01238069, -0.009129819, -0.014607, 0.01023235
 111976806, -0.02443958, 0.01917982, -0.02515107, 0.01022547
 112032000, -0.01304165, -0.03521495, 0.03771937, 0.01022807
 112086799, -0.03295363, 0.0287124, -0.03677405, 0.01022919
 112141778, -0.02053219, -0.01423071, 0.02319973, 0.01022788
 112191789, -0.03505245, 0.009191045, -0.01285009, 0.009299125
 112247196, -0.03007979, 0.01740092, -0.01156175, 0.01022844
 112306784, -0.03614073, -0.01712528, 0.03336955, 0.01115999
 112356760, -0.04625054, 0.05295723, -0.03072335, 0.009297637
 112411778, -0.02613434, -0.01374624, 0.04154854, 0.01022826
 112466795, -0.05838804, 0.04002787, -0.01720717, 0.01022863
 112516783, -0.01565449, 0.01680656, 0.005816246, 0.009298753
 112572378, -0.04904069, 0.0137493, 0.01236637, 0.01022863
 112626765, -0.0262729, 0.05836092, -0.01414117, 0.01023012
 112681773, -0.0234065, -0.008481584, 0.04963938, 0.01022696
 112736803, -0.04099478, 0.04892445, 0.006427766, 0.01022881
 112791770, 0.009448608, 0.0227185, 0.0323544, 0.01022937
 112841995, -0.04913414, 0.003126409, 0.02552552, 0.009303775
 112898482, 0.01547165, 0.05290801, -0.01634218, 0.01022268
 112951808, -0.02432933, -0.02773047, 0.05219706, 0.01022881
 113006769, 0.005767776, 0.05819396, -0.02485561, 0.010229
 113061797, 0.002618264, -0.01855503, 0.03520698, 0.010229
 113111980, -0.00388495, 0.01877983, -0.009566482, 0.009298567
 113166778, 0.0155709, 0.01891565, 0.004360651, 0.01022844
 113222216, -0.005671042, -0.03218271, 0.04881374, 0.01023179
 113276797, 0.01800945, 0.05991638, -0.03540817, 0.01022602
 113331791, -0.007738047, -0.03803031, 0.05096604, 0.01022937
 113386794, 0.01756604, 0.0320992, -0.02221724, 0.01022695
 113436807, -0.00912309, 0.003450441, 0.0142439, 0.009298752
 113491812, 0.01295919, -0.004301918, 0.01198345, 0.01022881
 113547218, -0.008896306, 0.0363013, -0.03051943, 0.01022863
 113602013, -0.01124025, -0.03188052, 0.02623717, 0.01022695
 113656772, 0.002668304, 0.0273266, -0.0376545, 0.01023012
 113711814, -0.0237074, -0.0006916181, -0.00581565, 0.01022863
 113761798, -0.009357143, -0.02381942, 0.005092495, 0.009298753
 113816770, -0.02371612, 0.02838784, -0.03389641, 0.01022881
 113872115, -0.02013548, -0.03879267, 0.0453185, 0.01023179
 113926760, -0.02300237, 0.008603144, -0.02812242, 0.01022602
 113981807, -0.03746722, -0.02085279, 0.005982826, 0.01022788
 114036809, -0.02104239, -0.03863212, -0.0007143758, 0.010229
 114086796, -0.04706676, -0.005888673, -0.03677224, 0.009298381
 114141818, -0.02958139, -0.05549072, 0.02677923, 0.0102316
 114198467, -0.04359245, -0.02872168, -0.01239886, 0.01022584
 114251768, -0.04784793, -0.02868621, -0.001122481, 0.01022826
 114306748, -0.02993938, -0.06116941, 0.02931437, 0.01022881
 114361768, -0.06242233, -0.01436518, -0.0233145, 0.01022863
 114411817, -0.0251226, -0.05551341, 0.03582552, 0.009298753
 114466790, -0.05753416, -0.03223607, -0.00962477, 0.01022863
 114522963, -0.04106078, -0.02248379, -0.003710565, 0.0102303
 114576759, -0.03503908, -0.0604323, 0.03910123, 0.0102277
 114631790, -0.05716079, -0.007632543, -0.01853989, 0.01022788
 114681789, -0.01897228, -0.0424324, 0.03237404, 0.009298567
 114736784, -0.05202946, -0.02320364, -0.001072171, 0.01023123
 114791779, -0.02896386, 0.0002627382, -0.01608375, 0.01022844
 114847188, -0.03045203, -0.04606723, 0.03391317, 0.0102264
 114901772, -0.0525793, 0.02352726, -0.02704889, 0.01023012
 114956841, -0.009698684, -0.01330064, 0.02436089, 0.01022788
 115006797, -0.05124335, 0.002626742, 0.01432193, 0.009298009
 115061789, -0.007961775, 0.03482951, 0.001063579, 0.01022863
 115116771, -0.0395123, -0.01975322, 0.05470371, 0.01022881
 115172215, -0.03152497, 0.06059787, -0.02217455, 0.010229
 115227024, -0.008160493, 0.0153398, 0.03179254, 0.01023272
 115282003, -0.04724864, 0.02725724, 0.01813038, 0.01022398
 115331795, 0.004359671, 0.07620879, -0.01338976, 0.009298753
 115387083, -0.02999685, 0.004297516, 0.04764093, 0.01022863
 115441754, -0.001979914, 0.1072293, -0.03701482, 0.0102303
 115498699, -0.01041765, 0.01990741, 0.04250365, 0.01022863
 115551820, -0.006196314, 0.06563922, -0.008799673, 0.01022695
 115606796, 0.006182001, 0.08146334, -0.02082262, 0.01022919
 115656754, -0.006113681, -8.382252E-05, 0.03109044, 0.009298195
 115711815, 0.01130193, 0.0991807, -0.05376741, 0.01023272
 115767006, -0.003491868, 0.0006445609, 0.03162769, 0.01022454
 115822121, 0.01261273, 0.05388922, -0.03865442, 0.01022863
 115876791, -0.003197235, 0.02781652, -0.0143241, 0.01023105
 115931791, 0.001463975, -0.01528218, 0.005404486, 0.01022621
 115981814, -0.003006066, 0.04263978, -0.05939911, 0.009299125
 116036851, -0.007973637, -0.04765348, 0.03927369, 0.01022826
 116091811, -0.0116004, 0.00406099, -0.03130541, 0.01022863
 116147198, -0.01225834, -0.02479337, 0.00647776, 0.01022863
 116201775, -0.01755475, -0.05443392, 0.0252769, 0.01023067
 116251785, -0.02496345, -0.01030502, -0.0382669, 0.009298195
 116306992, -0.01821253, -0.06770453, 0.03382944, 0.01022695
 116361773, -0.03341571, -0.0331988, -0.02183774, 0.01023105
 116416800, -0.02559125, -0.04546041, 0.01016246, 0.0102264
 116472224, -0.0275709, -0.06032324, 0.02809561, 0.01022974
 116526777, -0.03804992, -0.01825745, -0.02029811, 0.01022751
 116577025, -0.01342002, -0.06094945, 0.04641879, 0.009301358
 116631793, -0.04484744, -0.01573355, -0.01071981, 0.01022919
 116686789, -0.01669288, -0.03529938, 0.02549875, 0.01022528
 116741781, -0.03489594, -0.03262216, 0.02389428, 0.01022881
 116798469, -0.03389168, 0.003736737, -0.01071204, 0.01022863
 116851801, -0.01560782, -0.03386018, 0.04101782, 0.01022919
 116906784, -0.04561094, 0.000473357, -0.002288806, 0.01022807
 116956806, -0.00820717, -0.003118895, 0.01455479, 0.009298753
 117011813, -0.0345566, -0.01609088, 0.02107167, 0.01023067
 117067085, -0.02359336, 0.02614661, -0.01507715, 0.01022658
 117122965, -0.005698394, -0.0209681, 0.04077238, 0.01023086
 117176774, -0.03850042, 0.01786426, -0.003663353, 0.0102264
 117226794, 0.006922748, 0.006403405, 0.01127676, 0.009301914
 117281792, -0.03252623, -0.006244242, 0.01544747, 0.01022528
 117336782, -0.008354074, 0.03878357, -0.01442811, 0.01022881
 117391772, -0.002855536, -0.0102603, 0.03820305, 0.01023049
 117447205, -0.03454502, 0.01480038, 0.004023107, 0.01022677
 117501791, 0.01288533, 0.03226629, -0.005880082, 0.01023979
 117551789, -0.02648142, -0.0232819, 0.03980178, 0.009288898
 117606779, -0.00149681, 0.04585044, -0.03159445, 0.01022789
 117661780, -0.001115204, -0.01073427, 0.03195636, 0.01022937
 117716828, -0.02260436, 0.00666937, -0.0004965761, 0.01022733
 117772227, 0.01629693, 0.04678734, -0.02465799, 0.01022863
 117826763, -0.01792292, -0.03067703, 0.04602837, 0.01023216
 117876788, 0.007163986, 0.0546204, -0.04388391, 0.009298567
 117931800, -0.01037677, -0.008613507, 0.02532692, 0.01022528
 117986802, -0.0007162167, 0.0174921, -0.006618884, 0.01022863
 118041788, -0.001452596, 0.03930554, -0.02488275, 0.01022863
 118098513, -0.01452196, -0.026277, 0.03431581, 0.01022863
 118151829, 0.001366126, 0.04427944, -0.03500656, 0.01022863
 118206791, -0.01458386, -0.001462776, 0.02102302, 0.01022863
 118256793, -0.01037615, -0.004492401, 0.002353526, 0.009298753
 118311816, -0.02193612, 0.02202555, -0.0383576, 0.01022919
 118366788, -0.02374073, -0.02706878, 0.009612873, 0.01022789
 118422336, -0.02743908, 0.002114732, -0.02556558, 0.01022863
 118476766, -0.03022514, -0.001559697, -0.01172757, 0.01023105
 118526794, -0.02511576, -0.03370463, 0.02443792, 0.009297824
 118581767, -0.03950432, 0.009354407, -0.02511317, 0.01022733
 118636800, -0.03031044, -0.03584451, 0.03640808, 0.01023049
 118691997, -0.03542682, -0.01357477, 0.009669544, 0.01022733
 118747602, -0.03699917, 0.003692097, -0.001527695, 0.01022807
 118801784, -0.03175045, -0.04150606, 0.0356412, 0.01023253
 118852005, -0.03501462, 0.01111642, -0.02263451, 0.009295591
 118906806, -0.02963289, -0.02643065, 0.02734476, 0.01022788
 118961860, -0.03384018, -0.02312372, 0.01728533, 0.01023105
 119016799, -0.03687064, 0.009207571, -0.01953553, 0.01022621
 119072220, -0.02204277, -0.04091343, 0.04387634, 0.01022919
 119122850, -0.04026568, 0.01514957, -0.0263705, 0.009299312
 119176798, -0.01764933, -0.02178898, 0.02621615, 0.01022919
 119231996, -0.03546236, -0.005447984, 0.0008618445, 0.01022807
 119286796, -0.02473425, 0.01578288, -0.008622457, 0.01022751
 119341798, -0.0136817, -0.02642198, 0.03231343, 0.01022863
 119398482, -0.03695524, 0.02282607, -0.02143243, 0.01022863
 119447214, -0.001349863, -0.01064938, 0.01887943, 0.009298567
 119506782, -0.02926349, -0.0003767563, 0.004936122, 0.01115869
 119556794, -0.01322656, 0.0246209, -0.0200125, 0.009299496
 119611780, -0.008594475, -0.01884777, 0.02282883, 0.01022788
 119666761, -0.03573078, 0.02512801, -0.01933851, 0.0102277
 119722953, 0.001390609, 0.00451009, 0.01136984, 0.01022956
 119772355, -0.02608498, -0.003797723, 0.01618597, 0.009302659
 119826774, -0.01029005, 0.02694904, -0.004805299, 0.01022658
 119881775, -0.007012547, -0.0262399, 0.04220583, 0.01022714
 119936801, -0.03356762, 0.01800912, -0.0158353, 0.01022826
 119991795, 0.005532107, -3.96173E-05, 0.01313684, 0.01022863
 120047237, -0.02822506, -0.02710438, 0.03349228, 0.01022863
 120098525, -0.01174485, 0.02089789, -0.02638203, 0.009298753
 120151784, -0.01052232, -0.0394684, 0.02729885, 0.01022974
 120206796, -0.03706872, -0.006641136, -0.01365763, 0.01022751
 120261773, 0.001444199, 0.004003647, -0.004389997, 0.01022863
 120316784, -0.02260874, -0.04035465, 0.0486181, 0.01022863
 120372207, -0.01638053, 0.02096048, -0.02548517, 0.01022863
 120422202, -0.001841824, -0.01548446, 0.016881, 0.009299125
