TimeUS,CAN,CAE,CAD,CAe
 56773702, -0.009241182, -0.0004119253, 0.001438974, 0.008910809
 56829363, -0.01983926, -0.001782781, 0.003361451, 0.01031046
 56884580, -0.01947139, -0.00149678, 0.00341094, 0.01022714
 56939313, -0.01981663, -0.001200583, 0.003245057, 0.01022844
 56994341, -0.0194023, -0.001154047, 0.002950743, 0.01022881
 57049354, -0.01961933, -0.001434052, 0.003270318, 0.01022937
 57104313, -0.01952557, -0.001378677, 0.002804959, 0.01022788
 57154301, -0.0180328, -0.001749499, 0.002955296, 0.009298753
 57209574, -0.01905036, -0.002250647, 0.003463405, 0.01022881
 57264312, -0.01911031, -0.001334075, 0.003450734, 0.0102303
 57319319, -0.01929947, -0.002048591, 0.002772752, 0.01022751
 57374290, -0.01990291, -0.000792668, 0.003091903, 0.010229
 57429298, -0.01939983, -0.001257784, 0.001965372, 0.01023049
 57484867, -0.01920818, -0.001005804, 0.003494064, 0.01022565
 57539302, -0.01992641, -0.001248582, 0.003474454, 0.01022881
 57594347, -0.01976908, -0.001837516, 0.003759581, 0.01022844
 57649269, -0.01944889, -0.001456935, 0.00303408, 0.01022863
 57704317, -0.01940682, -0.00207316, 0.003215015, 0.01022863
 57759587, -0.01958042, -0.001955869, 0.003486507, 0.01022863
 57814318, -0.01911931, -0.001674471, 0.002881601, 0.01022974
 57864359, -0.01785665, -0.001177928, 0.002803437, 0.009297637
 57919309, -0.0195328, -0.001918791, 0.00260199, 0.010229
 57974275, -0.01945958, -0.001331549, 0.002433761, 0.01022863
 58029293, -0.0196173, -0.001430178, 0.003379002, 0.01022807
 58084839, -0.0197053, -0.001565906, 0.002951765, 0.01022881
 58139304, -0.01962392, -0.001464121, 0.003625096, 0.01022919
 58194366, -0.01974295, -0.001753496, 0.003164358, 0.01022807
 58249368, -0.019828, -0.001581026, 0.002816415, 0.01022919
 58304331, -0.01966078, -0.001134298, 0.003439859, 0.01022789
 58359840, -0.0194896, -0.001523647, 0.00365495, 0.01022993
 58414330, -0.01951038, -0.001720861, 0.002731345, 0.01022751
 58469285, -0.01966551, -0.00178812, 0.003325943, 0.01022937
 58519337, -0.01767568, -0.001588355, 0.003379821, 0.009298195
 58574319, -0.01915234, -0.001565649, 0.002433486, 0.01022844
 58629344, -0.01958932, -0.001639154, 0.003045242, 0.0102303
 58684897, -0.01978466, -0.001074592, 0.002330166, 0.01022807
 58739324, -0.0199187, -0.001358072, 0.003194751, 0.01022751
 58794285, -0.01924445, -0.001855854, 0.003531736, 0.01022863
 58849329, -0.01942036, -0.002009152, 0.002981177, 0.01022863
 58904337, -0.01938516, -0.002118988, 0.003005011, 0.01022863
 58959594, -0.01958477, -0.001837357, 0.002647676, 0.01022863
 59014293, -0.01983356, -0.001726911, 0.003340764, 0.01022863
 59069322, -0.01968408, -0.001388713, 0.003202276, 0.01022863
 59124371, -0.01500924, -2.271985E-05, 0.003254125, 0.01022937
 59179322, -0.02704725, -0.00590888, 0.004473358, 0.01022937
 59229346, -0.01595579, 0.0003888158, 0.00166492, 0.009298753
 59284915, -0.02000255, -0.002216297, 0.002764126, 0.01022695
 59339451, -0.0195835, -0.001929891, 0.003416804, 0.01022881
 59394383, -0.01928907, -0.0005369732, 0.002436644, 0.01022844
 59449294, -0.01991072, -0.002640886, 0.003119051, 0.01022881
 59504344, -0.01938639, -0.0004754353, 0.002407046, 0.01023012
 59559625, -0.02059119, -0.002978558, 0.003927887, 0.01022863
 59614315, -0.01687725, 0.0003017672, 0.00132055, 0.01023179
 59669381, -0.0231209, -0.004155638, 0.0009018051, 0.01022547
 59724331, -0.02277815, -0.006541239, 8.447096E-05, 0.01023086
 59779344, -0.01029502, 0.005710023, 0.01116857, 0.01022844
 59834639, -0.02537464, -0.003595424, 0.001091742, 0.01022658
 59885119, -0.01629326, -0.0004025133, 0.002916365, 0.009298754
 59939364, -0.02113903, -0.00372003, 0.000774662, 0.01023012
 59994296, -0.01939699, 0.001233305, 0.003520919, 0.01022881
 60049349, -0.01949294, -0.00224732, 0.003403437, 0.01022919
 60104326, -0.02030745, -0.004959424, 1.221016E-05, 0.01022695
 60159739, -0.0200969, -0.001815186, 0.003049587, 0.01022807
 60214298, -0.01770574, 0.0008215926, 0.0030537, 0.01022863
 60269404, -0.02103509, -0.001977422, 0.003019126, 0.01023011
 60324320, -0.01982134, -0.0004356582, 0.00352199, 0.01022826
 60379340, -0.0229177, -0.001489948, 0.0004461293, 0.01022751
 60434610, -0.01518227, -0.004110411, 0.004204638, 0.01022863
 60489323, -0.02101552, -0.001092596, 0.001972737, 0.01022863
 60544400, -0.01682006, 0.0004320673, 0.005451758, 0.01023049
 60594343, -0.01755245, -0.002027045, 0.00145898, 0.009296893
 60649297, -0.01829814, -0.002202771, 0.004026381, 0.01022863
 60704343, -0.023255, -0.002083743, 0.001496643, 0.01023012
 60759612, -0.02020391, 0.002329873, 0.002817475, 0.01022714
 60814365, -0.01962188, -0.003764301, 0.004113085, 0.01022863
 60869332, -0.02223434, -0.00392779, -4.388246E-05, 0.01022863
 60924366, -0.01720843, -0.001367814, 0.002566749, 0.01022863
 60979342, -0.01774587, -0.002260942, 0.004280927, 0.01022863
 61034619, -0.02122171, -0.000682434, 0.001417749, 0.01022937
 61089495, -0.01784254, -0.0001398833, 0.007080236, 0.01022826
 61139329, -0.02204171, -0.007027561, -0.00476043, 0.009296894
 61199335, -0.02054093, 0.00172612, 0.006155103, 0.0111585
 61254322, -0.01795045, 0.001862976, 0.004106423, 0.01022863
 61304306, -0.01305347, -0.003626584, 3.001187E-07, 0.009300984
 61359623, -0.0221099, -0.002131099, 0.005909213, 0.01022974
 61414389, -0.01815283, 0.0001454529, 0.004002304, 0.01022733
 61469321, -0.02240981, -0.009415641, 0.0001186857, 0.01023049
 61524315, -0.01788843, -0.006878747, -0.002186581, 0.01022621
 61579328, -0.01849158, -0.01095303, -0.007396247, 0.01022863
 61629318, -0.0124417, -0.01128618, 0.006234644, 0.009297823
 61684873, -0.01411724, -0.009250327, 0.01117546, 0.01022807
 61739320, -0.03332918, -0.009378815, 0.01502225, 0.01023012
 61794322, -0.02718704, -0.005413866, 0.004789914, 0.01023049
 61844329, -0.01096305, 0.003511637, -0.02378351, 0.009296894
 61899323, -0.01119655, -0.01928189, 0.01423175, 0.01022956
 61954333, -0.02515524, -0.004744747, -0.01079129, 0.0102277
 62009576, -0.02166747, -0.009085857, -0.04213255, 0.01023012
 62064341, 0.003723195, -0.04483474, 0.01260662, 0.01022714
 62119320, -0.007759018, -0.04045327, 0.01031647, 0.01022956
 62174312, -0.01321349, -0.03706927, -0.06036906, 0.0102277
 62229376, 0.004585763, -0.1398029, -0.03089602, 0.01022863
 62279362, -0.01618461, -0.1385865, -0.02640588, 0.009299125
 62334634, -0.02591017, -0.1518054, 0.02772441, 0.01022919
 62389325, -0.02142457, -0.1564938, 0.07104705, 0.01022826
 62444321, -0.004263301, -0.1631642, 0.1006367, 0.01022919
 62499348, -0.009302555, -0.167052, 0.07932955, 0.01022733
 62554387, -0.01188328, -0.1712545, 0.0500064, 0.01022919
 62609630, 0.007651529, -0.1738048, 0.08669989, 0.01022826
 62664368, 0.001051469, -0.1786479, 0.08406119, 0.01022937
 62719357, -0.02738462, -0.1066925, -0.008518985, 0.01022788
 62774330, -0.261173, 0.5442898, -0.4820264, 0.01023179
 62824366, -0.07153988, -0.06299283, -0.1661824, 0.009295592
 62879395, 0.06537955, -0.2218275, 0.02860833, 0.01022863
 62934587, 0.04390741, -0.1988986, 0.0438493, 0.01022863
 62989334, 0.06045748, -0.2210802, 0.0399273, 0.01022863
 63044337, 0.03780248, -0.1698107, 0.08999508, 0.01023067
 63099310, -0.002013469, -0.09852804, 0.1646253, 0.0102264
 63154308, 0.01849156, -0.07901125, 0.2235352, 0.01022881
 63209570, 0.01367381, -0.04408227, 0.251624, 0.01022863
 63264377, 0.00189406, -0.02992728, 0.257292, 0.01022863
 63314469, 0.008614208, -0.0111515, 0.2704866, 0.009299311
 63369323, -0.3247962, 0.6286792, -0.1609488, 0.01022807
 63424370, -0.09448289, 2.160684, -1.199925, 0.01022863
 63479317, -0.02035396, 0.08019881, 0.07005417, 0.01022863
 63534741, -0.07724471, -0.1249414, 0.1593996, 0.01022844
 63589326, -0.03770252, 0.02353749, 0.04903298, 0.01022881
 63644326, -0.0418002, -0.03007346, 0.09335896, 0.01022863
 63699330, -0.05846842, -0.04603361, 0.08450886, 0.01022863
 63754370, -0.04385104, 0.00202616, 0.06635953, 0.01022863
 63809616, -0.03308174, -0.0252899, 0.1544059, 0.01022863
 63859625, -0.007998358, 0.002773899, 0.1628479, 0.009298567
 63914484, -0.02275846, -0.006345582, 0.1831653, 0.01022881
 63969332, 0.003654229, -0.0336271, 0.2106725, 0.01022863
 64024295, 0.1874868, -0.02580141, -1.05024, 0.01022863
 64079346, -0.01345652, -0.0668149, 0.1584266, 0.01022863
 64134685, -0.06467594, 0.01875004, 0.09900217, 0.01022863
 64189339, -0.02204346, -0.04725878, 0.1553427, 0.01022937
 64244303, -0.02932168, -0.02083533, 0.1307237, 0.01022788
 64299397, -0.02996471, 0.0359641, -0.07282197, 0.01022863
 64354352, 0.03613778, 0.06223109, -0.1693326, 0.01022826
 64409569, -0.00570509, 0.005518665, -0.009588758, 0.01022751
 64459573, -0.06392696, -0.0103639, 0.0165707, 0.009300798
 64514423, -0.03002958, -0.04954454, 0.06994543, 0.01022863
 64569393, -0.03568414, -0.01176564, 0.01707591, 0.01022807
 64624355, -0.04169619, -0.002100399, 0.0189817, 0.01022844
 64679315, 0.002488417, -0.008008511, 0.02883024, 0.01022733
 64734558, 0.02277013, 0.07078045, -0.07588406, 0.01023067
 64789336, -0.003222955, 0.06472774, -0.01344741, 0.01022807
 64844332, -0.0004389149, -0.01005202, 0.04330695, 0.01022863
 64899380, -0.02262826, 0.006005957, -0.00460187, 0.01022881
 64954290, -0.02937184, 0.01295943, -0.02026992, 0.01022844
 65009585, -0.01189089, -0.01345231, 0.0107281, 0.01022863
 65064373, -0.01087633, -0.003577004, 0.01720933, 0.010229
 65119308, -0.03060594, 0.01077728, -0.01287664, 0.01022826
 65169407, -0.01535906, -0.004142843, 0.001499656, 0.009298753
 65224388, -0.009968835, -0.0141616, 0.02938707, 0.01022863
 65279309, -0.03335625, 0.01510024, -0.0215448, 0.01022863
 65334813, -0.01670803, -0.0001358106, -0.02235855, 0.01022919
 65389323, -0.007711838, -0.0360479, 0.03729313, 0.01022658
 65444376, -0.04530823, 0.002426247, -0.06539533, 0.01023012
 65499327, -0.02920897, -0.03682791, -0.041736, 0.010229
 65549294, -0.03463983, -0.0666258, -0.03906145, 0.009299126
 65604371, -0.04990136, -0.01105709, -0.1453368, 0.01022826
 65659725, -0.02171762, -0.08871216, -0.06810182, 0.01023105
 65714426, -0.05694422, -0.05128679, -0.1490933, 0.01022844
 65769374, -0.02204951, -0.0388791, -0.1626937, 0.01022603
 65824310, -0.009972559, -0.07471485, -0.123477, 0.01022937
 65879336, -0.01612356, -0.04025293, -0.1785439, 0.01022919
 65934610, 0.01631056, -0.04374402, -0.1775629, 0.01022751
 65989331, 0.02485822, -0.05665371, -0.1775877, 0.01022863
 66039359, 0.01856095, -0.02683993, -0.1991839, 0.00929931
 66094340, 0.04777681, -0.04276031, -0.1848361, 0.01022788
 66149291, 0.04391548, -0.04484039, -0.1806379, 0.01022863
 66204389, 0.04859452, -0.01854616, -0.2069922, 0.01022956
 66259611, 0.06798996, -0.02405362, -0.1835448, 0.01022844
 66314432, 0.06516414, -0.03000035, -0.1722281, 0.010229
 66369389, 0.06102395, -0.02290684, -0.1772197, 0.01022733
 66424308, 0.0678814, -0.03139463, -0.1633051, 0.01022919
 66479332, 0.06578588, -0.04441136, -0.143618, 0.01022826
 66534608, 0.05835976, -0.047499, -0.121856, 0.01022863
 66584878, 0.05719955, -0.04917598, -0.08800703, 0.009298567
 66639371, 0.06279065, -0.06610332, -0.07025415, 0.01022919
 66694343, 0.05641704, -0.0679185, -0.05935329, 0.01022826
 66749291, 0.05993306, -0.07205573, -0.02635675, 0.01022863
 66804354, 0.05527117, -0.08093935, 0.01101726, 0.01022863
 66859632, 0.04811628, -0.08215474, 0.03273725, 0.01022919
 66914482, 0.04425753, -0.07828776, 0.04243794, 0.01022826
 66969356, 0.03810121, -0.08166534, 0.07831448, 0.01022826
 67024376, 0.02598178, -0.06580362, 0.08702774, 0.01022919
 67079306, 0.02029209, -0.06478962, 0.1086308, 0.01022826
 67134833, -0.004864102, -0.05638618, 0.1206458, 0.01022863
 67185868, -0.008748249, -0.03917043, 0.1212271, 0.009298567
 67239313, -0.02596301, -0.04296781, 0.1495948, 0.01022881
 67294352, -0.03468727, -0.03557115, 0.152817, 0.010229
 67349312, -0.04730016, -0.02792574, 0.1453002, 0.01022844
 67404381, -0.05846255, -0.02781449, 0.1444108, 0.01022844
 67459625, -0.0554754, -0.02726304, 0.1516642, 0.01022863
 67514472, -0.06250957, -0.01585457, 0.1413809, 0.01022863
 67569336, -0.05724965, -0.02107697, 0.1546568, 0.010229
 67624312, -0.06009056, -0.01393616, 0.1509474, 0.01022881
 67679335, -0.0582861, -0.007511722, 0.1440208, 0.01022789
 67729336, -0.05059699, -0.007382159, 0.1344198, 0.00929894
 67785850, -0.05731288, -0.001664605, 0.1447845, 0.01022863
 67839383, -0.05663387, 0.007871074, 0.1389349, 0.01022863
 67894347, -0.05445467, 0.006524042, 0.13957, 0.01022863
 67949301, -0.05236354, 0.01047889, 0.1370919, 0.01022863
 68004337, -0.05736646, 0.01673977, 0.1367244, 0.0102303
 68059665, -0.05425797, 0.01599834, 0.1422591, 0.01022695
 68114458, -0.05430607, 0.01586017, 0.1417449, 0.0102303
 68169384, -0.05603585, 0.01923978, 0.1308068, 0.01022751
 68219331, -0.05094787, 0.008691126, 0.1298492, 0.00929838
 68274317, -0.05685985, 0.02013911, 0.1232871, 0.01022844
 68329299, -0.05966394, 0.01256666, 0.1278968, 0.01022863
 68385854, -0.05137018, 0.01130853, 0.1203424, 0.01022863
 68439432, -0.05852661, 0.01897494, 0.1181852, 0.01023086
 68494389, -0.05577871, 0.01076763, 0.1343372, 0.0102264
 68549458, -0.0470472, 0.01401557, 0.1230571, 0.01023105
 68604420, -0.05714525, 0.01580666, 0.1084663, 0.01022695
 68659667, -0.05734154, 0.008530039, 0.1080019, 0.01022844
 68714491, -0.05497086, 0.01735329, 0.08178432, 0.01022919
 68764379, -0.06158878, 0.005824756, 0.06920757, 0.009298381
 68819377, -0.06830472, 0.01648113, 0.04947105, 0.01022807
 68874395, -0.07226603, 0.01518254, 0.03736337, 0.01022844
 68929450, -0.07486015, 0.01466734, 0.03973636, 0.010229
 68985899, -0.07199027, 0.02452396, 0.022268, 0.01022881
 69039374, -0.08086732, 0.03068262, -0.001494447, 0.01023272
 69094339, -0.08698486, 0.03281275, -0.01659443, 0.01022398
 69149361, -0.08587915, 0.04839645, -0.04482142, 0.01022844
 69204418, -0.08855959, 0.04158976, -0.04827346, 0.01023012
 69259700, -0.09132577, 0.04623451, -0.06589802, 0.01022714
 69309687, -0.07763775, 0.04734822, -0.06151218, 0.009298939
 69364368, -0.08176217, 0.05219487, -0.06249946, 0.010229
 69419381, -0.07435498, 0.05331576, -0.05279582, 0.01022733
 69474395, -0.06998057, 0.05119638, -0.04896872, 0.01022844
 69529441, -0.06341127, 0.04890541, -0.04849851, 0.01023067
 69585845, -0.05344392, 0.04354921, -0.04119745, 0.0102277
 69639387, -0.06108697, 0.03522348, -0.03522588, 0.01023235
 69694380, -0.05278622, 0.03525683, -0.03386836, 0.01022491
 69749358, -0.04724502, 0.02686709, -0.02637347, 0.01022881
 69799463, -0.04434667, 0.0187488, -0.01842214, 0.009299311
 69854379, -0.04430791, 0.01314539, -0.01561651, 0.01022695
 69909851, -0.04601382, 0.009078309, -0.01145127, 0.01023179
 69964517, -0.04643897, 0.01127018, -0.01405893, 0.01022751
 70019395, -0.04479414, 0.003531238, -0.0008204517, 0.01022751
 70074391, -0.04553133, 0.0003407925, 0.00708024, 0.01022974
 70129329, -0.0489855, -0.001658587, 0.00523679, 0.01022751
 70185854, -0.04841124, -0.008370742, 0.01258096, 0.01022863
 70239415, -0.04914812, -0.01784263, 0.01203912, 0.01023067
 70294366, -0.05529214, -0.01706273, 0.003395927, 0.01022658
 70344391, -0.04434759, -0.01736316, 0.002446652, 0.009299125
 70399371, -0.05243059, -0.03260303, 0.008213318, 0.01022826
 70454424, -0.05433725, -0.02713345, -0.003920129, 0.01022863
 70509846, -0.0454965, -0.02789632, -0.0009337689, 0.01022863
 70564364, -0.0479699, -0.03684105, -0.002762223, 0.01022863
 70619374, -0.05002631, -0.03828495, -0.005689566, 0.01022881
 70674438, -0.04883422, -0.03531238, -0.005921303, 0.010229
 70729420, -0.04557598, -0.03910704, 0.005796556, 0.01022788
 70785878, -0.05389018, -0.03576562, -0.000463497, 0.01022881
 70839328, -0.0553859, -0.03618503, -0.007015713, 0.01022937
 70894366, -0.07304005, -0.03522277, -0.009433096, 0.01022844
 70944370, -0.05704803, -0.03555321, -0.004360376, 0.009296521
 70999351, -0.07755789, -0.0386873, 0.0007816439, 0.0102303
 71054412, -0.09149042, -0.03230096, -0.01029165, 0.01023086
 71109652, -0.07512286, -0.03799127, -0.007988518, 0.0102264
 71164368, -0.0899071, -0.03964102, -0.01588442, 0.01023235
 71219380, -0.09981999, -0.02597647, -0.02453002, 0.01022509
 71274439, -0.07726675, -0.02791065, -0.00162829, 0.01022844
 71329415, -0.0750648, -0.02929521, 0.01088867, 0.01022919
 71379519, -0.07415084, -0.003873156, -0.01020745, 0.009298381
 71434899, -0.06095988, -0.01521109, 0.00161821, 0.01022919
 71494381, -0.05802077, -0.01243843, 0.01466185, 0.01115832
 71544439, -0.06413647, 0.006708654, 0.004606308, 0.009298381
 71599374, -0.05395431, 0.009386851, 0.0144154, 0.01022863
 71654348, -0.04490891, 0.001250753, 0.01238256, 0.01022695
 71709654, -0.06170834, 0.0177462, -0.002800413, 0.01022919
 71764373, -0.05682449, 0.02643493, -0.004865501, 0.01022937
 71819382, -0.03060788, 0.009707425, 0.008765522, 0.01022807
 71874440, -0.03928541, 0.02245999, -0.003974962, 0.01022844
 71924342, -0.02075028, 0.03115797, -0.009857191, 0.009298567
 71979382, -0.006197572, 0.01853845, 0.007115539, 0.01022974
 72034660, -0.006030508, 0.02706174, 0.006033716, 0.01022863
 72094373, 0.01130847, 0.04732664, -0.00681735, 0.0111585
 72144441, 0.02261802, 0.02556052, 0.002052122, 0.009300241
 72199343, 0.0308928, 0.02598802, 0.006304096, 0.01022714
 72254377, 0.03609827, 0.05134519, -0.01643024, 0.01022881
 72309885, 0.04307839, 0.04442768, 0.001701619, 0.01022844
 72364394, 0.0533471, 0.02744444, 0.02013615, 0.0102316
 72414431, 0.03901133, 0.06862781, -0.009984354, 0.009296892
 72469322, 0.05614223, 0.03732385, 0.02336204, 0.01022844
 72524408, 0.04644633, 0.04037741, 0.01804356, 0.0102277
 72579412, 0.04893553, 0.08073582, -0.00668726, 0.01022881
 72634659, 0.04824876, 0.05479551, 0.01104888, 0.01022695
 72689382, 0.0461698, 0.04276603, 0.02230764, 0.01022881
 72744499, 0.03999132, 0.08031391, -0.0173365, 0.01022993
 72799382, 0.04434825, 0.06668457, -0.01149963, 0.01022993
 72849417, 0.04098744, 0.03064953, 0.01135583, 0.009297637
 72904384, 0.03885219, 0.0581317, -0.00320912, 0.01022919
 72959679, 0.03676796, 0.06740002, -0.01063018, 0.01022789
 73014401, 0.04618484, 0.0337064, 0.004601398, 0.01022695
 73069353, 0.02727628, 0.04172717, -0.01290766, 0.01022881
 73124374, 0.03239139, 0.06025014, -0.01020703, 0.01023012
 73179393, 0.04703933, 0.0208986, 0.01968931, 0.01022714
 73234662, 0.02323055, 0.0299512, -0.007443513, 0.01022863
 73289348, 0.03587019, 0.04494511, -0.02802411, 0.01022881
 73339400, 0.02369911, 0.01361617, -0.003805424, 0.00930024
 73394399, 0.02428878, 0.01236538, -0.001920682, 0.01022844
 73449344, 0.02846647, 0.01435815, -0.01211916, 0.0102303
 73504356, 0.01626225, -0.001342612, -0.009967176, 0.01022696
 73559670, 0.01575215, -0.006664296, -0.0002999094, 0.01022714
 73614466, 0.01817147, -0.01038931, 0.0008964488, 0.01022974
 73669377, -0.01112272, -0.01617804, -0.004697362, 0.010229
 73724349, 0.001741712, -0.01834357, 0.009466351, 0.01022974
 73779375, -0.005732336, -0.02944924, 0.008719219, 0.01022881
 73834668, -0.02264147, -0.0278557, -0.009801648, 0.01022807
 73886173, -0.01816935, -0.02454492, -0.01201759, 0.009298009
 73939385, -0.02151022, -0.03475308, -0.005767314, 0.01022863
 73994366, -0.03453788, -0.03386354, -0.006000622, 0.01022863
 74049363, -0.03133765, -0.02612028, -0.009437526, 0.01023179
 74104352, -0.02966607, -0.02981643, -0.003507543, 0.01022379
 74159666, -0.04063707, -0.03309352, -0.0008476656, 0.01022881
 74214498, -0.03993968, -0.02403717, -0.0089687, 0.01022974
 74269407, -0.03864823, -0.02489406, -0.01273306, 0.01022751
 74324379, -0.047283, -0.03386336, -0.00780468, 0.01022863
 74374420, -0.03939683, -0.02331355, -0.006492356, 0.009301171
 74429362, -0.0447785, -0.02747358, -0.001627751, 0.0102277
 74485881, -0.0459579, -0.0311474, -0.01084088, 0.01023179
 74539341, -0.04704689, -0.03151751, -0.0214966, 0.01022547
 74594377, -0.04876133, -0.03044744, -0.01337022, 0.01022863
 74649401, -0.04980711, -0.03067066, -0.009245696, 0.01022844
 74704375, -0.05105952, -0.0269939, -0.0143936, 0.01022881
 74759711, -0.04850047, -0.02757209, -0.006904246, 0.01022937
 74814352, -0.05131052, -0.02751772, -0.00210412, 0.01023142
 74869400, -0.04894388, -0.02385073, -0.009178026, 0.01022528
 74919434, -0.04013907, -0.02658295, -0.002471137, 0.009298568
 74974369, -0.05510772, -0.02234231, -0.005953531, 0.01022919
 75029375, -0.04893123, -0.01822661, -0.005726845, 0.01022807
 75085848, -0.04519354, -0.02656149, 0.00262233, 0.01022844
 75139395, -0.05500468, -0.02162657, -0.005217503, 0.01022881
 75194366, -0.05084028, -0.01976276, -0.01157848, 0.01022863
 75249333, -0.05538797, -0.02693672, -0.009603974, 0.01022863
 75304411, -0.04928195, -0.02462025, 0.002162875, 0.01022863
 75359724, -0.05304287, -0.01660439, 0.01233961, 0.01022919
 75409676, -0.04521227, -0.01161308, 0.008732686, 0.009298195
 75464384, -0.04933938, -0.01090005, 0.01057453, 0.01022937
 75519357, -0.05656597, -0.003697427, -0.0008989728, 0.0102303
 75574442, -0.0566607, 0.001415027, -0.009994369, 0.01022621
 75629353, -0.04717523, 0.00111705, 0.001988141, 0.01022863
 75686226, -0.06521673, 0.01537236, -0.002972335, 0.01022863
 75739449, -0.06895749, 0.03101163, 0.003389447, 0.010229
 75794363, -0.07017116, 0.0305574, 0.02714214, 0.01022844
 75849364, -0.08861075, 0.04429803, 0.018041, 0.01022863
 75899396, -0.0900196, 0.05644546, 0.006609329, 0.009301543
 75954455, -0.1054276, 0.05184316, 0.00911826, 0.01022547
 76009654, -0.1086166, 0.06324942, -0.002251018, 0.010229
 76064361, -0.1142822, 0.07028539, -0.005417684, 0.01022844
 76119387, -0.1021802, 0.06633504, -0.001037637, 0.01022881
 76174386, -0.09183562, 0.06591314, -0.001631881, 0.010229
 76229414, -0.08496535, 0.06365819, -0.0004384373, 0.010229
 76285839, -0.06320434, 0.05412922, 0.005352173, 0.01022751
 76339344, -0.05942168, 0.04516813, -0.0007956696, 0.01022919
 76394396, -0.03891167, 0.04742984, -0.01345874, 0.01022826
 76444386, -0.02620876, 0.03158063, -0.00762347, 0.009298753
 76499373, -0.008429315, 0.02864259, 0.01056338, 0.01022881
 76554395, 0.01371305, 0.04672081, 0.005579106, 0.01023012
 76609653, 0.01504536, 0.03419317, 0.01648715, 0.01022695
 76664381, 0.03715101, 0.03855442, 0.01855793, 0.01023123
 76719428, 0.04074084, 0.03627372, 0.03504688, 0.01022658
 76774373, 0.02381614, 0.03564273, 0.03181855, 0.01022807
 76829465, 0.05497437, 0.04632258, 0.024802, 0.01022844
 76885875, 0.03747149, 0.02876846, 0.03505208, 0.01022937
 76934670, 0.03077928, 0.04213023, 0.01271704, 0.009298196
 76994367, 0.06098112, 0.06034932, 0.01391476, 0.0111585
 77044368, 0.03195569, 0.02517817, 0.02453982, 0.009298754
 77099444, 0.05365773, 0.05368857, 0.02321648, 0.01022919
 77154514, 0.047525, 0.05991978, 0.01753893, 0.01022807
 77209829, 0.04555294, 0.04014767, 0.028111, 0.01022733
 77264335, 0.06050785, 0.04766258, 0.02310825, 0.01022993
 77319385, 0.03879576, 0.07481904, 0.009919453, 0.01022937
 77374400, 0.04340427, 0.06207453, 0.03051284, 0.01022714
 77424421, 0.05292298, 0.06056056, 0.03023212, 0.009298195
 77479386, 0.02498692, 0.09765956, 0.005850377, 0.01022844
 77534645, 0.05273911, 0.0739713, 0.0196004, 0.01023142
 77594363, 0.05583907, 0.08376791, 0.008667647, 0.01115571
 77644371, 0.02113916, 0.0954926, -0.01996464, 0.009300241
 77699430, 0.06108591, 0.0802611, 0.01448397, 0.01022881
 77754426, 0.0502159, 0.07254118, 0.01315069, 0.01022844
 77809671, 0.04191743, 0.09573835, 0.00304957, 0.0102303
 77864372, 0.06413934, 0.09652524, -0.002365834, 0.01023105
 77919390, 0.04627267, 0.06945223, 0.002902596, 0.01022454
 77969374, 0.04552241, 0.0796527, -0.006041753, 0.009298753
 78024403, 0.05835365, 0.08155567, -0.01006266, 0.010229
 78079378, 0.04612486, 0.05394935, 0.003748024, 0.0102316
 78134656, 0.06762899, 0.05869761, 0.003397363, 0.01022639
 78194375, 0.0623017, 0.0443315, -0.006623549, 0.01115739
 78244369, 0.04627738, 0.0192943, -0.008971353, 0.009297637
 78299435, 0.06722861, 0.01327923, -0.009153993, 0.01022974
 78354399, 0.065649, 0.0002083398, 0.003684274, 0.01022863
 78404369, 0.0658164, -0.01106368, 0.004775072, 0.009298939
 78459668, 0.0855368, -0.02305509, -0.01634875, 0.01022844
 78514464, 0.08472105, -0.03434603, -0.01990892, 0.010229
 78569400, 0.09350175, -0.04066845, -0.01216769, 0.01023049
 78624395, 0.09229229, -0.05030261, 0.005192182, 0.01022491
 78679406, 0.08681624, -0.06040029, -0.001480262, 0.01023012
 78734650, 0.08105797, -0.07129635, 0.01747922, 0.01022714
 78789398, 0.06185015, -0.08518918, 0.02324202, 0.0102396
 78844370, 0.06723739, -0.08538537, 0.006099919, 0.01021766
 78899441, 0.04351157, -0.1013583, 0.00816724, 0.01022881
 78949373, 0.0487024, -0.1017519, 0.01356784, 0.009299124
 79004358, 0.0435125, -0.1019934, 0.004362982, 0.01022807
 79059876, 0.03253849, -0.1059328, -0.009104885, 0.01022863
 79114465, 0.03702001, -0.1060184, 0.005520174, 0.01022881
 79169438, 0.03277055, -0.09778297, -0.004145766, 0.01022844
 79224365, 0.02773355, -0.07972731, 0.003135387, 0.01022881
 79279355, 0.02697083, -0.07686256, 0.0001230894, 0.01022844
 79334677, 0.02320295, -0.07572311, 0.004555221, 0.01022863
 79389371, 0.01850711, -0.06244402, -0.003772837, 0.01022863
 79439365, 0.01530082, -0.04755935, -0.01244891, 0.009301357
 79494467, 0.01260209, -0.0511188, -0.0007453386, 0.01022751
 79549521, 0.001721327, -0.02223104, -0.02012662, 0.01022919
 79604474, 0.01817585, -0.02427577, 0.02674369, 0.01022658
 79659809, 0.01155834, -0.01218164, 0.01742595, 0.01023198
 79714586, 0.002982224, 0.01674035, -0.01502844, 0.01022696
 79769508, 0.03659429, 0.007902082, 0.00632148, 0.01022937
 79824655, 0.03036544, -0.01167912, 0.008291915, 0.0102277
 79879491, 0.02876997, 0.04025573, -0.03290198, 0.01022881
 79929491, 0.05020739, 0.000806333, 0.01766502, 0.009298567
 79985956, 0.02995802, -0.01413265, 0.004835193, 0.010229
 80039507, 0.03687418, 0.05100799, -0.04224449, 0.01022863
 80094646, 0.04486486, -0.01430504, 0.02128066, 0.01023012
 80149600, 0.02285205, -0.011243, 0.0007159947, 0.01022751
 80204442, 0.03015669, 0.04309488, -0.03466906, 0.01022844
 80259854, 0.02993628, -0.03228531, 0.03262174, 0.01022807
 80314595, 0.01898124, -0.007955695, -0.008180727, 0.01023012
 80369487, 0.0174385, 0.02610604, -0.03915674, 0.01022826
 80419486, 0.01965036, -0.05213072, 0.04229718, 0.009300241
 80474462, 0.01569384, 0.01246028, -0.02855866, 0.01022603
 80529475, 0.004799761, -0.008825159, -0.005173006, 0.01023049
 80585942, 0.02102697, -0.05187527, 0.0316941, 0.01022677
 80639512, 0.001764622, 0.008595712, -0.04674183, 0.01022919
 80694450, -0.006700429, -0.02578584, -0.004674688, 0.01022919
 80749463, 0.01914853, -0.04063239, 0.02672983, 0.01022751
 80804507, -0.01780873, 0.001646986, -0.02513117, 0.01023067
 80860091, -0.004791348, -0.03122612, 0.009558735, 0.01022695
 80909835, 0.001383504, -0.03603889, 0.009860732, 0.009298568
 80964516, -0.02933871, 0.001131815, -0.03622111, 0.01023123
 81019466, 0.002581282, -0.0474919, 0.03657536, 0.01022658
 81074478, -0.02021079, -0.03520538, 0.006796674, 0.01023086
 81129612, -0.0314282, -0.01621809, -0.01905543, 0.01022602
 81185953, -0.008603572, -0.05648086, 0.02827357, 0.01022826
 81236872, -0.02577533, -0.05132522, 0.006991978, 0.009763877
 81294469, -0.03429589, -0.02737503, -0.01789784, 0.01069319
 81349543, -0.007290036, -0.06367081, 0.02465391, 0.01022956
 81399626, -0.03560661, -0.04634704, -0.003491852, 0.009298567
 81454435, -0.02661831, -0.03083083, -0.01108844, 0.01022844
 81509883, -0.01077148, -0.06222731, 0.02195342, 0.01022937
 81564602, -0.03976614, -0.04332414, -0.008708245, 0.01022788
 81619596, -0.02637825, -0.02627882, -0.009020529, 0.01023086
 81674479, -0.00922515, -0.06117549, 0.02897669, 0.0102303
 81729450, -0.04400327, -0.03692105, -0.01133939, 0.01022454
 81786104, -0.02030991, -0.02122502, -0.01280702, 0.01022844
 81839536, -0.01328074, -0.05602489, 0.03365527, 0.01022863
 81894666, -0.04065877, -0.02479562, -0.009331085, 0.01022919
 81944479, -0.008493094, -0.01473544, -0.005063558, 0.009298196
 81999432, -0.02410194, -0.05490542, 0.02911655, 0.01022863
 82054458, -0.03519143, -0.002731287, -0.02769557, 0.01023086
 82109864, -0.0059062, -0.03193995, 0.01870346, 0.0102264
 82164609, -0.02819191, -0.04753952, 0.02428812, 0.01022863
 82219466, -0.02358637, 0.01315485, -0.03218337, 0.0102316
 82274470, -0.007156042, -0.03431923, 0.0391914, 0.01022584
 82329482, -0.02848144, -0.02486052, 0.0194868, 0.01022863
 82379496, -0.01587867, 0.03181441, -0.02583605, 0.009301542
 82434942, -0.01828989, -0.03946389, 0.04796057, 0.01022974
 82494476, -0.02762973, 0.008738572, -0.004079068, 0.01115441
 82544445, -0.02074292, 0.02615789, -0.01904385, 0.009298753
 82599511, -0.0183663, -0.03467698, 0.04306822, 0.01022863
 82654475, -0.03271411, 0.0380126, -0.03200635, 0.01022863
 82709846, -0.02624145, 0.0018643, 0.01186267, 0.01022863
 82764474, -0.02089766, -0.02182338, 0.03047396, 0.01022844
 82819473, -0.03761156, 0.04205666, -0.0360413, 0.01022993
 82869486, -0.01949819, -0.02232502, 0.03663685, 0.009298195
 82924480, -0.03138254, 0.003961837, 0.00313255, 0.01022807
 82979513, -0.04054124, 0.02773093, -0.02091793, 0.010229
 83034935, -0.02188671, -0.03146701, 0.0388159, 0.01022826
 83089601, -0.04051206, 0.01050529, -0.01484764, 0.01022956
 83144440, -0.03798635, 0.01485911, -0.01039937, 0.01022863
 83199632, -0.02273347, -0.03331707, 0.03842817, 0.0102277
 83254463, -0.04847452, 0.01257628, -0.0203122, 0.01022863
 83309876, -0.03271126, -0.001876559, 0.007720702, 0.01022974
 83364486, -0.02668749, -0.02952643, 0.03783864, 0.01022844
 83414467, -0.04431185, 0.0121845, -0.005855961, 0.009298196
 83469612, -0.03036009, -0.01714806, 0.02458096, 0.01023123
 83524467, -0.02743796, -0.03186322, 0.02212664, 0.01022695
 83579534, -0.04697943, 0.002076035, -0.01863053, 0.0102277
 83634766, -0.02952255, -0.01899394, 0.01534183, 0.01022807
 83689466, -0.02379985, -0.03123257, 0.0312543, 0.01022919
 83744473, -0.04742683, 0.001493251, -0.00571763, 0.01022863
 83799449, -0.02578634, -0.01986741, 0.01681749, 0.01023198
 83849528, -0.02724451, -0.0259811, 0.01726642, 0.00929522
 83904483, -0.04854913, 0.001228736, -0.01410013, 0.010229
 83959823, -0.02356704, -0.02067036, 0.01111542, 0.01022826
 84014480, -0.03931213, -0.01988536, 0.01663311, 0.01022844
 84069485, -0.05000839, 0.01177263, -0.008168246, 0.01022881
 84124447, -0.02343466, -0.01725926, 0.02922942, 0.01022844
 84179473, -0.04524263, -0.008434058, 0.01347777, 0.01022881
 84234952, -0.04704176, 0.0133468, -0.008771854, 0.01022919
 84289460, -0.02342002, -0.01418306, 0.02038887, 0.01023142
 84344490, -0.04393189, -0.003310421, 0.003223843, 0.01022509
 84394461, -0.03517536, 0.01657627, -0.008398784, 0.009298754
 84449472, -0.02183256, -0.01931049, 0.02983236, 0.01022956
 84504654, -0.04443632, 0.006598023, -0.005469228, 0.01022863
 84559950, -0.02569508, 0.01113477, -0.00282723, 0.01022751
 84614473, -0.01314771, -0.02306977, 0.03233536, 0.01022919
 84669475, -0.03832394, 0.007990111, -0.01291833, 0.01022844
 84724494, -0.01536451, 0.0118382, -0.00816048, 0.01022956
 84779464, -0.01493186, -0.02152256, 0.02430374, 0.01022788
 84829467, -0.02904542, 0.01685192, -0.01374401, 0.00929931
 84886087, -0.01424449, 0.008437961, 0.00886668, 0.0102277
 84939514, -0.0165242, -0.01994561, 0.02998376, 0.01022863
 84994454, -0.03290609, 0.02979632, -0.02187559, 0.01022937
 85049478, -0.01565832, 0.006088408, 0.01054056, 0.01022881
 85104467, -0.02256853, -0.01617766, 0.0257479, 0.01022751
 85159812, -0.03721148, 0.03427814, -0.02563113, 0.01022882
 85214473, -0.0179078, 0.0001390241, 0.01505495, 0.01023012
 85269621, -0.02848302, -0.01717116, 0.01565793, 0.01022714
 85324515, -0.04032643, 0.03395873, -0.03504148, 0.01022863
 85374521, -0.01482773, -0.01834783, 0.02493054, 0.009299869
 85429453, -0.03892326, -0.002741061, -0.003297879, 0.01022788
 85486053, -0.03487627, 0.02710743, -0.02813708, 0.01022993
 85539611, -0.01983759, -0.02701914, 0.03093983, 0.01022751
 85594456, -0.04159139, 0.00244478, -0.004204819, 0.01022807
 85649507, -0.0332706, 0.0216889, -0.01539195, 0.01022863
 85704446, -0.02423045, -0.02932932, 0.03537982, 0.01022844
 85759819, -0.04313844, 0.006609288, -0.006723263, 0.01022881
 85814477, -0.03512033, 0.02003676, -0.01463891, 0.01022863
 85864464, -0.02378029, -0.03378535, 0.03139039, 0.009302286
 85919546, -0.05058322, 0.02267588, -0.02803751, 0.01022528
 85974661, -0.03402879, -0.002816695, 0.002077245, 0.010229
 86029592, -0.0321877, -0.03077202, 0.009204062, 0.01023068
 86085938, -0.04922409, 0.01708128, -0.03304809, 0.01022454
 86139478, -0.0384037, -0.01069843, 0.0103874, 0.01023012
 86194535, -0.02132431, -0.02199316, 0.02052884, 0.01022863
 86249531, -0.04395125, 0.01534803, -0.01165289, 0.01022844
 86304635, -0.03334041, -0.006280772, 0.01262094, 0.01022881
 86354468, -0.01684759, -0.01290247, 0.01667628, 0.009298753
 86409820, -0.04725779, 0.02175357, -0.02071903, 0.01022881
 86464465, -0.01928255, -0.01744628, 0.02734192, 0.01022844
 86519459, -0.02778438, -0.002304632, 0.007136889, 0.01022863
 86574494, -0.04603291, 0.01999971, -0.02063247, 0.01022881
 86629460, -0.01343147, -0.01909907, 0.03080094, 0.010229
 86686081, -0.03423218, 0.004027569, 0.005982543, 0.01022807
 86739483, -0.0390694, 0.01747085, -0.007821092, 0.01022863
 86794519, -0.01603247, -0.02050624, 0.03782159, 0.01023086
 86849505, -0.0428445, 0.007335641, -0.00455356, 0.01022695
 86899488, -0.02957211, 0.01088139, -0.001954341, 0.009298009
 86954446, -0.0239706, -0.02523098, 0.02525607, 0.01022881
 87009765, -0.04791743, 0.01318458, -0.02332442, 0.01022919
 87064511, -0.02472406, -0.008447143, 0.007476011, 0.01022919
 87119512, -0.02555451, -0.03111504, 0.02429788, 0.01023049
 87174451, -0.04175694, 0.01105218, -0.0188955, 0.01022565
 87229484, -0.0186686, -0.01264464, 0.006765264, 0.01022956
 87286094, -0.0226188, -0.03461144, 0.02580568, 0.0102277
 87339667, -0.03470746, 0.009307298, -0.0236518, 0.01022863
 87394623, -0.01484039, -0.01921544, 0.008136015, 0.01023012
 87444592, -0.01982884, -0.03189446, 0.01508779, 0.009297637
 87499617, -0.02334609, 0.01246828, -0.02623774, 0.01022826
 87554452, -0.007010842, -0.030279, 0.02289399, 0.01023291
 87609960, -0.01644635, -0.02427159, 0.01227793, 0.01022435
 87664506, -0.01631971, 0.01788408, -0.02274819, 0.01022863
 87719472, -0.005381019, -0.03133786, 0.02645067, 0.01022863
 87774466, -0.008702822, -0.0104242, -0.002194449, 0.01022863
 87829467, -0.01762693, 0.01588684, -0.02084247, 0.01022919
 87879622, -0.003355029, -0.02717442, 0.02772913, 0.009299682
 87934853, -0.01086002, 0.002528542, -0.006501536, 0.01022882
 87994491, -0.02697173, 0.009791001, -0.01377108, 0.01115683
 88044473, -0.008481451, -0.02274206, 0.02600511, 0.009298753
 88099463, -0.01779728, 0.001290403, -0.006321283, 0.01022863
 88154493, -0.03139132, 0.009754988, -0.01710372, 0.01023123
 88209871, -0.01018143, -0.02252003, 0.01927819, 0.01022602
 88264466, -0.02342974, 0.00139272, -0.002212354, 0.01022919
 88319491, -0.02845403, 0.01070962, 0.001118963, 0.01022826
 88374514, -0.01017045, -0.01998417, 0.02679269, 0.01022844
 88424486, -0.02351531, -0.0007745018, -0.008077286, 0.009299125
 88479455, -0.02471246, 0.005084426, -0.01377859, 0.01022807
 88534890, -0.01527649, -0.01901718, 0.01847195, 0.010229
 88594467, -0.02167931, -0.006981231, 0.01258708, 0.01115813
 88644619, -0.02754082, 0.01387789, -0.005238073, 0.009298938
 88699484, -0.01622881, -0.01823314, 0.02887008, 0.0102303
 88754457, -0.0190214, -0.003794563, 0.007563755, 0.01022677
 88810087, -0.02712942, 0.01249682, -0.009628193, 0.0102303
 88864624, -0.010995, -0.02192003, 0.02510952, 0.01022714
 88914826, -0.01772605, 4.968233E-05, -0.006040084, 0.009299311
 88969593, -0.02262885, 0.01337536, -0.009300746, 0.01023123
 89024488, -0.005599386, -0.01576968, 0.02432693, 0.01022547
 89079465, -0.0188713, 0.007752983, -0.005137458, 0.010229
 89134807, -0.02224008, 0.01374273, -0.02114099, 0.01022993
 89189426, -0.008820961, -0.01784992, 0.01333796, 0.01024778
 89244468, -0.02178188, 0.001553562, -0.003392153, 0.0102078
 89299484, -0.0216367, 0.01114841, -0.002997127, 0.01022863
 89354468, -0.007141856, -0.0181682, 0.02700867, 0.01022919
 89404526, -0.02193516, 0.004783935, -0.005441666, 0.009298567
 89459821, -0.01945205, 0.00113421, -0.0009579508, 0.01022919
 89514565, -0.02131611, -0.02033561, 0.01412114, 0.0102277
 89569481, -0.03174955, 0.001492942, -0.005638462, 0.01023049
 89624505, -0.03009825, 0.0001072371, -0.004475913, 0.01022677
 89679607, -0.02730077, -0.01882399, 0.01659567, 0.01022863
 89734810, -0.03064433, -0.005010037, 0.006115944, 0.01022863
 89789473, -0.03128839, -0.00650532, -0.00375592, 0.01023105
 89844483, -0.02412304, -0.02017066, 0.01526234, 0.01022621
 89894466, -0.02185285, -0.008644433, -8.467096E-05, 0.009298753
 89949641, -0.02840122, -0.008566802, 0.005285748, 0.01022863
 90004512, -0.02267473, -0.01846063, 0.01713895, 0.010229
 90059829, -0.02194822, -0.01488479, 0.01276117, 0.01022826
 90114577, -0.02452439, -0.01028461, 0.004393273, 0.01022937
 90169473, -0.01473437, -0.02326044, 0.01954484, 0.01022863
 90224475, -0.01421775, -0.0281716, 0.0101187, 0.01022807
 90279634, -0.01947931, -0.01761127, -0.004637382, 0.01022826
 90334950, -0.01075856, -0.02197975, 0.006854176, 0.01022881
 90386212, -0.009264551, -0.03093156, 0.01058817, 0.009299682
 90439604, -0.01652938, -0.02024381, -0.005645153, 0.01022826
 90494448, -0.01021994, -0.02038112, 0.001797674, 0.01022863
 90549556, -0.009209994, -0.0313448, 0.009248842, 0.01022788
 90604465, -0.01529969, -0.02402778, 0.0009050788, 0.01022882
 90659824, -0.01910672, -0.01977019, -0.002395659, 0.01022956
 90714601, -0.009480845, -0.02590841, 0.004240558, 0.01022993
 90769470, -0.01945049, -0.01786139, -0.001544728, 0.01022621
 90824542, -0.01661921, -0.004379525, -0.001456853, 0.01022881
 90874566, -0.009812204, -0.01223321, 0.01323084, 0.009298753
 90929467, -0.02845236, -0.007953128, 0.006946876, 0.01022844
 90986184, -0.0214129, 0.00468618, 0.00555356, 0.01022974
 91039494, -0.02135607, -0.007384243, 0.0202781, 0.0102277
 91094455, -0.02853633, 0.0002606187, 0.009683372, 0.01022919
 91149497, -0.02806159, 0.01289957, -0.001446295, 0.01022844
 91204469, -0.02784523, 0.005031694, 0.004835598, 0.01022826
 91259811, -0.02716024, 0.00254179, 0.0008246676, 0.01022844
 91314593, -0.02672985, 0.01683109, -0.01132441, 0.01023067
 91364483, -0.02383594, 0.005702227, -0.002426088, 0.009297265
 91419519, -0.02208124, 0.009367323, 0.0006533316, 0.01022881
 91474511, -0.02271947, 0.02574746, -0.00426562, 0.0102303
 91529477, -0.01925004, 0.01154561, 0.005374933, 0.01022714
 91585958, -0.01771381, 0.005042532, 0.01029353, 0.01022788
 91639440, -0.01994871, 0.02039517, -0.008163555, 0.01023049
 91694493, -0.01718526, 0.01042467, 0.006627727, 0.01022677
 91749665, -0.01547014, -0.000438729, 0.009742816, 0.01022919
 91804610, -0.01522357, 0.01457506, -0.005611429, 0.01022863
 91854605, -0.01793888, 0.008506157, 0.001868325, 0.009298195
 91910048, -0.01730978, -0.007591398, 0.01792726, 0.01022881
 91964439, -0.01427064, 0.02007011, -0.006595718, 0.0102303
 92019603, -0.02871616, 0.00252408, 0.004654418, 0.01022677
 92074465, -0.02039209, -0.006446392, 0.01580323, 0.01022974
 92129484, -0.01508705, 0.01810157, -0.002012623, 0.0102277
 92185936, -0.03312211, 0.001048803, 0.01352219, 0.010229
 92239466, -0.02018508, -0.007568759, 0.01310436, 0.01022937
 92294513, -0.02728973, 0.006314329, -0.001423002, 0.01022733
 92349510, -0.03796307, -0.01257148, 0.001448393, 0.01022844
 92399450, -0.01798121, -0.012776, 0.003683701, 0.009298939
 92454450, -0.03380925, -0.0125652, -0.00475358, 0.01023123
 92509810, -0.03600742, -0.01604225, -0.003161712, 0.01022454
 92564509, -0.02498074, -0.02220719, 0.01112838, 0.01023012
 92619468, -0.03493894, -0.01332164, 0.006326464, 0.01022974
 92674465, -0.03977295, -0.01767501, 0.009990736, 0.01022751
 92729474, -0.02865853, -0.02202499, 0.008620993, 0.01022863
 92786222, -0.03672704, -0.01580579, -0.006430634, 0.01023012
 92834846, -0.03479113, -0.01597247, -0.001673185, 0.009297452
 92894482, -0.030486, -0.02188988, 0.01476645, 0.01115813
 92944423, -0.03055534, -0.01149161, 0.007881402, 0.009301914
 92999464, -0.03425695, -0.00983024, 0.008730508, 0.01022751
 93054621, -0.0227902, -0.01772349, 0.01301985, 0.01022825
 93109819, -0.02825136, -0.01511315, 0.003386573, 0.01022714
 93164486, -0.02366203, -0.005721656, 0.004906177, 0.01022863
 93219930, -0.01979852, -0.01193451, -0.0002269996, 0.01022993
 93274588, -0.0235281, -0.01319203, 0.0010942, 0.0102277
 93327103, -0.01741367, -0.0108154, 0.006345456, 0.009763877
 93383405, -0.01394319, -0.01654951, 0.011762, 0.01022658
 93437095, -0.01840027, -0.02343467, 0.008092467, 0.01022937
 93491868, -0.01281454, -0.007293106, 0.0001907132, 0.01022788
 93541851, -0.004608637, -0.02285362, 0.01197482, 0.009298939
 93596863, -0.01127183, -0.02112878, 0.004913911, 0.01022844
 93651885, -0.009243218, -0.003842878, -0.006248635, 0.01023086
 93707460, 0.0005680566, -0.02390962, 0.01694025, 0.01022788
 93761875, -0.008796759, -0.02568222, 0.01423245, 0.01022881
 93816893, -0.004510912, 0.0007315765, -0.009041081, 0.01022844
 93871920, -0.005547517, -0.0232267, 0.01715314, 0.01022863
 93926889, -0.003663955, -0.02209103, 0.01431809, 0.01022844
 93983385, -0.006165047, 0.007268533, -0.01355852, 0.0102303
 94036855, -0.01425495, -0.01773252, 0.009864328, 0.01022826
 94091861, -0.00329367, -0.01494935, 0.0119097, 0.0102277
 94141876, -0.01404068, 0.01016964, -0.01217132, 0.009298568
 94196876, -0.01982055, -0.01361979, 0.000320823, 0.01022919
 94251879, -0.004945074, -0.0001044028, -0.005886268, 0.01022937
 94307327, -0.02481724, 0.008320511, -0.007681608, 0.01022733
 94361892, -0.02286747, -0.001209025, 0.005246147, 0.01022937
 94416887, -0.01185941, 0.003169343, 0.004800336, 0.01022788
 94472121, -0.02652813, 0.0112615, -0.008165793, 0.0102303
 94521891, -0.02535855, -0.001339054, 0.005018826, 0.009297079
 94576877, -0.02105662, 0.007583281, -0.00406728, 0.01022863
 94632248, -0.0346947, 0.008794758, -0.0079114, 0.01022919
 94692086, -0.03268904, 0.003151108, 0.0005759344, 0.01115795
 94742134, -0.01771509, -0.0007348847, 0.005199732, 0.009300055
 94797089, -0.03185873, 0.01310851, -0.004474545, 0.01022993
 94851878, -0.02384785, 0.0001436701, 0.008546555, 0.01022863
 94907304, -0.01846434, -0.002153478, 0.01107504, 0.01022602
 94961896, -0.02866371, 0.008832581, -0.009995873, 0.01023142
 95016889, -0.02214064, -0.001323387, 0.004667072, 0.01022695
 95066864, -0.01561232, -0.009548198, 0.005501249, 0.009297637
 95121906, -0.0285465, 0.003370472, -0.006622522, 0.01022863
 95176908, -0.01636682, -0.002242179, 0.01125489, 0.0102303
 95232257, -0.0180195, -0.01306277, 0.01820096, 0.01022695
 95286901, -0.02488363, 0.003513631, 0.001751898, 0.010229
 95341873, -0.02632244, -0.0001600273, -0.00404055, 0.01022937
 95396875, -0.01424269, -0.01309757, 0.01307455, 0.01022751
 95451867, -0.02420669, -0.002519878, 0.0008136044, 0.01022844
 95501848, -0.01917452, 0.001695972, 0.002966808, 0.009298939
 95557342, -0.01355431, -0.01712785, 0.01240656, 0.01022863
 95611874, -0.02592434, -0.003922375, -0.002571157, 0.01022974
 95666872, -0.02291521, 0.001511612, 0.004334044, 0.01022751
 95721901, -0.01154863, -0.01848796, 0.02365731, 0.010229
 95777106, -0.02400548, -0.00662165, 0.00309606, 0.01022826
 95832273, -0.02210244, 0.003335284, -0.008234743, 0.01022863
 95886856, -0.01452157, -0.01777856, 0.01625561, 0.01022863
 95941884, -0.02165628, -0.0147002, 0.005270572, 0.01022863
 95991870, -0.02069136, 0.007128014, -0.008518926, 0.009298752
 96046876, -0.01490859, -0.01701429, 0.01878945, 0.01022863
 96101896, -0.01741537, -0.009895246, 0.003114842, 0.01022993
 96157319, -0.0237296, 0.007467068, -0.01225217, 0.01022807
 96212094, -0.01637221, -0.0089957, 0.009070335, 0.01023198
 96267067, -0.01701844, -0.005769416, 0.004885789, 0.01022454
 96321904, -0.02292704, 0.008908335, -0.01360534, 0.01022844
 96376907, -0.01652536, -0.0001418856, 0.005102191, 0.01022881
 96432255, -0.01761238, -0.008122464, 0.01223828, 0.01022863
 96483408, -0.01585189, 0.01343437, -0.007830435, 0.009299497
 96536881, -0.01547227, -0.002020875, 0.004676593, 0.01023012
 96591855, -0.01477173, -0.01097795, 0.009974145, 0.0102264
 96646888, -0.01372073, 0.01394386, -0.0106968, 0.01022863
 96701876, -0.01978265, 0.0006026613, 0.007966729, 0.01022937
 96757357, -0.01039776, -0.008329703, 0.009121653, 0.01022881
 96812130, -0.009599035, 0.009699957, -0.00972773, 0.01023179
 96866864, -0.02825984, -0.002523671, 1.285353E-05, 0.01022454
 96921921, -0.005573935, -0.009794668, 0.01826929, 0.01022881
 96971894, -0.01567156, 0.004834935, 0.00239378, 0.009298566
 97026843, -0.03027565, -0.005822396, 0.0003599849, 0.01022863
 97083536, -0.006455897, 0.000623467, -0.005327436, 0.01022863
 97136904, -0.02520383, -0.001988027, -0.0002177483, 0.01022919
 97191848, -0.02955244, -0.004426861, -0.002408823, 0.01022807
 97246891, -0.01534916, 0.00450755, -0.004611288, 0.01022863
 97301888, -0.02807564, -0.006176522, 0.004050329, 0.01022974
 97357344, -0.02825686, 0.0002892468, 0.001914188, 0.01022789
 97407320, -0.01836939, 0.00684541, -0.003728188, 0.00929838
 97461851, -0.02582444, -0.002365721, 0.008195636, 0.01022919
 97516881, -0.0250659, -0.0003375587, 0.007261827, 0.01023123
 97571888, -0.0219068, 0.009617553, -0.003160778, 0.01022547
 97626872, -0.02354622, 0.0008888611, 0.005404167, 0.01022863
 97683509, -0.0235913, 5.485297E-05, 0.004875686, 0.01022844
 97737093, -0.01824821, 0.01116432, 0.008769605, 0.0102303
 97791904, -0.03220136, -0.002853879, 0.01904434, 0.01022714
 97846878, -0.01742909, 0.01255784, 0.004584514, 0.01022919
 97896938, -0.02366329, 0.0085621, 0.007525278, 0.009298195
 97951893, -0.03086566, 4.217684E-05, 0.01275213, 0.01022956
 98007288, -0.01376974, 0.01967937, -0.001550527, 0.0102277
 98061876, -0.02862862, 0.007797276, 0.009281895, 0.01022974
 98117092, -0.02952854, -0.002245775, 0.008210152, 0.01023216
 98171891, -0.01356868, 0.008993039, 0.0005055146, 0.01022398
 98226869, -0.02570649, 0.0005673221, -0.0016607, 0.01023086
 98283380, -0.02415151, -0.009249043, -0.007217756, 0.0102264
 98332272, -0.007770056, -0.005387814, -0.001908482, 0.009298939
 98391856, -0.02174634, -0.01403977, 0.002512711, 0.01115888
 98441867, -0.0165014, -0.01431379, 0.002206189, 0.00929838
 98496893, -0.007630538, -0.01240617, 0.003939885, 0.01022844
 98551859, -0.02650957, -0.03034534, 0.01653337, 0.01022993
 98607299, -0.01286808, -0.0102288, 0.0001489794, 0.01022733
 98661878, -0.01703083, -0.01835386, -0.001281388, 0.01022974
 98716870, -0.0212536, -0.03015031, 0.007310749, 0.01022993
 98771899, -0.01294339, -0.01282394, -0.005234836, 0.01022603
 98821876, -0.02019868, -0.01324501, -0.001419894, 0.009298939
 98876931, -0.0157712, -0.02771166, 0.01407933, 0.01022956
 98932265, -0.009208624, -0.002700205, -0.0005232744, 0.01022919
 98991887, -0.02205132, -0.01204669, 0.01324691, 0.01115701
 99044809, -0.01385025, -0.01719666, 0.02011954, 0.009763693
 99094948, -0.007606408, 0.00494528, -0.002201915, 0.009298753
 99149477, -0.03193117, -0.01157521, 0.007346234, 0.0102303
 99204598, -0.009405036, 0.0005875776, 0.009172179, 0.01023049
 99259597, -0.01674494, 0.009696952, -0.001145567, 0.01022695
 99314584, -0.02973474, 0.004446116, 0.007469557, 0.0102277
 99369831, -0.01500265, 0.003057473, 0.003020756, 0.01022956
 99424452, -0.02233804, 0.01182742, -0.00522318, 0.01022733
 99479504, -0.02968267, 0.001593045, 0.003629207, 0.01022881
 99534593, -0.01637071, -0.005902415, 0.0147059, 0.01022788
 99584411, -0.0230993, 0.001702533, 0.007481937, 0.009299497
 99639469, -0.02749299, 0.002412978, 0.006423729, 0.01022807
 99694945, -0.01574428, -0.008385778, 0.00631831, 0.01022956
 99749544, -0.02378723, -0.005841688, 0.002950012, 0.01022807
 99801880, -0.02483721, -0.003771369, 0.00155912, 0.00976332
 99857334, -0.01379723, -0.01458651, 0.003745029, 0.01022844
 99911893, -0.02412643, -0.01229007, 0.004369217, 0.01022919
 99966877, -0.02966029, -0.007517581, 0.002486558, 0.01022807
 100021901, -0.01552884, -0.01674977, 0.00848393, 0.01022863
 100076841, -0.02867751, -0.01832409, 0.001848107, 0.01022863
 100132254, -0.03216923, -0.00730988, -0.007424471, 0.01022863
 100187109, -0.01335496, -0.01992401, 0.01510841, 0.01022788
 100241869, -0.03419276, -0.01682739, 0.01152615, 0.01022937
 100291885, -0.03113688, -0.0009392569, 0.002060323, 0.009302844
 100346915, -0.01183298, -0.02611936, 0.03235992, 0.0102251
 100401892, -0.04431814, 0.003283937, -0.000967253, 0.01022807
 100457427, -0.00972953, -0.003856584, 0.004619851, 0.01022863
 100511870, -0.02282084, -0.02159952, 0.01273855, 0.01023328
 100566862, -0.04346148, 0.01882139, -0.03692877, 0.01022379
 100622120, 0.003964996, -0.01223411, 0.03641523, 0.01022974
 100677099, -0.04273155, -0.009424662, 0.01235317, 0.0102277
 100732230, -0.01627709, 0.02010839, -0.01301217, 0.01022863
 100783514, -0.01044731, -0.02185896, 0.02958774, 0.009299682
 100836895, -0.03906827, 0.02382649, -0.01540893, 0.01022807
 100891877, 0.01729205, 0.00187903, 0.02535659, 0.01022956
 100946878, -0.04986069, 0.001599905, -0.006537806, 0.01022993
 101001887, 0.01486244, 0.02944253, -0.02106107, 0.01022844
 101057309, -0.02043252, -0.02272637, 0.02259116, 0.01022602
 101111865, 0.0006955554, 0.05226796, -0.04837299, 0.0102303
 101166874, 0.02000017, -0.01421703, 0.03067674, 0.01022714
 101216875, -0.01289802, 0.02363956, -0.0289375, 0.009298567
 101271897, 0.03458866, 0.01532858, 0.004885968, 0.01022993
 101326882, -0.0001570439, -0.009691671, 0.007646714, 0.0102277
 101383407, 0.02363704, 0.04821212, -0.03796577, 0.010229
 101436901, 0.01653394, -0.02385188, 0.04212267, 0.01022807
 101492105, -0.002168113, 0.03111035, -0.01552222, 0.01022863
 101546882, 0.02410042, 0.007838381, 0.02190913, 0.01022863
 101601887, -0.005807436, -0.02402375, 0.03142063, 0.01022863
 101657299, 0.0002637827, 0.03744083, -0.04243708, 0.010229
 101711896, 0.001727806, -0.05025877, 0.05114723, 0.01023049
 101762104, -0.03002636, 0.01679413, -0.04800905, 0.009298194
 101816921, 0.004033997, -0.03802519, 0.03244052, 0.01022695
 101871914, -0.03849942, -0.02999064, -0.01105069, 0.010229
 101926872, -0.01595819, -0.005572434, -0.02338386, 0.010229
 101983403, -0.02378168, -0.06496082, 0.05620136, 0.0102277
 102036876, -0.05570219, -0.01447096, -0.02786779, 0.01022919
 102092086, -0.01185735, -0.03758814, 0.01968672, 0.01022844
 102147097, -0.06354526, -0.05620962, 0.02303018, 0.01023012
 102201863, -0.04086253, -0.001880185, -0.02054006, 0.01023179
 102252080, -0.03270753, -0.0629947, 0.04323056, 0.009293917
 102307294, -0.06881779, -0.01819793, -0.0209093, 0.01023049
 102361880, -0.03001045, -0.02553065, 0.0001465292, 0.01022658
 102416909, -0.05622507, -0.06504904, 0.03415388, 0.01022881
 102471881, -0.04685476, 0.01680973, -0.04896332, 0.01022863
 102527110, -0.01888449, -0.06058501, 0.0550895, 0.01022844
 102583393, -0.05794762, 0.001324861, -0.02887038, 0.01022863
 102636878, -0.001210504, 2.045371E-05, 0.01998487, 0.01022919
 102691884, -0.04203053, -0.03071178, 0.02802565, 0.01022956
 102741869, -0.01566669, 0.04981741, -0.02575882, 0.009297452
 102797134, -0.0146148, -0.02783776, 0.0534578, 0.01022863
 102851889, -0.0430643, 0.04727675, -0.0168389, 0.01022863
 102907333, 0.004535729, 0.01889148, 0.02525146, 0.01022844
 102961889, -0.04103105, -0.003067621, 0.006787101, 0.01023049
 103016886, -0.0124425, 0.06731203, -0.0430282, 0.0102277
 103071934, -0.01543521, -0.02330096, 0.04610815, 0.01022789
 103126814, -0.03084765, 0.04478813, -0.02273464, 0.01022974
 103183389, -0.01107741, 0.01920081, 0.01740808, 0.01022751
 103232242, -0.02415397, -0.02500258, 0.03120022, 0.009298753
 103292112, -0.03059887, 0.05363868, -0.04248946, 0.01116148
 103341898, -0.01398485, -0.05185133, 0.05660314, 0.009296707
 103396891, -0.03627788, 0.03216941, -0.0407927, 0.0102277
 103451848, -0.02706633, -0.01991048, 0.01144503, 0.01022956
 103507303, -0.02956284, -0.04146634, 0.01142294, 0.0102277
 103562168, -0.03951827, 0.02975375, -0.05789032, 0.01023067
 103617112, -0.01495637, -0.07604971, 0.05753872, 0.0102264
 103671883, -0.04865909, 0.01082867, -0.0614415, 0.01022882
 103722098, -0.0118991, -0.04824123, 0.01393876, 0.009298753
 103776893, -0.04329541, -0.03656995, -0.02274528, 0.01022956
 103832396, -0.02217342, -0.003614005, -0.03508145, 0.0102303
 103891889, -0.01207306, -0.07757001, 0.04314064, 0.01115646
 103941880, -0.04891141, 0.003838452, -0.05672021, 0.009298195
 103996870, 0.008398952, -0.05159944, 0.02711575, 0.01022863
 104051862, -0.0466848, -0.04100046, -0.005808805, 0.01022844
 104107321, -0.001673033, 0.000787558, -0.01841981, 0.01022881
 104161887, -0.01545901, -0.06011797, 0.04969134, 0.01022974
 104211847, -0.02887083, 0.01513978, -0.03002737, 0.009298194
 104266873, 0.007019694, -0.04027801, 0.04876935, 0.01022807
 104321906, -0.03761188, 0.003886067, -0.00186182, 0.01022881
 104376906, 0.009686906, 0.005220959, 0.0266839, 0.01023067
 104432269, -0.02079931, -0.02647591, 0.04839654, 0.0102264
 104486878, -0.01713728, 0.03610246, -0.01275276, 0.01022751
 104541886, 0.004392266, -0.01106467, 0.04422099, 0.01022993
 104597087, -0.03131498, 0.007128876, 0.004207565, 0.01022826
 104651900, -0.006421632, 0.03388346, -0.01847055, 0.01022807
 104707294, -0.01521641, -0.01813058, 0.03069255, 0.01022788
 104757293, -0.01830234, 0.05110347, -0.03382952, 0.009300239
 104811892, -0.0105599, -0.008002755, 0.04229745, 0.01022863
 104867135, -0.02270006, 0.03332732, -0.001541732, 0.01022863
 104921912, -0.01674908, 0.0398255, 0.001858123, 0.01022844
 104976874, -0.01176913, -0.002287921, 0.0403651, 0.01022937
 105032403, -0.03012306, 0.07593766, -0.04357848, 0.010229
 105087093, -0.009667016, -0.006270499, 0.03931894, 0.0102264
 105141870, -0.0250684, 0.05388637, -0.02877662, 0.0102316
 105196881, -0.0228463, 0.03341488, -0.004046495, 0.01022677
 105246888, -0.01531152, 6.354623E-05, 0.01883225, 0.009300426
 105301876, -0.03034405, 0.05843688, -0.03847284, 0.01022751
 105357338, -0.0111095, -0.01941895, 0.0356237, 0.0102303
 105411904, -0.03361513, 0.0467631, -0.03366055, 0.01022658
 105466848, -0.01317468, -0.003465125, 0.01343823, 0.01022993
 105521905, -0.01833312, -0.002842532, 0.01032757, 0.01022733
 105576868, -0.02817483, 0.02749467, -0.03250638, 0.01022919
 105632411, -0.001523007, -0.03829046, 0.04273066, 0.01022807
 105686865, -0.03277331, 0.01097846, -0.0317979, 0.01022733
 105736870, -0.005196846, -0.02847208, 0.02695407, 0.009300612
 105791916, -0.02211561, -0.02917762, 0.001023195, 0.01022919
 105846927, -0.02704695, -0.008568602, -0.02448832, 0.01022733
 105902124, -0.003417525, -0.05377451, 0.03450478, 0.01023179
 105957323, -0.04501937, -0.01419402, -0.02003986, 0.01022565
 106011849, 0.003097052, -0.03636053, 0.03490102, 0.01022937
 106066880, -0.02956429, -0.03369615, 0.01196458, 0.01022788
 106121894, -0.02333749, -0.00379792, -0.007077003, 0.01022937
 106176883, -0.007212996, -0.03618497, 0.03828619, 0.01022863
 106226885, -0.04434574, -0.006459808, -0.01011978, 0.009300426
 106283364, -0.008989941, -0.01316771, 0.00998262, 0.01022621
 106336906, -0.02973479, -0.02385727, 0.01602113, 0.01022937
 106391905, -0.03585848, 0.01423339, -0.02729035, 0.01022788
 106446904, -0.008256342, -0.01770378, 0.02164736, 0.01022844
 106502092, -0.03072059, -0.002376583, -0.003319801, 0.01022881
 106557440, -0.02278473, 0.0223816, -0.02110886, 0.01022956
 106611878, -0.009334965, -0.01406925, 0.02877021, 0.0102277
 106667079, -0.04145852, 0.02224983, -0.01617432, 0.01022937
 106716883, -0.008392258, 0.007844537, 0.008895392, 0.009298196
 106771906, -0.02964677, 0.007117943, 0.01920962, 0.01022844
 106826877, -0.03213713, 0.04348423, -0.01248726, 0.01022733
 106883436, -0.01368069, 0.0005850745, 0.0348941, 0.01023123
 106937110, -0.03860518, 0.02865019, -0.006128412, 0.01023012
 106991875, -0.01921918, 0.03147178, -0.002716727, 0.01022584
 107046904, -0.01816632, -0.006020907, 0.02609364, 0.01022863
 107101871, -0.03216147, 0.04566336, -0.02291057, 0.01022863
 107157334, -0.003983498, -0.00134939, 0.0386722, 0.01022956
 107211900, -0.02447506, 0.01480868, 0.006005415, 0.0102303
 107261856, -0.009730266, 0.0216472, -0.0006887265, 0.009297265
 107316856, -0.01201737, -0.0155776, 0.02757435, 0.01022807
 107371911, -0.02474846, 0.03349566, -0.03044434, 0.01022937
 107426880, 0.002695482, -0.02387365, 0.03399521, 0.01022733
 107483371, -0.02474756, -0.002020609, -0.01314616, 0.0102303
 107536891, -0.007008084, 0.002480005, -0.004793065, 0.01023086
 107591865, -0.002766554, -0.04048082, 0.0260182, 0.01022472
 107646891, -0.02383994, 0.005923123, -0.02681443, 0.01022863
 107696895, 0.008252207, -0.0316002, 0.03651493, 0.009298753
 107751895, -0.02362537, -0.01721084, -0.0003466201, 0.01023011
 107807319, -0.003938219, -0.009765411, -0.00398858, 0.01022789
 107861887, -0.004707579, -0.04799366, 0.03266675, 0.010229
 107916895, -0.02557104, -0.002166072, -0.03095905, 0.01022751
 107972137, 0.0004323237, -0.03882009, 0.02710002, 0.01022974
 108027080, -0.01759786, -0.03446901, 0.004476511, 0.01022751
 108083361, -0.02398632, -0.009424557, -0.02733743, 0.01022863
 108136891, -0.001676932, -0.05092035, 0.03573531, 0.010229
 108191872, -0.03472579, -0.02195323, -0.01228102, 0.010229
 108242106, -0.008692227, -0.02282418, 0.003496121, 0.009298009
 108296906, -0.01963287, -0.04309208, 0.01166496, 0.01022863
 108351863, -0.03037371, -0.004990005, -0.02883224, 0.01023179
 108407330, -0.002509147, -0.034243, 0.02050237, 0.01022565
 108461893, -0.03125932, -0.02179382, -0.004593864, 0.01022919
 108516855, -0.01343361, -0.005057297, -0.01092925, 0.01022788
 108571893, -0.005291502, -0.03665989, 0.02135682, 0.01022863
 108626851, -0.02973256, 0.0003298144, -0.02587729, 0.01022863
 108683414, -0.0009579873, -0.01746565, 0.005996417, 0.01022863
 108732242, -0.01571617, -0.01686994, -0.001284537, 0.009298753
 108791880, -0.0232903, 0.007749831, -0.02590492, 0.01116185
 108841873, 0.000758949, -0.02179911, 0.02174443, 0.009296521
 108896898, -0.03123045, 0.007432746, -0.01000806, 0.01022751
 108951873, -0.01512913, 0.005852026, 0.009273254, 0.01022937
 109007459, -0.01191177, -0.01492108, 0.02635122, 0.01022863
 109061889, -0.03835116, 0.02626454, -0.01655949, 0.01022844
 109116865, -0.005860257, -0.001295165, 0.02228352, 0.01022788
 109166856, -0.0349043, 0.006643849, -0.001222934, 0.009298939
 109221885, -0.02202119, 0.02391993, -0.006633441, 0.01022863
 109277111, -0.0204491, -0.01302335, 0.02980239, 0.01022863
 109332266, -0.04699143, 0.03998211, -0.03229841, 0.01023216
 109392107, -0.008809698, -0.005158941, 0.02009177, 0.01115497
 109442092, -0.04752263, 0.01041401, -0.01111084, 0.009301356
 109497103, -0.01342051, 0.02098287, -0.005734378, 0.01022602
 109551879, -0.02633607, -0.01844504, 0.03427732, 0.01023049
 109607302, -0.03774233, 0.03606833, -0.02576358, 0.01022677
 109661862, -0.0004941594, -0.01349066, 0.03553336, 0.01023142
 109711864, -0.04539215, 0.01214304, -0.007063746, 0.009297452
 109766860, 0.002330715, 0.01139038, 0.012636, 0.01022714
 109821901, -0.0363727, -0.02177135, 0.03558803, 0.01022844
 109876889, -0.01507018, 0.04133131, -0.02579706, 0.01022881
 109932264, -0.01142999, -0.02938553, 0.05112196, 0.01022937
 109986880, -0.03463526, 0.02863592, -0.03485749, 0.01022658
 110042132, -0.006050174, 0.003963438, 0.01097216, 0.01023012
 110096876, -0.02626685, -0.007878427, 0.02197282, 0.01022844
 110146892, -0.01566395, 0.0406018, -0.02218764, 0.009298939
 110201875, -0.01564959, -0.02366042, 0.03860675, 0.01022919
 110257346, -0.01763057, 0.04880302, -0.03920579, 0.01023049
 110312155, -0.01492024, -0.009820955, 0.02160171, 0.01022602
 110366858, -0.005471399, 0.01279323, 0.006575601, 0.01022881
 110421915, -0.01713042, 0.03480817, -0.01986083, 0.01022844
 110476868, -0.003561346, -0.02974106, 0.04391535, 0.01022863
 110532258, -0.00904543, 0.04059803, -0.03519346, 0.01023012
 110583511, -0.01270235, -0.02222317, 0.03393631, 0.009297265
 110636879, -0.005901292, -0.001385851, 0.001180344, 0.01022937
