TimeUS,COFN,COFE,CNe,CEe,POFN,POFE,PNe,PEe
 56914287, 0.00509834, 0.003433594, 0.006816689, -0.005429792, 0.00518643, 0.005895873, 0.00651758, -0.005203057
 57114268, 0.004978992, 0.004811043, 0.007112491, -0.005670951, 0.00509834, 0.003433594, 0.006816689, -0.005429792
 57314343, -0.0001200527, 0.02439308, 0.007190025, -0.006075457, 0.004978992, 0.004811043, 0.007112491, -0.005670951
 57514302, -6.524997E-05, 0.02201071, 0.006884444, -0.005795986, -0.0001200527, 0.02439308, 0.007190025, -0.006075457
 57714300, -0.0004754315, 0.02240182, 0.006644859, -0.00564296, -6.524997E-05, 0.02201071, 0.006884444, -0.005795986
 57914378, 0.001658992, 0.005999994, 0.006432722, -0.005145775, -0.0004754315, 0.02240182, 0.006644859, -0.00564296
 58114284, 0.002118511, 0.006536162, 0.006355496, -0.005083739, 0.001658992, 0.005999994, 0.006432722, -0.005145775
 58314328, 0.002906, 0.008009452, 0.007141956, -0.005707358, 0.002118511, 0.006536162, 0.006355496, -0.005083739
 58514264, 0.002988822, -0.006576134, 0.007169036, -0.00572475, 0.002906, 0.008009452, 0.007141956, -0.005707358
 58714286, 0.003309371, -0.006360002, 0.007046249, -0.005621687, 0.002988822, -0.006576134, 0.007169036, -0.00572475
 58914305, 0.003372601, -0.006603091, 0.007363535, -0.005868753, 0.003309371, -0.006360002, 0.007046249, -0.005621687
 59114312, 0.006413768, 0.002582224, 0.007082656, -0.005594932, 0.003372601, -0.006603091, 0.007363535, -0.005868753
 59314349, 0.006697278, 0.00173085, 0.007589033, -0.005994027, 0.006413768, 0.002582224, 0.007082656, -0.005594932
 59514345, 0.005959995, 0.0006532697, 0.006315091, -0.004975107, 0.006697278, 0.00173085, 0.007589033, -0.005994027
 59714309, 0.001890058, 0.003968506, 0.006808645, -0.005402257, 0.005959995, 0.0006532697, 0.006315091, -0.004975107
 59914324, 0.002738711, 0.002505061, 0.006427868, -0.005089375, 0.001890058, 0.003968506, 0.006808645, -0.005402257
 60114337, 0.00156905, 0.005368552, 0.006520467, -0.005183343, 0.002738711, 0.002505061, 0.006427868, -0.005089375
 60314328, -0.001347721, 0.03408027, 0.007204361, -0.006366941, 0.00156905, 0.005368552, 0.006520467, -0.005183343
 60514435, -0.001475851, 0.03178598, 0.007306635, -0.006343923, -0.001347721, 0.03408027, 0.007204361, -0.006366941
 60714312, -0.000601055, -0.01407337, 0.007398506, -0.005955366, -0.001475851, 0.03178598, 0.007306635, -0.006343923
 60914326, 0.001902238, 0.001991407, 0.007250222, -0.005733714, -0.000601055, -0.01407337, 0.007398506, -0.005955366
 61114349, 0.002905318, -0.001212319, 0.006845337, -0.005417596, 0.001902238, 0.001991407, 0.007250222, -0.005733714
 61314328, 0.002477136, -0.01551758, 0.007037322, -0.00572953, 0.002905318, -0.001212319, 0.006845337, -0.005417596
 61514329, -0.001419101, -0.03530703, 0.007218371, -0.006421127, 0.002477136, -0.01551758, 0.007037322, -0.00572953
 61714325, -0.01312655, -0.07454251, 0.007629017, -0.008602896, -0.001419101, -0.03530703, 0.007218371, -0.006421127
 61914361, 0.01180809, -0.1779397, 0.008102551, -0.01692079, -0.01312655, -0.07454251, 0.007629017, -0.008602896
 62114308, 0.07244572, -0.6102798, 0.0105769, -0.05719694, 0.01180809, -0.1779397, 0.008102551, -0.01692079
 62314380, -0.01977954, -0.6551026, 0.008891076, -0.06275983, 0.07244572, -0.6102798, 0.0105769, -0.05719694
 62514299, 0.09738747, -1.004528, 0.0144283, -0.08179339, -0.01977954, -0.6551026, 0.008891076, -0.06275983
 62714315, 0.182674, -2.244775, 0.02707811, -0.1771067, 0.09738747, -1.004528, 0.0144283, -0.08179339
 62914322, 0.1216492, -1.846035, 0.01866298, -0.1591068, 0.182674, -2.244775, 0.02707811, -0.1771067
 63114324, 0.3217205, -2.586178, 0.03215752, -0.1772919, 0.1216492, -1.846035, 0.01866298, -0.1591068
 63314375, 0.4864492, -3.3008, 0.03962164, -0.2177186, 0.3217205, -2.586178, 0.03215752, -0.1772919
 63514308, 0.4973235, -1.639145, 0.04450255, -0.1273676, 0.4864492, -3.3008, 0.03962164, -0.2177186
 63714373, 0.5067435, -1.392763, 0.04192199, -0.1018943, 0.4973235, -1.639145, 0.04450255, -0.1273676
 63914387, 0.3275063, 0.1531879, 0.02838393, -0.007419809, 0.5067435, -1.392763, 0.04192199, -0.1018943
 64114313, 0.2544767, 0.0518289, 0.02416503, -0.004065487, 0.3275063, 0.1531879, 0.02838393, -0.007419809
 64314364, 0.2120539, -0.2180555, 0.02087015, -0.02098537, 0.2544767, 0.0518289, 0.02416503, -0.004065487
 64514329, 0.7747113, -0.8277729, 0.0736385, -0.07852157, 0.2120539, -0.2180555, 0.02087015, -0.02098537
 64714363, 0.8475083, -0.8972806, 0.07924308, -0.08376539, 0.7747113, -0.8277729, 0.0736385, -0.07852157
 64914365, 0.7334112, -0.7898594, 0.06808966, -0.07316872, 0.8475083, -0.8972806, 0.07924308, -0.08376539
 65114306, -0.08185142, -0.03400157, 0.01072412, -0.005847715, 0.7334112, -0.7898594, 0.06808966, -0.07316872
 65314329, -0.06378733, -0.03127597, 0.009515792, -0.006053715, -0.08185142, -0.03400157, 0.01072412, -0.005847715
 65514342, -0.08637835, -0.0594906, 0.01132028, -0.007051817, -0.06378733, -0.03127597, 0.009515792, -0.006053715
 65714332, -0.2068875, -0.3253475, 0.02430652, -0.02329204, -0.08637835, -0.0594906, 0.01132028, -0.007051817
 65914337, -0.2602844, -0.5239171, 0.0287938, -0.03099102, -0.2068875, -0.3253475, 0.02430652, -0.02329204
 66114281, -0.5310434, -0.9181776, 0.04970719, -0.04379034, -0.2602844, -0.5239171, 0.0287938, -0.03099102
 66314336, 0.363555, -0.7914106, 0.05030478, -0.05243487, -0.5310434, -0.9181776, 0.04970719, -0.04379034
 66514310, 0.4111688, -1.062891, 0.07001539, -0.07151949, 0.363555, -0.7914106, 0.05030478, -0.05243487
 66714314, 0.4897298, -1.422245, 0.1034935, -0.1008295, 0.4111688, -1.062891, 0.07001539, -0.07151949
 66914386, -0.664785, -0.550445, 0.1477149, -0.1089137, 0.4897298, -1.422245, 0.1034935, -0.1008295
 67114337, -0.8173398, -0.6583362, 0.1789084, -0.1333509, -0.664785, -0.550445, 0.1477149, -0.1089137
 67314376, -1.025306, -0.92651, 0.2195605, -0.1618597, -0.8173398, -0.6583362, 0.1789084, -0.1333509
 67514362, -1.360623, -1.535974, 0.2583627, -0.193125, -1.025306, -0.92651, 0.2195605, -0.1618597
 67714316, -1.433426, -1.673763, 0.2790383, -0.2100742, -1.360623, -1.535974, 0.2583627, -0.193125
 67914344, -1.417719, -1.815562, 0.2987164, -0.2298179, -1.433426, -1.673763, 0.2790383, -0.2100742
 68114363, -0.7535535, -2.207937, 0.3022313, -0.2511543, -1.417719, -1.815562, 0.2987164, -0.2298179
 68314343, -0.7414214, -2.211933, 0.3063413, -0.2528134, -0.7535535, -2.207937, 0.3022313, -0.2511543
 68514366, -0.6824383, -2.204182, 0.3081979, -0.2518958, -0.7414214, -2.211933, 0.3063413, -0.2528134
 68714393, -0.1807914, -2.181002, 0.3008114, -0.2488941, -0.6824383, -2.204182, 0.3081979, -0.2518958
 68914422, -0.161324, -2.201979, 0.2931239, -0.2463369, -0.1807914, -2.181002, 0.3008114, -0.2488941
 69114412, 0.001541603, -2.068454, 0.2751652, -0.2356872, -0.161324, -2.201979, 0.2931239, -0.2463369
 69314374, 0.8176475, -1.98253, 0.261753, -0.2294169, 0.001541603, -2.068454, 0.2751652, -0.2356872
 69514396, 1.02346, -1.768861, 0.2553642, -0.2197193, 0.8176475, -1.98253, 0.261753, -0.2294169
 69714354, 1.021743, -1.692747, 0.2475383, -0.2085684, 1.02346, -1.768861, 0.2553642, -0.2197193
 69914393, 1.257615, -1.677297, 0.2463862, -0.2025274, 1.021743, -1.692747, 0.2475383, -0.2085684
 70114406, 1.28871, -1.328061, 0.2448596, -0.1916007, 1.257615, -1.677297, 0.2463862, -0.2025274
 70314402, 1.348334, -1.274106, 0.2432064, -0.1837519, 1.28871, -1.328061, 0.2448596, -0.1916007
 70514381, 1.622921, -1.241034, 0.2454708, -0.1788937, 1.348334, -1.274106, 0.2432064, -0.1837519
 70714409, 1.822048, -1.159999, 0.2462507, -0.1741772, 1.622921, -1.241034, 0.2454708, -0.1788937
 70914415, 1.897007, -1.183442, 0.2430586, -0.1701398, 1.822048, -1.159999, 0.2462507, -0.1741772
 71114328, 2.432941, -1.436587, 0.2516645, -0.1707771, 1.897007, -1.183442, 0.2430586, -0.1701398
 71314416, 2.723875, -1.806712, 0.2566369, -0.1783993, 2.432941, -1.436587, 0.2516645, -0.1707771
 71514372, 2.849078, -1.872852, 0.2559822, -0.1805709, 2.723875, -1.806712, 0.2566369, -0.1783993
 71714361, 3.371246, -1.950649, 0.2687917, -0.1815879, 2.849078, -1.872852, 0.2559822, -0.1805709
 71914438, 3.937186, -2.198854, 0.2851275, -0.1878895, 3.371246, -1.950649, 0.2687917, -0.1815879
 72114391, 3.977761, -2.05259, 0.2834853, -0.1826118, 3.937186, -2.198854, 0.2851275, -0.1878895
 72314395, 4.325414, -1.269847, 0.2944582, -0.1600625, 3.977761, -2.05259, 0.2834853, -0.1826118
 72514357, 4.160226, -1.559688, 0.2852732, -0.1657411, 4.325414, -1.269847, 0.2944582, -0.1600625
 72714449, 4.044354, -1.561808, 0.2786154, -0.1635662, 4.160226, -1.559688, 0.2852732, -0.1657411
 72914363, 3.721884, -1.603055, 0.2624765, -0.1633678, 4.044354, -1.561808, 0.2786154, -0.1635662
 73114403, 2.88726, -1.484337, 0.2312994, -0.1613274, 3.721884, -1.603055, 0.2624765, -0.1633678
 73314378, 2.785733, -1.419092, 0.2263625, -0.1579751, 2.88726, -1.484337, 0.2312994, -0.1613274
 73514366, 2.589168, -1.233364, 0.2205412, -0.1509351, 2.785733, -1.419092, 0.2263625, -0.1579751
 73714372, 2.56847, -1.122093, 0.2200189, -0.1461315, 2.589168, -1.233364, 0.2205412, -0.1509351
 73914432, 2.523961, -1.061371, 0.2188998, -0.1432776, 2.56847, -1.122093, 0.2200189, -0.1461315
 74114367, 2.554899, -1.131461, 0.2187187, -0.1437227, 2.523961, -1.061371, 0.2188998, -0.1432776
 74314386, 2.918706, -1.199304, 0.2299128, -0.1434633, 2.554899, -1.131461, 0.2187187, -0.1437227
 74514383, 2.99649, -1.224615, 0.2329783, -0.1436426, 2.918706, -1.199304, 0.2299128, -0.1434633
 74714370, 3.051487, -1.221434, 0.2352277, -0.1442251, 2.99649, -1.224615, 0.2329783, -0.1436426
 74914380, 3.313847, -1.408256, 0.244484, -0.1494593, 3.051487, -1.221434, 0.2352277, -0.1442251
 75114412, 3.376842, -1.407584, 0.2478352, -0.150903, 3.313847, -1.408256, 0.244484, -0.1494593
 75314374, 3.488616, -1.418319, 0.2535986, -0.1528959, 3.376842, -1.407584, 0.2478352, -0.150903
 75514370, 3.910923, -1.539547, 0.2698336, -0.1570732, 3.488616, -1.418319, 0.2535986, -0.1528959
 75714358, 4.035834, -1.553553, 0.2753122, -0.158804, 3.910923, -1.539547, 0.2698336, -0.1570732
 75914368, 4.054422, -1.506567, 0.2770066, -0.1581275, 4.035834, -1.553553, 0.2753122, -0.158804
 76114437, 4.546066, -1.180067, 0.2985612, -0.1503042, 4.054422, -1.506567, 0.2770066, -0.1581275
 76314468, 4.666282, -1.056873, 0.3054903, -0.1524191, 4.546066, -1.180067, 0.2985612, -0.1503042
 76514423, 4.959409, -0.9086808, 0.3198065, -0.1534258, 4.666282, -1.056873, 0.3054903, -0.1524191
 76714382, 5.712663, 0.5169601, 0.3579725, -0.1348427, 4.959409, -0.9086808, 0.3198065, -0.1534258
 76914367, 5.686541, 0.4669877, 0.3588575, -0.1379219, 5.712663, 0.5169601, 0.3579725, -0.1348427
 77114395, 5.690471, 0.5820098, 0.3617883, -0.1367913, 5.686541, 0.4669877, 0.3588575, -0.1379219
 77314401, 5.139977, 0.9019828, 0.3410637, -0.1416634, 5.690471, 0.5820098, 0.3617883, -0.1367913
 77514360, 5.046333, 0.8448724, 0.3363338, -0.1439821, 5.139977, 0.9019828, 0.3410637, -0.1416634
 77714401, 4.940101, 0.9793805, 0.3325769, -0.1465687, 5.046333, 0.8448724, 0.3363338, -0.1439821
 77954345, 3.895291, 1.359845, 0.2941065, -0.152887, 4.940101, 0.9793805, 0.3325769, -0.1465687
 78114400, 3.637475, 1.281677, 0.2835298, -0.154167, 3.895291, 1.359845, 0.2941065, -0.152887
 78314439, 3.535153, 1.433868, 0.2777112, -0.1593532, 3.637475, 1.281677, 0.2835298, -0.154167
 78514370, 2.936995, 1.824205, 0.2563408, -0.1708847, 3.535153, 1.433868, 0.2777112, -0.1593532
 78714355, 2.838926, 1.850323, 0.2511165, -0.1722209, 2.936995, 1.824205, 0.2563408, -0.1708847
 78914442, 2.640604, 1.825807, 0.2472687, -0.1667265, 2.838926, 1.850323, 0.2511165, -0.1722209
 79114355, 1.89795, 1.578676, 0.2256491, -0.1640745, 2.640604, 1.825807, 0.2472687, -0.1667265
 79314381, 1.869444, 1.512722, 0.2251547, -0.161655, 1.89795, 1.578676, 0.2256491, -0.1640745
 79514512, 1.842798, 1.278898, 0.223594, -0.1573888, 1.869444, 1.512722, 0.2251547, -0.161655
 79714485, 1.556183, 0.2425404, 0.2128101, -0.1505505, 1.842798, 1.278898, 0.223594, -0.1573888
 79954445, 1.445737, 0.2216205, 0.2092967, -0.1519859, 1.556183, 0.2425404, 0.2128101, -0.1505505
 80114510, 0.7350771, 0.3856093, 0.1989337, -0.1534756, 1.445737, 0.2216205, 0.2092967, -0.1519859
 80314498, 0.8917221, 0.5198135, 0.201994, -0.1539097, 0.7350771, 0.3856093, 0.1989337, -0.1534756
 80514581, 0.8756229, 0.5053699, 0.2022619, -0.154862, 0.8917221, 0.5198135, 0.201994, -0.1539097
 80714478, 0.7640064, 0.4838195, 0.2008711, -0.1558843, 0.8756229, 0.5053699, 0.2022619, -0.154862
 80914486, 0.16123, 0.4048214, 0.1959336, -0.1584083, 0.7640064, 0.4838195, 0.2008711, -0.1558843
 81114464, 0.1119877, 0.8165534, 0.1963717, -0.1632514, 0.16123, 0.4048214, 0.1959336, -0.1584083
 81314479, 0.05705925, 0.762434, 0.1977286, -0.1637321, 0.1119877, 0.8165534, 0.1963717, -0.1632514
 81514657, -0.05924642, 0.4602923, 0.1988764, -0.1620814, 0.05705925, 0.762434, 0.1977286, -0.1637321
 81714494, 0.1351532, 0.09793717, 0.1994267, -0.1609043, -0.05924642, 0.4602923, 0.1988764, -0.1620814
 81954452, 0.189304, 0.03854956, 0.2032439, -0.1608511, 0.1351532, 0.09793717, 0.1994267, -0.1609043
 82114501, 0.3138673, -0.2544655, 0.2047776, -0.1616609, 0.189304, 0.03854956, 0.2032439, -0.1608511
 82314487, 0.05385678, -0.4046114, 0.2061865, -0.1623395, 0.3138673, -0.2544655, 0.2047776, -0.1616609
 82514467, 0.1142824, -0.3722229, 0.2083219, -0.1634391, 0.05385678, -0.4046114, 0.2061865, -0.1623395
 82714498, 0.5268642, 0.08514516, 0.2112871, -0.1635165, 0.1142824, -0.3722229, 0.2083219, -0.1634391
 82914482, 0.1923636, -0.3702382, 0.2098149, -0.1657398, 0.5268642, 0.08514516, 0.2112871, -0.1635165
 83114486, 0.1572105, -0.3437212, 0.2094639, -0.1668287, 0.1923636, -0.3702382, 0.2098149, -0.1657398
 83334910, 0.1580779, -0.3658131, 0.2104719, -0.1684391, 0.1572105, -0.3437212, 0.2094639, -0.1668287
 83514600, -0.146814, -0.3863706, 0.2115939, -0.1677619, 0.1580779, -0.3658131, 0.2104719, -0.1684391
 83714468, -0.1166922, -0.3427716, 0.2123286, -0.169324, -0.146814, -0.3863706, 0.2115939, -0.1677619
 83914553, -0.1006455, -0.3152686, 0.2134342, -0.1689698, -0.1166922, -0.3427716, 0.2123286, -0.169324
 84114492, -0.06855136, 0.002008009, 0.2132988, -0.168103, -0.1006455, -0.3152686, 0.2134342, -0.1689698
 84314494, -0.02844281, -0.03434233, 0.2125833, -0.1688887, -0.06855136, 0.002008009, 0.2132988, -0.168103
 84514479, 0.007649227, -0.03105308, 0.2127798, -0.1679971, -0.02844281, -0.03434233, 0.2125833, -0.1688887
 84714588, 0.2270131, -0.03282741, 0.2124505, -0.1684908, 0.007649227, -0.03105308, 0.2127798, -0.1679971
 84914517, 0.2231025, -0.09695824, 0.2128107, -0.1679274, 0.2270131, -0.03282741, 0.2124505, -0.1684908
 85135138, 0.180471, -0.01802753, 0.211964, -0.1676016, 0.2231025, -0.09695824, 0.2128107, -0.1679274
 85314664, -0.0783669, 0.04641562, 0.2107806, -0.1672202, 0.180471, -0.01802753, 0.211964, -0.1676016
 85514448, -0.09668922, 0.05071728, 0.2103156, -0.1669993, -0.0783669, 0.04641562, 0.2107806, -0.1672202
 85734725, -0.0575444, 0.04218851, 0.209868, -0.166745, -0.09668922, 0.05071728, 0.2103156, -0.1669993
 85914544, 0.1107869, 0.08210417, 0.2099031, -0.1672615, -0.0575444, 0.04218851, 0.209868, -0.166745
 86114471, 0.08632568, 0.06130612, 0.2095144, -0.1676446, 0.1107869, 0.08210417, 0.2099031, -0.1672615
 86314490, 0.08801897, 0.08037432, 0.2093169, -0.168333, 0.08632568, 0.06130612, 0.2095144, -0.1676446
 86514537, -0.066143, -0.01676065, 0.2089138, -0.1688138, 0.08801897, 0.08037432, 0.2093169, -0.168333
 86714482, -0.05433728, 0.04655395, 0.2090423, -0.1695339, -0.066143, -0.01676065, 0.2089138, -0.1688138
 86914487, -0.06558619, 0.02858115, 0.2097259, -0.1689796, -0.05433728, 0.04655395, 0.2090423, -0.1695339
 87114476, -0.09250525, -0.03384081, 0.2094911, -0.1691438, -0.06558619, 0.02858115, 0.2097259, -0.1689796
 87314494, -0.0551211, -0.02700297, 0.2094235, -0.1690181, -0.09250525, -0.03384081, 0.2094911, -0.1691438
 87514451, -0.03166892, -0.01308688, 0.2096927, -0.1697934, -0.0551211, -0.02700297, 0.2094235, -0.1690181
 87714480, 0.06575129, 0.05830518, 0.2092408, -0.1694953, -0.03166892, -0.01308688, 0.2096927, -0.1697934
 87914488, 0.09239215, 0.04557614, 0.2095378, -0.1697734, 0.06575129, 0.05830518, 0.2092408, -0.1694953
 88114469, 0.06248542, 0.09969132, 0.2101203, -0.1697299, 0.09239215, 0.04557614, 0.2095378, -0.1697734
 88314491, -0.0292609, 0.527566, 0.2100048, -0.1721351, 0.06248542, 0.09969132, 0.2101203, -0.1697299
 88514542, -0.008192699, 0.5014018, 0.2106797, -0.1717047, -0.0292609, 0.527566, 0.2100048, -0.1721351
 88714443, -0.007080816, 0.4869384, 0.2117108, -0.1707015, -0.008192699, 0.5014018, 0.2106797, -0.1717047
 88914665, -0.08973284, 0.09134071, 0.21183, -0.1687852, -0.007080816, 0.4869384, 0.2117108, -0.1707015
 89114484, -0.03727524, 0.109845, 0.2117949, -0.1691335, -0.08973284, 0.09134071, 0.21183, -0.1687852
 89314500, -0.09027832, 0.09691291, 0.2118596, -0.1699268, -0.03727524, 0.109845, 0.2117949, -0.1691335
 89514469, -0.1421981, 0.01921629, 0.2118934, -0.1696455, -0.09027832, 0.09691291, 0.2118596, -0.1699268
 89714480, -0.15143, 0.03822945, 0.212417, -0.1686966, -0.1421981, 0.01921629, 0.2118934, -0.1696455
 89914617, -0.138726, 0.02849232, 0.2135974, -0.1679668, -0.15143, 0.03822945, 0.212417, -0.1686966
 90114477, -0.03735316, 0.1966171, 0.2144991, -0.1686025, -0.138726, 0.02849232, 0.2135974, -0.1679668
 90314537, -0.03394526, 0.2051501, 0.2137404, -0.168568, -0.03735316, 0.1966171, 0.2144991, -0.1686025
 90514463, -0.03947438, 0.1675636, 0.2132909, -0.1691759, -0.03394526, 0.2051501, 0.2137404, -0.168568
 90734743, 0.05410922, 0.0741903, 0.2132587, -0.1697319, -0.03947438, 0.1675636, 0.2132909, -0.1691759
 90934816, 0.04505809, 0.09121107, 0.2123832, -0.1702465, 0.05410922, 0.0741903, 0.2132587, -0.1697319
 91114504, 0.1442461, -0.09471215, 0.2116903, -0.1703585, 0.04505809, 0.09121107, 0.2123832, -0.1702465
 91314494, -0.01404982, 0.0354429, 0.2108894, -0.1691987, 0.1442461, -0.09471215, 0.2116903, -0.1703585
 91514469, 0.006616868, 0.06213577, 0.2105764, -0.1696433, -0.01404982, 0.0354429, 0.2108894, -0.1691987
 91714508, -0.009814622, 0.05926467, 0.210535, -0.1699137, 0.006616868, 0.06213577, 0.2105764, -0.1696433
 91914524, -0.1108468, 0.006340854, 0.2106479, -0.1684337, -0.009814622, 0.05926467, 0.210535, -0.1699137
 92114443, 0.002318674, 0.1563099, 0.2114068, -0.1676319, -0.1108468, 0.006340854, 0.2106479, -0.1684337
 92314543, -0.02597976, 0.2338407, 0.2109297, -0.1674054, 0.002318674, 0.1563099, 0.2114068, -0.1676319
 92514596, -0.2849171, 0.4321063, 0.2114484, -0.1690093, -0.02597976, 0.2338407, 0.2109297, -0.1674054
 92714448, -0.1002267, 0.0683821, 0.2113688, -0.1665618, -0.2849171, 0.4321063, 0.2114484, -0.1690093
 92914558, -0.08569237, 0.07809503, 0.2113367, -0.1670743, -0.1002267, 0.0683821, 0.2113688, -0.1665618
 93114584, -0.1159151, 0.1947822, 0.2111087, -0.1680185, -0.08569237, 0.07809503, 0.2113367, -0.1670743
 93314488, 0.1954381, 0.2227419, 0.2116597, -0.1668428, -0.1159151, 0.1947822, 0.2111087, -0.1680185
 93514448, 0.1936696, 0.2092803, 0.2106537, -0.1664433, 0.1954381, 0.2227419, 0.2116597, -0.1668428
 93714506, 0.07959525, -0.1379252, 0.2088407, -0.1673262, 0.1936696, 0.2092803, 0.2106537, -0.1664433
 93914495, 0.1477823, -0.2668069, 0.2087705, -0.1677022, 0.07959525, -0.1379252, 0.2088407, -0.1673262
 94114590, 0.124404, -0.2533711, 0.2086954, -0.1668024, 0.1477823, -0.2668069, 0.2087705, -0.1677022
 94314640, 0.05877732, -0.02569185, 0.2079637, -0.1660185, 0.124404, -0.2533711, 0.2086954, -0.1668024
 94534585, 0.3380663, 0.2235008, 0.2083151, -0.1651365, 0.05877732, -0.02569185, 0.2079637, -0.1660185
 94714452, -0.01259925, -0.1341297, 0.2071687, -0.1645644, 0.3380663, 0.2235008, 0.2083151, -0.1651365
 94914523, -0.09933513, 0.002768706, 0.2063104, -0.1648579, -0.01259925, -0.1341297, 0.2071687, -0.1645644
 95134454, 0.08655301, 0.1019625, 0.2066229, -0.1662315, -0.09933513, 0.002768706, 0.2063104, -0.1648579
 95314483, 0.1420057, 0.2435725, 0.2067148, -0.1665313, 0.08655301, 0.1019625, 0.2066229, -0.1662315
 95534463, 0.1036514, 0.2332156, 0.2064388, -0.1660846, 0.1420057, 0.2435725, 0.2067148, -0.1665313
 95734503, 0.1431729, -0.07435914, 0.2058287, -0.1668819, 0.1036514, 0.2332156, 0.2064388, -0.1660846
 95914465, 0.05387013, 0.09184983, 0.2054743, -0.166873, 0.1431729, -0.07435914, 0.2058287, -0.1668819
 96114513, 0.08522968, 0.1033209, 0.2049272, -0.1671618, 0.05387013, 0.09184983, 0.2054743, -0.166873
 96314528, 0.3646269, 0.06490321, 0.2053849, -0.1678126, 0.08522968, 0.1033209, 0.2049272, -0.1671618
 96514506, 0.3505024, 0.06713536, 0.2047464, -0.1665087, 0.3646269, 0.06490321, 0.2053849, -0.1678126
 96734459, 0.2954828, 0.06078592, 0.2050021, -0.1666081, 0.3505024, 0.06713536, 0.2047464, -0.1665087
 96914517, -0.03311813, -0.1132049, 0.2047229, -0.1667555, 0.2954828, 0.06078592, 0.2050021, -0.1666081
 97114467, -0.03970481, -0.07318579, 0.2042887, -0.1667371, -0.03311813, -0.1132049, 0.2047229, -0.1667555
 97314600, -0.04467642, -0.07541181, 0.2048737, -0.166544, -0.03970481, -0.07318579, 0.2042887, -0.1667371
 97514476, -0.1782295, 0.1463112, 0.2046621, -0.1667833, -0.04467642, -0.07541181, 0.2048737, -0.166544
 97714467, -0.1515852, 0.1535899, 0.2055045, -0.1676292, -0.1782295, 0.1463112, 0.2046621, -0.1667833
 97914498, -0.1501784, 0.1787455, 0.2064507, -0.1671932, -0.1515852, 0.1535899, 0.2055045, -0.1676292
 98114505, 0.1070013, 0.182056, 0.2067266, -0.1668798, -0.1501784, 0.1787455, 0.2064507, -0.1671932
 98314652, 0.05791404, 0.1919451, 0.2054581, -0.1675121, 0.1070013, 0.182056, 0.2067266, -0.1668798
 98514465, 0.04705815, 0.1570891, 0.2061787, -0.1674851, 0.05791404, 0.1919451, 0.2054581, -0.1675121
 98714468, 0.1073002, 0.3281235, 0.2065333, -0.1670844, 0.04705815, 0.1570891, 0.2061787, -0.1674851
 98914466, 0.1146761, 0.3180422, 0.2071051, -0.1683619, 0.1073002, 0.3281235, 0.2065333, -0.1670844
 99114450, 0.1567358, 0.314266, 0.2078269, -0.1679633, 0.1146761, 0.3180422, 0.2071051, -0.1683619
 99314489, 0.1147955, 0.3074013, 0.2072432, -0.1692163, 0.1567358, 0.314266, 0.2078269, -0.1679633
 99514511, 0.1293305, 0.3405575, 0.2077223, -0.1689522, 0.1147955, 0.3074013, 0.2072432, -0.1692163
 99714604, 0.07595033, 0.3064051, 0.20811, -0.168188, 0.1293305, 0.3405575, 0.2077223, -0.1689522
 99914478, 0.09926154, 0.3138771, 0.2079329, -0.1673967, 0.07595033, 0.3064051, 0.20811, -0.168188
 100114467, 0.1223715, 0.3434305, 0.2078306, -0.1671068, 0.09926154, 0.3138771, 0.2079329, -0.1673967
 100314513, 0.1257822, 0.3112992, 0.2068701, -0.1674154, 0.1223715, 0.3434305, 0.2078306, -0.1671068
 100514461, 0.1019857, 0.2909791, 0.2061211, -0.1676628, 0.1257822, 0.3112992, 0.2068701, -0.1674154
 100714451, 0.2029776, 0.3404588, 0.2067429, -0.1673085, 0.1019857, 0.2909791, 0.2061211, -0.1676628
 100914534, 0.1691815, 0.3147989, 0.2071273, -0.1652626, 0.2029776, 0.3404588, 0.2067429, -0.1673085
 101114463, 0.0614344, 0.3313562, 0.2067161, -0.1644979, 0.1691815, 0.3147989, 0.2071273, -0.1652626
 101314506, 0.1029382, 0.3127406, 0.2061452, -0.1641779, 0.0614344, 0.3313562, 0.2067161, -0.1644979
 101514669, 0.08630982, 0.4361605, 0.2059415, -0.1655967, 0.1029382, 0.3127406, 0.2061452, -0.1641779
 101714467, -0.04480324, 0.3894433, 0.2037627, -0.1671072, 0.08630982, 0.4361605, 0.2059415, -0.1655967
 101914479, 0.003881588, 0.4102839, 0.2031526, -0.1677363, -0.04480324, 0.3894433, 0.2037627, -0.1671072
 102114452, -0.01923587, 0.4214397, 0.2037006, -0.1672886, 0.003881588, 0.4102839, 0.2031526, -0.1677363
 102314540, 0.02780011, 0.3709768, 0.2046541, -0.1659267, -0.01923587, 0.4214397, 0.2037006, -0.1672886
 102514590, -0.1351403, 0.1551714, 0.2053299, -0.1650795, 0.02780011, 0.3709768, 0.2046541, -0.1659267
 102714466, -0.005848819, 0.126204, 0.2041604, -0.1649597, -0.1351403, 0.1551714, 0.2053299, -0.1650795
 102914513, -0.006735106, 0.1210606, 0.2032009, -0.1645051, -0.005848819, 0.126204, 0.2041604, -0.1649597
 103114472, 0.0003045361, -0.2520159, 0.2034674, -0.1639986, -0.006735106, 0.1210606, 0.2032009, -0.1645051
 103314613, -0.02568301, -0.1599669, 0.2026755, -0.1642901, 0.0003045361, -0.2520159, 0.2034674, -0.1639986
 103514454, 0.009132116, -0.1048628, 0.2013713, -0.1638057, -0.02568301, -0.1599669, 0.2026755, -0.1642901
 103714461, 0.08063667, 0.5040519, 0.2014526, -0.1653431, 0.009132116, -0.1048628, 0.2013713, -0.1638057
 103914477, 0.1249732, 0.4561899, 0.2008793, -0.1656661, 0.08063667, 0.5040519, 0.2014526, -0.1653431
 104114456, 0.116888, 0.3649675, 0.2024962, -0.1649795, 0.1249732, 0.4561899, 0.2008793, -0.1656661
 104314549, -0.001877597, -0.4878047, 0.2037517, -0.165685, 0.116888, 0.3649675, 0.2024962, -0.1649795
 104514451, 0.0584442, -0.4727845, 0.204548, -0.166411, -0.001877597, -0.4878047, 0.2037517, -0.165685
 104714456, 0.04627433, -0.4525634, 0.2050397, -0.1665119, 0.0584442, -0.4727845, 0.204548, -0.166411
 104934639, 0.1589461, -0.05279821, 0.2043751, -0.16557, 0.04627433, -0.4525634, 0.2050397, -0.1665119
 105114473, 0.07176246, -0.2531093, 0.204154, -0.1657245, 0.1589461, -0.05279821, 0.2043751, -0.16557
 105314486, 0.02896285, -0.183457, 0.2038435, -0.1652661, 0.07176246, -0.2531093, 0.204154, -0.1657245
 105534445, -0.3727657, -0.03035197, 0.2044425, -0.1651552, 0.02896285, -0.183457, 0.2038435, -0.1652661
 105714578, -0.1193152, 0.5095844, 0.203742, -0.1672267, -0.3727657, -0.03035197, 0.2044425, -0.1651552
 105914466, -0.1205108, 0.5109999, 0.203614, -0.1679243, -0.1193152, 0.5095844, 0.203742, -0.1672267
 106114487, -0.07210839, 0.3367937, 0.2035795, -0.168451, -0.1205108, 0.5109999, 0.203614, -0.1679243
 106314515, -0.01379054, 0.2524712, 0.2050128, -0.1663541, -0.07210839, 0.3367937, 0.2035795, -0.168451
 106514467, -0.03688473, 0.266189, 0.2051361, -0.1650678, -0.01379054, 0.2524712, 0.2050128, -0.1663541
 106714597, 0.2537651, 0.265412, 0.205902, -0.1646081, -0.03688473, 0.266189, 0.2051361, -0.1650678
 106914681, 0.2853948, 0.264685, 0.2066827, -0.1648503, 0.2537651, 0.265412, 0.205902, -0.1646081
 107114461, 0.2318693, 0.2832985, 0.2064472, -0.1653944, 0.2853948, 0.264685, 0.2066827, -0.1648503
 107314489, -0.101264, 0.1987572, 0.2063196, -0.1656746, 0.2318693, 0.2832985, 0.2064472, -0.1653944
 107514461, -0.08477503, 0.2300127, 0.2054425, -0.1649748, -0.101264, 0.1987572, 0.2063196, -0.1656746
 107714498, -0.1463369, 0.2386734, 0.2054494, -0.1648581, -0.08477503, 0.2300127, 0.2054425, -0.1649748
 107914508, -0.2269004, 0.2846872, 0.2056045, -0.1646865, -0.1463369, 0.2386734, 0.2054494, -0.1648581
 108114470, -0.2448696, 0.2687197, 0.2052284, -0.1649899, -0.2269004, 0.2846872, 0.2056045, -0.1646865
 108314515, -0.1535408, 0.2342638, 0.2046339, -0.1648974, -0.2448696, 0.2687197, 0.2052284, -0.1649899
 108514466, 0.3108519, 0.3061683, 0.2056792, -0.1638699, -0.1535408, 0.2342638, 0.2046339, -0.1648974
 108714498, 0.2962137, 0.2655927, 0.2048432, -0.1621873, 0.3108519, 0.3061683, 0.2056792, -0.1638699
 108914472, 0.3194931, 0.2709751, 0.2042349, -0.1620457, 0.2962137, 0.2655927, 0.2048432, -0.1621873
 109114518, 0.3594601, 0.1328863, 0.2041075, -0.1626217, 0.3194931, 0.2709751, 0.2042349, -0.1620457
 109314493, 0.3589189, 0.1464605, 0.2033369, -0.1637738, 0.3594601, 0.1328863, 0.2041075, -0.1626217
 109514465, 0.2909456, 0.1226018, 0.2036463, -0.1650014, 0.3589189, 0.1464605, 0.2033369, -0.1637738
 109714506, -0.2943846, -0.1728715, 0.2040764, -0.1644275, 0.2909456, 0.1226018, 0.2036463, -0.1650014
 109914609, -0.3172318, -0.187009, 0.2045431, -0.1636447, -0.2943846, -0.1728715, 0.2040764, -0.1644275
 110114446, -0.251443, -0.1202022, 0.2048432, -0.1633199, -0.3172318, -0.187009, 0.2045431, -0.1636447
 110314484, 0.09699515, 0.2505053, 0.2048155, -0.1626676, -0.251443, -0.1202022, 0.2048432, -0.1633199
 110514649, 0.09909566, 0.2981823, 0.2043839, -0.1639473, 0.09699515, 0.2505053, 0.2048155, -0.1626676
 110714467, 0.06122904, 0.3341153, 0.2035144, -0.1641782, 0.09909566, 0.2981823, 0.2043839, -0.1639473
 110914616, 0.0641526, 0.3535434, 0.2030394, -0.1647601, 0.06122904, 0.3341153, 0.2035144, -0.1641782
 111114532, 0.08707152, 0.359359, 0.2031354, -0.1643075, 0.0641526, 0.3535434, 0.2030394, -0.1647601
 111314481, 0.1252468, 0.3005195, 0.2041064, -0.1637738, 0.08707152, 0.359359, 0.2031354, -0.1643075
 111514466, 0.1433197, 0.2770668, 0.2044757, -0.1630452, 0.1252468, 0.3005195, 0.2041064, -0.1637738
 111714443, -0.0323374, -0.01776564, 0.2052579, -0.1627728, 0.1433197, 0.2770668, 0.2044757, -0.1630452
 111914488, -0.01350515, 0.005605137, 0.206375, -0.1634466, -0.0323374, -0.01776564, 0.2052579, -0.1627728
 112114466, -0.03250055, 0.03732385, 0.2049525, -0.1642667, -0.01350515, 0.005605137, 0.206375, -0.1634466
 112334486, 0.3178445, 0.3373165, 0.2049528, -0.164904, -0.03250055, 0.03732385, 0.2049525, -0.1642667
 112514470, -0.003957882, -0.04517713, 0.2041992, -0.1641349, 0.3178445, 0.3373165, 0.2049528, -0.164904
 112734449, 0.01538546, -0.03021306, 0.2040554, -0.1635714, -0.003957882, -0.04517713, 0.2041992, -0.1641349
 112934448, 0.02559654, 0.2087527, 0.2038211, -0.1634667, 0.01538546, -0.03021306, 0.2040554, -0.1635714
 113134432, 0.2922432, 0.1029435, 0.2045583, -0.1623721, 0.02559654, 0.2087527, 0.2038211, -0.1634667
 113334506, 0.2469565, 0.07590149, 0.2030994, -0.1619489, 0.2922432, 0.1029435, 0.2045583, -0.1623721
 113534427, -0.1662564, -0.03921862, 0.203029, -0.1624239, 0.2469565, 0.07590149, 0.2030994, -0.1619489
 113734443, -0.02598906, 0.2777316, 0.2021953, -0.1620696, -0.1662564, -0.03921862, 0.203029, -0.1624239
 113934521, 0.0002324947, 0.2230359, 0.2019956, -0.1613493, -0.02598906, 0.2777316, 0.2021953, -0.1620696
 114114497, 0.1825751, -0.04964999, 0.2016397, -0.1608819, 0.0002324947, 0.2230359, 0.2019956, -0.1613493
 114334458, 0.1928948, -0.05794425, 0.2017692, -0.1613583, 0.1825751, -0.04964999, 0.2016397, -0.1608819
 114514502, 0.201316, -0.06920296, 0.2016717, -0.1619229, 0.1928948, -0.05794425, 0.2017692, -0.1613583
 114734446, 0.1471393, -0.3101183, 0.20099, -0.1636895, 0.201316, -0.06920296, 0.2016717, -0.1619229
 114914481, 0.2294298, 0.4073929, 0.2007047, -0.1633, 0.1471393, -0.3101183, 0.20099, -0.1636895
 115114591, 0.188159, 0.3745346, 0.1997283, -0.1621353, 0.2294298, 0.4073929, 0.2007047, -0.1633
 115314524, 0.04497743, -0.02238895, 0.1996211, -0.1610484, 0.188159, 0.3745346, 0.1997283, -0.1621353
 115514456, 0.0463196, 0.03628617, 0.1994304, -0.1605261, 0.04497743, -0.02238895, 0.1996211, -0.1610484
 115714451, 0.03675926, 0.01840273, 0.1992528, -0.1592927, 0.0463196, 0.03628617, 0.1994304, -0.1605261
 115914717, 0.03775998, 0.252032, 0.1993895, -0.1595252, 0.03675926, 0.01840273, 0.1992528, -0.1592927
 116114466, 0.0005286347, 0.2198489, 0.2001155, -0.1596975, 0.03775998, 0.252032, 0.1993895, -0.1595252
 116314495, 0.01786351, 0.2306237, 0.1986836, -0.1607204, 0.0005286347, 0.2198489, 0.2001155, -0.1596975
 116514484, 0.2439101, 0.4183668, 0.1987957, -0.1610871, 0.01786351, 0.2306237, 0.1986836, -0.1607204
 116714480, 0.2224549, 0.3567899, 0.198784, -0.1595535, 0.2439101, 0.4183668, 0.1987957, -0.1610871
 116914517, 0.2599385, 0.3695884, 0.1987899, -0.1584955, 0.2224549, 0.3567899, 0.198784, -0.1595535
 117114473, 0.1841096, 0.1644982, 0.197604, -0.157912, 0.2599385, 0.3695884, 0.1987899, -0.1584955
 117314489, 0.1681815, 0.1852002, 0.1977124, -0.1579812, 0.1841096, 0.1644982, 0.197604, -0.157912
 117514471, 0.1716481, 0.2132214, 0.1975483, -0.1582278, 0.1681815, 0.1852002, 0.1977124, -0.1579812
 117714608, 0.0934129, -0.1619699, 0.1968579, -0.1583818, 0.1716481, 0.2132214, 0.1975483, -0.1582278
 117914472, 0.06987598, -0.1135101, 0.1972097, -0.1578061, 0.0934129, -0.1619699, 0.1968579, -0.1583818
 118114543, 0.06820083, -0.06731357, 0.1973334, -0.1564697, 0.06987598, -0.1135101, 0.1972097, -0.1578061
 118314613, -0.0426709, 0.251976, 0.1967599, -0.1565831, 0.06820083, -0.06731357, 0.1973334, -0.1564697
 118514441, -0.07285747, 0.2849229, 0.1964947, -0.1574752, -0.0426709, 0.251976, 0.1967599, -0.1565831
 118714457, -0.09174539, 0.2416193, 0.1960656, -0.1569974, -0.07285747, 0.2849229, 0.1964947, -0.1574752
 118914481, -0.1700002, -0.073966, 0.1955237, -0.156511, -0.09174539, 0.2416193, 0.1960656, -0.1569974
 119114499, -0.1354352, -0.1040103, 0.1959378, -0.1554816, -0.1700002, -0.073966, 0.1955237, -0.156511
 119314605, -0.1037249, -0.1622891, 0.1961676, -0.1551657, -0.1354352, -0.1040103, 0.1959378, -0.1554816
 119514638, 0.3969927, -0.03420931, 0.1970433, -0.154843, -0.1037249, -0.1622891, 0.1961676, -0.1551657
 119714467, 0.4028922, -0.03720555, 0.1973566, -0.153891, 0.3969927, -0.03420931, 0.1970433, -0.154843
 119914460, 0.3514349, 0.01097717, 0.1982693, -0.154696, 0.4028922, -0.03720555, 0.1973566, -0.153891
 120114473, 0.4001712, -0.0337825, 0.1995406, -0.1552867, 0.3514349, 0.01097717, 0.1982693, -0.154696
 120314558, 0.4374512, -0.03092082, 0.2004141, -0.154909, 0.4001712, -0.0337825, 0.1995406, -0.1552867
 120514458, 0.4368656, 0.0004145348, 0.2006657, -0.1540814, 0.4374512, -0.03092082, 0.2004141, -0.154909
 120714466, 0.3614322, -0.02148654, 0.1994441, -0.1547732, 0.4368656, 0.0004145348, 0.2006657, -0.1540814
 120914515, 0.350185, 0.004323939, 0.1988015, -0.1559885, 0.3614322, -0.02148654, 0.1994441, -0.1547732
 121114448, 0.3350409, 0.03604333, 0.198132, -0.1569115, 0.350185, 0.004323939, 0.1988015, -0.1559885
 121314549, 0.307643, 0.02164921, 0.1987686, -0.1567055, 0.3350409, 0.03604333, 0.198132, -0.1569115
 121534421, -0.1557044, 0.08896131, 0.1986628, -0.1570801, 0.307643, 0.02164921, 0.1987686, -0.1567055
 121734410, 0.05705747, -0.131628, 0.1984478, -0.158089, -0.1557044, 0.08896131, 0.1986628, -0.1570801
 121934451, 0.0428505, -0.1233305, 0.1996715, -0.15919, 0.05705747, -0.131628, 0.1984478, -0.158089
 122134466, 0.08819406, -0.19497, 0.2007378, -0.1606437, 0.0428505, -0.1233305, 0.1996715, -0.15919
 122334517, 0.2072771, -0.1051136, 0.201296, -0.1609862, 0.08819406, -0.19497, 0.2007378, -0.1606437
 122534533, 0.2011534, -0.1013612, 0.20216, -0.1617161, 0.2072771, -0.1051136, 0.201296, -0.1609862
 122734470, 0.2018122, -0.1314546, 0.2026725, -0.1630216, 0.2011534, -0.1013612, 0.20216, -0.1617161
 122914487, 0.02400301, -0.1021588, 0.2027046, -0.1637744, 0.2018122, -0.1314546, 0.2026725, -0.1630216
 123114643, 0.002360291, -0.07158554, 0.2029901, -0.1637979, 0.02400301, -0.1021588, 0.2027046, -0.1637744
 123334441, -0.1903314, 0.01884603, 0.2038467, -0.1644852, 0.002360291, -0.07158554, 0.2029901, -0.1637979
 123514603, 0.1098364, 0.3197766, 0.2033717, -0.1661235, -0.1903314, 0.01884603, 0.2038467, -0.1644852
 123714463, 0.1061044, 0.3203538, 0.2022137, -0.1655756, 0.1098364, 0.3197766, 0.2033717, -0.1661235
 123914475, -0.0953571, 0.1200803, 0.2018688, -0.164212, 0.1061044, 0.3203538, 0.2022137, -0.1655756
 124114470, -0.08178753, 0.1201593, 0.2017069, -0.1642174, -0.0953571, 0.1200803, 0.2018688, -0.164212
 124334463, -0.06387258, 0.1133477, 0.2014046, -0.1629383, -0.08178753, 0.1201593, 0.2017069, -0.1642174
 124514527, -0.01154497, 0.1974671, 0.2019544, -0.1634273, -0.06387258, 0.1133477, 0.2014046, -0.1629383
 124734606, -0.03362273, 0.1986688, 0.2025809, -0.1634644, -0.01154497, 0.1974671, 0.2019544, -0.1634273
 124934459, -0.03675951, 0.1871744, 0.2032394, -0.1637498, -0.03362273, 0.1986688, 0.2025809, -0.1634644
 125134449, -0.02095523, 0.2210143, 0.2032013, -0.1634243, -0.03675951, 0.1871744, 0.2032394, -0.1637498
 125334509, -0.1633574, -0.003761362, 0.2033177, -0.1628204, -0.02095523, 0.2210143, 0.2032013, -0.1634243
 125514470, -0.1419092, 0.007382357, 0.2032794, -0.1627528, -0.1633574, -0.003761362, 0.2033177, -0.1628204
 125734444, 0.02572388, 0.3462004, 0.2030346, -0.1644634, -0.1419092, 0.007382357, 0.2032794, -0.1627528
 125934494, 0.1128394, -0.05757244, 0.2027403, -0.1634249, 0.02572388, 0.3462004, 0.2030346, -0.1644634
 126134474, 0.100663, -0.006669872, 0.2009695, -0.1638689, 0.1128394, -0.05757244, 0.2027403, -0.1634249
 126334472, 0.1764017, 0.4148598, 0.2001459, -0.1640702, 0.100663, -0.006669872, 0.2009695, -0.1638689
 126514468, -0.0461271, -0.2732609, 0.1997608, -0.163173, 0.1764017, 0.4148598, 0.2001459, -0.1640702
 126714692, 0.009511489, -0.2096442, 0.1997354, -0.163399, -0.0461271, -0.2732609, 0.1997608, -0.163173
 126914499, 0.3320938, 0.4070315, 0.2009556, -0.1638207, 0.009511489, -0.2096442, 0.1997354, -0.163399
 127114438, 0.2956437, 0.3270077, 0.2018788, -0.1636034, 0.3320938, 0.4070315, 0.2009556, -0.1638207
 127314473, 0.3102203, 0.3939141, 0.2019666, -0.1649145, 0.2956437, 0.3270077, 0.2018788, -0.1636034
 127514451, 0.3568088, 0.3885434, 0.2038365, -0.1644485, 0.3102203, 0.3939141, 0.2019666, -0.1649145
 127714579, 0.3291305, 0.3729572, 0.2035506, -0.1634498, 0.3568088, 0.3885434, 0.2038365, -0.1644485
 127914535, 0.2733471, 0.3933316, 0.2028628, -0.1642631, 0.3291305, 0.3729572, 0.2035506, -0.1634498
 128114478, 0.1643999, 0.358115, 0.2029707, -0.1641305, 0.2733471, 0.3933316, 0.2028628, -0.1642631
 128334503, 0.1622238, 0.3584088, 0.2031773, -0.1646436, 0.1643999, 0.358115, 0.2029707, -0.1641305
 128514505, 0.2054747, 0.4195602, 0.2039092, -0.1648083, 0.1622238, 0.3584088, 0.2031773, -0.1646436
 128734427, 0.05139409, 0.4708443, 0.2036751, -0.1651659, 0.2054747, 0.4195602, 0.2039092, -0.1648083
 128914542, 0.08855673, -0.1227092, 0.2039436, -0.1640626, 0.05139409, 0.4708443, 0.2036751, -0.1651659
 129114462, 0.07820997, -0.1020084, 0.203213, -0.1639981, 0.08855673, -0.1227092, 0.2039436, -0.1640626
 129314486, 0.2871525, 0.2286077, 0.2048294, -0.1635889, 0.07820997, -0.1020084, 0.203213, -0.1639981
 129534453, 0.288049, 0.2031166, 0.2055188, -0.163098, 0.2871525, 0.2286077, 0.2048294, -0.1635889
 129734490, 0.3154747, 0.2373377, 0.2062236, -0.1626994, 0.288049, 0.2031166, 0.2055188, -0.163098
 129934458, 0.299902, 0.2096025, 0.2044708, -0.1624805, 0.3154747, 0.2373377, 0.2062236, -0.1626994
 130114474, 0.02477369, -0.2262664, 0.2036772, -0.1630327, 0.299902, 0.2096025, 0.2044708, -0.1624805
 130314622, 0.04374003, -0.1779971, 0.2045494, -0.1618654, 0.02477369, -0.2262664, 0.2036772, -0.1630327
 130514477, -0.01175313, -0.1861032, 0.2045653, -0.1616177, 0.04374003, -0.1779971, 0.2045494, -0.1618654
 130714471, 0.02093829, -0.2560363, 0.2043156, -0.162203, -0.01175313, -0.1861032, 0.2045653, -0.1616177
 130914598, 0.02567123, -0.1920472, 0.2029512, -0.1625796, 0.02093829, -0.2560363, 0.2043156, -0.162203
 131134504, 0.01176524, -0.1969728, 0.2044827, -0.1629238, 0.02567123, -0.1920472, 0.2029512, -0.1625796
 131334590, 0.02298414, -0.09960177, 0.2038084, -0.1629708, 0.01176524, -0.1969728, 0.2044827, -0.1629238
 131534445, -0.354864, -0.1474939, 0.2040921, -0.162872, 0.02298414, -0.09960177, 0.2038084, -0.1629708
 131734491, -0.325992, -0.1638492, 0.203031, -0.1621866, -0.354864, -0.1474939, 0.2040921, -0.162872
 131914610, -0.06039886, -0.2391373, 0.2022442, -0.1622658, -0.325992, -0.1638492, 0.203031, -0.1621866
 132114598, -0.06933202, -0.1946246, 0.2001153, -0.1603331, -0.06039886, -0.2391373, 0.2022442, -0.1622658
 132334605, -0.02488202, -0.1665982, 0.1983678, -0.1600555, -0.06933202, -0.1946246, 0.2001153, -0.1603331
 132514467, 0.2001409, 0.03385724, 0.1973914, -0.1589224, -0.02488202, -0.1665982, 0.1983678, -0.1600555
 132734431, 0.1513997, 0.06169011, 0.1962714, -0.1592043, 0.2001409, 0.03385724, 0.1973914, -0.1589224
 132914461, 0.1714119, 0.05991046, 0.1961028, -0.1597165, 0.1513997, 0.06169011, 0.1962714, -0.1592043
 133114464, 0.07165115, 0.06346054, 0.1950356, -0.1599139, 0.1714119, 0.05991046, 0.1961028, -0.1597165
 133314543, 0.07951608, 0.07448255, 0.1944428, -0.1599696, 0.07165115, 0.06346054, 0.1950356, -0.1599139
 133534465, 0.05863198, 0.04333643, 0.1934913, -0.1597941, 0.07951608, 0.07448255, 0.1944428, -0.1599696
 133714443, 0.02664019, -0.1666221, 0.193477, -0.1582921, 0.05863198, 0.04333643, 0.1934913, -0.1597941
 133914649, 0.05228803, -0.1405609, 0.1918825, -0.1588172, 0.02664019, -0.1666221, 0.193477, -0.1582921
 134114477, 0.07402075, -0.1555286, 0.1915886, -0.1574011, 0.05228803, -0.1405609, 0.1918825, -0.1588172
 134314479, 0.3221989, -0.2144922, 0.1920126, -0.156943, 0.07402075, -0.1555286, 0.1915886, -0.1574011
 134514478, 0.2915836, -0.1523639, 0.1910931, -0.1567858, 0.3221989, -0.2144922, 0.1920126, -0.156943
 134714459, 0.2779643, -0.1078962, 0.1900535, -0.1567613, 0.2915836, -0.1523639, 0.1910931, -0.1567858
 134914457, 0.2657104, 0.2227878, 0.1903566, -0.15742, 0.2779643, -0.1078962, 0.1900535, -0.1567613
 135114589, 0.2301275, 0.2425336, 0.1904196, -0.1583638, 0.2657104, 0.2227878, 0.1903566, -0.15742
 135314518, 0.2353719, 0.2401689, 0.1912562, -0.1593428, 0.2301275, 0.2425336, 0.1904196, -0.1583638
 135534683, 0.07194679, 0.3659568, 0.1923089, -0.1613572, 0.2353719, 0.2401689, 0.1912562, -0.1593428
 135714501, -0.04790214, 0.2395149, 0.1925726, -0.1613617, 0.07194679, 0.3659568, 0.1923089, -0.1613572
 135914479, -0.02032409, 0.2217627, 0.1946938, -0.1612698, -0.04790214, 0.2395149, 0.1925726, -0.1613617
 136114627, -0.08363824, 0.1508209, 0.1959956, -0.1608443, -0.02032409, 0.2217627, 0.1946938, -0.1612698
 136314487, -0.06032744, 0.1708152, 0.1973495, -0.1618731, -0.08363824, 0.1508209, 0.1959956, -0.1608443
 136514459, -0.09540828, 0.1880019, 0.1986146, -0.1631544, -0.06032744, 0.1708152, 0.1973495, -0.1618731
 136714494, 0.0983137, 0.3585318, 0.2001192, -0.1636986, -0.09540828, 0.1880019, 0.1986146, -0.1631544
 136914484, 0.1021643, 0.3242084, 0.2005804, -0.1656918, 0.0983137, 0.3585318, 0.2001192, -0.1636986
 137114472, 0.06621113, 0.3714509, 0.2013043, -0.165754, 0.1021643, 0.3242084, 0.2005804, -0.1656918
 137314489, 0.09036409, 0.3483734, 0.2016107, -0.1648826, 0.06621113, 0.3714509, 0.2013043, -0.165754
 137514504, 0.06755607, 0.3118159, 0.201917, -0.164212, 0.09036409, 0.3483734, 0.2016107, -0.1648826
 137714513, 0.05182932, 0.3069305, 0.2032695, -0.1642524, 0.06755607, 0.3118159, 0.201917, -0.164212
 137914492, 0.01442451, 0.3997559, 0.2042854, -0.1645922, 0.05182932, 0.3069305, 0.2032695, -0.1642524
 138134439, -0.03343365, 0.3411565, 0.2056552, -0.1641141, 0.01442451, 0.3997559, 0.2042854, -0.1645922
 138334445, 0.03532945, 0.3956479, 0.2061755, -0.1655112, -0.03343365, 0.3411565, 0.2056552, -0.1641141
 138514451, 0.1345513, 0.3207377, 0.2060097, -0.1651537, 0.03532945, 0.3956479, 0.2061755, -0.1655112
 138714466, 0.1054309, 0.2697864, 0.2051759, -0.1649921, 0.1345513, 0.3207377, 0.2060097, -0.1651537
 138914479, 0.1221948, 0.2677588, 0.2048193, -0.1647922, 0.1054309, 0.2697864, 0.2051759, -0.1649921
 139114494, 0.1825449, 0.1711182, 0.2044857, -0.1642344, 0.1221948, 0.2677588, 0.2048193, -0.1647922
 139314645, 0.1637573, 0.1792641, 0.2049545, -0.1635998, 0.1825449, 0.1711182, 0.2044857, -0.1642344
 139514468, 0.1745878, 0.1627419, 0.2049582, -0.1631685, 0.1637573, 0.1792641, 0.2049545, -0.1635998
 139734596, 0.1730636, 0.174134, 0.2044254, -0.1635112, 0.1745878, 0.1627419, 0.2049582, -0.1631685
 139934515, 0.04661638, -0.0683018, 0.2043194, -0.1640977, 0.1730636, 0.174134, 0.2044254, -0.1635112
 140134431, 0.02124321, -0.05848716, 0.2038332, -0.1639864, 0.04661638, -0.0683018, 0.2043194, -0.1640977
 140314639, -0.01170348, -0.04420411, 0.2034962, -0.1634883, 0.02124321, -0.05848716, 0.2038332, -0.1639864
 140514511, 0.00803214, -0.0288876, 0.2031734, -0.1636702, -0.01170348, -0.04420411, 0.2034962, -0.1634883
 140734652, 0.00633091, -0.01224122, 0.2032658, -0.163798, 0.00803214, -0.0288876, 0.2031734, -0.1636702
 140914501, 0.01603303, -0.03704166, 0.2028528, -0.1634919, 0.00633091, -0.01224122, 0.2032658, -0.163798
 141114601, 0.01529641, -0.03387477, 0.2024475, -0.1642579, 0.01603303, -0.03704166, 0.2028528, -0.1634919
 141314483, 0.02455128, -0.009108435, 0.2026399, -0.1635114, 0.01529641, -0.03387477, 0.2024475, -0.1642579
 141514463, 0.0440769, -0.02627718, 0.2026179, -0.1635728, 0.02455128, -0.009108435, 0.2026399, -0.1635114
 141734452, 0.1546115, -0.2233199, 0.2023209, -0.1648049, 0.0440769, -0.02627718, 0.2026179, -0.1635728
 141934444, 0.1932118, -0.1350422, 0.2017231, -0.1645914, 0.1546115, -0.2233199, 0.2023209, -0.1648049
 142134544, 0.1634916, -0.09328758, 0.202369, -0.164946, 0.1932118, -0.1350422, 0.2017231, -0.1645914
 142334465, 0.1217739, 0.01253327, 0.2034725, -0.1638443, 0.1634916, -0.09328758, 0.202369, -0.164946
 142534462, -0.04729906, 0.1006549, 0.2030522, -0.1646125, 0.1217739, 0.01253327, 0.2034725, -0.1638443
 142714465, -0.02060962, 0.09605951, 0.2031285, -0.1645571, -0.04729906, 0.1006549, 0.2030522, -0.1646125
 142914617, 0.3290361, 0.1700402, 0.2045083, -0.1648073, -0.02060962, 0.09605951, 0.2031285, -0.1645571
 143134439, 0.3160474, 0.1251664, 0.2031927, -0.1665745, 0.3290361, 0.1700402, 0.2045083, -0.1648073
 143314461, 0.2882091, 0.1544534, 0.2031911, -0.1668771, 0.3160474, 0.1251664, 0.2031927, -0.1665745
 143534444, 0.1102503, 0.3904436, 0.2021068, -0.1684165, 0.2882091, 0.1544534, 0.2031911, -0.1668771
 143714457, -0.03259544, -0.1991353, 0.2021985, -0.1660508, 0.1102503, 0.3904436, 0.2021068, -0.1684165
 143914479, -0.02128743, -0.1577794, 0.2021603, -0.1650935, -0.03259544, -0.1991353, 0.2021985, -0.1660508
 144114482, -0.02537914, 0.4100788, 0.2026091, -0.1653114, -0.02128743, -0.1577794, 0.2021603, -0.1650935
 144314546, -0.03027816, 0.3566206, 0.2030711, -0.1660316, -0.02537914, 0.4100788, 0.2026091, -0.1653114
 144514606, -0.06528891, 0.3451294, 0.2039912, -0.1657472, -0.03027816, 0.3566206, 0.2030711, -0.1660316
 144714496, -0.1885762, 0.1482421, 0.2044712, -0.1650049, -0.06528891, 0.3451294, 0.2039912, -0.1657472
 144914530, -0.2149624, 0.1085628, 0.2044891, -0.1648512, -0.1885762, 0.1482421, 0.2044712, -0.1650049
 145114440, -0.2542738, 0.09194597, 0.204496, -0.1649814, -0.2149624, 0.1085628, 0.2044891, -0.1648512
 145314508, -0.233176, -0.0912379, 0.2043453, -0.1641512, -0.2542738, 0.09194597, 0.204496, -0.1649814
 145514477, -0.2740526, -0.1115657, 0.2049481, -0.1647523, -0.233176, -0.0912379, 0.2043453, -0.1641512
 145734441, -0.3024036, -0.1124829, 0.2042028, -0.164084, -0.2740526, -0.1115657, 0.2049481, -0.1647523
 145914462, -0.5407066, -0.1467506, 0.2046881, -0.1639379, -0.3024036, -0.1124829, 0.2042028, -0.164084
 146114469, -0.5150509, -0.1273024, 0.2042001, -0.164218, -0.5407066, -0.1467506, 0.2046881, -0.1639379
 146314489, -0.5384169, -0.1751345, 0.2044061, -0.1638285, -0.5150509, -0.1273024, 0.2042001, -0.164218
 146514666, -0.4414415, -0.1489088, 0.2033605, -0.163891, -0.5384169, -0.1751345, 0.2044061, -0.1638285
 146734443, -0.4763155, -0.1846456, 0.2037832, -0.1651611, -0.4414415, -0.1489088, 0.2033605, -0.163891
 146914486, -0.4464228, -0.2114156, 0.2030852, -0.1662135, -0.4763155, -0.1846456, 0.2037832, -0.1651611
 147114507, -0.4595025, -0.298842, 0.2031292, -0.1670727, -0.4464228, -0.2114156, 0.2030852, -0.1662135
 147314489, -0.4609122, -0.3067984, 0.2034304, -0.168392, -0.4595025, -0.298842, 0.2031292, -0.1670727
 147514465, -0.4987519, -0.2842939, 0.203783, -0.1698197, -0.4609122, -0.3067984, 0.2034304, -0.168392
 147734440, -0.8331119, -0.04938795, 0.2073526, -0.1695915, -0.4987519, -0.2842939, 0.203783, -0.1698197
 147934477, -0.7824601, -0.2383358, 0.2076893, -0.1689547, -0.8331119, -0.04938795, 0.2073526, -0.1695915
 148134483, -0.8290164, -0.2174444, 0.2095244, -0.1689004, -0.7824601, -0.2383358, 0.2076893, -0.1689547
 148334461, -0.8356923, -0.1781043, 0.2102528, -0.1687086, -0.8290164, -0.2174444, 0.2095244, -0.1689004
 148514495, -0.9717898, -0.1523567, 0.211623, -0.1687187, -0.8356923, -0.1781043, 0.2102528, -0.1687086
 148714649, -1.001873, -0.1606926, 0.2125416, -0.1690475, -0.9717898, -0.1523567, 0.211623, -0.1687187
 148914487, -1.011487, -0.1694172, 0.2133898, -0.1686865, -1.001873, -0.1606926, 0.2125416, -0.1690475
 149134580, -1.045835, -0.2453485, 0.2144891, -0.1675431, -1.011487, -0.1694172, 0.2133898, -0.1686865
 149334508, -1.354055, -0.3256393, 0.2190257, -0.1669051, -1.045835, -0.2453485, 0.2144891, -0.1675431
 149534436, -1.390177, -0.3382549, 0.2188389, -0.167279, -1.354055, -0.3256393, 0.2190257, -0.1669051
 149734462, -1.622534, -0.3735611, 0.2225983, -0.1684498, -1.390177, -0.3382549, 0.2188389, -0.167279
 149934501, -1.361904, -0.1780377, 0.2174931, -0.1688537, -1.622534, -0.3735611, 0.2225983, -0.1684498
 150134472, -1.414003, -0.2070402, 0.21887, -0.167825, -1.361904, -0.1780377, 0.2174931, -0.1688537
 150334482, -1.625799, -0.3070394, 0.2225676, -0.1680875, -1.414003, -0.2070402, 0.21887, -0.167825
 150534450, -1.52284, -0.1867684, 0.2201368, -0.1687308, -1.625799, -0.3070394, 0.2225676, -0.1680875
 150734451, -1.605889, -0.247457, 0.2220094, -0.168472, -1.52284, -0.1867684, 0.2201368, -0.1687308
 150934526, -2.095448, -0.3489616, 0.234093, -0.166597, -1.605889, -0.247457, 0.2220094, -0.168472
 151134425, -2.031902, -0.4052154, 0.2329971, -0.1666017, -2.095448, -0.3489616, 0.234093, -0.166597
 151334479, -2.062232, -0.4134212, 0.2334862, -0.1661381, -2.031902, -0.4052154, 0.2329971, -0.1666017
 151514491, -2.233571, -0.6667437, 0.2387796, -0.166624, -2.062232, -0.4134212, 0.2334862, -0.1661381
 151734604, -2.285565, -0.6203888, 0.2399054, -0.1665642, -2.233571, -0.6667437, 0.2387796, -0.166624
 151934450, -2.336702, -0.6505833, 0.2408302, -0.1659475, -2.285565, -0.6203888, 0.2399054, -0.1665642
 152134437, -2.964892, -0.5684221, 0.258337, -0.163459, -2.336702, -0.6505833, 0.2408302, -0.1659475
 152334611, -2.445866, -0.5807219, 0.2423942, -0.1648209, -2.964892, -0.5684221, 0.258337, -0.163459
 152534419, -2.527147, -0.5562034, 0.2445297, -0.1638874, -2.445866, -0.5807219, 0.2423942, -0.1648209
 152734456, -2.959241, -0.6148987, 0.2559864, -0.1626077, -2.527147, -0.5562034, 0.2445297, -0.1638874
 152934432, -2.892554, -0.3477626, 0.252975, -0.1612677, -2.959241, -0.6148987, 0.2559864, -0.1626077
 153134443, -2.967163, -0.3794742, 0.2558305, -0.1618012, -2.892554, -0.3477626, 0.252975, -0.1612677
 153334618, -3.440233, -0.4829442, 0.2708353, -0.1611892, -2.967163, -0.3794742, 0.2558305, -0.1618012
 153534630, -3.423497, -0.2823519, 0.2690032, -0.1620811, -3.440233, -0.4829442, 0.2708353, -0.1611892
 153734434, -3.483668, -0.2890893, 0.2709814, -0.1610911, -3.423497, -0.2823519, 0.2690032, -0.1620811
 153914476, -3.801776, -0.3374457, 0.2815435, -0.1596289, -3.483668, -0.2890893, 0.2709814, -0.1610911
 154114468, -3.810597, -0.4540529, 0.2821519, -0.1600376, -3.801776, -0.3374457, 0.2815435, -0.1596289
 154314509, -3.825133, -0.4643695, 0.2830965, -0.1599593, -3.810597, -0.4540529, 0.2821519, -0.1600376
 154514502, -3.722908, -0.9675421, 0.281584, -0.161116, -3.825133, -0.4643695, 0.2830965, -0.1599593
 154734465, -3.816565, -0.9081439, 0.2844926, -0.1605001, -3.722908, -0.9675421, 0.281584, -0.161116
 154914514, -3.899907, -1.003645, 0.2876445, -0.1613827, -3.816565, -0.9081439, 0.2844926, -0.1605001
 155114501, -4.574059, -1.363361, 0.3142723, -0.1626324, -3.899907, -1.003645, 0.2876445, -0.1613827
 155334513, -4.613718, -1.244469, 0.3149065, -0.1609906, -4.574059, -1.363361, 0.3142723, -0.1626324
 155534458, -4.645849, -1.211455, 0.316633, -0.1596628, -4.613718, -1.244469, 0.3149065, -0.1609906
 155734432, -4.68011, -1.282453, 0.3183476, -0.1588411, -4.645849, -1.211455, 0.316633, -0.1596628
 155934468, -5.208692, -0.7031112, 0.3368986, -0.1495744, -4.68011, -1.282453, 0.3183476, -0.1588411
 156134452, -5.255395, -0.7039706, 0.3385966, -0.148647, -5.208692, -0.7031112, 0.3368986, -0.1495744
 156334465, -5.318405, -0.7677713, 0.339956, -0.1505958, -5.255395, -0.7039706, 0.3385966, -0.148647
 156534592, -5.833061, -1.342687, 0.3627026, -0.1530803, -5.318405, -0.7677713, 0.339956, -0.1505958
 156714500, -5.864231, -1.323181, 0.3627491, -0.1545676, -5.833061, -1.342687, 0.3627026, -0.1530803
 156934486, -5.918476, -1.31652, 0.36364, -0.1534444, -5.864231, -1.323181, 0.3627491, -0.1545676
 157114592, -6.587325, -1.558427, 0.393653, -0.1523061, -5.918476, -1.31652, 0.36364, -0.1534444
 157334504, -6.673025, -1.647628, 0.3987873, -0.1535998, -6.587325, -1.558427, 0.393653, -0.1523061
 157534586, -6.694385, -1.677314, 0.4017548, -0.1506717, -6.673025, -1.647628, 0.3987873, -0.1535998
 157734424, -6.765546, -2.129035, 0.4070468, -0.1571157, -6.694385, -1.677314, 0.4017548, -0.1506717
 157934424, -6.820121, -2.105654, 0.410444, -0.1540082, -6.765546, -2.129035, 0.4070468, -0.1571157
 158134457, -6.863613, -2.147894, 0.4120607, -0.1555359, -6.820121, -2.105654, 0.410444, -0.1540082
 158334450, -7.025576, -2.014159, 0.4176097, -0.1516341, -6.863613, -2.147894, 0.4120607, -0.1555359
 158534451, -7.071649, -1.974367, 0.4185449, -0.1510371, -7.025576, -2.014159, 0.4176097, -0.1516341
 158734500, -7.134714, -1.865372, 0.4185643, -0.1501859, -7.071649, -1.974367, 0.4185449, -0.1510371
 158914525, -7.863789, -1.655013, 0.4495259, -0.1423746, -7.134714, -1.865372, 0.4185643, -0.1501859
 159134440, -7.841816, -1.582504, 0.446123, -0.1435494, -7.863789, -1.655013, 0.4495259, -0.1423746
 159314537, -7.911834, -1.591033, 0.4487602, -0.1406823, -7.841816, -1.582504, 0.446123, -0.1435494
 159534436, -7.939796, -1.632483, 0.4499721, -0.1382827, -7.911834, -1.591033, 0.4487602, -0.1406823
 159734431, -8.730301, -1.800366, 0.4867926, -0.1328643, -7.939796, -1.632483, 0.4499721, -0.1382827
 159934463, -8.712096, -1.889995, 0.4867209, -0.1304847, -8.730301, -1.800366, 0.4867926, -0.1328643
 160134378, -8.914226, -2.089877, 0.4982666, -0.1284946, -8.712096, -1.889995, 0.4867209, -0.1304847
 160334304, -9.514419, -2.224157, 0.5279424, -0.1251982, -8.914226, -2.089877, 0.4982666, -0.1284946
 160534298, -9.423682, -2.346499, 0.5266085, -0.1249935, -9.514419, -2.224157, 0.5279424, -0.1251982
 160734331, -8.760697, -2.347676, 0.5001785, -0.1404133, -9.423682, -2.346499, 0.5266085, -0.1249935
 160934286, -7.787035, -2.487556, 0.4627708, -0.1616951, -8.760697, -2.347676, 0.5001785, -0.1404133
 161134337, -8.135348, -2.630228, 0.4883211, -0.1836636, -7.787035, -2.487556, 0.4627708, -0.1616951
 161334309, -6.483875, -2.859709, 0.4342301, -0.2232456, -8.135348, -2.630228, 0.4883211, -0.1836636
 161534347, -5.845176, -2.333328, 0.4213403, -0.2350637, -6.483875, -2.859709, 0.4342301, -0.2232456
 161734330, -6.295116, -2.652413, 0.467734, -0.268555, -5.845176, -2.333328, 0.4213403, -0.2350637
 161914320, -4.837224, -2.656243, 0.4481052, -0.3038667, -6.295116, -2.652413, 0.467734, -0.268555
 162134290, -5.232916, -2.893775, 0.498529, -0.3396246, -4.837224, -2.656243, 0.4481052, -0.3038667
 162334319, -5.673952, -3.029891, 0.556111, -0.3883477, -5.232916, -2.893775, 0.498529, -0.3396246
 162534355, -4.397444, -1.222372, 0.5572444, -0.4169248, -5.673952, -3.029891, 0.556111, -0.3883477
 162734294, -4.138278, -1.376243, 0.5868462, -0.452938, -4.397444, -1.222372, 0.5572444, -0.4169248
 162934314, -4.431644, -1.470621, 0.6420717, -0.4978117, -4.138278, -1.376243, 0.5868462, -0.452938
 163134277, -4.017514, -1.377462, 0.6886303, -0.5421726, -4.431644, -1.470621, 0.6420717, -0.4978117
 163334300, -4.328468, -0.03652146, 0.7329581, -0.5755796, -4.017514, -1.377462, 0.6886303, -0.5421726
 163534290, -4.35617, -0.2995782, 0.7874945, -0.6163411, -4.328468, -0.03652146, 0.7329581, -0.5755796
 163734309, -2.900336, -2.016503, 0.8261093, -0.6617565, -4.35617, -0.2995782, 0.7874945, -0.6163411
 163934284, -3.254445, -1.393914, 0.8693687, -0.6881184, -2.900336, -2.016503, 0.8261093, -0.6617565
 164114383, -3.350939, -1.495669, 0.9230613, -0.7322543, -3.254445, -1.393914, 0.8693687, -0.6881184
 164334394, -2.279546, -1.517699, 0.9558446, -0.7693154, -3.350939, -1.495669, 0.9230613, -0.7322543
 164514380, -1.993293, -0.8037587, 0.9860635, -0.7936779, -2.279546, -1.517699, 0.9558446, -0.7693154
 164734358, -2.071491, -0.8607926, 1.029186, -0.8274868, -1.993293, -0.8037587, 0.9860635, -0.7936779
 164934375, -2.310273, -1.950621, 1.062914, -0.858311, -2.071491, -0.8607926, 1.029186, -0.8274868
 165134357, -2.111955, -2.31446, 1.080606, -0.8756698, -2.310273, -1.950621, 1.062914, -0.858311
 165334373, -1.62724, -2.477982, 1.244292, -0.6680685, -2.111955, -2.31446, 1.080606, -0.8756698
 165534373, -1.49662, -1.441089, 1.249124, -0.6779957, -1.62724, -2.477982, 1.244292, -0.6680685
 165734401, -1.888809, -1.542828, 1.254556, -0.6799003, -1.49662, -1.441089, 1.249124, -0.6779957
 165934414, -1.569702, -1.524216, 1.261566, -0.6798735, -1.888809, -1.542828, 1.254556, -0.6799003
 166134374, -1.365148, -1.394177, 1.261889, -0.6803716, -1.569702, -1.524216, 1.261566, -0.6798735
 166334378, 0.3460593, -1.626004, 1.264754, -0.6854045, -1.365148, -1.394177, 1.261889, -0.6803716
 166534343, 0.4527627, -1.515706, 1.265572, -0.682109, 0.3460593, -1.626004, 1.264754, -0.6854045
 166734328, 0.6898998, -1.389822, 1.270285, -0.6782235, 0.4527627, -1.515706, 1.265572, -0.682109
 166934364, 1.051571, -0.8818982, 1.27528, -0.67715, 0.6898998, -1.389822, 1.270285, -0.6782235
 167334341, 1.336229, -0.8146748, 1.275907, -0.6776251, 1.183422, -0.8870736, 1.27538, -0.6770551
 167534387, 2.161828, 0.1334737, 1.277424, -0.6756377, 1.336229, -0.8146748, 1.275907, -0.6776251
 167734360, 2.212689, 0.1610159, 1.275482, -0.6713156, 2.161828, 0.1334737, 1.277424, -0.6756377
 167934391, 2.262025, 0.09307823, 1.276943, -0.6748255, 2.212689, 0.1610159, 1.275482, -0.6713156
 168134351, 3.711019, -0.0729359, 1.284868, -0.6738413, 2.262025, 0.09307823, 1.276943, -0.6748255
 168334358, 3.654922, -0.01079377, 1.285968, -0.6719308, 3.711019, -0.0729359, 1.284868, -0.6738413
 168534335, 3.641801, -0.1480396, 1.282472, -0.6698609, 3.654922, -0.01079377, 1.285968, -0.6719308
 168734337, 2.852917, 0.4066894, 1.280888, -0.6648605, 3.641801, -0.1480396, 1.282472, -0.6698609
 168934321, 2.874972, 0.3374145, 1.276348, -0.6655289, 2.852917, 0.4066894, 1.280888, -0.6648605
 169134370, 3.241521, 0.2889593, 1.274385, -0.6649814, 2.874972, 0.3374145, 1.276348, -0.6655289
 169334450, 4.460772, 2.079696, 1.278207, -0.6614009, 3.241521, 0.2889593, 1.274385, -0.6649814
 169534373, 4.37902, 2.302315, 1.267264, -0.670287, 4.460772, 2.079696, 1.278207, -0.6614009
 169714404, 4.456415, 1.53342, 1.251394, -0.6566378, 4.37902, 2.302315, 1.267264, -0.670287
 169934326, 4.166346, 1.681497, 1.2343, -0.6585233, 4.456415, 1.53342, 1.251394, -0.6566378
 170134411, 4.263813, 1.620902, 1.235539, -0.6542171, 4.166346, 1.681497, 1.2343, -0.6585233
 170334340, 4.013659, 1.559011, 1.220383, -0.6463591, 4.263813, 1.620902, 1.235539, -0.6542171
 170534350, 4.735277, -1.202626, 1.217699, -0.6492876, 4.013659, 1.559011, 1.220383, -0.6463591
 170734345, 5.251367, 0.8955377, 1.227983, -0.6383946, 4.735277, -1.202626, 1.217699, -0.6492876
 170934346, 5.132329, 0.5720481, 1.227561, -0.6398538, 5.251367, 0.8955377, 1.227983, -0.6383946
 171134351, 4.508745, -0.3393443, 1.219728, -0.6472444, 5.132329, 0.5720481, 1.227561, -0.6398538
 171334421, 3.190114, -0.9152941, 1.210804, -0.653238, 4.508745, -0.3393443, 1.219728, -0.6472444
 171534356, 3.10352, -0.7110475, 1.213106, -0.6579798, 3.190114, -0.9152941, 1.210804, -0.653238
 171734353, 3.484064, 1.751941, 1.224777, -0.6579749, 3.10352, -0.7110475, 1.213106, -0.6579798
 171934340, 3.884465, 0.8273135, 1.230258, -0.6572745, 3.484064, 1.751941, 1.224777, -0.6579749
 172134369, 3.727561, 0.8142778, 1.234197, -0.6585513, 3.884465, 0.8273135, 1.230258, -0.6572745
 172314383, 2.597452, 0.7427843, 1.223932, -0.659996, 3.727561, 0.8142778, 1.234197, -0.6585513
 172534327, 2.881898, 0.6218129, 1.225022, -0.6598733, 2.597452, 0.7427843, 1.223932, -0.659996
 172734343, 2.974797, 0.4138392, 1.22678, -0.6585844, 2.881898, 0.6218129, 1.225022, -0.6598733
 172934348, 3.786846, 0.6401049, 1.230846, -0.6530704, 2.974797, 0.4138392, 1.22678, -0.6585844
 173134375, 4.686288, 1.2732, 1.241475, -0.6552837, 3.786846, 0.6401049, 1.230846, -0.6530704
 173334385, 4.506488, 1.089501, 1.240264, -0.6531713, 4.686288, 1.2732, 1.241475, -0.6552837
 173534325, 3.887219, 0.4927266, 1.226138, -0.6556011, 4.506488, 1.089501, 1.240264, -0.6531713
 173734324, 3.8399, -0.08044392, 1.222211, -0.652547, 3.887219, 0.4927266, 1.226138, -0.6556011
 173934333, 3.786004, -0.1656049, 1.218089, -0.6492563, 3.8399, -0.08044392, 1.222211, -0.652547
