TimeUS,COFN,COFE,CNe,CEe,POFN,POFE,PNe,PEe
 60071457, -0.001959307, 0.004180973, 0.006250482, -0.006375566, -0.001981135, 0.004163854, 0.006151474, -0.006275168
 60156640, 0.003137088, 0.004104345, 0.00611569, -0.006234919, 0.01366574, 0.004076183, 0.006336043, -0.00633378
 60211642, -0.01664571, 0.004172842, 0.00613154, -0.006037288, 0.003137088, 0.004104345, 0.00611569, -0.006234919
 60266630, -0.0113732, 0.003894249, 0.005782115, -0.005786732, -0.01664571, 0.004172842, 0.00613154, -0.006037288
 60322069, 0.002840724, 0.003696627, 0.005552339, -0.005661967, -0.0113732, 0.003894249, 0.005782115, -0.005786732
 60376629, 0.01707885, 0.003665005, 0.005934088, -0.005804508, 0.002840724, 0.003696627, 0.005552339, -0.005661967
 60426681, -0.001763895, 0.008733434, 0.005747854, -0.005919123, 0.01707885, 0.003665005, 0.005934088, -0.005804508
 60481662, -0.02124157, 0.004130263, 0.006179245, -0.005938076, -0.001763895, 0.008733434, 0.005747854, -0.005919123
 60536669, -0.001872077, 0.003954975, 0.005857494, -0.005977924, -0.02124157, 0.004130263, 0.006179245, -0.005938076
 60591670, 0.003069616, 0.003962605, 0.005889783, -0.006006128, -0.001872077, 0.003954975, 0.005857494, -0.005977924
 60646897, 0.01229275, 0.0036724, 0.005778904, -0.005764982, 0.003069616, 0.003962605, 0.005889783, -0.006006128
 60701637, -0.001712979, 0.003646201, 0.005399963, -0.005510735, 0.01229275, 0.0036724, 0.005778904, -0.005764982
 60756655, -0.02068313, -0.0007181492, 0.005969739, -0.005695098, -0.001712979, 0.003646201, 0.005399963, -0.005510735
 60811715, -0.001841508, 0.003795134, 0.005579554, -0.005691858, -0.02068313, -0.0007181492, 0.005969739, -0.005695098
 60866647, 0.002778791, 0.003603457, 0.005424415, -0.005528778, -0.001841508, 0.003795134, 0.005579554, -0.005691858
 60921924, 0.01198257, 0.003582807, 0.005590296, -0.005564803, 0.002778791, 0.003603457, 0.005424415, -0.005528778
 60976610, 0.002933277, 0.003904399, 0.00580553, -0.005915805, 0.01198257, 0.003582807, 0.005590296, -0.005564803
 61026682, -0.02700521, 0.00426671, 0.00650978, -0.006082578, 0.002933277, 0.003904399, 0.00580553, -0.005915805
 61081649, -0.001894732, 0.004028577, 0.005953858, -0.006068926, -0.02700521, 0.00426671, 0.00650978, -0.006082578
 61136617, 0.003029009, 0.004037652, 0.006020313, -0.006131313, -0.001894732, 0.004028577, 0.005953858, -0.006068926
 61191606, 0.01351112, 0.004049243, 0.006292712, -0.006282351, 0.003029009, 0.004037652, 0.006020313, -0.006131313
 61246916, -0.001944235, 0.009283731, 0.006166358, -0.006331365, 0.01351112, 0.004049243, 0.006292712, -0.006282351
 61301634, -0.02725253, 0.004328162, 0.006619166, -0.006204188, -0.001944235, 0.009283731, 0.006166358, -0.006331365
 61356656, 0.003121882, 0.004030011, 0.006040396, -0.006146659, -0.02725253, 0.004328162, 0.006619166, -0.006204188
 61411653, 0.0030453, 0.004017744, 0.006007172, -0.006112354, 0.003121882, 0.004030011, 0.006040396, -0.006146659
 61466622, 0.0124426, 0.003714574, 0.005866996, -0.005842525, 0.0030453, 0.004017744, 0.006007172, -0.006112354
 61522045, 0.002737708, 0.0036633, 0.005464012, -0.005559132, 0.0124426, 0.003714574, 0.005866996, -0.005842525
 61576616, -0.02076802, -0.0007492552, 0.006008473, -0.005723179, 0.002737708, 0.0036633, 0.005464012, -0.005559132
 61631605, -0.001883935, 0.003868995, 0.005809986, -0.005912133, -0.02076802, -0.0007492552, 0.006008473, -0.005723179
 61686703, 0.003047321, 0.003975823, 0.005973777, -0.00607363, -0.001883935, 0.003868995, 0.005809986, -0.005912133
 61736624, 0.003177894, 0.009277677, 0.006140525, -0.006293114, 0.003047321, 0.003975823, 0.005973777, -0.00607363
 61791642, 0.002889494, 0.003800157, 0.005722574, -0.005816406, 0.003177894, 0.009277677, 0.006140525, -0.006293114
 61846980, -0.01553393, 0.0038397, 0.00574967, -0.00562198, 0.002889494, 0.003800157, 0.005722574, -0.005816406
 61901643, -0.001819918, 0.003813728, 0.005675533, -0.005770592, -0.01553393, 0.0038397, 0.00574967, -0.00562198
 61956673, 0.002917764, -0.000926036, 0.005843762, -0.005923779, -0.001819918, 0.003813728, 0.005675533, -0.005770592
 62011628, 0.008141368, 0.00903751, 0.006100074, -0.006202717, 0.002917764, -0.000926036, 0.005843762, -0.005923779
 62066644, 0.003024918, 0.003990511, 0.005955557, -0.006047148, 0.008141368, 0.00903751, 0.006100074, -0.006202717
 62121914, -0.02059351, 0.003891139, 0.005977505, -0.005692184, 0.003024918, 0.003990511, 0.005955557, -0.006047148
 62176623, -0.001739644, -0.0008653976, 0.005372993, -0.005446205, -0.02059351, 0.003891139, 0.005977505, -0.005692184
 62231629, 0.0025967, 0.003517078, 0.005230705, -0.005309978, -0.001739644, -0.0008653976, 0.005372993, -0.005446205
 62286744, 0.00284699, 0.003701558, 0.00554004, -0.005621916, 0.0025967, 0.003517078, 0.005230705, -0.005309978
 62341642, 0.007950615, 0.008771549, 0.005906882, -0.005999901, 0.00284699, 0.003701558, 0.00554004, -0.005621916
 62396931, -0.02729689, 0.004470804, 0.006603348, -0.006168109, 0.007950615, 0.008771549, 0.005906882, -0.005999901
 62446941, -0.001974598, 0.003929829, 0.006171674, -0.006247354, -0.02729689, 0.004470804, 0.006603348, -0.006168109
 62501652, 0.02346905, 0.004252156, 0.006636216, -0.006361641, -0.001974598, 0.003929829, 0.006171674, -0.006247354
 62556724, 0.00338119, 0.00397054, 0.006338601, -0.00641822, 0.02346905, 0.004252156, 0.006636216, -0.006361641
 62611675, 0.00284738, 0.00450926, 0.006553547, -0.006640831, 0.00338119, 0.00397054, 0.006338601, -0.00641822
 62666653, -0.03041465, -0.001038306, 0.007189016, -0.006734129, 0.00284738, 0.00450926, 0.006553547, -0.006640831
 62721923, -0.002218267, 0.004429932, 0.006583184, -0.00666808, -0.03041465, -0.001038306, 0.007189016, -0.006734129
 62776621, 0.0138801, 0.004246893, 0.006590061, -0.006554932, -0.002218267, 0.004429932, 0.006583184, -0.00666808
 62831692, 0.002790105, 0.004136741, 0.00629259, -0.006368045, 0.0138801, 0.004246893, 0.006590061, -0.006554932
 62886678, 0.003078326, 0.009372507, 0.006210851, -0.006333654, 0.002790105, 0.004136741, 0.00629259, -0.006368045
 62941648, -0.02338596, 0.002746845, 0.006510732, -0.006190926, 0.003078326, 0.009372507, 0.006210851, -0.006333654
 62996936, -0.006109689, -0.003561693, 0.005837392, -0.005884229, -0.02338596, 0.002746845, 0.006510732, -0.006190926
 63046921, 0.008676778, -0.01272248, 0.005666405, -0.005800141, -0.006109689, -0.003561693, 0.005837392, -0.005884229
 63101640, 0.001808656, 0.0001025431, 0.005373929, -0.005427533, 0.008676778, -0.01272248, 0.005666405, -0.005800141
 63156724, 0.002431112, 0.0003748206, 0.005233854, -0.005280257, 0.001808656, 0.0001025431, 0.005373929, -0.005427533
 63211653, -0.05474822, -0.01006426, 0.007917463, -0.005827435, 0.002431112, 0.0003748206, 0.005233854, -0.005280257
 63266655, -0.003592544, -0.02351838, 0.005868148, -0.00636539, -0.05474822, -0.01006426, 0.007917463, -0.005827435
 63322189, -0.01351742, -0.04010977, 0.006092084, -0.007172672, -0.003592544, -0.02351838, 0.005868148, -0.00636539
 63376621, 0.001038496, -0.08431709, 0.005929009, -0.01021245, -0.01351742, -0.04010977, 0.006092084, -0.007172672
 63426732, 0.09129632, -0.2829579, 0.01067245, -0.02791599, 0.001038496, -0.08431709, 0.005929009, -0.01021245
 63481679, 0.1474503, -0.7800125, 0.01526434, -0.07415263, 0.09129632, -0.2829579, 0.01067245, -0.02791599
 63536630, 0.4712963, -0.873696, 0.04552485, -0.08385488, 0.1474503, -0.7800125, 0.01526434, -0.07415263
 63591694, 0.4095898, -0.7170806, 0.03994589, -0.06938574, 0.4712963, -0.873696, 0.04552485, -0.08385488
 63641658, 0.3577037, -0.7282027, 0.03512103, -0.07067814, 0.4095898, -0.7170806, 0.03994589, -0.06938574
 63696907, 0.2320678, -0.9002209, 0.02364747, -0.08902083, 0.3577037, -0.7282027, 0.03512103, -0.07067814
 63751686, 0.1775528, -0.7374763, 0.01910481, -0.07612835, 0.2320678, -0.9002209, 0.02364747, -0.08902083
 63806622, 0.2043661, -0.4962969, 0.02162389, -0.05102938, 0.1775528, -0.7374763, 0.01910481, -0.07612835
 63861677, 0.2430309, -0.4523342, 0.02459859, -0.04484084, 0.2043661, -0.4962969, 0.02162389, -0.05102938
 63916652, 0.2145776, -0.5318332, 0.02016189, -0.04750746, 0.2430309, -0.4523342, 0.02459859, -0.04484084
 63971906, 0.2650312, -0.5649332, 0.02294206, -0.04666792, 0.2145776, -0.5318332, 0.02016189, -0.04750746
 64021941, 0.2836764, -0.5384418, 0.02279315, -0.04055417, 0.2650312, -0.5649332, 0.02294206, -0.04666792
 64076699, 0.2755044, -0.5445224, 0.02165402, -0.0384577, 0.2836764, -0.5384418, 0.02279315, -0.04055417
 64131688, 0.2525778, -0.5786113, 0.02075344, -0.03850798, 0.2755044, -0.5445224, 0.02165402, -0.0384577
 64186636, 0.2795419, -0.6304283, 0.02258763, -0.04076687, 0.2525778, -0.5786113, 0.02075344, -0.03850798
 64241708, 0.2320558, -0.6188587, 0.02201957, -0.03969113, 0.2795419, -0.6304283, 0.02258763, -0.04076687
 64296933, 0.2234174, -0.6285189, 0.02306967, -0.04026316, 0.2320558, -0.6188587, 0.02201957, -0.03969113
 64351655, 0.216583, -0.7598844, 0.02560997, -0.04720197, 0.2234174, -0.6285189, 0.02306967, -0.04026316
 64406661, 0.1855123, -0.6988417, 0.02627806, -0.04470639, 0.216583, -0.7598844, 0.02560997, -0.04720197
 64461605, 0.1831022, -0.7518122, 0.03058296, -0.04883405, 0.1855123, -0.6988417, 0.02627806, -0.04470639
 64516663, 0.08671666, -0.8116224, 0.03343695, -0.05315096, 0.1831022, -0.7518122, 0.03058296, -0.04883405
 64571939, 0.1376703, -0.7128226, 0.03790245, -0.05157726, 0.08671666, -0.8116224, 0.03343695, -0.05315096
 64621996, 0.1742165, -0.8326164, 0.04112868, -0.05782068, 0.1376703, -0.7128226, 0.03790245, -0.05157726
 64676648, -0.02991006, -0.8374353, 0.0444994, -0.06046337, 0.1742165, -0.8326164, 0.04112868, -0.05782068
 64731668, -0.02709365, -0.9246343, 0.05002267, -0.0671859, -0.02991006, -0.8374353, 0.0444994, -0.06046337
 64786638, -0.07667261, -0.953618, 0.05353938, -0.07040511, -0.02709365, -0.9246343, 0.05002267, -0.0671859
 64841655, 0.00548334, -0.7248213, 0.05976389, -0.06826828, -0.07667261, -0.953618, 0.05353938, -0.07040511
 64897252, -0.07672894, -1.040522, 0.06551461, -0.08179782, 0.00548334, -0.7248213, 0.05976389, -0.06826828
 64951659, -0.289552, -0.974748, 0.0735625, -0.0848205, -0.07672894, -1.040522, 0.06551461, -0.08179782
 65006633, -0.2961243, -0.915769, 0.07742963, -0.08642948, -0.289552, -0.974748, 0.0735625, -0.0848205
 65061650, -0.3270252, -0.9177707, 0.08534035, -0.093014, -0.2961243, -0.915769, 0.07742963, -0.08642948
 65116640, -0.3899938, -1.108968, 0.09229422, -0.10342, -0.3270252, -0.9177707, 0.08534035, -0.093014
 65166672, -0.426532, -1.393594, 0.09928767, -0.1165984, -0.3899938, -1.108968, 0.09229422, -0.10342
 65221962, -0.4727534, -1.185733, 0.1064081, -0.1163123, -0.426532, -1.393594, 0.09928767, -0.1165984
 65276630, -0.57899, -1.348562, 0.1174712, -0.1287363, -0.4727534, -1.185733, 0.1064081, -0.1163123
 65331643, -0.622582, -1.210609, 0.126278, -0.1325848, -0.57899, -1.348562, 0.1174712, -0.1287363
 65386649, -0.6310672, -1.522586, 0.13299, -0.1452126, -0.622582, -1.210609, 0.126278, -0.1325848
 65441663, -0.7456765, -1.287872, 0.1427073, -0.1472433, -0.6310672, -1.522586, 0.13299, -0.1452126
 65497178, -0.5743638, -1.37675, 0.1495807, -0.1572701, -0.7456765, -1.287872, 0.1427073, -0.1472433
 65551680, -0.9991435, -1.718374, 0.1650316, -0.1732497, -0.5743638, -1.37675, 0.1495807, -0.1572701
 65606640, -0.6179526, -1.660693, 0.1657095, -0.1768528, -0.9991435, -1.718374, 0.1650316, -0.1732497
 65661648, -0.5338476, -1.666773, 0.1748362, -0.1859301, -0.6179526, -1.660693, 0.1657095, -0.1768528
 65714010, -0.8091841, -1.814198, 0.1856218, -0.1963068, -0.5338476, -1.666773, 0.1748362, -0.1859301
 65769118, -1.402869, -1.760451, 0.2055901, -0.2050806, -0.8091841, -1.814198, 0.1856218, -0.1963068
 65824111, -0.9991704, -1.840407, 0.2047474, -0.2116808, -1.402869, -1.760451, 0.2055901, -0.2050806
 65879045, -0.8580154, -2.037636, 0.2128777, -0.2248214, -0.9991704, -1.840407, 0.2047474, -0.2116808
 65934475, -1.479413, -1.938756, 0.2290984, -0.2296138, -0.8580154, -2.037636, 0.2128777, -0.2248214
 65985617, -0.9656476, -2.012028, 0.2302205, -0.239213, -1.479413, -1.938756, 0.2290984, -0.2296138
 66039038, -1.820325, -2.150037, 0.2515306, -0.2498028, -0.9656476, -2.012028, 0.2302205, -0.239213
 66094022, -1.130832, -2.237229, 0.2520066, -0.2628115, -1.820325, -2.150037, 0.2515306, -0.2498028
 66149156, -1.440204, -2.221609, 0.2652603, -0.2720689, -1.130832, -2.237229, 0.2520066, -0.2628115
 66204014, -1.141035, -2.228882, 0.2682886, -0.2793491, -1.440204, -2.221609, 0.2652603, -0.2720689
 66259476, -1.827427, -1.967703, 0.2867733, -0.2839918, -1.141035, -2.228882, 0.2682886, -0.2793491
 66314161, -1.335417, -1.977095, 0.2889633, -0.293993, -1.827427, -1.967703, 0.2867733, -0.2839918
 66369017, -1.871852, -2.387468, 0.3062403, -0.312556, -1.335417, -1.977095, 0.2889633, -0.293993
 66424134, -2.215175, -1.780367, 0.3169935, -0.3091144, -1.871852, -2.387468, 0.3062403, -0.312556
 66479003, -1.759844, -2.616528, 0.3190766, -0.3343208, -2.215175, -1.780367, 0.3169935, -0.3091144
 66529128, -1.940132, -2.039455, 0.3294847, -0.3318072, -1.759844, -2.616528, 0.3190766, -0.3343208
 66585736, -1.392191, -2.345572, 0.328123, -0.3431714, -1.940132, -2.039455, 0.3294847, -0.3318072
 66639006, -1.948335, -2.391092, 0.3442789, -0.3528819, -1.392191, -2.345572, 0.328123, -0.3431714
 66694031, -1.86634, -2.178735, 0.3524915, -0.3589171, -1.948335, -2.391092, 0.3442789, -0.3528819
 66749037, -1.656449, -2.515788, 0.3570944, -0.371942, -1.86634, -2.178735, 0.3524915, -0.3589171
 66804031, -1.115952, -2.854267, 0.3578396, -0.385659, -1.656449, -2.515788, 0.3570944, -0.371942
 66859481, -1.40092, -2.180558, 0.3666593, -0.3823653, -1.115952, -2.854267, 0.3578396, -0.385659
 66914011, -0.9811646, -2.938713, 0.3714972, -0.4035133, -1.40092, -2.180558, 0.3666593, -0.3823653
 66969031, -0.8569044, -3.03513, 0.3768189, -0.4124766, -0.9811646, -2.938713, 0.3714972, -0.4035133
 67024104, -0.5147684, -3.337342, 0.3802698, -0.4221293, -0.8569044, -3.03513, 0.3768189, -0.4124766
 67074123, -1.164724, -2.655473, 0.3886657, -0.4162576, -0.5147684, -3.337342, 0.3802698, -0.4221293
 67129047, -0.6112912, -3.15289, 0.3895511, -0.4310259, -1.164724, -2.655473, 0.3886657, -0.4162576
 67185608, -0.8859875, -3.095225, 0.3944133, -0.4316567, -0.6112912, -3.15289, 0.3895511, -0.4310259
 67239031, 0.3400209, -3.504719, 0.3974495, -0.4451262, -0.8859875, -3.095225, 0.3944133, -0.4316567
 67294012, -0.2772749, -3.431962, 0.4032792, -0.4463619, 0.3400209, -3.504719, 0.3974495, -0.4451262
 67349153, -0.1944292, -3.75961, 0.4080805, -0.4554214, -0.2772749, -3.431962, 0.4032792, -0.4463619
 67404023, 0.4580075, -3.676957, 0.4090678, -0.4577034, -0.1944292, -3.75961, 0.4080805, -0.4554214
 67459458, -0.4239444, -3.200739, 0.4109837, -0.453291, 0.4580075, -3.676957, 0.4090678, -0.4577034
 67514251, 0.3016149, -3.995049, 0.4087255, -0.4747651, -0.4239444, -3.200739, 0.4109837, -0.453291
 67569030, 0.4069602, -3.833558, 0.4075985, -0.4749637, 0.3016149, -3.995049, 0.4087255, -0.4747651
 67619120, 0.0595325, -4.326664, 0.4064554, -0.4881985, 0.4069602, -3.833558, 0.4075985, -0.4749637
 67674118, -0.09227438, -4.166777, 0.4042822, -0.4875624, 0.0595325, -4.326664, 0.4064554, -0.4881985
 67729014, -0.2768241, -3.470564, 0.4052927, -0.4742962, -0.09227438, -4.166777, 0.4042822, -0.4875624
 67785741, 0.04421029, -3.737623, 0.4027233, -0.480556, -0.2768241, -3.470564, 0.4052927, -0.4742962
 67839109, 0.6626713, -3.920439, 0.404156, -0.4851964, 0.04421029, -3.737623, 0.4027233, -0.480556
 67894045, 0.3729798, -3.946781, 0.404081, -0.4849304, 0.6626713, -3.920439, 0.404156, -0.4851964
 67949111, 1.472535, -3.766496, 0.4111096, -0.4793371, 0.3729798, -3.946781, 0.404081, -0.4849304
 68004009, 0.8551768, -3.658434, 0.4066291, -0.4767127, 1.472535, -3.766496, 0.4111096, -0.4793371
 68059474, 1.747657, -3.875189, 0.412865, -0.4814333, 0.8551768, -3.658434, 0.4066291, -0.4767127
 68114154, 1.755975, -3.731359, 0.4121001, -0.4794737, 1.747657, -3.875189, 0.412865, -0.4814333
 68164022, 2.164903, -3.341388, 0.4189307, -0.4710562, 1.755975, -3.731359, 0.4121001, -0.4794737
 68219109, 2.176916, -3.889215, 0.4196429, -0.4806332, 2.164903, -3.341388, 0.4189307, -0.4710562
 68274104, 3.130379, -3.196066, 0.4343683, -0.4658293, 2.176916, -3.889215, 0.4196429, -0.4806332
 68329069, 3.18954, -4.157395, 0.4338614, -0.4822022, 3.130379, -3.196066, 0.4343683, -0.4658293
 68385762, 2.740565, -2.656092, 0.4242072, -0.4537419, 3.18954, -4.157395, 0.4338614, -0.4822022
 68439140, 3.595696, -3.105275, 0.4377348, -0.4588862, 2.740565, -2.656092, 0.4242072, -0.4537419
 68494013, 2.987791, -3.575902, 0.4250389, -0.4652164, 3.595696, -3.105275, 0.4377348, -0.4588862
 68549038, 3.130483, -3.171483, 0.4259895, -0.4562803, 2.987791, -3.575902, 0.4250389, -0.4652164
 68604049, 3.173829, -2.703324, 0.4266626, -0.447914, 3.130483, -3.171483, 0.4259895, -0.4562803
 68659495, 3.310608, -3.188163, 0.4293382, -0.4523515, 3.173829, -2.703324, 0.4266626, -0.447914
 68709473, 3.439307, -3.605723, 0.4317763, -0.4587422, 3.310608, -3.188163, 0.4293382, -0.4523515
 68764037, 3.314222, -2.353501, 0.4292148, -0.4357197, 3.439307, -3.605723, 0.4317763, -0.4587422
 68819017, 3.548916, -3.828427, 0.4349555, -0.4585364, 3.314222, -2.353501, 0.4292148, -0.4357197
 68874119, 4.182018, -2.260731, 0.4476194, -0.4280915, 3.548916, -3.828427, 0.4349555, -0.4585364
 68929025, 3.567127, -3.215663, 0.4332564, -0.4403098, 4.182018, -2.260731, 0.4476194, -0.4280915
 68985714, 4.404643, -3.239904, 0.4521499, -0.4378215, 3.567127, -3.215663, 0.4332564, -0.4403098
 69039141, 3.685538, -1.850257, 0.4330117, -0.4155585, 4.404643, -3.239904, 0.4521499, -0.4378215
 69094024, 4.01214, -3.363435, 0.4384004, -0.4361442, 3.685538, -1.850257, 0.4330117, -0.4155585
 69149136, 3.989756, -2.722983, 0.4358361, -0.421996, 4.01214, -3.363435, 0.4384004, -0.4361442
 69204016, 4.065262, -2.705091, 0.4346493, -0.4218899, 3.989756, -2.722983, 0.4358361, -0.421996
 69259501, 3.816617, -2.561483, 0.4255864, -0.4182269, 4.065262, -2.705091, 0.4346493, -0.4218899
 69309484, 4.454219, -2.616213, 0.4376395, -0.4182141, 3.816617, -2.561483, 0.4255864, -0.4182269
 69364032, 3.767269, -1.984162, 0.4174223, -0.409105, 4.454219, -2.616213, 0.4376395, -0.4182141
 69419168, 4.12672, -3.694945, 0.4232014, -0.4360172, 3.767269, -1.984162, 0.4174223, -0.409105
 69474035, 4.325272, -2.142485, 0.4245692, -0.4077838, 4.12672, -3.694945, 0.4232014, -0.4360172
 69529046, 3.378644, -2.721201, 0.3990504, -0.415125, 4.325272, -2.142485, 0.4245692, -0.4077838
 69585597, 3.154184, -2.985268, 0.3940222, -0.4168361, 3.378644, -2.721201, 0.3990504, -0.415125
 69639114, 4.109399, -1.882955, 0.4134469, -0.3983522, 3.154184, -2.985268, 0.3940222, -0.4168361
 69694038, 3.935431, -2.786237, 0.407659, -0.4082219, 4.109399, -1.882955, 0.4134469, -0.3983522
 69749037, 4.36956, -1.661311, 0.4184037, -0.3900024, 3.935431, -2.786237, 0.407659, -0.4082219
 69804120, 4.493023, -2.210835, 0.4191107, -0.3945277, 4.36956, -1.661311, 0.4184037, -0.3900024
 69854027, 3.995815, -2.500551, 0.4065816, -0.3945901, 4.493023, -2.210835, 0.4191107, -0.3945277
 69909487, 4.58658, -1.875753, 0.4211681, -0.382602, 3.995815, -2.500551, 0.4065816, -0.3945901
 69964031, 4.712567, -1.062442, 0.4233592, -0.3737982, 4.58658, -1.875753, 0.4211681, -0.382602
 70019040, 4.695608, -1.870174, 0.4241036, -0.3764238, 4.712567, -1.062442, 0.4233592, -0.3737982
 70074140, 4.835565, -0.8160924, 0.4287061, -0.3614949, 4.695608, -1.870174, 0.4241036, -0.3764238
 70129074, 5.052343, -1.403903, 0.4361758, -0.3613366, 4.835565, -0.8160924, 0.4287061, -0.3614949
 70185751, 4.982324, -1.70523, 0.4365746, -0.3595416, 5.052343, -1.403903, 0.4361758, -0.3613366
 70239028, 5.561904, -0.7245107, 0.4550945, -0.3467244, 4.982324, -1.70523, 0.4365746, -0.3595416
 70294031, 4.871222, -0.6621814, 0.4344223, -0.343141, 5.561904, -0.7245107, 0.4550945, -0.3467244
 70349156, 5.402314, -1.326195, 0.4505703, -0.3437796, 4.871222, -0.6621814, 0.4344223, -0.343141
 70399111, 5.901902, -0.5328043, 0.4670843, -0.3340031, 5.402314, -1.326195, 0.4505703, -0.3437796
 70454145, 5.577625, -1.095234, 0.4564527, -0.3348635, 5.901902, -0.5328043, 0.4670843, -0.3340031
 70509486, 5.842805, -1.292399, 0.464108, -0.3327603, 5.577625, -1.095234, 0.4564527, -0.3348635
 70564109, 5.600463, -1.310343, 0.4556757, -0.3319867, 5.842805, -1.292399, 0.464108, -0.3327603
 70619144, 5.752172, -1.079161, 0.4589298, -0.3269342, 5.600463, -1.310343, 0.4556757, -0.3319867
 70674112, 5.854714, -0.718726, 0.4611608, -0.321569, 5.752172, -1.079161, 0.4589298, -0.3269342
 70729045, 5.376838, -1.433125, 0.4425807, -0.3282408, 5.854714, -0.718726, 0.4611608, -0.321569
 70785615, 5.607437, -1.912765, 0.4484127, -0.3335258, 5.376838, -1.433125, 0.4425807, -0.3282408
 70839044, 5.348731, -1.313888, 0.4390736, -0.3246115, 5.607437, -1.912765, 0.4484127, -0.3335258
 70894031, 6.198633, -1.239518, 0.4650941, -0.3217213, 5.348731, -1.313888, 0.4390736, -0.3246115
 70949159, 5.46861, -2.222655, 0.4398057, -0.3338959, 6.198633, -1.239518, 0.4650941, -0.3217213
 70999116, 5.585425, -0.7953926, 0.4427916, -0.3157729, 5.46861, -2.222655, 0.4398057, -0.3338959
 71054050, 5.692757, -1.844368, 0.443015, -0.3272689, 5.585425, -0.7953926, 0.4427916, -0.3157729
 71109481, 5.607266, -2.284631, 0.4374848, -0.3339761, 5.692757, -1.844368, 0.443015, -0.3272689
 71164034, 5.843236, -1.574271, 0.4433673, -0.323808, 5.607266, -2.284631, 0.4374848, -0.3339761
 71219163, 5.959932, -1.510951, 0.4461733, -0.3219194, 5.843236, -1.574271, 0.4433673, -0.323808
 71274121, 5.917733, -2.285285, 0.4437346, -0.333286, 5.959932, -1.510951, 0.4461733, -0.3219194
 71329027, 5.87643, -2.201811, 0.4408886, -0.3320481, 5.917733, -2.285285, 0.4437346, -0.333286
 71385653, 6.862998, -2.205405, 0.4742925, -0.3335594, 5.87643, -2.201811, 0.4408886, -0.3320481
 71439044, 5.702653, -1.815697, 0.4311486, -0.3292031, 6.862998, -2.205405, 0.4742925, -0.3335594
 71494026, 6.818425, -2.326351, 0.4687865, -0.3378651, 5.702653, -1.815697, 0.4311486, -0.3292031
 71544033, 6.635893, -2.338972, 0.4609486, -0.3385636, 6.818425, -2.326351, 0.4687865, -0.3378651
 71599043, 6.669784, -3.05578, 0.4606772, -0.3534325, 6.635893, -2.338972, 0.4609486, -0.3385636
 71654051, 6.394844, -1.971161, 0.4498823, -0.3335999, 6.669784, -3.05578, 0.4606772, -0.3534325
 71709477, 6.261292, -2.985761, 0.4445501, -0.3517394, 6.394844, -1.971161, 0.4498823, -0.3335999
 71764108, 6.215484, -2.679747, 0.4428825, -0.3444052, 6.261292, -2.985761, 0.4445501, -0.3517394
 71819254, 5.865877, -2.598329, 0.4302402, -0.3416951, 6.215484, -2.679747, 0.4428825, -0.3444052
 71874107, 5.673274, -2.654906, 0.4226615, -0.3419385, 5.865877, -2.598329, 0.4302402, -0.3416951
 71929045, 5.856251, -2.86597, 0.4279107, -0.3454303, 5.673274, -2.654906, 0.4226615, -0.3419385
 71985857, 5.690527, -2.343328, 0.4216114, -0.335023, 5.856251, -2.86597, 0.4279107, -0.3454303
 72034479, 5.695835, -2.404078, 0.4209969, -0.3358981, 5.690527, -2.343328, 0.4216114, -0.335023
 72094016, 5.578315, -3.009181, 0.416584, -0.3477096, 5.695835, -2.404078, 0.4209969, -0.3358981
 72144039, 5.267313, -1.895409, 0.4055362, -0.3276232, 5.578315, -3.009181, 0.416584, -0.3477096
 72199114, 6.134199, -2.627994, 0.4354761, -0.3390556, 5.267313, -1.895409, 0.4055362, -0.3276232
 72254127, 5.581011, -2.500954, 0.4158752, -0.3350739, 6.134199, -2.627994, 0.4354761, -0.3390556
 72309477, 5.190354, -1.896927, 0.4028325, -0.3231238, 5.581011, -2.500954, 0.4158752, -0.3350739
 72364026, 5.403286, -2.755077, 0.4090825, -0.3378334, 5.190354, -1.896927, 0.4028325, -0.3231238
 72419034, 5.12397, -2.333732, 0.3998411, -0.3278034, 5.403286, -2.755077, 0.4090825, -0.3378334
 72474039, 4.900163, -1.906056, 0.3924486, -0.3189498, 5.12397, -2.333732, 0.3998411, -0.3278034
 72529033, 4.932002, -2.286736, 0.3927529, -0.3240264, 4.900163, -1.906056, 0.3924486, -0.3189498
 72579016, 5.161703, -1.526835, 0.3994219, -0.3117851, 4.932002, -2.286736, 0.3927529, -0.3240264
 72634472, 5.23137, -1.929112, 0.4007518, -0.3167144, 5.161703, -1.526835, 0.3994219, -0.3117851
 72694022, 4.771626, -1.884781, 0.3847132, -0.316348, 5.23137, -1.929112, 0.4007518, -0.3167144
 72744026, 5.32677, -0.8700782, 0.4018939, -0.3048287, 4.771626, -1.884781, 0.3847132, -0.316348
 72799123, 4.852471, -2.16683, 0.3852929, -0.3203201, 5.32677, -0.8700782, 0.4018939, -0.3048287
 72854021, 5.274424, -1.448821, 0.3983158, -0.3093926, 4.852471, -2.16683, 0.3852929, -0.3203201
 72909495, 4.793997, -0.4784397, 0.3828847, -0.300264, 5.274424, -1.448821, 0.3983158, -0.3093926
 72964023, 4.956872, -0.9429328, 0.3886014, -0.3014151, 4.793997, -0.4784397, 0.3828847, -0.300264
 73019153, 4.334827, -1.502272, 0.3686689, -0.3069839, 4.956872, -0.9429328, 0.3886014, -0.3014151
 73074127, 4.097635, -1.059475, 0.3612865, -0.3015046, 4.334827, -1.502272, 0.3686689, -0.3069839
 73124115, 3.94295, -0.9193927, 0.3568927, -0.2998175, 4.097635, -1.059475, 0.3612865, -0.3015046
 73179040, 3.61386, -0.6034862, 0.3475941, -0.296857, 3.94295, -0.9193927, 0.3568927, -0.2998175
 73234472, 3.829993, -1.112565, 0.3538289, -0.2992767, 3.61386, -0.6034862, 0.3475941, -0.296857
 73294043, 3.565453, -0.846709, 0.347164, -0.2956153, 3.829993, -1.112565, 0.3538289, -0.2992767
 73344016, 3.535099, -0.9705862, 0.3465616, -0.2960494, 3.565453, -0.846709, 0.347164, -0.2956153
 73399137, 3.559721, -0.4540756, 0.3459484, -0.2916607, 3.535099, -0.9705862, 0.3465616, -0.2960494
 73454242, 3.299677, -0.5038968, 0.3378368, -0.2916063, 3.559721, -0.4540756, 0.3459484, -0.2916607
 73509491, 3.297835, -0.6731008, 0.3360822, -0.2924742, 3.299677, -0.5038968, 0.3378368, -0.2916063
 73564067, 3.260734, -0.4455439, 0.3338479, -0.2915795, 3.297835, -0.6731008, 0.3360822, -0.2924742
 73619010, 3.073751, -1.048986, 0.328298, -0.2947561, 3.260734, -0.4455439, 0.3338479, -0.2915795
 73669020, 3.435989, -0.4485342, 0.3364679, -0.2897492, 3.073751, -1.048986, 0.328298, -0.2947561
 73724124, 2.921979, -0.8535144, 0.3233162, -0.2916486, 3.435989, -0.4485342, 0.3364679, -0.2897492
 73779109, 3.614701, -1.079629, 0.3393466, -0.2926419, 2.921979, -0.8535144, 0.3233162, -0.2916486
 73834493, 3.368805, -0.548434, 0.3317926, -0.2883117, 3.614701, -1.079629, 0.3393466, -0.2926419
 73889132, 3.204035, -0.6507117, 0.3265777, -0.2881642, 3.368805, -0.548434, 0.3317926, -0.2883117
 73944027, 3.208473, -0.5353839, 0.3264103, -0.2870014, 3.204035, -0.6507117, 0.3265777, -0.2881642
 73999116, 2.931262, -1.132132, 0.3192814, -0.2906258, 3.208473, -0.5353839, 0.3264103, -0.2870014
 74054153, 2.815616, -0.7617297, 0.3160871, -0.2873794, 2.931262, -1.132132, 0.3192814, -0.2906258
 74109478, 3.01687, -0.4623832, 0.3198958, -0.2847775, 2.815616, -0.7617297, 0.3160871, -0.2873794
 74160197, 2.838148, -0.9948483, 0.3155714, -0.287504, 3.01687, -0.4623832, 0.3198958, -0.2847775
 74214010, 2.906005, -0.8846396, 0.3169658, -0.2855224, 2.838148, -0.9948483, 0.3155714, -0.287504
 74269120, 2.637878, -1.079476, 0.3112535, -0.2857339, 2.906005, -0.8846396, 0.3169658, -0.2855224
 74324147, 2.295484, -0.4965625, 0.3046528, -0.2802903, 2.637878, -1.079476, 0.3112535, -0.2857339
 74379036, 2.743969, -0.761079, 0.3136654, -0.2804138, 2.295484, -0.4965625, 0.3046528, -0.2802903
 74434489, 2.264797, -0.6211294, 0.3031385, -0.2784426, 2.743969, -0.761079, 0.3136654, -0.2804138
 74489011, 2.390357, -1.120349, 0.3045696, -0.2817207, 2.264797, -0.6211294, 0.3031385, -0.2784426
 74544048, 2.115927, -1.080239, 0.2989327, -0.2809139, 2.390357, -1.120349, 0.3045696, -0.2817207
 74599125, 2.754103, -0.5902634, 0.311153, -0.2761685, 2.115927, -1.080239, 0.2989327, -0.2809139
 74654229, 2.080743, -1.072304, 0.29712, -0.2790065, 2.754103, -0.5902634, 0.311153, -0.2761685
 74709477, 2.116849, -0.4637708, 0.2975613, -0.2740628, 2.080743, -1.072304, 0.29712, -0.2790065
 74760461, 2.357833, -0.895247, 0.3023369, -0.276067, 2.116849, -0.4637708, 0.2975613, -0.2740628
 74814112, 1.958903, -1.199758, 0.2944369, -0.277793, 2.357833, -0.895247, 0.3023369, -0.276067
 74869126, 2.090165, -0.0133853, 0.2965045, -0.2701721, 1.958903, -1.199758, 0.2944369, -0.277793
 74924170, 2.033302, -0.7220833, 0.2949414, -0.2723903, 2.090165, -0.0133853, 0.2965045, -0.2701721
 74979031, 1.890053, -1.021271, 0.2923687, -0.2741102, 2.033302, -0.7220833, 0.2949414, -0.2723903
 75034468, 1.962111, 0.0709367, 0.2931263, -0.2681247, 1.890053, -1.021271, 0.2923687, -0.2741102
 75089034, 2.131317, -0.4113598, 0.2956929, -0.2686945, 1.962111, 0.0709367, 0.2931263, -0.2681247
 75144110, 1.887791, -0.2086212, 0.2914174, -0.2683716, 2.131317, -0.4113598, 0.2956929, -0.2686945
 75199114, 2.085524, -0.301965, 0.2943406, -0.2690217, 1.887791, -0.2086212, 0.2914174, -0.2683716
 75254011, 1.523798, -0.4447259, 0.2851834, -0.2693972, 2.085524, -0.301965, 0.2943406, -0.2690217
 75304121, 1.959609, -0.03219991, 0.2915748, -0.2682368, 1.523798, -0.4447259, 0.2851834, -0.2693972
 75360469, 1.869981, 0.06865139, 0.2896256, -0.2678957, 1.959609, -0.03219991, 0.2915748, -0.2682368
 75414202, 1.76632, -0.2282809, 0.2875007, -0.2678117, 1.869981, 0.06865139, 0.2896256, -0.2678957
 75469224, 1.365437, -0.3123449, 0.2807124, -0.2686248, 1.76632, -0.2282809, 0.2875007, -0.2678117
 75524189, 1.776482, 0.4083467, 0.2864075, -0.2694569, 1.365437, -0.3123449, 0.2807124, -0.2686248
 75579219, 1.872906, -0.3478904, 0.2878972, -0.2697698, 1.776482, 0.4083467, 0.2864075, -0.2694569
 75634561, 1.97905, 0.02700095, 0.2893111, -0.2696387, 1.872906, -0.3478904, 0.2878972, -0.2697698
 75689210, 1.814377, -0.1363018, 0.2864558, -0.2696778, 1.97905, 0.02700095, 0.2893111, -0.2696387
 75744167, 1.847429, -0.1804161, 0.2871472, -0.2693848, 1.814377, -0.1363018, 0.2864558, -0.2696778
 75799201, 1.808659, 0.1529953, 0.286149, -0.269448, 1.847429, -0.1804161, 0.2871472, -0.2693848
 75849239, 1.827024, -0.01018244, 0.2872702, -0.2689342, 1.808659, 0.1529953, 0.286149, -0.269448
 75904204, 1.099406, -0.8849291, 0.2775983, -0.2729707, 1.827024, -0.01018244, 0.2872702, -0.2689342
 76014191, 1.389482, -0.230189, 0.2812704, -0.2688971, 1.062694, 0.0273407, 0.2770349, -0.2691759
 76069195, 1.13612, -0.02501032, 0.2789236, -0.2686363, 1.389482, -0.230189, 0.2812704, -0.2688971
 76234571, 0.1754892, -0.8543096, 0.2750517, -0.2709388, 1.104147, -0.4184717, 0.2801902, -0.2683105
 76289409, 1.21338, 0.1556292, 0.2812857, -0.268295, 0.1754892, -0.8543096, 0.2750517, -0.2709388
 76339197, 0.3774889, -0.2060091, 0.2747895, -0.2696207, 1.21338, 0.1556292, 0.2812857, -0.268295
 76394474, 0.3828714, 0.4512381, 0.2743936, -0.271556, 0.3774889, -0.2060091, 0.2747895, -0.2696207
 76449208, 0.3614901, -0.3354295, 0.273301, -0.2725013, 0.3828714, 0.4512381, 0.2743936, -0.271556
 76504200, 0.3390543, 0.1670882, 0.272193, -0.273189, 0.3614901, -0.3354295, 0.273301, -0.2725013
 76560397, 0.5337731, -0.1952806, 0.2729204, -0.274406, 0.3390543, 0.1670882, 0.272193, -0.273189
 76614187, 0.6214358, 0.2966957, 0.2734125, -0.2757495, 0.5337731, -0.1952806, 0.2729204, -0.274406
 76669204, 0.202049, 0.2940126, 0.2724668, -0.2765351, 0.6214358, 0.2966957, 0.2734125, -0.2757495
 76724190, 0.7553723, -0.1830532, 0.275178, -0.2767356, 0.202049, 0.2940126, 0.2724668, -0.2765351
 76779188, 0.2104743, -0.004300774, 0.2727553, -0.2783593, 0.7553723, -0.1830532, 0.275178, -0.2767356
 76834596, -0.2915648, 0.4221996, 0.2732985, -0.2803915, 0.2104743, -0.004300774, 0.2727553, -0.2783593
 76885765, -0.1429259, 0.08577024, 0.2734612, -0.2803861, -0.2915648, 0.4221996, 0.2732985, -0.2803915
 76939198, 0.09466385, 0.1867419, 0.2746885, -0.2809106, -0.1429259, 0.08577024, 0.2734612, -0.2803861
 76994168, 0.1404557, 0.01838824, 0.2765191, -0.2807383, 0.09466385, 0.1867419, 0.2746885, -0.2809106
 77049215, -0.261383, -0.009528873, 0.2779332, -0.2813867, 0.1404557, 0.01838824, 0.2765191, -0.2807383
 77104199, 0.01334682, -0.01118517, 0.2786319, -0.2813927, -0.261383, -0.009528873, 0.2779332, -0.2813867
 77160528, -0.408179, 0.1284979, 0.2808815, -0.2817303, 0.01334682, -0.01118517, 0.2786319, -0.2813927
 77214216, 0.3069002, -0.03194231, 0.2810695, -0.2824312, -0.408179, 0.1284979, 0.2808815, -0.2817303
 77269176, -0.003728554, 0.3364816, 0.2823331, -0.2825804, 0.3069002, -0.03194231, 0.2810695, -0.2824312
 77324214, -0.01428431, -0.345164, 0.2824484, -0.2831922, -0.003728554, 0.3364816, 0.2823331, -0.2825804
 77379203, 0.3426482, 0.07356999, 0.283476, -0.2836957, -0.01428431, -0.345164, 0.2824484, -0.2831922
 77429449, -0.2230058, 0.09909008, 0.2840011, -0.284168, 0.3426482, 0.07356999, 0.283476, -0.2836957
 77485695, 0.4408325, 0.1732519, 0.2842453, -0.2856358, -0.2230058, 0.09909008, 0.2840011, -0.284168
 77539192, 0.116584, 0.2905564, 0.2840121, -0.2864278, 0.4408325, 0.1732519, 0.2842453, -0.2856358
 77594415, -0.2142435, 0.5074796, 0.2837401, -0.2876277, 0.116584, 0.2905564, 0.2840121, -0.2864278
 77649213, 0.421708, 0.3521646, 0.2841056, -0.2869058, -0.2142435, 0.5074796, 0.2837401, -0.2876277
 77704194, 0.4015416, 0.05382603, 0.2838347, -0.2860687, 0.421708, 0.3521646, 0.2841056, -0.2869058
 77760522, 0.1893278, 0.4747834, 0.2825367, -0.2869819, 0.4015416, 0.05382603, 0.2838347, -0.2860687
 77814202, 0.5180492, 0.7512037, 0.2833355, -0.287875, 0.1893278, 0.4747834, 0.2825367, -0.2869819
 77869220, 0.2329723, -0.04842771, 0.2815383, -0.2855279, 0.5180492, 0.7512037, 0.2833355, -0.287875
 77924438, 0.3166956, 0.8438981, 0.2812748, -0.2887101, 0.2329723, -0.04842771, 0.2815383, -0.2855279
 77974229, -0.3782296, -0.008546833, 0.2810727, -0.2853397, 0.3166956, 0.8438981, 0.2812748, -0.2887101
 78029219, 0.2058647, 0.5713277, 0.2802601, -0.2866221, -0.3782296, -0.008546833, 0.2810727, -0.2853397
 78085673, 0.08014735, 0.08439489, 0.2801181, -0.2847901, 0.2058647, 0.5713277, 0.2802601, -0.2866221
 78139197, 0.2708298, 0.2608225, 0.27979, -0.2851226, 0.08014735, 0.08439489, 0.2801181, -0.2847901
 78194419, 0.01006643, 0.6332995, 0.2794189, -0.286243, 0.2708298, 0.2608225, 0.27979, -0.2851226
 78249220, -0.001209796, 0.06388363, 0.279789, -0.2838658, 0.01006643, 0.6332995, 0.2794189, -0.286243
 78304217, -0.01049014, 0.3162568, 0.2797987, -0.2839532, -0.001209796, 0.06388363, 0.279789, -0.2838658
 78360415, 0.2236649, 0.2561386, 0.2802314, -0.2832194, -0.01049014, 0.3162568, 0.2797987, -0.2839532
 78409593, -0.4177677, -0.1169037, 0.2816298, -0.2826499, 0.2236649, 0.2561386, 0.2802314, -0.2832194
 78464425, 0.2760723, 0.1308637, 0.2815951, -0.2824925, -0.4177677, -0.1169037, 0.2816298, -0.2826499
 78519198, -0.4815625, 0.1526567, 0.2828434, -0.2822101, 0.2760723, 0.1308637, 0.2815951, -0.2824925
 78574197, -0.1525324, 0.3829075, 0.2815914, -0.2831036, -0.4815625, 0.1526567, 0.2828434, -0.2822101
 78629197, -0.1000233, 0.07674478, 0.2812991, -0.2824734, -0.1525324, 0.3829075, 0.2815914, -0.2831036
 78685686, -0.3956968, -0.09960548, 0.2820474, -0.2822909, -0.1000233, 0.07674478, 0.2812991, -0.2824734
 78739201, -0.1842566, 0.6035854, 0.2813203, -0.2838994, -0.3956968, -0.09960548, 0.2820474, -0.2822909
 78794203, -0.7899849, -0.04943131, 0.2845035, -0.2818923, -0.1842566, 0.6035854, 0.2813203, -0.2838994
 78849224, -0.142272, 0.2141622, 0.2818483, -0.2825656, -0.7899849, -0.04943131, 0.2845035, -0.2818923
 78904205, -0.1242774, 0.1544158, 0.2817844, -0.2827087, -0.142272, 0.2141622, 0.2818483, -0.2825656
 78954170, -0.3846172, -0.4424021, 0.2826773, -0.2833644, -0.1242774, 0.1544158, 0.2817844, -0.2827087
 79009564, -0.3817934, 0.5705011, 0.2826296, -0.2840596, -0.3846172, -0.4424021, 0.2826773, -0.2833644
 79064416, -0.2603588, 0.03239388, 0.2830794, -0.2818035, -0.3817934, 0.5705011, 0.2826296, -0.2840596
 79119190, -0.402954, 0.1835623, 0.2839702, -0.2819031, -0.2603588, 0.03239388, 0.2830794, -0.2818035
 79174221, -0.4443772, 0.3920126, 0.2836224, -0.2833013, -0.402954, 0.1835623, 0.2839702, -0.2819031
 79229445, -0.1790518, -0.01049568, 0.2833154, -0.2823575, -0.4443772, 0.3920126, 0.2836224, -0.2833013
 79285687, -0.5363536, 0.2083531, 0.28407, -0.2830276, -0.1790518, -0.01049568, 0.2833154, -0.2823575
 79339171, -0.06975634, 0.1575845, 0.2826693, -0.2835398, -0.5363536, 0.2083531, 0.28407, -0.2830276
 79394214, -0.3798877, 0.1492974, 0.2836181, -0.2837119, -0.06975634, 0.1575845, 0.2826693, -0.2835398
 79444207, 0.01568624, 0.09961292, 0.2827886, -0.2842166, -0.3798877, 0.1492974, 0.2836181, -0.2837119
 79499424, -0.08895307, 0.06223124, 0.2831751, -0.2843376, 0.01568624, 0.09961292, 0.2827886, -0.2842166
 79554183, 0.1446956, 0.06374686, 0.2833527, -0.2845635, -0.08895307, 0.06223124, 0.2831751, -0.2843376
 79609560, 0.1887949, -0.02634657, 0.2838123, -0.2846732, 0.1446956, 0.06374686, 0.2833527, -0.2845635
 79664197, -0.05933385, 0.244388, 0.2841906, -0.2850205, 0.1887949, -0.02634657, 0.2838123, -0.2846732
 79719216, -0.1313795, 0.2562193, 0.2844378, -0.2851392, -0.05933385, 0.244388, 0.2841906, -0.2850205
 79774204, -0.01507185, -0.02057241, 0.28435, -0.2847156, -0.1313795, 0.2562193, 0.2844378, -0.2851392
 79829189, 0.3491348, 0.295179, 0.2838628, -0.2860157, -0.01507185, -0.02057241, 0.28435, -0.2847156
 79885747, 0.4702109, 0.272395, 0.2839294, -0.2863038, 0.3491348, 0.295179, 0.2838628, -0.2860157
 79934588, -0.4733394, 0.3253399, 0.2842267, -0.2861684, 0.4702109, 0.272395, 0.2839294, -0.2863038
 79994419, -0.1171111, 0.1425121, 0.2834651, -0.2856034, -0.4733394, 0.3253399, 0.2842267, -0.2861684
 80044177, 0.0650021, 0.4915722, 0.2838282, -0.2864591, -0.1171111, 0.1425121, 0.2834651, -0.2856034
 80099230, -0.5432757, 0.4796611, 0.2849506, -0.2868236, 0.0650021, 0.4915722, 0.2838282, -0.2864591
 80154181, 0.012146, 0.4943633, 0.2836037, -0.2874315, -0.5432757, 0.4796611, 0.2849506, -0.2868236
 80209569, -0.3243866, 0.2697701, 0.2844855, -0.2867302, 0.012146, 0.4943633, 0.2836037, -0.2874315
 80264427, -0.6620302, 0.3705985, 0.2859479, -0.2873428, -0.3243866, 0.2697701, 0.2844855, -0.2867302
 80319206, -0.2143034, 0.4872487, 0.2841933, -0.2880915, -0.6620302, 0.3705985, 0.2859479, -0.2873428
 80374234, -0.5705567, -0.009463886, 0.2859194, -0.2870642, -0.2143034, 0.4872487, 0.2841933, -0.2880915
 80429419, 0.02152896, 0.8779652, 0.2844696, -0.290568, -0.5705567, -0.009463886, 0.2859194, -0.2870642
 80479192, -0.1434936, -0.2305287, 0.2850533, -0.2867981, 0.02152896, 0.8779652, 0.2844696, -0.290568
 80534834, -1.27931, 0.9375688, 0.2922238, -0.2902229, -0.1434936, -0.2305287, 0.2850533, -0.2867981
 80594396, 0.0903644, 0.1695025, 0.2852519, -0.2864586, -1.27931, 0.9375688, 0.2922238, -0.2902229
 80644182, -0.4351106, 0.174478, 0.2867165, -0.2859951, 0.0903644, 0.1695025, 0.2852519, -0.2864586
 80699411, -0.1077349, 0.6108742, 0.2857791, -0.2880186, -0.4351106, 0.174478, 0.2867165, -0.2859951
 80754192, -0.0361856, -0.01857471, 0.2863275, -0.2860293, -0.1077349, 0.6108742, 0.2857791, -0.2880186
 80809577, 0.3691444, 0.4275343, 0.2870803, -0.2869035, -0.0361856, -0.01857471, 0.2863275, -0.2860293
 80864187, -0.03505269, 0.2055958, 0.2866132, -0.2860168, 0.3691444, 0.4275343, 0.2870803, -0.2869035
 80919176, 0.08691063, -0.4323554, 0.2869627, -0.2862577, -0.03505269, 0.2055958, 0.2866132, -0.2860168
 80969186, 0.3641964, 0.2128891, 0.287421, -0.2854254, 0.08691063, -0.4323554, 0.2869627, -0.2862577
 81024200, 0.3154852, 0.1366705, 0.287251, -0.2851259, 0.3641964, 0.2128891, 0.287421, -0.2854254
 81079183, -0.4836321, -0.001309254, 0.2882691, -0.2855435, 0.3154852, 0.1366705, 0.287251, -0.2851259
 81134566, 0.3373769, 0.2306017, 0.2875943, -0.2865666, -0.4836321, -0.001309254, 0.2882691, -0.2855435
 81194200, -0.1396069, -0.4279712, 0.2875988, -0.2860923, 0.3373769, 0.2306017, 0.2875943, -0.2865666
 81244198, 0.4250504, 0.3869152, 0.288461, -0.2855621, -0.1396069, -0.4279712, 0.2875988, -0.2860923
 81299423, 0.1584276, 0.2315211, 0.2876642, -0.2850043, 0.4250504, 0.3869152, 0.288461, -0.2855621
 81354195, 0.3028843, -0.5098096, 0.2879326, -0.2862579, 0.1584276, 0.2315211, 0.2876642, -0.2850043
 81409574, -0.06270505, -0.3268796, 0.2872759, -0.2867704, 0.3028843, -0.5098096, 0.2879326, -0.2862579
 81459565, 0.1823082, 0.1667292, 0.2873231, -0.2867779, -0.06270505, -0.3268796, 0.2872759, -0.2867704
 81514186, -0.0152517, -0.1833795, 0.2868853, -0.2872652, 0.1823082, 0.1667292, 0.2873231, -0.2867779
 81569432, 0.09127263, 0.21767, 0.2870778, -0.287257, -0.0152517, -0.1833795, 0.2868853, -0.2872652
 81624219, 0.09908222, -0.765119, 0.2875963, -0.2891627, 0.09127263, 0.21767, 0.2870778, -0.287257
 81679159, -0.0065682, 0.2309527, 0.2871737, -0.2869869, 0.09908222, -0.765119, 0.2875963, -0.2891627
 81734595, -0.150948, -0.1343983, 0.2868805, -0.286963, -0.0065682, 0.2309527, 0.2871737, -0.2869869
 81789184, -0.1613171, -0.01222265, 0.2866678, -0.2876359, -0.150948, -0.1343983, 0.2868805, -0.286963
 81844210, 0.4221037, 0.371722, 0.2873324, -0.2884414, -0.1613171, -0.01222265, 0.2866678, -0.2876359
 81899440, -0.3248259, -0.4970849, 0.2871988, -0.2885967, 0.4221037, 0.371722, 0.2873324, -0.2884414
 81949221, 0.1501225, 0.4668174, 0.2869079, -0.2882044, -0.3248259, -0.4970849, 0.2871988, -0.2885967
 82004406, -0.2006457, -0.08840008, 0.2869821, -0.2872244, 0.1501225, 0.4668174, 0.2869079, -0.2882044
 82059547, -0.2636232, -0.08036256, 0.2870776, -0.2870923, -0.2006457, -0.08840008, 0.2869821, -0.2872244
 82114167, 0.0359964, 0.3075813, 0.286799, -0.2880137, -0.2636232, -0.08036256, 0.2870776, -0.2870923
 82169404, -0.355779, -0.1105147, 0.2877548, -0.2875535, 0.0359964, 0.3075813, 0.286799, -0.2880137
 82224203, -0.04405705, 0.3350798, 0.2869973, -0.2880921, -0.355779, -0.1105147, 0.2877548, -0.2875535
 82279169, -0.06474499, 0.1513622, 0.2869535, -0.2877527, -0.04405705, 0.3350798, 0.2869973, -0.2880921
 82334734, -0.2958986, 0.3071698, 0.2870547, -0.2883493, -0.06474499, 0.1513622, 0.2869535, -0.2877527
 82389222, -0.1095347, 0.469797, 0.2863931, -0.2892179, -0.2958986, 0.3071698, 0.2870547, -0.2883493
 82444206, -0.04998681, 0.3764267, 0.2864408, -0.2888461, -0.1095347, 0.469797, 0.2863931, -0.2892179
 82494189, -0.3197837, 0.8865759, 0.2870568, -0.2917372, -0.04998681, 0.3764267, 0.2864408, -0.2888461
 82549191, -0.01294084, 0.1206957, 0.2867654, -0.2885615, -0.3197837, 0.8865759, 0.2870568, -0.2917372
 82604420, -0.2800525, 0.2777196, 0.2872862, -0.2885807, -0.01294084, 0.1206957, 0.2867654, -0.2885615
 82659566, -0.1341593, 0.7765878, 0.2869862, -0.2908038, -0.2800525, 0.2777196, 0.2872862, -0.2885807
 82714185, -0.1531278, 0.1332369, 0.2875717, -0.2876914, -0.1341593, 0.7765878, 0.2869862, -0.2908038
 82769204, -0.2527886, 0.2967905, 0.2878509, -0.2878887, -0.1531278, 0.1332369, 0.2875717, -0.2876914
 82824205, -0.006738618, 0.2700864, 0.2873803, -0.2880221, -0.2527886, 0.2967905, 0.2878509, -0.2878887
 82879200, -0.0280246, 0.4918076, 0.2870744, -0.2890925, -0.006738618, 0.2700864, 0.2873803, -0.2880221
 82934593, -0.2399315, 0.6748251, 0.2876651, -0.2900684, -0.0280246, 0.4918076, 0.2870744, -0.2890925
 82985719, 0.06663334, 0.5872233, 0.287694, -0.2894944, -0.2399315, 0.6748251, 0.2876651, -0.2900684
 83039200, -0.1364926, 0.2399701, 0.2879792, -0.2889294, 0.06663334, 0.5872233, 0.287694, -0.2894944
 83094163, 0.03208683, 0.6758975, 0.2884198, -0.2907237, -0.1364926, 0.2399701, 0.2879792, -0.2889294
 83149220, -0.2162653, 0.3611932, 0.2889986, -0.2892473, 0.03208683, 0.6758975, 0.2884198, -0.2907237
 83204186, -0.2303088, 0.8499463, 0.2891853, -0.291683, -0.2162653, 0.3611932, 0.2889986, -0.2892473
 83259562, -0.4358207, 0.4076275, 0.2899824, -0.2888379, -0.2303088, 0.8499463, 0.2891853, -0.291683
 83314218, -0.07100175, 0.1938687, 0.2891655, -0.2881081, -0.4358207, 0.4076275, 0.2899824, -0.2888379
 83369466, -0.7115048, 0.3417706, 0.2911309, -0.2885443, -0.07100175, 0.1938687, 0.2891655, -0.2881081
 83424220, 0.08929799, 0.2896996, 0.2894546, -0.2882956, -0.7115048, 0.3417706, 0.2911309, -0.2885443
 83474402, -0.1821496, 0.267518, 0.289517, -0.2887249, 0.08929799, 0.2896996, 0.2894546, -0.2882956
 83529228, -0.345321, 0.460343, 0.2901951, -0.2895343, -0.1821496, 0.267518, 0.289517, -0.2887249
 83585695, -0.08327673, 0.1181356, 0.2899621, -0.2886938, -0.345321, 0.460343, 0.2901951, -0.2895343
 83639454, -0.277378, 0.3506382, 0.2899907, -0.2895257, -0.08327673, 0.1181356, 0.2899621, -0.2886938
 83694181, -0.2186668, 0.168204, 0.2898623, -0.2890246, -0.277378, 0.3506382, 0.2899907, -0.2895257
 83749206, 0.08151813, 0.06620612, 0.2892336, -0.2889704, -0.2186668, 0.168204, 0.2898623, -0.2890246
 83804230, -0.2264589, 0.1422535, 0.2891656, -0.2891346, 0.08151813, 0.06620612, 0.2892336, -0.2889704
 83859576, 0.0720598, -0.006479982, 0.2889683, -0.28921, -0.2264589, 0.1422535, 0.2891656, -0.2891346
 83914183, -0.2495691, -0.1079699, 0.2889003, -0.2896228, 0.0720598, -0.006479982, 0.2889683, -0.28921
 83969176, -0.1569327, 0.08560105, 0.2884332, -0.2897367, -0.2495691, -0.1079699, 0.2889003, -0.2896228
 84019194, 0.163219, -0.3361276, 0.2881593, -0.2903998, -0.1569327, 0.08560105, 0.2884332, -0.2897367
 84074220, -0.07296529, 0.3303633, 0.2875446, -0.2908435, 0.163219, -0.3361276, 0.2881593, -0.2903998
 84129210, -0.2949143, -0.5480244, 0.2879082, -0.2918806, -0.07296529, 0.3303633, 0.2875446, -0.2908435
 84185690, 0.3466776, 0.1598496, 0.2882405, -0.290654, -0.2949143, -0.5480244, 0.2879082, -0.2918806
 84239178, -0.1074661, 0.06030231, 0.2891675, -0.2893009, 0.3466776, 0.1598496, 0.2882405, -0.290654
 84294198, -0.04034869, -0.4580424, 0.2903299, -0.289024, -0.1074661, 0.06030231, 0.2891675, -0.2893009
 84349221, 0.001065308, 0.7089618, 0.2904517, -0.2903645, -0.04034869, -0.4580424, 0.2903299, -0.289024
 84404441, -0.283522, -0.3556996, 0.2906295, -0.2890952, 0.001065308, 0.7089618, 0.2904517, -0.2903645
 84459555, 0.135674, 0.292201, 0.2894347, -0.2895104, -0.283522, -0.3556996, 0.2906295, -0.2890952
 84509567, 0.2620184, 0.3313581, 0.2888038, -0.2900838, 0.135674, 0.292201, 0.2894347, -0.2895104
 84564222, 0.3649747, -0.5453531, 0.2889954, -0.2908466, 0.2620184, 0.3313581, 0.2888038, -0.2900838
 84619180, 0.2622552, 0.8013233, 0.2882653, -0.2926433, 0.3649747, -0.5453531, 0.2889954, -0.2908466
 84674426, 0.08405285, 0.0510049, 0.288103, -0.2901125, 0.2622552, 0.8013233, 0.2882653, -0.2926433
 84729205, -0.007241029, -0.1483237, 0.2877747, -0.2904624, 0.08405285, 0.0510049, 0.288103, -0.2901125
 84785696, 0.02118489, 0.7383806, 0.2874203, -0.292773, -0.007241029, -0.1483237, 0.2877747, -0.2904624
 84839420, 0.7066625, 0.2367909, 0.2892169, -0.2905326, 0.02118489, 0.7383806, 0.2874203, -0.292773
 84894229, 0.200294, 0.2252614, 0.2866616, -0.2903108, 0.7066625, 0.2367909, 0.2892169, -0.2905326
 84949219, -0.06112114, 0.4834567, 0.2863244, -0.2908493, 0.200294, 0.2252614, 0.2866616, -0.2903108
 85004408, -0.01859591, 0.1123903, 0.2861778, -0.2898251, -0.06112114, 0.4834567, 0.2863244, -0.2908493
 85059564, 0.07680241, 0.9594342, 0.2861764, -0.2937163, -0.01859591, 0.1123903, 0.2861778, -0.2898251
 85109686, 0.0588534, 0.01332176, 0.2864526, -0.2896372, 0.07680241, 0.9594342, 0.2861764, -0.2937163
 85164200, 0.3303423, -0.01805497, 0.2867671, -0.2898741, 0.0588534, 0.01332176, 0.2864526, -0.2896372
 85219194, -0.1574192, 0.8265799, 0.2860727, -0.2932012, 0.3303423, -0.01805497, 0.2867671, -0.2898741
 85274228, 0.02280317, -0.4924252, 0.2859923, -0.2907744, -0.1574192, 0.8265799, 0.2860727, -0.2932012
 85329216, 0.2275596, 0.5194843, 0.285926, -0.2906713, 0.02280317, -0.4924252, 0.2859923, -0.2907744
 85385742, 0.03274328, -0.2428887, 0.2860828, -0.2896335, 0.2275596, 0.5194843, 0.285926, -0.2906713
 85439451, -0.2907088, 0.3016544, 0.2865457, -0.2899736, 0.03274328, -0.2428887, 0.2860828, -0.2896335
 85494176, 0.2880826, -0.01328928, 0.2872978, -0.2900941, -0.2907088, 0.3016544, 0.2865457, -0.2899736
 85549187, -0.1066999, -0.09001939, 0.2874775, -0.290056, 0.2880826, -0.01328928, 0.2872978, -0.2900941
 85599214, 0.2832195, -0.06901611, 0.287777, -0.2897705, -0.1066999, -0.09001939, 0.2874775, -0.290056
 85654216, -0.312257, -0.09288085, 0.2879287, -0.2895667, 0.2832195, -0.06901611, 0.287777, -0.2897705
 85709720, -0.05458755, -0.2481396, 0.2874643, -0.2899752, -0.312257, -0.09288085, 0.2879287, -0.2895667
 85764185, -0.001434408, 0.4487711, 0.2871234, -0.2909358, -0.05458755, -0.2481396, 0.2874643, -0.2899752
 85819183, -0.2771574, -0.3156308, 0.2876214, -0.2903903, -0.001434408, 0.4487711, 0.2871234, -0.2909358
 85874220, -0.08029812, 0.2145328, 0.2873113, -0.2904429, -0.2771574, -0.3156308, 0.2876214, -0.2903903
 85929231, 0.1543112, 0.3188003, 0.2877411, -0.2909295, -0.08029812, 0.2145328, 0.2873113, -0.2904429
 85985685, -0.3990037, -0.3747756, 0.2886955, -0.2911785, 0.1543112, 0.3188003, 0.2877411, -0.2909295
 86039219, 0.06421711, 0.5101993, 0.2880493, -0.2922458, -0.3990037, -0.3747756, 0.2886955, -0.2911785
 86094166, 0.06416765, 0.3583893, 0.2879753, -0.2916185, 0.06421711, 0.5101993, 0.2880493, -0.2922458
 86144177, -0.5007027, -0.02079058, 0.288937, -0.2909928, 0.06416765, 0.3583893, 0.2879753, -0.2916185
 86199209, -0.0169612, 0.3339522, 0.2876425, -0.2911763, -0.5007027, -0.02079058, 0.288937, -0.2909928
 86254159, -0.08333794, 0.1809923, 0.2876891, -0.2904211, -0.0169612, 0.3339522, 0.2876425, -0.2911763
 86309706, -0.3288548, 0.06939876, 0.2883194, -0.2908875, -0.08333794, 0.1809923, 0.2876891, -0.2904211
 86364216, -0.471727, 0.02994559, 0.2890679, -0.2909298, -0.3288548, 0.06939876, 0.2883194, -0.2908875
 86419197, -0.2849941, 0.1622713, 0.2884085, -0.2910796, -0.471727, 0.02994559, 0.2890679, -0.2909298
 86474467, -0.6731415, 0.2555522, 0.2899016, -0.2914013, -0.2849941, 0.1622713, 0.2884085, -0.2910796
 86529179, 0.1834222, 1.040455, 0.2881238, -0.2959119, -0.6731415, 0.2555522, 0.2899016, -0.2914013
 86585704, -0.6408653, 0.227449, 0.2899801, -0.2913699, 0.1834222, 1.040455, 0.2881238, -0.2959119
 86639214, 0.08449847, 0.4839343, 0.2874157, -0.2922314, -0.6408653, 0.227449, 0.2899801, -0.2913699
 86694168, -0.8102713, 0.02606512, 0.2903868, -0.290754, 0.08449847, 0.4839343, 0.2874157, -0.2922314
 86744421, -0.08670866, 0.8992842, 0.2877731, -0.2939763, -0.8102713, 0.02606512, 0.2903868, -0.290754
 86799205, -0.4536917, 1.523866, 0.2884096, -0.3005636, -0.08670866, 0.8992842, 0.2877731, -0.2939763
 86854205, -0.2725227, 0.8701969, 0.2881602, -0.2935981, -0.4536917, 1.523866, 0.2884096, -0.3005636
 86909615, 0.02046263, 1.06173, 0.2876732, -0.2950141, -0.2725227, 0.8701969, 0.2881602, -0.2935981
 86964201, -0.2125079, 0.6359847, 0.2879229, -0.2916691, 0.02046263, 1.06173, 0.2876732, -0.2950141
 87019165, -0.2319802, 0.6606126, 0.2884224, -0.2913556, -0.2125079, 0.6359847, 0.2879229, -0.2916691
 87074225, -0.2438652, 1.153413, 0.2885436, -0.2951902, -0.2319802, 0.6606126, 0.2884224, -0.2913556
 87129187, -0.1172428, 0.6673304, 0.2894472, -0.2910464, -0.2438652, 1.153413, 0.2885436, -0.2951902
 87179169, 0.1381561, 0.7939646, 0.2899021, -0.2917428, -0.1172428, 0.6673304, 0.2894472, -0.2910464
 87234565, -0.1581646, 0.6357159, 0.2900633, -0.2902687, 0.1381561, 0.7939646, 0.2899021, -0.2917428
 87294182, -0.1885357, 0.5403771, 0.2904414, -0.2894451, -0.1581646, 0.6357159, 0.2900633, -0.2902687
 87344164, -0.001116793, 0.894022, 0.2906227, -0.2916591, -0.1885357, 0.5403771, 0.2904414, -0.2894451
 87399237, 0.2298587, 0.8695226, 0.2915791, -0.2910538, -0.001116793, 0.894022, 0.2906227, -0.2916591
 87454170, 0.2023546, 0.293023, 0.2917362, -0.2881258, 0.2298587, 0.8695226, 0.2915791, -0.2910538
 87509707, 0.1600031, 0.8911244, 0.2917549, -0.29129, 0.2023546, 0.293023, 0.2917362, -0.2881258
 87564210, 0.2603682, -0.03692401, 0.2920885, -0.2877257, 0.1600031, 0.8911244, 0.2917549, -0.29129
 87619189, 0.2139585, 0.6664342, 0.2921025, -0.2898189, 0.2603682, -0.03692401, 0.2920885, -0.2877257
 87674424, 0.3858443, 0.4137344, 0.2928964, -0.2886876, 0.2139585, 0.6664342, 0.2921025, -0.2898189
 87724194, -0.1798789, 0.3268211, 0.2926491, -0.2881781, 0.3858443, 0.4137344, 0.2928964, -0.2886876
 87779473, 0.568466, 0.2776464, 0.2937818, -0.2880956, -0.1798789, 0.3268211, 0.2926491, -0.2881781
 87834550, -0.2227335, 0.1288838, 0.2925087, -0.287385, 0.568466, 0.2776464, 0.2937818, -0.2880956
 87894215, 0.2671608, 0.141951, 0.2926176, -0.286856, -0.2227335, 0.1288838, 0.2925087, -0.287385
 87944427, 0.0486699, -0.06002945, 0.2922806, -0.286627, 0.2671608, 0.141951, 0.2926176, -0.286856
 87999211, -0.4541023, 0.2324449, 0.2930783, -0.2867196, 0.0486699, -0.06002945, 0.2922806, -0.286627
 88054205, 0.4787839, -0.09988715, 0.2931713, -0.2864769, -0.4541023, 0.2324449, 0.2930783, -0.2867196
 88109572, -0.05537153, -0.1557735, 0.2921019, -0.2866763, 0.4787839, -0.09988715, 0.2931713, -0.2864769
 88164193, 0.08552537, -0.3424613, 0.2925837, -0.2866312, -0.05537153, -0.1557735, 0.2921019, -0.2866763
 88214173, 0.1924662, 0.4009835, 0.2928383, -0.2867465, 0.08552537, -0.3424613, 0.2925837, -0.2866312
 88269208, -0.2038357, -0.1761493, 0.2931853, -0.2866274, 0.1924662, 0.4009835, 0.2928383, -0.2867465
 88324221, 0.3574091, 0.5525615, 0.2935473, -0.2881965, -0.2038357, -0.1761493, 0.2931853, -0.2866274
 88379198, 0.1584843, -0.3545211, 0.2923291, -0.2875414, 0.3574091, 0.5525615, 0.2935473, -0.2881965
 88434555, 0.1591859, 0.5681048, 0.2919174, -0.2881382, 0.1584843, -0.3545211, 0.2923291, -0.2875414
 88489190, 0.1376243, -0.4321038, 0.2910552, -0.287499, 0.1591859, 0.5681048, 0.2919174, -0.2881382
 88544414, 0.2271448, 0.5706222, 0.2911681, -0.2878788, 0.1376243, -0.4321038, 0.2910552, -0.287499
 88599209, -0.1094839, -0.4464661, 0.2909035, -0.2873037, 0.2271448, 0.5706222, 0.2911681, -0.2878788
 88654163, 0.2390691, 0.2447627, 0.2906885, -0.2867705, -0.1094839, -0.4464661, 0.2909035, -0.2873037
 88704173, 0.2271109, 0.5562828, 0.290315, -0.2880053, 0.2390691, 0.2447627, 0.2906885, -0.2867705
 88760391, -0.5457429, -0.199321, 0.2911642, -0.2870536, 0.2271109, 0.5562828, 0.290315, -0.2880053
 88814436, 0.3826541, 0.2438279, 0.2907078, -0.2870602, -0.5457429, -0.199321, 0.2911642, -0.2870536
 88869195, -0.5076671, 0.0559565, 0.2914783, -0.2862283, 0.3826541, 0.2438279, 0.2907078, -0.2870602
 88924215, -0.02470925, -0.1020618, 0.2902515, -0.2862092, -0.5076671, 0.0559565, 0.2914783, -0.2862283
 88979187, -0.6854872, -0.5143801, 0.2919276, -0.2870232, -0.02470925, -0.1020618, 0.2902515, -0.2862092
 89034567, -0.4053986, -0.1389411, 0.2903849, -0.2855209, -0.6854872, -0.5143801, 0.2919276, -0.2870232
 89089215, -0.02095197, 0.5364664, 0.2897271, -0.2865522, -0.4053986, -0.1389411, 0.2903849, -0.2855209
 89144419, -0.4245957, 0.04988903, 0.2913315, -0.2844313, -0.02095197, 0.5364664, 0.2897271, -0.2865522
 89199200, -0.07415085, -0.1381084, 0.2907917, -0.2834356, -0.4245957, 0.04988903, 0.2913315, -0.2844313
 89249407, 0.03931541, 0.5013768, 0.2908683, -0.2837705, -0.07415085, -0.1381084, 0.2907917, -0.2834356
 89304223, -0.5306507, -0.008543445, 0.2919873, -0.2824548, 0.03931541, 0.5013768, 0.2908683, -0.2837705
 89360435, -0.1679973, 0.228246, 0.2909327, -0.2824521, -0.5306507, -0.008543445, 0.2919873, -0.2824548
 89414419, 0.06568265, -0.2445328, 0.2905699, -0.2829059, -0.1679973, 0.228246, 0.2909327, -0.2824521
 89469207, -0.1388557, -0.1913093, 0.2905988, -0.2826721, 0.06568265, -0.2445328, 0.2905699, -0.2829059
 89524219, 0.1147859, -0.03724267, 0.2904868, -0.2824465, -0.1388557, -0.1913093, 0.2905988, -0.2826721
 89579436, 0.01063011, 0.6051504, 0.290111, -0.2840159, 0.1147859, -0.03724267, 0.2904868, -0.2824465
 89634558, -0.07113418, -0.5231439, 0.289566, -0.2838543, 0.01063011, 0.6051504, 0.290111, -0.2840159
 89689178, 0.13287, 0.4404963, 0.2882723, -0.2836087, -0.07113418, -0.5231439, 0.289566, -0.2838543
 89739185, 0.1014888, 0.04784475, 0.2875031, -0.2829432, 0.13287, 0.4404963, 0.2882723, -0.2836087
 89794202, 0.03599312, -0.3160127, 0.287193, -0.2833256, 0.1014888, 0.04784475, 0.2875031, -0.2829432
 89849441, 0.1788697, 0.8148794, 0.2873288, -0.2857441, 0.03599312, -0.3160127, 0.287193, -0.2833256
 89904225, 0.7050807, 0.03588526, 0.2899283, -0.2822012, 0.1788697, 0.8148794, 0.2873288, -0.2857441
 89960370, 0.0002695588, 0.5537919, 0.2877001, -0.28361, 0.7050807, 0.03588526, 0.2899283, -0.2822012
 90014187, -0.08527546, 0.5291383, 0.2872209, -0.2833067, 0.0002695588, 0.5537919, 0.2877001, -0.28361
 90069185, 0.04819312, 0.04913222, 0.2875067, -0.2814117, -0.08527546, 0.5291383, 0.2872209, -0.2833067
 90124212, -0.06659971, 0.6161402, 0.2880139, -0.2826074, 0.04819312, 0.04913222, 0.2875067, -0.2814117
 90179176, -0.07123056, 0.4873329, 0.2884235, -0.2816278, -0.06659971, 0.6161402, 0.2880139, -0.2826074
 90229189, 0.002032891, 0.1967612, 0.2886811, -0.2806606, -0.07123056, 0.4873329, 0.2884235, -0.2816278
 90285723, 0.02741761, 0.3188845, 0.2885864, -0.2813972, 0.002032891, 0.1967612, 0.2886811, -0.2806606
 90339191, -0.01538444, 0.2084256, 0.2887487, -0.2815891, 0.02741761, 0.3188845, 0.2885864, -0.2813972
 90394206, -0.2304823, 0.3290841, 0.2885999, -0.2824365, -0.01538444, 0.2084256, 0.2887487, -0.2815891
 90449237, -0.01655216, 0.2521031, 0.2880799, -0.2825282, -0.2304823, 0.3290841, 0.2885999, -0.2824365
 90504180, -0.1379739, 0.1057935, 0.2883107, -0.282404, -0.01655216, 0.2521031, 0.2880799, -0.2825282
 90560393, -0.03534621, -0.08071449, 0.2885086, -0.282776, -0.1379739, 0.1057935, 0.2883107, -0.282404
 90614445, -0.2002917, -0.4402531, 0.2891124, -0.2838471, -0.03534621, -0.08071449, 0.2885086, -0.282776
 90669172, 0.1914552, 0.3251257, 0.2894745, -0.2836219, -0.2002917, -0.4402531, 0.2891124, -0.2838471
 90724211, -0.1905113, 0.07333323, 0.2893772, -0.283536, 0.1914552, 0.3251257, 0.2894745, -0.2836219
 90774200, -0.3144425, -0.275661, 0.2901422, -0.2835928, -0.1905113, 0.07333323, 0.2893772, -0.283536
 90829228, 0.2950823, 0.381252, 0.2902205, -0.2839104, -0.3144425, -0.275661, 0.2901422, -0.2835928
 90885970, -0.01990228, 0.1345645, 0.2896815, -0.2835763, 0.2950823, 0.381252, 0.2902205, -0.2839104
 90939194, -0.3886819, -0.2412862, 0.2904168, -0.2833844, -0.01990228, 0.1345645, 0.2896815, -0.2835763
 90994210, 0.322282, 0.2620993, 0.2904104, -0.2836249, -0.3886819, -0.2412862, 0.2904168, -0.2833844
 91049188, -0.1074982, 0.1774002, 0.2902765, -0.2843557, 0.322282, 0.2620993, 0.2904104, -0.2836249
 91104203, 0.2872691, -0.353606, 0.290348, -0.2854263, -0.1074982, 0.1774002, 0.2902765, -0.2843557
 91160394, 0.2693003, 0.1886828, 0.289932, -0.2857168, 0.2872691, -0.353606, 0.290348, -0.2854263
 91209561, 0.4465843, -0.4973903, 0.2903051, -0.2865595, 0.2693003, 0.1886828, 0.289932, -0.2857168
 91264181, 0.3518253, 0.09548131, 0.2896318, -0.285599, 0.4465843, -0.4973903, 0.2903051, -0.2865595
 91319188, 0.05034307, 0.2607953, 0.2891641, -0.2856925, 0.3518253, 0.09548131, 0.2896318, -0.285599
 91374225, 0.06668715, -0.4624812, 0.2891656, -0.2865198, 0.05034307, 0.2607953, 0.2891641, -0.2856925
 91429214, 0.222643, 0.5343225, 0.2889247, -0.2873923, 0.06668715, -0.4624812, 0.2891656, -0.2865198
 91485730, 0.2191598, -0.09261866, 0.2888665, -0.2863157, 0.222643, 0.5343225, 0.2889247, -0.2873923
 91539193, 0.366761, 0.2149584, 0.2893565, -0.2869631, 0.2191598, -0.09261866, 0.2888665, -0.2863157
 91594170, -0.05445674, -0.1913684, 0.289332, -0.2869648, 0.366761, 0.2149584, 0.2893565, -0.2869631
 91649418, 0.1568175, 0.1154955, 0.2900605, -0.2855504, -0.05445674, -0.1913684, 0.289332, -0.2869648
 91704187, 0.7567287, 0.7042558, 0.2938519, -0.2858822, 0.1568175, 0.1154955, 0.2900605, -0.2855504
 91754218, -0.3118215, 0.4567721, 0.2930241, -0.2837378, 0.7567287, 0.7042558, 0.2938519, -0.2858822
 91809593, 0.1067604, -0.2398445, 0.2932291, -0.2826018, -0.3118215, 0.4567721, 0.2930241, -0.2837378
 91864185, -0.05067439, 0.128342, 0.2932044, -0.2823083, 0.1067604, -0.2398445, 0.2932291, -0.2826018
 91919427, -0.1077578, 0.1866897, 0.2927006, -0.2824827, -0.05067439, 0.128342, 0.2932044, -0.2823083
 91974208, 0.2660321, 0.2028015, 0.2913786, -0.2831798, -0.1077578, 0.1866897, 0.2927006, -0.2824827
 92029191, 0.220634, 0.6291317, 0.290521, -0.2850716, 0.2660321, 0.2028015, 0.2913786, -0.2831798
 92085815, -0.1986378, 0.1577772, 0.2901023, -0.2837688, 0.220634, 0.6291317, 0.290521, -0.2850716
