TimeUS,CAN,CAE,CAD,CAe,NAN,NAE,NAD,NAe,m10,m00,Gye
 21338593, -0.1158813, 0.009029116, 0.02021138, 0.07763288, -0.03656124, 0.003090885, 0.006820495, 0.03364624, -0.9934015, -0.1097139, 105.1075
 21518693, -0.1016566, 0.008546647, 0.01757958, 0.06758615, -0.03336256, 0.003178455, 0.00470182, 0.03347458, -0.9932291, -0.1112289, 114.3811
 21738559, -0.1133131, 0.009826881, 0.01945815, 0.07485443, -0.04229707, 0.003299832, 0.005899329, 0.04091452, -0.9937766, -0.10628, 126.6818
 21938646, -0.1131264, 0.007775615, 0.01869261, 0.07857616, -0.03847409, 0.003863368, 0.008106655, 0.03719501, -0.9933848, -0.1098411, 132.9803
 22138577, -0.1105812, 0.009874296, 0.01949482, 0.07485553, -0.03846607, 0.002976126, 0.00544649, 0.03719501, -0.9932114, -0.111327, 126.6837
 22338607, -0.1104594, 0.008132067, 0.01866735, 0.07485498, -0.04004019, 0.001880144, 0.007489496, 0.03719613, -0.9937145, -0.1067902, 126.6827
 22538604, -0.1121552, 0.007974157, 0.01939238, 0.07485609, -0.03925114, 0.002575431, 0.00584717, 0.03719464, -0.9935652, -0.1081429, 126.6846
 22738588, -0.1112783, 0.008812154, 0.01850683, 0.0748544, -0.03906038, 0.002573588, 0.005678646, 0.03719426, -0.994091, -0.1032669, 126.6818
 22938596, -0.1111981, 0.008245883, 0.01724706, 0.07485405, -0.03867256, 0.004006063, 0.005340987, 0.03719594, -0.9936604, -0.1073047, 126.6811
 23138811, -0.1122471, 0.009913533, 0.01866458, 0.0748548, -0.04091575, 0.00343805, 0.007031728, 0.03719409, -0.9934382, -0.1093051, 126.6824
 23338701, -0.1137676, 0.009592975, 0.01843764, 0.07485479, -0.04029847, 0.002192896, 0.006358108, 0.03719539, -0.9938836, -0.1052471, 126.6824
 23538615, -0.1132671, 0.007738153, 0.01963947, 0.07485925, -0.04150745, 0.002514435, 0.007194409, 0.03719464, -0.9936641, -0.1072856, 126.69
 23738615, -0.114972, 0.00793587, 0.01868955, 0.07485647, -0.04026806, 0.00165559, 0.007194955, 0.03719539, -0.9940912, -0.1032811, 126.6852
 23938593, -0.1121634, 0.008014427, 0.02026812, 0.07486263, -0.03938871, 0.004185552, 0.007326906, 0.03719464, -0.993699, -0.106932, 126.6956
 24118608, -0.1045341, 0.009448775, 0.01846715, 0.07113567, -0.03352962, 0.003234415, 0.008550314, 0.03347625, -0.9934393, -0.109337, 120.3882
 24338598, -0.1125976, 0.008951961, 0.0234371, 0.07485573, -0.0416056, 0.00319051, 0.006723175, 0.04091377, -0.9938898, -0.1052124, 126.684
 24538621, -0.1136938, 0.008997333, 0.01921228, 0.07857465, -0.03836206, 0.003816503, 0.004556964, 0.03719502, -0.9936965, -0.1069829, 132.9778
 24738592, -0.1106592, 0.00820768, 0.01656479, 0.07485609, -0.03978795, 0.001773091, 0.006803571, 0.03719502, -0.9942367, -0.1018886, 126.6846
 24938621, -0.1106474, 0.007242309, 0.01975977, 0.07485592, -0.03921613, 0.001769972, 0.006654182, 0.03719501, -0.9938213, -0.1057687, 126.6843
 25138703, -0.1114101, 0.008082069, 0.02074154, 0.0748613, -0.0407032, 0.005221446, 0.008129105, 0.03719501, -0.9935747, -0.1080191, 126.6934
 25338614, -0.1131298, 0.0101025, 0.01965182, 0.07485498, -0.03933509, 0.002503809, 0.005469582, 0.03719538, -0.9940881, -0.1032622, 126.6887
 25538520, -0.1124448, 0.008288016, 0.01692533, 0.0748561, -0.04119711, 0.003157818, 0.005525003, 0.03719557, -0.9937525, -0.1063728, 126.6925
 25738503, -0.1128861, 0.0086765, 0.01720724, 0.07485722, -0.03934814, 0.001627775, 0.007688392, 0.03719389, -0.9942338, -0.1018153, 126.6944
 25938524, -0.1100848, 0.006944644, 0.02075524, 0.07485572, -0.03878028, 0.003193785, 0.005764608, 0.03719687, -0.9938005, -0.105908, 126.6919
 26138505, -0.1120865, 0.009793147, 0.01978051, 0.07486093, -0.04005228, 0.004357769, 0.006340594, 0.03719464, -0.9935232, -0.1084703, 126.7007
 26338516, -0.1138247, 0.01050788, 0.01802713, 0.0748548, -0.03933911, 0.003099285, 0.008235642, 0.03719371, -0.9937601, -0.1063266, 126.6843
 26538538, -0.1118101, 0.008593434, 0.01972632, 0.07485516, -0.0391495, 0.002880419, 0.006548753, 0.03719501, -0.9938768, -0.1052252, 126.683
 26738537, -0.1103633, 0.008561115, 0.01992828, 0.07485832, -0.04060109, 0.003281368, 0.006938272, 0.03719558, -0.9936255, -0.1075421, 126.6884
 26938562, -0.1120051, 0.008465334, 0.0201691, 0.07485873, -0.03937988, 0.003520617, 0.007117349, 0.03719446, -0.9931748, -0.1115853, 126.689
 27138521, -0.1119089, 0.009788363, 0.02090416, 0.07485908, -0.04053687, 0.003254449, 0.007082088, 0.03719557, -0.9929493, -0.1135205, 126.6896
 27338537, -0.1122514, 0.01031447, 0.01998658, 0.07485906, -0.03897391, 0.004099325, 0.003916161, 0.03719445, -0.9931626, -0.1116669, 126.6957
 27538542, -0.1127806, 0.01100614, 0.01709543, 0.07485702, -0.03947448, 0.002973181, 0.005424654, 0.03719557, -0.9934368, -0.1092585, 126.6941
 27738526, -0.1120634, 0.009728537, 0.01715658, 0.07485497, -0.03985942, 0.004818819, 0.003828062, 0.0371952, -0.9933439, -0.1101136, 126.6906
 27938527, -0.1124442, 0.0118194, 0.01699818, 0.07485589, -0.04111585, 0.004889252, 0.00879628, 0.03719501, -0.9930074, -0.1131112, 126.6922
 28138501, -0.112602, 0.01201613, 0.0223829, 0.07485888, -0.03999949, 0.005361266, 0.008363671, 0.03719502, -0.9928725, -0.1143083, 126.6972
 28338546, -0.1109315, 0.0115592, 0.02044332, 0.07485592, -0.03946723, 0.00342288, 0.006305891, 0.03719483, -0.9930945, -0.1124073, 126.6863
 28538540, -0.1124635, 0.01061352, 0.01756483, 0.07485463, -0.03953054, 0.004100998, 0.007935194, 0.03719558, -0.993399, -0.1096985, 126.6821
 28738540, -0.1123525, 0.01001605, 0.0190773, 0.07485497, -0.03899173, 0.004859169, 0.008151456, 0.0371939, -0.9932715, -0.1108926, 126.6827
 28938492, -0.1112212, 0.01081433, 0.01925778, 0.0748537, -0.03976561, 0.003940989, 0.007895214, 0.03719501, -0.9928702, -0.1143723, 126.6805
 29198506, -0.1338476, 0.01125434, 0.02500295, 0.08601608, -0.06116594, 0.005472054, 0.0121815, 0.04835352, -0.9928432, -0.1146062, 145.5714
 29318529, -0.1051844, 0.00887986, 0.01995961, 0.07113659, -0.02195046, 0.00195789, 0.004269297, 0.02231701, -0.9928747, -0.1143329, 120.3843
 29538499, -0.1007843, 0.009514457, 0.01785905, 0.06369796, -0.04433136, 0.003204056, 0.008271455, 0.04091488, -0.9929179, -0.1139468, 107.7941
 29738513, -0.1173972, 0.009753656, 0.02171507, 0.07857986, -0.04007912, 0.002987733, 0.007863805, 0.03719521, -0.992917, -0.1139733, 132.9783
 29938517, -0.1132387, 0.009615787, 0.01944176, 0.07485591, -0.04154748, 0.002747153, 0.007349132, 0.03719445, -0.9928871, -0.1142228, 126.6764
 30138486, -0.1146186, 0.007943477, 0.02013301, 0.07484736, -0.03904293, 0.002751044, 0.006360901, 0.03722813, -0.9928693, -0.1143662, 126.6619
 30338475, -0.1117086, 0.009098285, 0.01839991, 0.07484961, -0.03995416, 0.004313786, 0.006627229, 0.03715485, -0.9929093, -0.1140048, 126.6657
 30538491, -0.1122176, 0.01158427, 0.02042583, 0.0748165, -0.04113322, 0.003806726, 0.007176848, 0.03719501, -0.9929605, -0.11355, 126.6096
 30738449, -0.1132369, 0.01051406, 0.01968103, 0.07485554, -0.04160591, 0.003800568, 0.007254221, 0.03719483, -0.992959, -0.1135692, 126.6757
 30938431, -0.1133252, 0.01027965, 0.0192018, 0.07485518, -0.03883343, 0.004003034, 0.006987135, 0.03719632, -0.9929303, -0.1138151, 126.6751
 31138437, -0.1108723, 0.01056389, 0.01883917, 0.07485574, -0.04038396, 0.005389388, 0.005735755, 0.0371939, -0.9929025, -0.1140607, 126.6761
 31338463, -0.1119905, 0.01168634, 0.01753408, 0.07485592, -0.0396411, 0.003377923, 0.006342393, 0.03719557, -0.992934, -0.1137851, 126.6764
 31538509, -0.1121956, 0.009835259, 0.01849576, 0.07485705, -0.04194627, 0.003869819, 0.008782706, 0.03719743, -0.9929864, -0.1133336, 126.6783
 31738468, -0.1138105, 0.01027414, 0.02149361, 0.0748563, -0.04076068, 0.004253082, 0.008433856, 0.03719185, -0.9929808, -0.113373, 126.677
 31938458, -0.1124207, 0.01064705, 0.02077259, 0.07485221, -0.03910843, 0.003443102, 0.007065057, 0.0371952, -0.9929414, -0.1137098, 126.6701
 32138490, -0.1109109, 0.01002013, 0.01942386, 0.07485761, -0.04013793, 0.004639484, 0.007023503, 0.03719502, -0.9929082, -0.113989, 126.6792
 32338518, -0.1122854, 0.01111562, 0.01840036, 0.0748563, -0.04012012, 0.003399014, 0.005273037, 0.0371952, -0.9929461, -0.1136688, 126.677
 32538490, -0.1124876, 0.01063143, 0.01723377, 0.07485573, -0.04005827, 0.003662115, 0.005064039, 0.03719484, -0.9929987, -0.1132073, 126.6761
 32738462, -0.1121572, 0.009836968, 0.01764807, 0.07485481, -0.04054971, 0.003808909, 0.008150588, 0.03719501, -0.9930081, -0.1131369, 126.6745
 32938469, -0.1121212, 0.0102611, 0.02110952, 0.07485797, -0.03962805, 0.00350046, 0.00773363, 0.03719557, -0.9929717, -0.1134442, 126.6798
 33138469, -0.1121136, 0.009293382, 0.02013864, 0.07485854, -0.04031571, 0.003012163, 0.006386982, 0.03719446, -0.9929516, -0.1136092, 126.6808
 33338470, -0.112846, 0.008941426, 0.01955363, 0.07485575, -0.04041261, 0.003808656, 0.008137842, 0.03719632, -0.9930012, -0.1131596, 126.6761
 33538509, -0.1144844, 0.01033776, 0.02145152, 0.07485592, -0.04189925, 0.00369703, 0.005515206, 0.03719521, -0.9930472, -0.1127519, 126.6764
 33738467, -0.113281, 0.01016258, 0.01864504, 0.07485556, -0.0397418, 0.00250596, 0.00915541, 0.03719538, -0.9930422, -0.1127861, 126.6757
 33938481, -0.1123594, 0.008721864, 0.02092171, 0.07485424, -0.03968671, 0.004211325, 0.004942813, 0.0371952, -0.9930135, -0.1130227, 126.6735
 34138491, -0.1120417, 0.01077138, 0.01702353, 0.0748537, -0.03922086, 0.004177136, 0.005704324, 0.03719353, -0.9929885, -0.1132336, 126.6726
 34338470, -0.1112796, 0.009296559, 0.01767744, 0.07485647, -0.03901616, 0.001429816, 0.006319241, 0.03719464, -0.9930332, -0.1128225, 126.6773
 34518505, -0.1034751, 0.006597247, 0.01757086, 0.07113568, -0.03293543, 0.002943668, 0.005979649, 0.03347514, -0.9930772, -0.1124279, 120.3807
 34738451, -0.1116842, 0.0109021, 0.01902873, 0.0748576, -0.04277231, 0.004609948, 0.008878056, 0.04091489, -0.9930772, -0.1124188, 126.6792
 34938517, -0.112906, 0.01193494, 0.02181338, 0.07857655, -0.03741416, 0.004806495, 0.004866696, 0.03719483, -0.9930891, -0.1123086, 132.9727
 35138541, -0.1090571, 0.01142858, 0.01868176, 0.07485591, -0.04033568, 0.003748921, 0.008075249, 0.0371952, -0.9931176, -0.1120515, 126.6764
 35338547, -0.1121908, 0.01017731, 0.01996587, 0.07485498, -0.04092418, 0.00308726, 0.006693637, 0.03719539, -0.9931597, -0.111677, 126.6748
 35538535, -0.1114966, 0.009204708, 0.0189048, 0.0748565, -0.03994698, 0.002932527, 0.006587496, 0.03719464, -0.993199, -0.1113302, 126.6773
 35738559, -0.1113189, 0.009776426, 0.01957884, 0.07485443, -0.03976713, 0.003444922, 0.006536995, 0.03719539, -0.9932394, -0.110973, 126.6739
 35938542, -0.111609, 0.01022681, 0.01772745, 0.07485666, -0.03969141, 0.003061541, 0.004774187, 0.03719464, -0.993264, -0.1107425, 126.6776
 36138511, -0.1127237, 0.008436159, 0.01667139, 0.07485667, -0.03990716, 0.003459875, 0.006945939, 0.03719465, -0.9932939, -0.1104657, 126.6776
 36338515, -0.1111401, 0.0100117, 0.01863366, 0.07485704, -0.04054819, 0.004895079, 0.007074836, 0.03719576, -0.9933348, -0.1100954, 126.6783
 36538523, -0.1119084, 0.01167083, 0.01877064, 0.07485761, -0.04034144, 0.003753716, 0.006833919, 0.03719558, -0.9933718, -0.1097499, 126.6792
 36738529, -0.112624, 0.0112608, 0.01816662, 0.07485461, -0.03977695, 0.002987823, 0.007881441, 0.03719389, -0.9934093, -0.1094001, 126.6742
 36938544, -0.1111314, 0.009978645, 0.02076128, 0.074855, -0.04136829, 0.005059278, 0.007863274, 0.03719502, -0.9934363, -0.1091436, 126.6748
 37138508, -0.1119265, 0.01196329, 0.01991693, 0.07485519, -0.04010811, 0.00208183, 0.006212683, 0.03719502, -0.9934644, -0.1088837, 126.6751
 37338547, -0.08481988, 0.02826123, 0.01057444, 0.07485519, 0.03239915, 0.0654882, 0.009745233, 0.03719483, -0.9934975, -0.108644, 126.6751
 37558574, -0.04054642, 0.07551977, 0.01984021, 0.0785745, -0.04566275, 0.009222012, -0.008294776, 0.04091582, -0.9935336, -0.1083159, 132.9692
 37738571, -0.116024, 0.01012309, 0.005690389, 0.07485668, -0.04457212, -0.006317121, 0.006518437, 0.03347514, -0.9935642, -0.1080032, 126.6776
 37938530, -0.119949, 0.00466978, 0.01784468, 0.07113586, -0.07997771, 0.02485484, -0.06388395, 0.03719576, -0.993557, -0.1084775, 120.381
 38138523, -0.143489, 0.03603746, -0.02414829, 0.0748591, -0.04604575, 0.02087589, 0.0590288, 0.03719501, -0.9940516, -0.1046384, 126.6817
 38338549, -0.1201915, 0.02007025, 0.07529692, 0.07485609, -0.06625833, 0.05863747, 0.008443585, 0.03719501, -0.9946832, -0.09967796, 126.6767
 38538561, -0.1552091, 0.04842654, -0.002372164, 0.07485498, -0.07285796, -0.04120594, 0.02039981, 0.03719557, -0.9956336, -0.09283261, 126.6748
 38738566, -0.2298376, -0.07481202, -0.3716233, 0.07485705, -0.09553235, -0.05609649, -0.3301339, 0.03719428, -0.9949385, -0.09030588, 126.6783
 38938554, -0.3586432, -0.1164495, -0.9630966, 0.07485557, -0.206337, -0.005374253, -0.3552852, 0.03719502, -0.9945522, -0.09846656, 126.6757
 39138559, -0.5076373, -0.01558153, -0.9133189, 0.07485686, -0.1531153, 0.003644621, -0.3343373, 0.03719613, -0.9953508, -0.09500626, 126.6779
 39338541, -0.4701954, 0.03400409, -0.879767, 0.07485554, -0.1840675, 0.0265746, -0.3044737, 0.03719465, -0.9946344, -0.1017473, 126.6757
 39558573, -0.4731146, 0.05153595, -0.6697441, 0.07857413, -0.1448917, -0.002568008, -0.1166838, 0.04091435, -0.9943575, -0.1032097, 132.9686
 39738523, -0.3209684, -0.01654589, -0.2225391, 0.07485463, -0.09400329, 0.004017261, -0.0821004, 0.03347495, -0.9937252, -0.1015558, 126.6742
 39938571, -0.2070801, -0.04942763, -0.1353433, 0.0711381, -0.05276062, -0.04344739, -0.01010977, 0.03719502, -0.9934211, -0.09646214, 120.3848
 40138546, -0.09824207, -0.1218885, 0.05508112, 0.07485592, -0.007586542, -0.04822205, 0.2012094, 0.03719501, -0.9926739, -0.09593007, 126.6764
 40338545, 0.01558216, -0.08844623, 1.102584, 0.074855, 0.03689171, -0.02099239, 0.606595, 0.03719501, -0.9910669, -0.09942249, 126.6748
 40538554, 0.07842775, -0.05479772, 1.740248, 0.07485517, 0.03394139, -0.007429373, 0.5282916, 0.03719576, -0.9886244, -0.1028616, 126.6751
 40738531, 0.09703378, -0.0673734, 1.43776, 0.07485574, 0.0388209, -0.05130532, 0.458049, 0.03719446, -0.9893582, -0.1043467, 126.6761
 40938561, 0.1091209, -0.1034108, 1.164575, 0.07485445, 0.03690122, -0.03104258, 0.3525714, 0.03719501, -0.9908271, -0.1078581, 126.6739
 41138560, 0.08239521, -0.0402215, 0.9405795, 0.074855, 0.001364105, 0.008781532, 0.3137184, 0.03719502, -0.9935568, -0.1087482, 126.6748
 41338580, 0.03564564, 0.1094371, 0.7874504, 0.07485554, 0.02542633, 0.09924163, 0.2405858, 0.03719557, -0.9916236, -0.1130358, 126.6757
 41538562, 0.04223124, 0.3274865, 0.5211396, 0.0748589, -0.01293421, 0.1535857, 0.1121837, 0.03719446, -0.9851369, -0.1056587, 126.6814
 41738562, 0.02998946, 0.5130035, -0.1000678, 0.07485556, 0.005848144, 0.2077108, -0.1974266, 0.03719502, -0.9815769, -0.09693344, 126.6757
 41938532, 0.05617653, 0.6598946, -0.6948135, 0.0748574, 0.04502972, 0.2866504, -0.3571854, 0.03719502, -0.9831258, -0.09787457, 126.6789
 42138549, 0.05574617, 0.6492219, -1.156591, 0.07485668, -0.02944475, 0.1488694, -0.5233211, 0.03719502, -0.9913022, -0.1079705, 126.6776
 42338555, -0.1417563, 0.2429585, -1.611871, 0.07485501, -0.08008902, -0.01380058, -0.6093456, 0.03719501, -0.9941481, -0.1060859, 126.6748
 42538564, -0.320654, -0.2156993, -1.696303, 0.074855, -0.1496455, -0.1618291, -0.6111609, 0.03719501, -0.9868965, -0.1059614, 126.6748
 42738551, -0.4710352, -0.5289351, -1.63034, 0.0748563, -0.1772154, -0.2364917, -0.5065503, 0.03719501, -0.9828597, -0.102999, 126.677
 42938547, -0.5313973, -0.6345485, -1.370299, 0.074855, -0.1978861, -0.2159901, -0.4379292, 0.03719557, -0.9816509, -0.09544627, 126.6748
 43138570, -0.515373, -0.614341, -1.163284, 0.07485554, -0.1679602, -0.2201453, -0.3729367, 0.03719501, -0.9821855, -0.08976631, 126.6757
 43338589, -0.4350128, -0.5456534, -0.9672612, 0.07485426, -0.1303757, -0.1574055, -0.2840904, 0.03719446, -0.9871108, -0.08410828, 126.6735
 43538600, -0.3230785, -0.3648187, -0.6261443, 0.07485445, -0.09137511, -0.09637058, -0.1561015, 0.03719502, -0.9911179, -0.08140536, 126.6739
 43738597, -0.2095032, -0.2823008, -0.3333, 0.07485723, -0.03874632, -0.09327304, -0.1046829, 0.03719502, -0.9820685, -0.1324226, 126.6786
 43938603, -0.09647907, -0.2249735, -0.06127238, 0.07485592, -0.01943834, -0.05558007, 0.07958325, 0.0371965, -0.9896517, -0.1117421, 126.6764
 44138696, -0.08816908, -0.09655795, 0.3513817, 0.07485478, -0.03567706, 0.006556893, 0.2017792, 0.03719353, -0.9803855, -0.187043, 126.6745
 44338584, -0.07859389, 0.02462403, 0.7109086, 0.07485349, -0.04920804, 0.02918151, 0.3019639, 0.03719594, -0.9812783, -0.1844595, 126.6778
 44538604, -0.1997803, 0.09336454, 0.9036798, 0.07485555, -0.06740093, 0.03279008, 0.3244576, 0.03719408, -0.9836103, -0.1782547, 126.6837
 44738607, -0.2829865, 0.146901, 0.8937567, 0.07485387, -0.1178443, 0.05955113, 0.3187864, 0.03719613, -0.984696, -0.1739814, 126.6808
 44938683, -0.3402864, 0.1991237, 0.8690162, 0.0748563, -0.1201515, 0.08664626, 0.2976694, 0.03719483, -0.9844687, -0.1755442, 126.6849
 45138605, -0.3377983, 0.2376046, 0.8409303, 0.07485387, -0.1307299, 0.08463033, 0.2900402, 0.03719409, -0.9839875, -0.1779481, 126.6808
 45338589, -0.3020498, 0.2398914, 0.8649076, 0.07485405, -0.07990552, 0.07671729, 0.352362, 0.03719501, -0.9838672, -0.1783937, 126.6756
 45538614, -0.2081389, 0.2167682, 0.9602124, 0.07485645, -0.07998785, 0.08088338, 0.3056917, 0.03719557, -0.983589, -0.1799792, 126.6773
 45738576, -0.1780085, 0.219285, 0.8887582, 0.07485498, -0.06840862, 0.1015665, 0.2824053, 0.03719446, -0.9838751, -0.1784855, 126.6748
 45938591, -0.1457438, 0.2448806, 0.6869851, 0.07485442, -0.02494079, 0.07631943, 0.2017658, 0.03719501, -0.9838796, -0.1783838, 126.6739
 46138574, -0.07904895, 0.2324501, 0.4730356, 0.07485498, -0.01549894, 0.0866736, 0.1132264, 0.03719483, -0.9837041, -0.1783176, 126.6748
 46338613, -0.05912676, 0.2606711, 0.2652775, 0.07485498, -0.01684345, 0.09404541, 0.07771482, 0.03719521, -0.9836039, -0.1771881, 126.6803
 46538708, -0.05563026, 0.2799433, 0.1675857, 0.07485592, -0.03149974, 0.09864854, 0.03858643, 0.03719483, -0.9834695, -0.1758156, 126.6843
 46738702, -0.04556046, 0.2890623, 0.1149471, 0.07485741, -0.004346339, 0.1075121, 0.02272023, 0.0371952, -0.9834005, -0.1750012, 126.6868
 46938600, -0.02127241, 0.2908129, 0.06208736, 0.07485926, -0.0207028, 0.08404949, 0.03971237, 0.03719669, -0.9836592, -0.1750133, 126.69
 47138599, -0.0616256, 0.2374143, 0.05925021, 0.07485685, -0.01614886, 0.08341532, -0.01514265, 0.03719334, -0.9839326, -0.1764056, 126.6859
 47338583, -0.079914, 0.1923883, 9.446684E-05, 0.07485332, -0.01483079, 0.04147143, 0.01063036, 0.03719557, -0.9841052, -0.1774883, 126.6743
 47538602, -0.09782995, 0.1119172, 0.03098478, 0.07485481, -0.05039254, 0.02798664, 0.01048388, 0.03719539, -0.9839498, -0.177617, 126.6745
 47738587, -0.1225465, 0.04563783, 0.02513232, 0.07485443, 0.0004480862, -0.0201211, 0.004731079, 0.03719409, -0.9833391, -0.177615, 126.6739
 47938572, 0.006140368, -0.05022968, 0.007734581, 0.07485389, -0.01007777, -0.01231895, -0.03161186, 0.03719502, -0.9825488, -0.1792048, 126.6729
 48138597, 0.07284034, -0.08224961, -0.03963144, 0.07485498, 0.05437744, -0.05628168, 0.01330742, 0.03719502, -0.9818575, -0.1812195, 126.6748
 48338803, 0.149214, -0.1243073, -0.02435009, 0.07485498, 0.06328449, -0.03395016, -0.03268979, 0.03719502, -0.9823559, -0.1792619, 126.6748
 48538705, 0.1468251, -0.08925385, -0.08515973, 0.0748548, 0.03434457, -0.02446164, -0.03829278, 0.03719557, -0.9827161, -0.1786261, 126.6745
 48738570, 0.1008298, -0.04648249, -0.06377929, 0.07485556, 0.0428288, -0.005566761, -0.01624212, 0.03719743, -0.9832847, -0.1779758, 126.6757
 48938595, 0.08750515, -0.0271989, -0.05042976, 0.07485555, 0.01782472, -0.01855393, -0.04285849, 0.03719204, -0.9829316, -0.1801599, 126.6757
 49138600, 0.04842378, -0.03368989, -0.1082626, 0.07485498, -0.0003153749, 0.004979481, -0.04266855, 0.03719502, -0.9829258, -0.1809112, 126.6748
 49338593, 0.02056856, -0.007692744, -0.09558171, 0.07485666, 0.01242259, -0.02317961, 0.01363508, 0.03719502, -0.9828389, -0.1812631, 126.6831
 49538701, 0.01847333, -0.03696483, -0.02143377, 0.074855, 0.01162732, -0.02224708, -0.01091991, 0.03719501, -0.9827836, -0.1812681, 126.6827
 49738570, 0.008430964, -0.04515614, -0.03060609, 0.07485498, 0.003436562, -0.01540936, 0.005517413, 0.03719502, -0.9823799, -0.1824663, 126.6827
 49938590, -0.01132643, -0.05032644, 0.008648352, 0.07485554, -0.0005786355, -0.04088556, 0.01761892, 0.03719483, -0.9818704, -0.183837, 126.6837
 50138589, -0.02472571, -0.08198584, 0.01014351, 0.074855, -0.02713796, -0.0104607, -0.02008341, 0.03719687, -0.981823, -0.183928, 126.6827
 50338617, -0.05747962, -0.06568676, -0.03844858, 0.07485515, -0.009636067, -0.04417733, 0.01669252, 0.03719333, -0.98127, -0.1850715, 126.6776
 50538587, -0.05677656, -0.1428487, 0.02710314, 0.07485332, -0.03877446, -0.07508729, 0.009147739, 0.03719501, -0.9763862, -0.1849018, 126.672
 50738597, -0.1189511, -0.323087, -0.006595701, 0.07485611, -0.05744595, -0.1544395, -0.007684858, 0.03719502, -0.964222, -0.1831305, 126.6767
 50938610, -0.1681291, -0.5082222, -0.00506202, 0.07485741, -0.0731256, -0.1918884, -0.01019679, 0.03719501, -0.9568074, -0.1802585, 126.6789
 51138602, -0.2033086, -0.5593035, -0.01062782, 0.07485498, -0.07584345, -0.2062242, -0.006859289, 0.03719482, -0.9584785, -0.1773592, 126.6748
 51338583, -0.2151352, -0.5130983, 0.02365278, 0.07485497, -0.08335247, -0.157509, 0.01544539, 0.0371952, -0.9634849, -0.1751122, 126.6802
 51538595, -0.2372222, -0.4333763, 0.01510056, 0.07485499, -0.09840246, -0.1361481, -0.02154291, 0.03719557, -0.9658904, -0.173848, 126.6827
 51738603, -0.2414792, -0.3726203, -0.03540864, 0.07485501, -0.05109034, -0.1241265, 0.02133911, 0.03719446, -0.9699175, -0.1718163, 126.6827
 51938604, -0.1758831, -0.2895028, 0.01004634, 0.07485445, -0.08304107, -0.06925651, -0.02856694, 0.03719483, -0.9749894, -0.1712885, 126.6818
 52138701, -0.1730438, -0.1531917, -0.04567657, 0.07485835, -0.03193389, -0.02417837, -0.02535753, 0.0371952, -0.9803515, -0.1691135, 126.6884
 52338574, -0.09282175, -0.02873658, -0.01602694, 0.07485518, -0.02651033, 0.008110979, 0.02247469, 0.03719706, -0.9838145, -0.1674175, 126.683
 52538685, -0.06892496, 0.07287521, 0.05416093, 0.07485501, -0.0191451, 0.04752989, 0.04465334, 0.03719334, -0.9850233, -0.1672146, 126.6827
 52738592, -0.06866676, 0.1474621, 0.08047266, 0.07485703, -0.01694448, 0.04313935, 0.04096823, 0.03719464, -0.9849927, -0.1697675, 126.6862
 52938607, -0.07388192, 0.1634058, 0.1013726, 0.07485461, -0.01133897, 0.08397385, 0.01991936, 0.03719501, -0.9843832, -0.173334, 126.6821
 53138576, -0.08330804, 0.1953795, 0.09013712, 0.074855, -0.0285677, 0.05787406, 0.05656262, 0.03719501, -0.9842529, -0.1739442, 126.6827
 53338605, -0.123802, 0.1738958, 0.1432675, 0.07485536, -0.05981402, 0.06614607, 0.05397836, 0.03719501, -0.9840558, -0.1757257, 126.6833
 53538614, -0.1579058, 0.1943086, 0.136297, 0.07485479, -0.0323214, 0.07350399, 0.03389223, 0.03719502, -0.9841625, -0.1764463, 126.6824
 53738591, -0.09327248, 0.2399254, 0.09257512, 0.07485556, -0.01353052, 0.09368958, 0.05474023, 0.03719501, -0.9842232, -0.1756213, 126.6837
 53938619, -0.05898954, 0.3092634, 0.09898453, 0.07485554, -0.0187552, 0.1249506, 0.00733589, 0.03719483, -0.983716, -0.1738584, 126.6837
 54138607, -0.04561754, 0.3577032, 0.03695364, 0.07485536, 0.009434993, 0.1324073, 0.03372344, 0.0371952, -0.983302, -0.1738928, 126.6833
 54338603, 0.08890608, 0.3481663, 0.03298881, 0.07485518, 0.04296914, 0.1222029, -0.02130553, 0.03719502, -0.9840052, -0.1698366, 126.683
 54558618, 0.2854964, 0.3022438, -0.03001203, 0.07857429, 0.1931234, 0.1038142, -0.04231104, 0.04091526, -0.9851711, -0.1653327, 132.9772
 54738589, 0.4380004, 0.2181785, -0.06058029, 0.074855, 0.1189832, 0.05537543, -0.03940884, 0.03347645, -0.985217, -0.168823, 126.6827
 54938590, 0.3680511, 0.1248189, -0.06623324, 0.07113567, 0.1349243, 0.03043426, -0.00770522, 0.03719334, -0.9854183, -0.1701264, 120.3882
 55138613, 0.3294597, 0.04091157, -0.03882852, 0.07485387, 0.1056855, -0.005754937, -0.04006844, 0.03719502, -0.9838408, -0.1765549, 126.6808
 55338587, 0.2497727, -0.06025854, -0.07623126, 0.0748561, 0.04725438, -0.03678386, -0.01834439, 0.03719557, -0.982161, -0.1780598, 128.2682
 55538601, 0.1179784, -0.100613, -0.02436472, 0.07485482, 0.02041632, -0.02086761, -0.023546, 0.03719482, -0.9819262, -0.1786161, 126.6824
 55738692, 0.007953651, -0.0556651, -0.01690988, 0.07485516, -0.01835011, -0.01868225, 0.03241648, 0.03719465, -0.98279, -0.1764853, 126.683
 55938724, -0.1360094, -0.02211349, 0.03811845, 0.07487098, -0.09554701, 0.006377943, -0.004853718, 0.03719539, -0.9830316, -0.176316, 126.7098
 56138591, -0.3233251, 0.02838015, -0.01038039, 0.074855, -0.1397044, 0.01917122, -0.02259726, 0.03719465, -0.9829893, -0.1779085, 126.6827
 56338581, -0.3989948, 0.05527354, -0.02548641, 0.07485444, -0.150769, 0.02063692, -0.01462255, 0.03719558, -0.9826481, -0.1808987, 126.6818
 56538608, -0.3903472, 0.06790061, -0.02675768, 0.07485499, -0.1325431, 0.03449433, -0.004324159, 0.03719446, -0.9828346, -0.1815011, 126.6827
 56738697, -0.328767, 0.08345081, 0.01376643, 0.07485443, -0.1023841, 0.02729925, -0.002623176, 0.03719502, -0.9826756, -0.1829853, 126.6818
 56938600, -0.258134, 0.07224932, 0.03081954, 0.074855, -0.08557061, 0.02369777, 0.04270379, 0.03719502, -0.9822607, -0.1844308, 126.6827
 57138605, -0.1901108, 0.05326841, 0.08782911, 0.07485556, -0.04849013, 0.02336283, 0.009508605, 0.03719502, -0.9821348, -0.1833399, 126.6837
 57338601, -0.1218249, 0.02757175, 0.04165605, 0.07485481, -0.03241047, -0.003503615, 0.03221045, 0.03719502, -0.9810611, -0.1871793, 126.6824
 57538711, -0.0803407, -0.004574611, 0.08562622, 0.07486001, -0.01910109, 0.01372583, 0.05567569, 0.03719501, -0.9812841, -0.1864819, 126.6912
 57738588, -0.05934315, 0.006994738, 0.09787864, 0.07485499, -0.01269693, -0.01781463, 0.03106591, 0.03719557, -0.9812317, -0.1879059, 126.6827
 57938567, -0.05445271, -0.01142429, 0.06175793, 0.07485481, -0.04123883, 0.0231107, 0.008518358, 0.03719743, -0.9810985, -0.1895997, 126.6824
 58138591, -0.08311731, 0.02793203, 0.03828323, 0.07485704, -0.01411602, -0.01276181, 0.0336896, 0.03719204, -0.9806641, -0.1915253, 126.6862
 58338592, -0.07085872, -0.00672347, 0.05075949, 0.07485203, -0.02691853, 0.01020262, -0.005728971, 0.03719502, -0.9801586, -0.1944839, 126.6777
 58538596, -0.1081997, 0.02572884, 0.01107937, 0.07485519, -0.05202481, 0.01420013, 0.002330796, 0.0371965, -0.9800156, -0.1957663, 126.683
 58738572, -0.1473418, 0.04224973, 0.01814672, 0.074855, -0.06733831, 0.02330619, 0.0206588, 0.03719353, -0.9800355, -0.1965225, 126.6827
 58938619, -0.166856, 0.05222009, 0.03785682, 0.07485353, -0.04823922, 0.01174985, 0.006825576, 0.03719613, -0.9796144, -0.198718, 126.6802
 59138592, -0.1560359, 0.04680083, 0.01128423, 0.07485554, -0.06091893, 0.01529625, -0.001076499, 0.0371939, -0.9792831, -0.2005245, 126.6837
 59338706, -0.1658331, 0.0498959, 0.01108954, 0.07485388, -0.05578277, 0.02941112, 0.01564186, 0.03719501, -0.9790243, -0.2018576, 126.6808
 59538612, -0.1563105, 0.05890017, 0.03117065, 0.07485499, -0.07047343, 0.00475529, -0.003417287, 0.03719539, -0.9787038, -0.203372, 126.6827
 59738612, -0.1693281, 0.04215823, -0.00135144, 0.074855, -0.04626233, 0.04081253, -0.01556205, 0.03719465, -0.9787877, -0.2035562, 126.6827
 59938589, -0.138013, 0.07275216, -0.01001932, 0.07485835, -0.05000577, 0.003575633, 0.03120183, 0.03719483, -0.9785222, -0.204542, 126.6884
 60138592, -0.133064, 0.03399327, 0.0324918, 0.07485592, -0.04403431, 0.02500109, -0.03632603, 0.03719817, -0.9784085, -0.2049347, 126.6843
 60338584, -0.1162652, 0.0362375, -0.03612942, 0.07485519, -0.0393668, -0.003666943, 0.02730812, 0.03719204, -0.9778771, -0.2063499, 126.683
 60538589, -0.09983721, -0.004423986, 0.0275443, 0.07485203, -0.02187778, -0.01401323, 0.0009150185, 0.03719557, -0.9772421, -0.2085679, 126.6777
 60738573, -0.08346304, -0.02134796, 0.001854471, 0.07485499, -0.0393699, 0.01102938, -0.01055543, 0.03719669, -0.9765904, -0.2111274, 126.6827
 60938622, -0.1063827, -0.004904953, 0.001963822, 0.07485444, -0.03962868, -0.02592584, 0.03964048, 0.03719278, -0.9760672, -0.2128957, 126.6818
 61138697, -0.1167164, -0.03854218, 0.04836201, 0.07485276, -0.04148927, 0.004893037, -0.03016842, 0.03719594, -0.9757954, -0.2147758, 126.6789
 61338601, -0.1317577, -0.003830913, -0.009302691, 0.07485501, -0.05153628, -0.01763031, 0.02943328, 0.03719408, -0.9756805, -0.2157833, 126.6827
 61538607, -0.1438989, -0.00820163, 0.04496856, 0.07485406, -0.05219068, 0.03134168, 0.01182605, 0.03719502, -0.9757584, -0.2164021, 126.6811
 61738582, -0.1447065, 0.03675244, 0.04249635, 0.07485871, -0.04177123, -0.01783832, 0.03003519, 0.03719483, -0.9754194, -0.2179376, 126.689
 61938597, -0.137374, -0.007301547, 0.03481389, 0.074855, -0.05449371, 0.01725806, -0.01321484, 0.0371952, -0.9751044, -0.2191711, 126.6827
 62138587, -0.1419903, 0.01730132, 0.002382869, 0.07485516, -0.0411271, -0.01009253, 0.03753954, 0.03719595, -0.9746692, -0.2205454, 126.683
 62338581, -0.1202966, -0.01414518, 0.05858918, 0.07485499, -0.04881006, -0.002952755, -0.008134838, 0.03719501, -0.9739652, -0.2238007, 126.6827
 62538609, -0.1307895, -0.007876556, 0.008454961, 0.07485592, -0.04594239, -0.0007708707, 0.01401079, 0.03719465, -0.9735152, -0.2260544, 126.6843
 62738601, -0.1233379, -0.003580541, 0.04138288, 0.07485556, -0.03551085, -0.009913314, 0.02166645, 0.03719465, -0.9731203, -0.227763, 126.6837
 62938653, -0.1191049, -0.006910263, 0.03384058, 0.0748565, -0.05939088, 0.018285, -0.01913512, 0.03719483, -0.9727268, -0.2298373, 126.6852
 63138603, -0.1435119, 0.02096142, -0.004507906, 0.07485722, -0.03489042, -0.007515178, 0.04634115, 0.03719502, -0.9725088, -0.2307854, 126.6865
 63338589, -0.1210418, 0.003306034, 0.05269084, 0.07485502, -0.05378779, 0.01746477, 6.509556E-05, 0.03719502, -0.9724517, -0.2315251, 126.6827
 63538680, -0.1447027, 0.03033617, -0.01121305, 0.0748561, -0.04525569, -0.00626223, -0.002310526, 0.03719538, -0.971891, -0.2338648, 126.6846
 63738595, -0.1313214, 0.01195762, 0.006410411, 0.07485499, -0.04128056, 0.02054669, -0.0140542, 0.03719557, -0.9714994, -0.2356361, 126.6827
 63938598, -0.1309785, 0.03341958, -0.00915812, 0.07485462, -0.06605045, 0.01164004, 0.01368174, 0.03719409, -0.9710723, -0.2374631, 126.6821
 64138575, -0.1562294, 0.03446251, 0.03309641, 0.07485406, -0.05691859, 0.02038117, 0.01971706, 0.03719558, -0.9708194, -0.2389827, 126.6811
 64338598, -0.135579, 0.04041271, 0.05128347, 0.07485555, -0.03238861, 0.001952316, 0.04320873, 0.03719446, -0.9705508, -0.240074, 126.6837
 64538604, -0.107884, 0.01801465, 0.07854998, 0.07485425, -0.05478603, 0.005405562, 0.0003016012, 0.03719483, -0.9696689, -0.24336, 126.6815
 64738694, -0.1271518, 0.01672917, 0.02981271, 0.07485536, -0.03390225, 0.01979877, -0.02616923, 0.0371952, -0.9689807, -0.245742, 126.6833
 64938587, -0.1067935, 0.02161877, 0.004128528, 0.07485814, -0.02976696, -0.01673238, 0.04195947, 0.03719501, -0.9686934, -0.2468737, 126.6881
 65138617, -0.1104572, -0.003676245, 0.05513788, 0.07485668, -0.05331203, 0.02231987, -0.01863292, 0.03719501, -0.9684186, -0.2483776, 126.6855
 65338584, -0.1258797, 0.03640054, -0.006049769, 0.07485536, -0.02957158, -0.001172612, 0.0515769, 0.03719502, -0.9679722, -0.2502077, 126.6833
 65538606, -0.09522187, 0.01689368, 0.0702268, 0.07485574, -0.05200768, 0.02318814, -0.01122635, 0.03719501, -0.9672506, -0.2530027, 126.684
 65738590, -0.1119218, 0.03412059, 0.03428806, 0.07485498, -0.026547, 0.007907059, 0.05285953, 0.03719502, -0.9667078, -0.2548388, 126.6827
 65938589, -0.07857352, 0.01545094, 0.1140436, 0.07485557, -0.02776861, -0.001530823, 0.03321623, 0.03719502, -0.9665, -0.2557018, 126.6837
 66138621, -0.0889299, 0.01093594, 0.09360691, 0.07485537, -0.03950507, 0.01644628, 0.01958613, 0.03719483, -0.9665393, -0.2554475, 126.6833
 66338605, -0.1086704, 0.02910448, 0.08747832, 0.074855, -0.02946367, -0.003345268, 0.07717214, 0.03719502, -0.967046, -0.2535306, 126.6827
 66538702, -0.1075934, 0.01689974, 0.1268966, 0.0748563, -0.03492693, 0.0210662, -0.008882778, 0.0371965, -0.9676794, -0.2515091, 126.6849
 66738598, -0.126662, 0.05314546, -0.002609977, 0.07485556, -0.05086024, 0.008326403, -0.008492124, 0.03719371, -0.9684682, -0.2488815, 126.6837
 66938594, -0.1439928, 0.05740219, -0.01882173, 0.07485684, -0.0471996, 0.0388201, -0.006048094, 0.03719502, -0.9690019, -0.2470022, 126.6859
 67138575, -0.1354859, 0.08648547, -0.01548923, 0.07485721, -0.04631757, 0.01978721, 0.002277833, 0.03719558, -0.9693589, -0.2456074, 126.6865
 67338619, -0.1380502, 0.06984445, -0.01589024, 0.07485555, -0.05711406, 0.0423545, -0.006929481, 0.03719445, -0.9696566, -0.244342, 126.6837
 67538603, -0.140898, 0.07183416, -0.00450191, 0.07485443, -0.03554947, 0.004833125, 0.04012463, 0.03719502, -0.969977, -0.2426485, 126.6818
 67738581, -0.1167454, 0.02284095, 0.05192512, 0.07485501, -0.06598011, 0.01436926, 0.005265863, 0.03719557, -0.9703962, -0.240622, 126.6827
 67938576, -0.1412665, 0.02036762, 0.01058613, 0.07485481, -0.0432807, 0.01659469, -0.01296807, 0.03719594, -0.9707638, -0.2388156, 126.6824
 68138598, -0.1069452, 0.01397016, -0.007884849, 0.07485444, -0.02405519, -0.01393147, 0.01205887, 0.03719352, -0.9710227, -0.2376805, 126.6818
 68338695, -0.0943888, -0.01140912, -0.00930746, 0.0748535, -0.0388662, 0.009708514, 0.0002779751, 0.03719502, -0.9713126, -0.2367, 126.6802
 68538620, -0.1093554, 0.01106151, 0.0240492, 0.07485852, -0.04487916, -0.003141707, 0.03317576, 0.03719502, -0.9715685, -0.2355892, 126.6887
 68738597, -0.1355755, 0.00732226, 0.06893738, 0.07485798, -0.05500055, 0.01825296, -0.0118354, 0.03719502, -0.9722453, -0.2331551, 126.6878
 68938608, -0.159539, 0.03007545, 0.01094436, 0.07485909, -0.04521642, -0.007014833, 0.03013645, 0.03719501, -0.9732862, -0.2286049, 126.6896
 69138585, -0.1714264, 0.01161118, 0.04458243, 0.07485498, -0.09516252, 0.02572033, -0.00721899, 0.03719502, -0.9737872, -0.2264069, 126.6827
 69338619, -0.2302306, 0.04327649, -0.01655708, 0.07485534, -0.07190908, 0.007595166, 0.005215639, 0.03719669, -0.9740938, -0.2247784, 126.6833
 69538592, -0.2088946, 0.01993069, -0.004097904, 0.07485501, -0.09189095, 0.01589544, -0.004889384, 0.03719668, -0.974269, -0.2239885, 126.6827
 69738595, -0.2247724, 0.01998212, 0.005293534, 0.07485536, -0.08441525, -0.007419418, 0.02365188, 0.03719167, -0.9741777, -0.2238403, 126.6833
 69938608, -0.2161143, -0.003493331, 0.01710688, 0.07485221, -0.07267086, 0.02339695, -0.01744892, 0.03719502, -0.9743664, -0.2231537, 126.678
 70138691, -0.1894835, 0.02097176, -0.00744904, 0.07485555, -0.0935152, 0.00209979, 0.01234372, 0.03719502, -0.9744567, -0.2232786, 126.6837
 70338606, -0.1889606, 0.0019365, 0.03004172, 0.07485498, -0.05328089, -0.03166782, 0.05373986, 0.03719557, -0.9743738, -0.2236453, 126.6827
 70538592, -0.1288204, -0.01649923, 0.0751636, 0.07485536, -0.03134501, 0.04358324, -0.0009832677, 0.03719502, -0.9745818, -0.2233241, 126.6833
 70738602, -0.08535329, 0.0494257, 0.02969806, 0.07485554, -0.04805566, 0.04145489, -0.02268948, 0.03719446, -0.974395, -0.2244908, 126.6837
 70938591, -0.09786418, -0.02178825, 0.01149923, 0.07485425, -0.05411122, -0.1355908, 0.07132212, 0.03719483, -0.9694628, -0.2299737, 126.6815
 71138610, -0.1242534, -0.3389618, 0.0882742, 0.07485592, 0.008527629, -0.1848606, 0.04570085, 0.03719502, -0.9570541, -0.2352454, 126.6843
 71338590, -0.09785171, -0.4350989, 0.02649956, 0.07485519, -0.07790837, -0.04839585, -0.1086263, 0.0371952, -0.9615027, -0.2328887, 126.683
 71538616, -0.1860829, -0.2577664, -0.1011408, 0.07485498, -0.09312752, -0.1210556, 0.04775906, 0.03719539, -0.9658898, -0.2312964, 126.6827
 71738593, -0.1882747, -0.2585598, 0.04309846, 0.07485536, -0.01383781, -0.1602152, 0.1242766, 0.03719465, -0.9679156, -0.2329182, 126.6833
 71938622, -0.1136069, -0.2239987, 0.09799594, 0.07485573, 0.03599806, -0.0382468, -0.001650798, 0.03719502, -0.9688472, -0.2379646, 126.684
 72141692, -0.06506005, -0.05638066, 0.01078219, 0.07532328, -0.0677666, 0.08654756, -0.04476982, 0.03765995, -0.9684635, -0.2455614, 127.4752
 72341501, -0.1617521, 0.06626126, 0.005923097, 0.07531975, -0.09523869, 0.01636489, 0.01722915, 0.03719502, -0.9650798, -0.2571343, 127.4692
 72541962, -0.1893622, -0.002855728, 0.06267418, 0.07485481, -0.03218284, -0.1032379, 0.1110711, 0.03719501, -0.9618393, -0.2666898, 126.6824
 72741537, -0.1239036, -0.1288716, 0.1238119, 0.07485646, -0.009619353, -0.01328357, 0.02618058, 0.03719502, -0.9578285, -0.2767105, 126.6852
 72941498, -0.1147573, -0.05342133, 0.0324227, 0.0748574, -0.08362433, 0.06399379, -0.08062926, 0.03719501, -0.9555194, -0.2873801, 126.6868
 73141533, -0.1858182, 0.01105701, -0.06056096, 0.074855, -0.09864089, -0.0562983, 0.05843223, 0.03719557, -0.9529129, -0.2926795, 126.6827
 73341486, -0.2279331, -0.1058953, 0.07420311, 0.07485497, -0.04766691, -0.08183794, 0.05173532, 0.03719501, -0.9503204, -0.2959724, 126.6827
 73541523, -0.2024682, -0.1291264, 0.0498083, 0.07485443, -0.1027742, 0.03283698, -0.05114016, 0.03719446, -0.9506044, -0.2959517, 126.6818
 73741546, -0.2575692, -0.01073977, -0.009061923, 0.07485499, -0.1078469, 0.02797624, -0.04189989, 0.03719595, -0.9503316, -0.2984472, 126.6827
 73941688, -0.2645243, -0.03781593, 0.01459079, 0.07485611, -0.09784785, -0.12316, 0.1530867, 0.03719409, -0.9464746, -0.2975685, 126.6846
 74141534, -0.2802756, -0.1897448, 0.1663878, 0.07485516, -0.0529642, -0.04627813, 0.01346925, 0.03719501, -0.9444272, -0.3005411, 126.683
 74341532, -0.2563907, -0.1210912, 0.03991776, 0.07485497, -0.1465935, 0.04968215, -0.07598943, 0.03719502, -0.9449769, -0.3000242, 126.6827
 74541525, -0.3388546, -0.03966937, -0.03942147, 0.07485498, -0.138212, -0.09496841, 0.07674384, 0.03719781, -0.9429075, -0.3017258, 126.6827
 74741538, -0.3211474, -0.1708412, 0.106469, 0.07485498, -0.07159586, -0.06235112, 0.03918617, 0.03719222, -0.9432366, -0.2978771, 126.6827
 74941529, -0.2714542, -0.134746, 0.05518419, 0.0748522, -0.1273103, 0.03059356, -0.04235987, 0.03719501, -0.9443424, -0.2944149, 126.678
 75161254, -0.3489275, -0.07252106, -0.07091212, 0.07857448, -0.1318247, -0.101176, 0.005776286, 0.04091452, -0.9433297, -0.289533, 132.9775
 75341504, -0.2875922, -0.188564, -0.01607157, 0.07485481, -0.06548798, -0.0480375, 0.0002900122, 0.03347551, -0.9460849, -0.2852327, 129.8495
 75541565, -0.2178609, -0.1205812, -0.02079887, 0.07113772, -0.0685574, -0.002597539, -0.0566054, 0.03719502, -0.9499054, -0.2825034, 120.3917
 75741735, -0.2068483, -0.05240554, -0.04415005, 0.07485612, -0.07639477, -0.05069955, 0.04171508, 0.03719502, -0.9505817, -0.2864093, 126.6846
 75941555, -0.2011839, -0.04772015, 0.05578768, 0.07485574, -0.01942001, -0.007201582, 0.04951994, 0.03719501, -0.9521003, -0.2891726, 126.684
 76141530, -0.1249586, 0.05210117, 0.05608533, 0.07485553, -0.1097164, 0.09756455, -0.03462698, 0.03719501, -0.9531652, -0.2932888, 126.6837
 76341516, -0.1994201, 0.1801844, -0.01190144, 0.07485498, -0.009442705, 0.008018481, 0.04173277, 0.03719557, -0.952852, -0.2976767, 126.6827
 76541562, -0.09735556, 0.1103434, 0.06923836, 0.07485518, -0.0784836, 0.08752228, -0.04394009, 0.03719464, -0.9525539, -0.2973462, 126.683
 76741934, -0.1576646, 0.1803932, -0.02428495, 0.07485537, -0.04135078, 0.05461117, 0.008323119, 0.03719483, -0.9509598, -0.3009497, 126.6833
 76941507, -0.1320211, 0.1299516, 0.01285074, 0.07485593, -0.06610546, 0.03525571, 0.007534106, 0.03719483, -0.9499633, -0.2995162, 126.6843
 77141563, -0.1637074, 0.08738746, -0.01595225, 0.07485554, -0.08107198, 0.03440432, -0.03391664, 0.03719502, -0.9502861, -0.2958397, 126.6837
 77341543, -0.1765929, 0.06706574, -0.08506503, 0.074855, -0.01188864, 0.007132586, -0.01222025, 0.03719519, -0.9500933, -0.2940158, 126.6827
 77541753, -0.09212178, 0.06663265, -0.05197207, 0.07485514, -0.0584169, 0.06746506, -0.06140242, 0.03719502, -0.9539974, -0.2902806, 126.683
 77741509, -0.08902492, 0.1852436, -0.1211461, 0.074855, -0.002304492, 0.04169637, 0.01948987, 0.03719502, -0.9564819, -0.2899036, 126.6827
 77941524, 0.03934423, 0.2367564, -0.006225179, 0.07485499, 0.0331351, 0.1642786, -0.06012774, 0.03719502, -0.9572076, -0.2894021, 126.6827
 78141502, 0.08994477, 0.372515, -0.06270451, 0.07485629, 0.0261285, 0.1103516, -0.01428629, 0.03719501, -0.9573748, -0.2886632, 126.6849
 78341498, 0.08593646, 0.3071307, -0.0128962, 0.074855, 0.01882415, 0.1003259, 0.002550231, 0.03719502, -0.9578663, -0.2871494, 126.6827
 78561230, 0.08756731, 0.3443014, -0.02313975, 0.07857449, 0.04313212, 0.1469078, -0.02625625, 0.04091544, -0.957161, -0.2894017, 132.9775
 78741495, 0.09359696, 0.3178555, -0.0002877796, 0.07485684, 0.03219558, 0.1182189, -0.02589374, 0.03347775, -0.9567014, -0.2910694, 126.6859
 78941577, 0.08664237, 0.2867119, -0.0007188451, 0.07113512, 0.01717949, 0.0643895, 0.008263288, 0.03719241, -0.9562237, -0.292495, 120.3873
 79141568, 0.05852232, 0.2271108, 0.02785454, 0.07485183, 0.02318259, 0.09814179, 0.02739735, 0.03719502, -0.9554186, -0.2950205, 126.6774
 79341693, 0.05161539, 0.2343209, 0.06192091, 0.07485443, -0.01197132, 0.0738555, 0.0009441564, 0.03719446, -0.9546305, -0.2972492, 126.6818
 79541527, 0.01635235, 0.189434, 0.03504698, 0.07485499, 0.01238186, 0.06579684, 0.0182668, 0.03719594, -0.9541675, -0.2981845, 126.6827
 79741533, 0.0255439, 0.1757715, 0.04857209, 0.07485667, -0.009680669, 0.08137491, -0.006371793, 0.03719408, -0.9544536, -0.2972391, 126.6855
 79941501, -0.02699168, 0.1721917, 0.02902019, 0.07485535, -0.02074065, 0.0162224, 0.02124202, 0.03719502, -0.954706, -0.2958132, 126.6833
 80141501, -0.04794665, 0.1057694, 0.0227729, 0.0748561, -0.0263701, 0.07922525, -0.02573505, 0.03719557, -0.9537139, -0.2986046, 126.6846
 80341530, -0.0569016, 0.1605687, -0.04377368, 0.07485481, -0.03232973, 0.04873342, -0.004466313, 0.03719446, -0.9535725, -0.299407, 126.6824
 80541589, -0.04695775, 0.137827, -0.005738649, 0.07485499, -0.007728311, 0.03082442, 0.001655542, 0.03719501, -0.9526435, -0.3021781, 126.6827
 80741492, -0.02410248, 0.1238809, -0.00755575, 0.07485553, -0.009609795, 0.07179261, -0.0405221, 0.03719557, -0.9524716, -0.3030196, 126.6837
 80941928, -0.03616137, 0.1600499, -0.02716009, 0.07485499, -0.02864864, 0.02610761, 0.059044, 0.03719446, -0.9510542, -0.3070948, 126.6827
 81141695, -0.06429467, 0.1137867, 0.06332231, 0.07485574, -0.009581366, 0.03927592, 0.00868057, 0.03719502, -0.9517456, -0.305048, 126.684
 81341520, -0.05291395, 0.1307908, 0.02453768, 0.07485499, -0.03824066, 0.09419276, -0.04218362, 0.0371952, -0.9518046, -0.3052471, 126.6827
 81541554, -0.08076812, 0.1711335, -0.01149632, 0.07485498, -0.02625121, 0.009815767, 0.02032502, 0.03719483, -0.9517558, -0.3049311, 126.6827
 81741493, -0.06320467, 0.08984596, 0.02775933, 0.07485517, -0.03146809, 0.06184979, 0.01312913, 0.03719483, -0.9515604, -0.30522, 126.683
 81941504, -0.06007569, 0.1354277, 0.03768067, 0.07485499, -0.02004641, 0.05552802, -0.02764892, 0.03719687, -0.9508301, -0.3075051, 126.6827
 82141545, -0.03545311, 0.1096763, 0.0196516, 0.07485907, -0.0002856842, -0.004110538, 0.07168445, 0.03719427, -0.9498834, -0.3097237, 126.6896
 82341505, -0.01457223, 0.06003383, 0.1121156, 0.07485332, -0.01425951, 0.05114507, 0.008538443, 0.0371965, -0.9496765, -0.3106504, 126.6799
 82541532, -0.03762056, 0.09827156, 0.04003778, 0.0748561, -0.02193647, 0.01378642, 0.01393804, 0.0371926, -0.9496157, -0.3108992, 126.6846
 82741532, -0.04456295, 0.06664295, 0.0312311, 0.07485294, -0.006001362, 0.02224922, 0.0307898, 0.03719502, -0.9489459, -0.313492, 126.6793
 82941689, -0.03401162, 0.09468926, 0.06188524, 0.07485499, -0.02974717, 0.07502127, -0.01487495, 0.03719501, -0.9488126, -0.3146929, 126.6827
 83141501, -0.05367672, 0.1408568, 0.02600677, 0.07485795, -0.00605602, 0.01060768, 0.0227696, 0.03719501, -0.9480393, -0.3170105, 126.6878
 83341572, -0.03432205, 0.08939752, 0.04898041, 0.07485498, -0.01526342, 0.05021112, 0.001891811, 0.03719502, -0.947857, -0.3175644, 126.6827
 83541551, -0.05141059, 0.1262093, 0.0313405, 0.07485501, -0.02616201, 0.05124415, -0.00847712, 0.03719502, -0.9474793, -0.3187613, 126.6827
 83741497, -0.06543604, 0.107367, 0.001001207, 0.07485593, -0.009367875, -0.007566846, 0.0360174, 0.03719502, -0.9470825, -0.3194441, 126.6843
 83941566, -0.0482129, 0.05032557, 0.03639999, 0.07485556, -0.01548569, 0.05375685, -0.04282, 0.03719501, -0.9471818, -0.3189157, 126.6837
 84141503, -0.0684094, 0.09133518, -0.03761655, 0.07485591, -0.0380464, 0.009543415, 0.008569462, 0.03719501, -0.9471334, -0.3182503, 126.6843
 84341493, -0.09311315, 0.03478435, 0.02835746, 0.07485499, -0.03741165, 0.01295293, 0.01019586, 0.03719483, -0.9471347, -0.3172868, 126.6827
 84541560, -0.1007367, 0.02954344, 0.01156443, 0.07485555, -0.03463135, 0.0242102, 0.0005055005, 0.0371952, -0.9469044, -0.3169805, 126.6837
 84741766, -0.09918173, 0.01723147, 0.01058193, 0.07485928, -0.01355896, -0.02003461, 0.0007345164, 0.03719613, -0.9462095, -0.317414, 126.69
 84941537, -0.09773621, -0.03821664, 0.01900982, 0.07485556, -0.059064, 0.008360998, 0.018477, 0.0371939, -0.9454552, -0.3178512, 126.6837
 85141846, -0.1466048, -0.02818749, 0.02538688, 0.0748544, -0.04912441, -0.01935858, 0.006886883, 0.03719502, -0.9449044, -0.3187745, 126.6818
 85341530, -0.142832, -0.05904975, 0.02487008, 0.07485499, -0.02437907, -0.03983028, 0.01979792, 0.03719502, -0.9442625, -0.3197984, 126.6827
 85541536, -0.1244327, -0.07687625, 0.02190508, 0.07485498, -0.04705131, -0.002556526, -0.006105281, 0.03719558, -0.9441185, -0.3213009, 126.6827
 85741529, -0.1375636, -0.04171129, 0.02360392, 0.07485612, -0.07372394, -0.02457907, -0.009098678, 0.03719446, -0.9438506, -0.323046, 126.6846
 85941553, -0.1474394, -0.04180362, 0.002032265, 0.07485648, -0.03579328, -0.007153491, 0.02382052, 0.03719557, -0.9443595, -0.3228072, 126.6852
 86141506, -0.1013784, -0.006618219, 0.03952201, 0.07485499, -0.03545947, 0.02488607, -0.01343806, 0.03719445, -0.9446309, -0.3240965, 126.6827
 86341549, -0.09100109, 0.0368939, -0.0009599982, 0.07485443, -0.03096269, -0.01952554, 0.04688625, 0.03719501, -0.944973, -0.3246592, 126.6818
 86541788, -0.06778786, 0.02554256, 0.05578499, 0.07485554, -0.01074332, 0.03503641, 0.002739293, 0.03719483, -0.945777, -0.3237284, 126.6837
 86741507, -0.04347377, 0.09849863, 0.014909, 0.0748561, -0.02813827, 0.04726008, -0.02574042, 0.0371952, -0.9455723, -0.3250354, 126.6846
 86941527, -0.06617796, 0.1097912, -0.01029924, 0.07485576, -0.01282524, 0.0004573624, 0.03863151, 0.03719501, -0.9456214, -0.3246208, 126.684
 87141559, -0.05162534, 0.05952911, 0.03234864, 0.07485758, -0.01871642, 0.06158584, -0.01764255, 0.03719817, -0.9461512, -0.3227179, 126.6871
 87341500, -0.06214464, 0.09197218, -0.00654691, 0.07485498, -0.0364742, 0.005354283, 0.003159644, 0.03719185, -0.9451636, -0.3249044, 126.6827
 87541561, -0.08386462, 0.0137757, 0.02243625, 0.07485184, -0.007648819, -0.02439989, 0.06893569, 0.03719557, -0.9442703, -0.3261672, 126.6774
 87741566, -0.05521915, -0.009961949, 0.08374099, 0.074855, -0.02599631, 0.03808499, -0.05719282, 0.03719613, -0.9441518, -0.3271407, 126.6827
 87941501, -0.07413568, 0.05113376, -0.04387488, 0.07485443, -0.0343461, 0.00241859, 0.02855238, 0.03719334, -0.9431071, -0.3308395, 126.6818
 88161270, -0.0825858, 0.05223552, 0.04785798, 0.07857282, -0.04899481, 0.07006902, 0.002748443, 0.0409188, -0.942708, -0.3329628, 132.9747
 88341726, -0.1039279, 0.1274735, 0.03209992, 0.07485501, -0.0314145, 0.01844591, 0.03501679, 0.03347123, -0.9422172, -0.3345993, 126.6827
 88541527, -0.09776108, 0.09963728, 0.0577794, 0.07113121, -0.02170445, 0.03779475, 0.03645085, 0.03719557, -0.9422194, -0.3349035, 120.3807
 88741532, -0.09240438, 0.1280437, 0.04988917, 0.07485668, -0.04261938, 0.06807486, -0.01036012, 0.03719445, -0.9423503, -0.3346127, 126.6855
 88941537, -0.1140989, 0.1445424, 0.02312536, 0.07485444, -0.04936052, 0.01542153, 0.05541842, 0.03719502, -0.9420567, -0.335225, 126.6818
 89141501, -0.1216794, 0.08754651, 0.08007721, 0.07485557, -0.03475296, 0.05035078, -0.01323587, 0.03719501, -0.9418319, -0.3353006, 126.6837
 89341952, -0.1034232, 0.08208805, -0.006887625, 0.07485498, -0.04027133, 0.01069316, -0.02537535, 0.03719502, -0.9415115, -0.3349387, 126.6827
 89541558, -0.1190716, 0.007048466, -0.03534188, 0.07485647, -0.04152697, -0.03882724, 0.05447298, 0.03719502, -0.9411791, -0.3331806, 126.6852
 89741512, -0.1319281, -0.06004321, 0.03549061, 0.07485686, -0.04918653, 0.009417855, -0.05788207, 0.03719501, -0.9413921, -0.3313166, 126.6859
 89941539, -0.1521925, -0.04023404, -0.0545688, 0.07485499, -0.0650475, -0.04236015, 0.01626887, 0.03719502, -0.9410547, -0.3298085, 126.6827
 90141731, -0.1755452, -0.09884351, 0.01377195, 0.07485498, -0.03987322, -0.03402281, -0.01154616, 0.03719501, -0.9409496, -0.3290699, 126.6827
 90341515, -0.1554053, -0.09409384, -0.01137213, 0.07485498, -0.08063177, -0.02416101, -0.01644502, 0.03719502, -0.9411616, -0.3288121, 126.6827
 90541607, -0.1894379, -0.07964958, -0.005467433, 0.07485592, -0.06217792, -0.03892284, 0.009385444, 0.03719557, -0.9412764, -0.3292455, 126.6843
 90741532, -0.1720656, -0.07342027, 0.001728608, 0.07485536, -0.06131304, 0.003227751, -0.03375808, 0.03719446, -0.9415999, -0.3301466, 126.6833
 90941556, -0.1574672, -0.02800392, -0.01787516, 0.07485442, -0.03845559, -0.03666756, 0.06215622, 0.03719557, -0.9410541, -0.3323206, 126.6818
 91141537, -0.114679, -0.05517026, 0.07461882, 0.07485852, -0.02630014, -0.0005240551, 0.001302817, 0.03719445, -0.9416077, -0.3322941, 126.6887
 91341535, -0.09476122, -0.01056863, 0.02073965, 0.07485422, -0.05929362, 0.007187269, -0.01557586, 0.03719781, -0.9416966, -0.3329841, 126.6815
 91541528, -0.114187, 0.0008351799, 0.01125808, 0.07485499, -0.01115371, -0.005568391, 0.01439194, 0.03719223, -0.9415355, -0.3339328, 126.6827
 91741554, -0.07230161, 0.002437397, 0.02288088, 0.07485221, -0.05651096, 0.02699832, 0.00256599, 0.03719502, -0.9414283, -0.3346705, 126.678
 91941737, -0.1145164, 0.03010408, 0.02474449, 0.07485555, -0.02090408, -0.02570352, 0.04820528, 0.03719502, -0.9414101, -0.3348388, 126.6837
 92141561, -0.07905359, -0.01194538, 0.06582624, 0.07485685, -0.02318386, 0.01431874, -0.007609562, 0.03719501, -0.9418564, -0.3340177, 126.6859
 92341541, -0.08422727, 0.03270138, 0.02672839, 0.074855, -0.03867386, 0.01826142, -0.005972023, 0.03719483, -0.9420256, -0.333971, 126.6827
 92541589, -0.09644942, 0.02961671, 0.03147769, 0.07485501, -0.03410083, -0.01721237, 0.05224614, 0.0371965, -0.9419303, -0.3338316, 126.6827
 92741497, -0.09893379, 0.004525537, 0.06241117, 0.07485574, -0.04081537, 0.04063383, -0.03463614, 0.0371939, -0.942095, -0.3335733, 126.684
 92941503, -0.1110765, 0.04770724, -0.02703174, 0.07485536, -0.05661571, 0.0004092499, 0.02544646, 0.03719464, -0.9419134, -0.3337788, 126.6833
 93141536, -0.1135265, 0.002452058, 0.02176703, 0.0748548, -0.01074432, -0.01617828, 0.01921642, 0.03719668, -0.941456, -0.3348513, 126.6824
 93341498, -0.07316529, -0.009966282, 0.01420677, 0.07485517, -0.05858441, 0.02919003, -0.0254601, 0.03719371, -0.9410645, -0.3360271, 126.683
 93541957, -0.1266223, 0.03094331, -0.03279158, 0.07485349, -0.03363088, -0.009068108, -0.002368252, 0.03719464, -0.9413537, -0.3353846, 126.6802
 93741779, -0.1132834, 0.01208438, 0.001773537, 0.07485537, -0.05339773, 0.0305048, -0.00648232, 0.0371952, -0.9419277, -0.3341921, 126.6833
 93941539, -0.1258682, 0.04738925, 0.01260227, 0.07485703, -0.04180045, -0.006006063, 0.03849558, 0.03719483, -0.9417747, -0.3347766, 126.6862
 94141498, -0.1049393, 0.01271389, 0.04811008, 0.0748561, -0.01734781, 0.001746794, 0.008663468, 0.03719501, -0.9408838, -0.3375209, 126.6846
 94341533, -0.07553472, 0.02830032, 0.02051466, 0.074855, -0.03889789, 0.03655842, -0.02984273, 0.0371952, -0.9402372, -0.3396699, 126.6827
 94541520, -0.09470206, 0.0571621, -0.007623151, 0.07485517, -0.01663121, -0.03014595, 0.06895141, 0.03719502, -0.9397591, -0.34073, 126.683
 94741516, -0.08033758, -0.007741575, 0.09362271, 0.07485648, -0.04149017, 0.04417345, -0.04937814, 0.03719502, -0.9392991, -0.3418296, 126.6852
 94941532, -0.1231882, 0.05068455, -0.0154587, 0.07485481, -0.05125475, -0.0104466, 0.02410555, 0.03719501, -0.9391058, -0.3416778, 126.6824
 95161228, -0.1534441, -0.007254862, 0.05604827, 0.07857449, -0.0406344, 0.007052812, 0.03286242, 0.04091508, -0.9393275, -0.3408632, 132.9775
 95341556, -0.1257119, 0.007315794, 0.05926444, 0.07485557, -0.06585579, 0.0004980837, 0.02008434, 0.03347496, -0.9393836, -0.3402976, 128.2672
 95541776, -0.152282, -0.004170534, 0.05006895, 0.07113493, -0.03575295, -0.01141036, 0.00298134, 0.03719501, -0.9387788, -0.3419752, 120.387
 95741502, -0.1110525, -0.003461632, 0.02346488, 0.07485611, -0.03281023, 0.02408444, -0.02171148, 0.03719575, -0.9388116, -0.3426709, 126.6846
 95941499, -0.1064086, 0.03108302, -0.005476059, 0.07485499, -0.0483484, -0.007251655, 0.03865777, 0.03719482, -0.9381841, -0.344598, 126.6827
 96141532, -0.1203326, 0.01875545, 0.0413597, 0.07485422, -0.03266649, 0.03065247, -0.009367215, 0.03719446, -0.9384649, -0.3443885, 126.6815
 96341502, -0.1121924, 0.06657986, -0.00016277, 0.074855, -0.062144, 0.02050777, -0.001767199, 0.03719502, -0.9388329, -0.3436368, 126.6827
 96541524, -0.1413056, 0.0541363, 0.009741675, 0.07485479, -0.02988246, 0.002392568, 0.0350385, 0.0371952, -0.938105, -0.3454986, 126.6824
 96741561, -0.1271965, 0.04070779, 0.04875165, 0.07485481, -0.05650403, 0.0276989, -0.002003975, 0.03719483, -0.9385148, -0.344376, 126.6824
 96941502, -0.1484124, 0.0576404, 0.01882457, 0.07485536, -0.04574495, 0.01694248, -0.008086266, 0.03719557, -0.9386843, -0.3438348, 126.6833
 97141500, -0.1346193, 0.051005, 0.002230047, 0.07485501, -0.04597473, 0.02938801, 0.02735233, 0.03719557, -0.9380337, -0.3455799, 126.6827
 97341729, -0.1181274, 0.05526107, 0.04073679, 0.07485443, -0.0358372, 0.01579349, 0.01634866, 0.0371939, -0.9374199, -0.3470698, 126.6818
 97541519, -0.09923908, 0.03492915, 0.03855931, 0.07485555, -0.03451357, 0.002265966, 0.02607209, 0.03719483, -0.9370691, -0.3478404, 126.6837
 97741721, -0.09600474, 0.02370968, 0.03205932, 0.07486001, -0.04280696, 0.03245227, 0.01218029, 0.03719519, -0.9371956, -0.3476422, 126.6912
 97941522, -0.09983449, 0.03738695, 0.03850678, 0.07485517, -0.03820449, -0.02066644, 0.02721065, 0.03719502, -0.9373311, -0.3468643, 126.683
 98141537, -0.09828178, -0.008158574, 0.04080584, 0.07485591, -0.01622066, 0.01304471, 0.01666345, 0.03719539, -0.9368466, -0.3480621, 126.6843
 98341539, -0.07814161, 0.01579009, 0.03130614, 0.07485501, -0.05175619, 0.01090305, -0.04112791, 0.03719557, -0.9366038, -0.3489174, 126.6827
 98541554, -0.1176672, 0.01316796, -0.01666909, 0.07485519, -0.02123582, -0.02649838, 0.05856533, 0.03719408, -0.935947, -0.3503771, 126.683
 98761228, -0.1007006, -0.01712581, 0.07062472, 0.07857356, -0.06606489, 0.03112377, -0.02034553, 0.04091452, -0.9362342, -0.34958, 132.9759
 98961241, -0.1357525, 0.03416682, 0.00122718, 0.07857449, -0.03625824, -0.0185758, 0.07159675, 0.03719558, -0.9366425, -0.3485313, 132.9775
 99141724, -0.09658742, -0.01183485, 0.08841898, 0.07113606, -0.02966432, 0.02333809, -0.02733074, 0.03347477, -0.9366429, -0.3489127, 120.3889
 99341515, -0.1040934, 0.03691738, -0.004171581, 0.07113493, -0.04954138, 0.00106557, 0.04125042, 0.0371952, -0.9367928, -0.3488501, 120.387
 99541554, -0.1212151, 0.02532114, 0.04130885, 0.07485555, -0.01742057, 0.00836615, 0.01349926, 0.03719557, -0.9374279, -0.3473059, 126.6837
 99741584, -0.09115129, 0.03828216, 0.02734403, 0.074855, -0.05519487, 0.02576482, -0.03498955, 0.0371978, -0.9375214, -0.3471853, 126.6827
 99941500, -0.1151919, 0.04353438, -0.0330029, 0.07485556, 0.0002072256, -0.01637345, 0.02843835, 0.03719167, -0.936712, -0.3492208, 126.6837
 100141498, -0.0553631, -0.00730856, 0.04135406, 0.07485145, -0.05370961, 0.02184783, -0.05570469, 0.03719538, -0.9365171, -0.3492283, 126.6767
 100361238, -0.1154184, 0.01962819, -0.04213971, 0.07857449, -0.009652405, -0.01978095, 0.04182878, 0.04091414, -0.9356565, -0.3510666, 132.9775
 100541525, -0.06987324, -0.02686754, 0.05347561, 0.07485632, -0.04813768, -0.009776416, -0.01047429, 0.03347552, -0.935386, -0.3514898, 126.6849
 100741510, -0.1263849, -0.0007501533, -0.007577848, 0.07113551, -0.02184667, 0.02040937, 0.01554079, 0.03719613, -0.9359772, -0.3505602, 120.3879
 100941797, -0.1179961, 0.03407916, 0.04336186, 0.07485499, -0.08284919, 0.005839779, 0.0229081, 0.03719391, -0.9361477, -0.3506192, 126.6827
 101141575, -0.1929055, 0.04773862, 0.03876273, 0.07485387, -0.04568272, 0.04976471, 0.008295668, 0.03719502, -0.9371652, -0.3483154, 126.6808
 101341504, -0.1719694, 0.07652415, 0.0353378, 0.07485554, -0.07244235, -0.02719826, 0.06757703, 0.03719502, -0.9378535, -0.345171, 126.6837
 101541558, -0.2176983, -0.09139166, 0.08892354, 0.07485498, -0.06387325, -0.1031931, 0.03060034, 0.03719502, -0.9313848, -0.3428445, 126.6827
 101741494, -0.2354383, -0.3028258, 0.02690971, 0.07485554, -0.09296769, -0.09590949, -0.04569284, 0.03719502, -0.9246144, -0.3393291, 126.6837
 101941805, -0.2502472, -0.3541568, -0.007613505, 0.07485499, -0.06442705, -0.1729396, 0.07898614, 0.03719502, -0.9258902, -0.3383326, 126.6827
 102141537, -0.1689193, -0.3955035, 0.1033357, 0.07485499, -0.03877019, -0.08649498, 0.009356171, 0.03719501, -0.9279361, -0.3418286, 126.6827
 102341510, -0.1128241, -0.3033205, 0.04844217, 0.07485501, -0.06116829, -0.122091, -0.000584327, 0.03719502, -0.9277257, -0.3435327, 126.6827
 102541530, -0.1123284, -0.3169289, 0.0180693, 0.0748567, -0.01642988, -0.1021557, 0.01735059, 0.03719501, -0.9300839, -0.3414199, 126.6855
 102741726, -0.09720236, -0.2568164, 0.04584294, 0.07485499, -0.07277449, -0.0554824, -0.002218893, 0.03719502, -0.9317614, -0.338242, 126.6827
 102941521, -0.1657363, -0.1945591, 0.008534925, 0.07485668, -0.05530058, -0.06935498, 0.01900492, 0.03719502, -0.9341599, -0.3358372, 126.6855
 103141519, -0.1562279, -0.1936083, 0.008160016, 0.07485779, -0.07503857, -0.05827656, -0.008757569, 0.03719613, -0.9333482, -0.3365631, 126.6874
 103341544, -0.1722246, -0.1868136, -0.03155879, 0.07485481, -0.04045957, -0.07713716, 0.008061865, 0.0371939, -0.9332864, -0.3361182, 126.6824
 103541543, -0.1348381, -0.2019829, -0.01435854, 0.07485388, -0.04056069, -0.07289721, 0.02478177, 0.03719502, -0.9332322, -0.33527, 126.6808
 103761247, -0.1508134, -0.2111896, 0.01337643, 0.07857486, -0.06569762, -0.0877103, 0.007890986, 0.04091452, -0.9324142, -0.3358052, 132.9781
 103961234, -0.1861593, -0.1990867, -0.002152393, 0.0785745, -0.08096074, -0.05341108, -0.04053787, 0.03719502, -0.9325287, -0.336874, 132.9775
 104141504, -0.2026026, -0.1270283, -0.04279012, 0.0711366, -0.07918196, -0.02358192, -0.01619961, 0.03347719, -0.9328352, -0.3376057, 120.3898
 104341519, -0.2164996, -0.07971597, -0.005454886, 0.07113548, -0.08510224, -0.0152801, -0.01074321, 0.0371939, -0.9343987, -0.3352457, 120.3879
 104541752, -0.2227651, -0.06689274, 0.04128796, 0.07485387, -0.07300293, -0.03471592, 0.02019459, 0.03719446, -0.9331662, -0.3354346, 126.6808
 104741508, -0.2254457, -0.09510126, 0.05511174, 0.07485611, -0.09609769, -0.02682366, -0.008524401, 0.03719483, -0.9323099, -0.3353924, 126.6846
 104941502, -0.2664355, -0.07263885, 0.008897522, 0.07485555, -0.08846401, -0.02252366, -0.03200965, 0.0371952, -0.9334691, -0.333611, 126.6837
 105141572, -0.2628741, -0.03374498, -0.03069476, 0.07485574, -0.1092542, -0.001225066, 0.01901257, 0.03719502, -0.9348933, -0.3332857, 126.684
 105361210, -0.2937398, -0.002801309, 0.02821422, 0.07857451, -0.07471637, -0.0186386, 0.001946468, 0.04091452, -0.935478, -0.3318227, 132.9775
 105541514, -0.2226341, -0.01379006, 0.01968782, 0.07485554, -0.07513233, 0.02308756, -0.02972828, 0.03347533, -0.9359301, -0.3293733, 126.6837
