TimeUS,CAN,CAE,CAD,CAe
 41172908, -0.007933118, -0.0005190954, 0.001365643, 0.008006784
 41219257, -0.01576867, -0.0003934348, 0.002693775, 0.008663462
 41269237, -0.01681266, -0.0008700075, 0.002674739, 0.009298753
 41319205, -0.01706973, -0.0004115586, 0.002905836, 0.009298752
 41374217, -0.01878236, -0.001092476, 0.002857385, 0.01022881
 41424220, -0.01758739, -0.0006854119, 0.002638261, 0.009298567
 41474208, -0.0169492, 6.546838E-05, 0.00274394, 0.009298939
 41524223, -0.01700735, -0.0005099537, 0.002985434, 0.009298567
 41579210, -0.01852152, -3.594819E-05, 0.003514045, 0.01022863
 41629243, -0.01717856, -0.0008756005, 0.002115129, 0.009298753
 41679227, -0.01677858, -0.001035968, 0.002425128, 0.009298939
 41734220, -0.01934683, -0.0001274728, 0.003093742, 0.01022844
 41784223, -0.01690824, -0.0006688163, 0.003319134, 0.009298753
 41834228, -0.01731011, -0.0006035655, 0.00392868, 0.009299869
 41889921, -0.01939458, -0.001227359, 0.002605095, 0.01022751
 41939504, -0.01675255, -0.0001806017, 0.002089628, 0.009298753
 41989966, -0.01662013, -0.0004735226, 0.002823849, 0.009300241
 42044272, -0.01870069, 4.737908E-05, 0.003289204, 0.010229
 42094186, -0.01685153, -0.0002699546, 0.002928452, 0.009296893
 42144203, -0.01665945, -0.0004644737, 0.003208957, 0.009302659
 42199210, -0.01886618, -0.0008859123, 0.003292266, 0.01022472
 42249244, -0.01742479, -0.0007701931, 0.002046545, 0.009298753
 42299211, -0.01673304, -0.0002324717, 0.002801407, 0.009298753
 42349178, -0.01699265, -0.0002700578, 0.003059484, 0.009298753
 42404231, -0.01890035, -0.0003481022, 0.003214067, 0.01022863
 42454211, -0.01650586, -0.001030825, 0.002382145, 0.009299311
 42504261, -0.01671845, -0.0002358134, 0.002231826, 0.009298194
 42559219, -0.01861636, 9.514477E-06, 0.003598862, 0.01022863
 42609176, -0.01694517, -7.641839E-05, 0.00234367, 0.009298752
 42659207, -0.01725294, -0.0009585692, 0.002603391, 0.009298754
 42714480, -0.01860082, -0.0009828233, 0.002917456, 0.01022863
 42764715, -0.01736896, -0.000635159, 0.002211969, 0.009298752
 42814483, -0.01720237, -0.0001887602, 0.002055142, 0.00929894
 42864483, -0.01695509, -0.001056456, 0.003028089, 0.009298567
 42919225, -0.01868976, -0.0001358542, 0.003475929, 0.01022919
 42969232, -0.01729109, -0.0004563733, 0.0032263, 0.009301358
 43019210, -0.01715834, -0.0003688661, 0.002809077, 0.009297265
 43074225, -0.01928774, -0.0006595348, 0.003587649, 0.01022677
 43124262, -0.01731356, -0.0009100281, 0.003010944, 0.009298938
 43174251, -0.01700514, -0.001043964, 0.002977691, 0.009298566
 43229233, -0.01845054, -0.000792527, 0.002941476, 0.0102303
 43279184, -0.01651809, -0.0004272809, 0.003063681, 0.009297265
 43329161, -0.01701965, -0.001066108, 0.002535735, 0.009299869
 43379255, -0.01731252, -0.000618008, 0.002958091, 0.009297637
 43434189, -0.01890262, -3.173599E-05, 0.003326311, 0.01023086
 43484230, -0.01676037, -0.0002431219, 0.002612299, 0.009296521
 43534272, -0.01642805, -0.0004528237, 0.00270579, 0.009299126
 43590057, -0.01885847, -0.0006649814, 0.002789129, 0.01023049
 43639593, -0.01697442, -0.0003245261, 0.002617003, 0.009296335
 43689939, -0.01722228, -0.0009557647, 0.002614931, 0.009299683
 43744242, -0.01940785, -0.0003613652, 0.002657584, 0.01022788
 43794211, -0.0169912, -0.0009969417, 0.002592486, 0.009299497
 43844251, -0.01699172, -0.0006945336, 0.002693185, 0.009297824
 43899711, -0.01882868, -0.0005969208, 0.002601866, 0.01022881
 43949468, -0.01700543, -0.0003924652, 0.002623642, 0.009298752
 43999705, -0.01667415, -0.0009739928, 0.001785051, 0.009298753
 44049611, -0.01702232, -0.0001655051, 0.00251876, 0.009298754
 44104227, -0.01878955, -0.0004169921, 0.002887125, 0.010229
 44154228, -0.01702979, -0.000150814, 0.0021261, 0.009299496
 44204241, -0.01675147, -0.0006074426, 0.002025083, 0.009297637
 44259510, -0.01913091, -0.000280067, 0.002610761, 0.01022863
 44309501, -0.01708122, -0.000328856, 0.003097705, 0.009298753
 44359507, -0.01748629, -0.0002195288, 0.003779586, 0.009298753
 44409490, -0.01704109, -0.0005105926, 0.003328837, 0.009298939
 44464208, -0.0186753, -0.001206441, 0.003015731, 0.01022844
 44514222, -0.01709748, -0.0001577539, 0.002721913, 0.009303216
 44564244, -0.01728048, -0.0005321273, 0.002542383, 0.009294289
 44619242, -0.01848434, -0.0005005906, 0.003359665, 0.01022974
 44669165, -0.01656495, -0.000228145, 0.003285751, 0.009297636
 44719141, -0.01703006, -0.0003818965, 0.002771818, 0.009298753
 44774123, -0.01812554, -0.0009031835, 0.003500851, 0.01022919
 44824131, -0.01674485, -0.000402572, 0.002657282, 0.009298194
 44874145, -0.01695038, -0.0004053566, 0.002883629, 0.009298753
 44929148, -0.01874291, -0.0004966548, 0.003497059, 0.01023067
 44979151, -0.01670437, -0.0005427717, 0.002926472, 0.009296707
 45029135, -0.01739591, -0.0005764014, 0.00217589, 0.009298753
 45084752, -0.01867124, 0.0001864268, 0.003255406, 0.01022863
 45134393, -0.01701115, -0.0002579673, 0.003184072, 0.009298752
 45184712, -0.01705677, -0.0002633344, 0.002573915, 0.009298753
 45234387, -0.01694799, -0.0005372342, 0.002573101, 0.009299312
 45289118, -0.01889133, -0.0003178322, 0.002754511, 0.01022807
 45339101, -0.01665593, -0.000845464, 0.003662093, 0.009298753
 45389121, -0.01724325, -0.0004361413, 0.002418755, 0.009298753
 45444111, -0.01906408, -9.177512E-05, 0.002154207, 0.01022974
 45494138, -0.01720694, -0.0007108597, 0.003205954, 0.009298194
 45544152, -0.0174956, -0.0008194493, 0.002675915, 0.009298195
 45599145, -0.0190134, -0.0006019789, 0.003605333, 0.01023012
 45649102, -0.01691591, -0.0001995006, 0.002823728, 0.009297637
 45699123, -0.01673139, -0.0003832939, 0.002050409, 0.00929838
 45749120, -0.01708727, -0.0005819259, 0.002615923, 0.009299311
 45804091, -0.01865704, -0.0009935242, 0.003216476, 0.01022807
 45854137, -0.01696873, -0.0001867728, 0.002581788, 0.009298753
 45904141, -0.01712472, -0.0005924748, 0.002857673, 0.009299311
 45959633, -0.0190614, -0.0005039216, 0.002406411, 0.01022826
 46009415, -0.01681309, -0.001113761, 0.002003454, 0.009298381
 46059427, -0.01684975, -6.832437E-05, 0.002472098, 0.009298939
 46114118, -0.01917639, -0.0008273975, 0.002241614, 0.01022863
 46164105, -0.01718942, -0.000304007, 0.002450291, 0.009298754
 46214150, -0.01690053, -0.0001133439, 0.001855113, 0.009298753
 46264185, -0.01720391, -0.0005805317, 0.002855815, 0.009298753
 46319656, -0.01890913, -0.0009513244, 0.002799869, 0.01022863
 46369543, -0.01759388, -0.0002830328, 0.00232755, 0.00929931
 46419396, -0.01735772, 0.0004558695, 0.002771071, 0.009298937
 46474168, -0.0187511, 4.779067E-05, 0.00297767, 0.01022863
 46524114, -0.01756623, -0.000438626, 0.002778325, 0.009297824
 46574094, -0.01724109, -0.0003542171, 0.002420068, 0.009298753
 46629418, -0.01918715, -0.0005024363, 0.003101268, 0.01022881
 46679677, -0.01728705, -0.0005855093, 0.00276211, 0.00929987
 46729417, -0.01691497, -0.0005990388, 0.002552, 0.009298194
 46779432, -0.01711272, -0.0004837678, 0.00292071, 0.009300614
 46834128, -0.01829441, -0.0005322442, 0.003329682, 0.01022602
 46884105, -0.01734322, -0.0003969467, 0.002287146, 0.009298939
 46934134, -0.01825969, -0.0006007191, 0.002417615, 0.009298752
 46989116, -0.0192845, -0.000235919, 0.002899514, 0.01023105
 47039178, -0.01728369, -6.890792E-05, 0.003376439, 0.009296892
 47089133, -0.01725704, -0.0008090121, 0.002562675, 0.009298753
 47144150, -0.01948609, 0.000197214, 0.003145128, 0.01023198
 47194650, -0.017476, -0.0002223783, 0.002416587, 0.009295591
 47244446, -0.01685712, -0.0004028715, 0.001995709, 0.009298009
 47299140, -0.01882068, -0.0002657496, 0.002242785, 0.01022881
 47349130, -0.01705801, -0.0002833201, 0.002324136, 0.009298568
 47399178, -0.01712065, -0.0005188407, 0.003374432, 0.00929894
 47449111, -0.01721313, -0.0005812746, 0.001917336, 0.009300427
 47504160, -0.01882486, -0.0002625599, 0.002888018, 0.01022677
 47554125, -0.01718708, -0.0006146615, 0.002431258, 0.009298753
 47604118, -0.0173541, -0.0006453422, 0.003022049, 0.009298753
 47659097, -0.01871398, -0.0008332235, 0.003303509, 0.01022881
 47709135, -0.01704163, -0.000860999, 0.002339575, 0.009298568
 47759152, -0.01713597, -0.0002074868, 0.002446964, 0.009298753
 47814120, -0.01898279, -0.0003299527, 0.003720252, 0.01022844
 47864147, -0.01719124, -0.0003122538, 0.002554657, 0.009299125
 47914132, -0.01687733, -0.000436845, 0.002766637, 0.00930024
 47969399, -0.01886284, -0.0006106994, 0.002556854, 0.01022677
 48019428, -0.01693605, -0.0006449594, 0.002279169, 0.009299682
 48069419, -0.01741746, -0.0002223378, 0.002132071, 0.009298009
 48124146, -0.01880423, -0.0002867198, 0.003542379, 0.01022863
 48174128, -0.01706644, -8.87825E-05, 0.002178149, 0.009298567
 48224113, -0.01706717, -0.0006316, 0.002585889, 0.009298939
 48274137, -0.0172851, -0.0006103168, 0.003075934, 0.009298753
 48329140, -0.01838634, 0.0001728829, 0.003097154, 0.01022882
 48379118, -0.01659077, -0.0001174151, 0.003210738, 0.009298567
 48429431, -0.01746819, -0.0004222219, 0.002758, 0.009298754
 48484132, -0.01938421, -0.0004015748, 0.002973057, 0.01023198
 48534155, -0.0173628, -0.000373526, 0.002784555, 0.009295591
 48584142, -0.01758829, -2.06835E-05, 0.002454561, 0.009298567
 48634128, -0.01775017, -0.0005150319, 0.002423491, 0.009298752
 48689117, -0.01904265, 0.0001865241, 0.002774774, 0.01022863
 48739145, -0.01746982, -0.0006166364, 0.002815512, 0.009300241
 48789143, -0.01723673, -8.897953E-05, 0.002601736, 0.009298009
 48844111, -0.01916512, -0.0007740455, 0.002931418, 0.01022844
 48894120, -0.01775345, -2.716854E-05, 0.002907697, 0.00929838
 48944170, -0.01769168, -0.0001152133, 0.002785244, 0.009298381
 48999133, -0.01932309, -0.000486899, 0.003025395, 0.01023067
 49049149, -0.01755078, -0.000303636, 0.002229221, 0.00929745
 49099203, -0.01706454, 0.0002442832, 0.002780103, 0.009298195
 49149148, -0.0173383, -0.0006634474, 0.002504593, 0.009298753
 49204160, -0.0192116, -8.408912E-05, 0.002954504, 0.01022863
 49254119, -0.01673295, -0.0002105716, 0.002730122, 0.009298753
 49304115, -0.01674991, -4.738561E-05, 0.00224235, 0.009298754
 49359158, -0.01890092, -0.0006953264, 0.00262391, 0.01022863
 49409159, -0.01759151, -0.0002584284, 0.003257074, 0.009298753
 49459203, -0.01757918, -0.0002245703, 0.003636568, 0.009298753
 49514739, -0.01913605, -0.0002650884, 0.00355771, 0.01022919
 49564484, -0.01732277, -5.817668E-05, 0.002453358, 0.009299498
 49614500, -0.01739311, 0.0003384596, 0.002754249, 0.009297451
 49669178, -0.01955244, -0.0002922081, 0.003011491, 0.010229
 49719178, -0.01745701, -0.0008172442, 0.002653121, 0.00929838
 49769188, -0.01796731, -0.0002244599, 0.002309311, 0.009298753
 49824182, -0.01876954, -0.0001917827, 0.003531596, 0.01022881
 49874198, -0.0170665, -0.0006193237, 0.002921428, 0.009298568
 49924213, -0.01742741, -0.0002978765, 0.002826022, 0.009300056
 49974211, -0.01715248, 0.0002813917, 0.003472659, 0.009297452
 50029198, -0.01934508, 7.678557E-05, 0.002944338, 0.01022974
 50079177, -0.01673623, -0.0004210354, 0.002191059, 0.009297637
 50129173, -0.01744558, -0.0003398766, 0.002538009, 0.009298939
 50184198, -0.01941642, -0.0006348878, 0.00243118, 0.01022844
 50234229, -0.01737031, -0.0002885318, 0.002772385, 0.009301542
 50284172, -0.01752543, -0.0005293042, 0.00263493, 0.009295964
 50334170, -0.0174247, -0.0003095487, 0.003136685, 0.009298753
 50389178, -0.01910115, -0.0003639857, 0.002820362, 0.01022863
 50439197, -0.01745098, -0.0007098111, 0.002719468, 0.009298754
 50489201, -0.01712313, -0.000200791, 0.002470973, 0.009299869
 50544179, -0.01887928, -0.0007470531, 0.002848495, 0.01022751
 50594221, -0.01736445, -0.0008004103, 0.002961927, 0.009298754
 50644173, -0.01741373, 4.933076E-05, 0.002369678, 0.009298753
 50699709, -0.01986628, -0.0002723902, 0.002918968, 0.01022974
 50749473, -0.01757677, 9.083289E-05, 0.002085105, 0.009297638
 50799685, -0.01771309, -0.0005170236, 0.002673105, 0.009298754
 50854186, -0.01892435, -0.0003775217, 0.002813878, 0.01022863
 50904198, -0.01737223, -8.754325E-05, 0.002926734, 0.009298754
 50954223, -0.01721637, -8.447989E-05, 0.002478327, 0.009302286
 51004203, -0.0176894, -1.90046E-05, 0.002967498, 0.009297266
 51059186, -0.01937404, 0.0002895401, 0.002334844, 0.0102264
 51109159, -0.01740198, -0.0001190559, 0.002712747, 0.009298939
 51159159, -0.01735902, 0.0002612429, 0.00288434, 0.009298753
 51214145, -0.01898458, -0.000355372, 0.002775885, 0.01022863
 51264179, -0.01749045, -8.069211E-05, 0.002343326, 0.009298753
 51314231, -0.01699268, -0.0001890175, 0.002458967, 0.009298754
 51369170, -0.01931717, -0.000806396, 0.001975717, 0.01022881
 51419188, -0.01776918, -0.0005927755, 0.002772761, 0.009299125
 51469184, -0.01723736, -0.0003275587, 0.002832411, 0.009298938
 51519462, -0.0172876, 0.0004250348, 0.002408444, 0.009298009
 51574189, -0.01912523, -0.000143591, 0.002312881, 0.010229
 51624164, -0.01724978, -6.068816E-05, 0.002874699, 0.00929931
 51674213, -0.01750906, -0.0003840442, 0.001290446, 0.009298938
 51729212, -0.01975219, 0.0001343467, 0.003186848, 0.01022789
 51779206, -0.0178156, -0.0001342382, 0.002519894, 0.009299125
 51829220, -0.01654356, -0.002715711, 0.004311741, 0.009297824
 51884244, -0.02305747, 0.003708604, -0.001370358, 0.0102303
 51934240, -0.01791145, -0.004732834, 0.006546778, 0.009298753
 51984217, -0.01603318, 0.003437338, -4.927386E-05, 0.009297266
 52039233, -0.02021005, -0.003686268, 0.005493025, 0.010229
 52089208, -0.01650918, 0.002579147, 0.0008575562, 0.009298195
 52139212, -0.01910168, -0.002225377, 0.003760066, 0.009298938
 52189188, -0.01665456, -8.934431E-05, 0.001550339, 0.009300427
 52244473, -0.01737751, 0.001792076, 0.003288127, 0.01022733
 52294786, -0.01959819, -0.002058562, 0.003399314, 0.00929838
 52344494, -0.02031208, -0.003138604, 0.0002409121, 0.009298754
 52399189, -0.0159829, 0.003245878, 0.002435332, 0.01023105
 52449212, -0.0162611, -0.001351256, 0.003733992, 0.009300799
 52499203, -0.02027027, 0.001012596, 0.003901578, 0.009295777
 52554190, -0.01875738, 0.0005765219, 0.003158126, 0.01022863
 52604171, -0.0171232, -0.0009537851, 0.001230717, 0.009298753
 52654193, -0.01603135, 0.0001386912, 0.002550442, 0.009298753
 52704213, -0.01906684, 0.001053318, 0.002592503, 0.009298752
 52759187, -0.01896336, -0.001241017, 0.002147669, 0.01022844
 52809183, -0.01850963, 0.0001039364, 0.002682041, 0.009298753
 52859184, -0.01765726, -0.001508128, 0.001483702, 0.009298939
 52914220, -0.01531715, 0.001557988, 0.001667243, 0.010229
 52964213, -0.0189541, -0.000705217, 0.001701792, 0.009298754
 53014225, -0.02055142, -0.0005377994, 0.002143369, 0.009298753
 53070177, -0.01595756, -0.001016088, 0.001870414, 0.01022807
 53119603, -0.01870863, 0.0008015226, 0.001370213, 0.009299497
 53169518, -0.01785716, -0.002209166, 0.001672802, 0.009298194
 53219505, -0.01526293, 0.001941253, 0.003142247, 0.009298753
 53274194, -0.01785731, -0.001951855, 0.00134532, 0.01022863
 53324207, -0.01656799, -0.003019597, 0.003744713, 0.009299126
 53374186, -0.01781527, -0.001997067, 0.0007664674, 0.009298938
 53429258, -0.02205087, -0.0008401037, -0.003048162, 0.01022863
 53479215, -0.01317891, -0.003631769, 0.007646884, 0.009298195
 53529227, -0.0184857, 0.0006746858, -0.005163261, 0.00929987
 53584166, -0.02028543, -0.001991542, 0.002928002, 0.01022751
 53634209, -0.01878127, -0.004404046, 0.01532125, 0.009298753
 53684203, -0.01602487, 0.0001056354, -0.001256303, 0.009299126
 53734184, -0.0128026, 0.004024426, -0.01536449, 0.009298381
 53784212, -0.02169717, -0.007888376, 0.01222376, 0.009298753
 53839206, -0.02703043, -0.01254535, -0.0009552964, 0.01022919
 53889186, -0.004617011, -0.003004045, -0.02749117, 0.009298009
 53939199, -0.02174002, -0.01525025, -0.03803744, 0.009298939
 53989203, -0.02521004, -0.05081268, 0.007115567, 0.009299125
 54044196, 0.001441936, -0.03275782, -0.04031717, 0.01022826
 54094210, -0.039508, -0.04251521, -0.02577336, 0.009300241
 54144205, -0.01811143, -0.06001153, -0.004788225, 0.009297078
 54194233, -0.0199686, -0.03502462, -0.03145619, 0.00929894
 54249191, -0.05372624, -0.07566524, -0.007461624, 0.01022863
 54299229, -0.01699415, -0.05626065, -0.03178835, 0.009298753
 54349217, -0.04742164, -0.05253317, -0.02469024, 0.00929931
 54404697, -0.04427899, -0.08977966, 0.005838632, 0.01022807
 54454739, -0.03160889, -0.03564295, -0.04973765, 0.009298753
 54504612, -0.04588648, -0.07692029, 0.009925961, 0.009301356
 54559255, -0.02853939, -0.06519067, -0.02517241, 0.01022733
 54609212, -0.03546134, -0.0296782, -0.04933768, 0.009297824
 54659194, -0.02673228, -0.08072349, 0.02287748, 0.009301729
 54709193, -0.01750701, -0.01817486, -0.05077563, 0.009295406
 54764209, -0.02061979, -0.0512602, 0.004394371, 0.01022844
 54814186, -0.004424136, -0.04446246, -0.001716472, 0.009298939
 54864227, -0.008331939, -0.001711947, -0.04928901, 0.009298567
 54919223, 0.002753632, -0.05526935, -0.004998586, 0.01022974
 54969180, 0.001583658, 0.0006849614, -0.05862415, 0.009298753
 55019210, 0.01016197, -0.01818065, -0.03185874, 0.00929838
 55074171, 0.01294965, -0.02302154, -0.03486082, 0.01022974
 55124201, 0.006873046, 0.01795291, -0.07176352, 0.009297079
 55174229, 0.02192206, -0.02206407, -0.0264252, 0.009298753
 55224203, 0.009862464, 0.01849393, -0.07321151, 0.009298753
 55279513, 0.02210137, 0.0119396, -0.05877522, 0.01022919
 55329507, 0.01743683, -0.00189147, -0.0403141, 0.009298195
 55379516, 0.003735449, 0.03435194, -0.07156771, 0.009298566
 55434219, 0.01162157, 0.007527144, -0.04314822, 0.01023049
 55484131, -0.01807898, 0.02622292, -0.05452793, 0.009297637
 55534210, -0.01782073, 0.02788721, -0.05082702, 0.009298194
 55589982, -0.04302395, 0.02613754, -0.04273594, 0.01022881
 55639621, -0.04532694, 0.03716939, -0.04587612, 0.00930024
 55689799, -0.05689856, 0.03026837, -0.03653327, 0.009297079
 55739493, -0.06940258, 0.02836728, -0.03359963, 0.009298753
 55794183, -0.08049206, 0.03840737, -0.03972595, 0.0102303
 55844217, -0.08099316, 0.0240341, -0.02490414, 0.009297079
 55894169, -0.08288283, 0.02929361, -0.02385363, 0.009298752
 55949202, -0.08550476, 0.02262328, -0.01177621, 0.01023049
 55999208, -0.08133091, 0.01672095, 0.00343929, 0.009297079
 56049200, -0.0754893, 0.01130962, 0.01102087, 0.009298568
 56104178, -0.07641447, 0.001742668, 0.02762359, 0.01022863
 56154213, -0.07124193, 0.001257412, 0.02703471, 0.009299126
 56204209, -0.06438886, -0.006043679, 0.03116222, 0.00929838
 56254184, -0.05935016, -0.01228261, 0.03651621, 0.009298754
 56309225, -0.05823405, -0.01492764, 0.04083716, 0.01022863
 56359209, -0.05118353, -0.01654278, 0.04060611, 0.009298753
 56409197, -0.04380399, -0.024901, 0.04465388, 0.009301728
 56459209, -0.04327948, -0.02671956, 0.04842506, 0.009296335
 56514224, -0.0444337, -0.03211991, 0.04406439, 0.01022789
 56564187, -0.03107782, -0.03351359, 0.03743892, 0.009298753
 56614175, -0.03768446, -0.03735948, 0.03720798, 0.009298938
 56669261, -0.03012537, -0.03913729, 0.04213756, 0.01022844
 56719210, -0.02476094, -0.03436846, 0.03853825, 0.009298937
 56769171, -0.02636009, -0.03172735, 0.03797725, 0.009299311
 56824601, -0.015105, -0.03459951, 0.03623068, 0.01022844
 56875022, -0.01994024, -0.03422766, 0.03630345, 0.009298194
 56924788, -0.01787457, -0.03080542, 0.0328464, 0.009298938
 56974746, -0.01128964, -0.03158556, 0.04228418, 0.009298753
 57029270, -0.01945062, -0.03529206, 0.04956314, 0.01022863
 57079247, -0.01705428, -0.02264879, 0.03873374, 0.009299312
 57129205, -0.01396893, -0.02418696, 0.03939803, 0.009298195
 57184897, -0.02730747, -0.01858861, 0.04655751, 0.01022863
 57234634, -0.0154999, -0.00587475, 0.03299015, 0.009298754
 57284769, -0.02483194, -0.01102185, 0.04441912, 0.009298753
 57334609, -0.02120343, -0.0007946877, 0.03437357, 0.009298753
 57389212, -0.03512933, 0.001082766, 0.04209333, 0.01022844
 57439199, -0.02646529, 0.004476641, 0.03409084, 0.009298196
 57489231, -0.03117341, 0.01054012, 0.03219355, 0.009299497
 57544205, -0.03818793, 0.01514794, 0.03887602, 0.01022844
 57594171, -0.02567177, 0.01341945, 0.03944673, 0.009298939
 57644627, -0.0376949, 0.01775837, 0.04010627, 0.009298753
 57699158, -0.03781153, 0.02844931, 0.03541429, 0.01022863
 57749215, -0.03809678, 0.01574194, 0.04089138, 0.009298567
 57804206, -0.05139023, 0.03069568, 0.03275191, 0.01022881
 57849211, -0.04171747, 0.02789844, 0.03116611, 0.008368878
 57904186, -0.05098508, 0.02509331, 0.041669, 0.01022863
 57954185, -0.05654275, 0.0380656, 0.02742486, 0.009298754
 58004228, -0.05162186, 0.02618762, 0.03849214, 0.009298567
 58059172, -0.05532535, 0.02841941, 0.03772844, 0.010229
 58109242, -0.05949927, 0.03480493, 0.02960172, 0.009298567
 58159196, -0.04941493, 0.01718178, 0.03843478, 0.00929987
 58214175, -0.0552997, 0.02376318, 0.03876362, 0.01022751
 58264225, -0.0550529, 0.02534062, 0.0331549, 0.009300612
 58314192, -0.04126082, 0.007227226, 0.04469543, 0.009298567
 58364179, -0.05355579, 0.01857344, 0.03479525, 0.009297266
 58419513, -0.05451822, 0.006190765, 0.04251566, 0.01022826
 58470482, -0.04450059, -0.000224974, 0.0292981, 0.009298754
 58519610, -0.05443593, 0.009636286, 0.01782962, 0.009299311
 58574210, -0.04703645, 0.006911612, 0.01935292, 0.01022844
 58624184, -0.04214898, -0.000604182, 0.0246121, 0.009298568
 58674177, -0.04940029, 0.008217716, 0.01524091, 0.009300055
 58729202, -0.04228559, 0.00576372, 0.01023737, 0.01022807
 58779197, -0.03968336, -0.008917931, 0.02509652, 0.009298009
 58829241, -0.03969623, 0.005423991, 0.01074221, 0.009298753
 58879164, -0.03249971, -0.005670327, 0.02236454, 0.009298753
 58934221, -0.0358159, -0.01152693, 0.02435924, 0.01022956
 58984235, -0.03066462, 0.0005243724, 0.01419878, 0.009297823
 59034181, -0.02479405, -0.01555912, 0.02909007, 0.009297452
 59089201, -0.01589485, -0.01756933, 0.0267181, 0.01022993
 59139615, -0.0297645, -0.004288133, 0.00943743, 0.009300427
 59190863, 0.008798173, -0.03103958, 0.02809038, 0.009297078
 59239597, -0.01312555, -0.0221092, 0.01104276, 0.009299682
 59294190, -0.0019512, -0.01383159, -0.006847357, 0.0102277
 59344203, 0.009682984, -0.03302603, 0.001595788, 0.009298939
 59399181, 0.002714026, -0.02094963, -0.0127464, 0.01022695
 59449189, 0.009484827, -0.0005634649, -0.0239796, 0.009300799
 59499213, 0.01013384, -0.03170783, 0.01236181, 0.009298753
 59549201, 0.01482593, -7.13449E-05, -0.02103606, 0.009300241
 59599233, 0.009918793, -0.0003982938, -0.01023115, 0.009296893
 59654240, 0.02107796, -0.01895525, 0.009081356, 0.01022844
 59704248, 0.003089675, 0.01352087, -0.01720906, 0.009299869
 59754213, 0.01681853, 0.009738559, 0.006964885, 0.009297452
 59809220, 0.01630994, -0.005062456, 0.01849671, 0.01022881
 59859179, 0.004288224, 0.0233056, -0.01585551, 0.009298753
 59909267, 0.01795903, 0.003376616, -0.00340863, 0.009298753
 59964616, 0.0126892, 0.003863018, -0.02379791, 0.01022937
 60014509, 0.01373031, 0.02100109, -0.04115838, 0.009298008
 60065271, 0.017212, -0.001165066, -0.01871532, 0.009298753
 60114524, 0.01781411, 0.006525286, -0.03045319, 0.009298753
 60169194, 0.01418432, 0.01393549, -0.04147983, 0.0102316
 60219205, 0.0223207, -0.004441243, -0.03349986, 0.009298195
 60269239, 0.01676385, 0.006897898, -0.0493033, 0.009296893
 60324197, 0.01811843, 0.006354107, -0.05427722, 0.01022807
 60374203, 0.02050456, -0.003571691, -0.0469662, 0.009298567
 60424221, 0.01227097, 0.002847032, -0.06237912, 0.009298939
 60474191, 0.02022517, 0.0002125641, -0.06806795, 0.009298753
 60529216, 0.02078998, -0.01068012, -0.06972955, 0.01022863
 60579190, 0.02118197, -0.004543283, -0.07393143, 0.00929931
 60629271, 0.02821072, -0.0121193, -0.06049628, 0.009300055
 60684219, 0.03040281, -0.0158395, -0.06689078, 0.01022658
 60734188, 0.03326898, -0.006340737, -0.07242037, 0.00929931
 60784175, 0.03238852, -0.01898863, -0.05765799, 0.00929838
 60837068, 0.03322126, -0.01875637, -0.06683447, 0.00976369
 60887200, 0.03468924, -0.01314009, -0.06988997, 0.009299868
 60941825, 0.03355349, -0.02169029, -0.06492174, 0.01022993
 60991794, 0.02837694, -0.02187492, -0.05920351, 0.009298382
 61041803, 0.03062514, -0.01245793, -0.07315734, 0.00929801
 61096812, 0.03151495, -0.02480342, -0.06557162, 0.01023067
 61146842, 0.02781467, -0.02275692, -0.0590894, 0.009297078
 61196796, 0.02424766, -0.01853534, -0.06347654, 0.00929838
 61251850, 0.02864706, -0.02504516, -0.05353703, 0.01022733
 61301843, 0.01919533, -0.02096341, -0.04902375, 0.009300613
 61351827, 0.01858823, -0.01834687, -0.03920734, 0.009300054
 61406828, 0.01812056, -0.02090226, -0.02254581, 0.01022658
 61456868, 0.006081702, -0.01807672, -0.002630526, 0.009298752
 61507006, 0.004143683, -0.01239605, 0.001342779, 0.009302099
 61556847, -0.003342781, -0.01665612, 0.01706135, 0.009297079
 61611857, -0.01173226, -0.0153094, 0.02223787, 0.01022584
 61661813, -0.01101818, -0.005354332, 0.02508813, 0.009298939
 61711863, -0.01379229, -0.01535301, 0.0485195, 0.009298753
 61761834, -0.01589131, -0.0108028, 0.06056374, 0.009299311
 61816816, -0.02072919, 0.005543092, 0.07352404, 0.01022881
 61866968, -0.02283879, -0.002112364, 0.09299817, 0.009297823
 61916833, -0.02823489, 0.01984053, 0.08612534, 0.00929894
 61972115, -0.04473182, 0.01806524, 0.1220294, 0.010229
 62022112, -0.0333777, 0.009863503, 0.1030569, 0.009298195
 62072899, -0.06522476, 0.03604154, 0.06774332, 0.009300799
 62126834, -0.06096182, 0.01788425, 0.08390594, 0.01022733
 62176846, -0.06746183, 0.01860841, 0.06897835, 0.009303031
 62227025, -0.07939624, 0.03923331, 0.05071557, 0.009293546
 62276975, -0.07368793, 0.007056744, 0.0567875, 0.009300426
 62331974, -0.1043573, 0.04920071, 0.02670415, 0.01022714
 62381972, -0.08919127, 0.02585053, 0.03984506, 0.009298939
 62431865, -0.08994373, 0.02186457, 0.03807537, 0.009299497
 62486921, -0.1089894, 0.0487741, 0.01832058, 0.0102277
 62536849, -0.09596966, 0.01592006, 0.02835129, 0.009299869
 62587088, -0.08975235, 0.03616248, 0.008299431, 0.009299126
 62636815, -0.09650081, 0.04031248, 0.005956126, 0.009297079
 62691866, -0.0866018, 0.02355313, 0.01774669, 0.01023198
 62741850, -0.08455094, 0.04341051, 0.0005389642, 0.009297079
 62791824, -0.06890647, 0.03046652, 0.007116879, 0.009297266
 62847100, -0.06344113, 0.02370727, 0.01164763, 0.01023365
 62898272, -0.06418628, 0.04213462, -0.004217417, 0.009294661
 62947265, -0.04359779, 0.02702073, 0.01580012, 0.009298752
 63001875, -0.04642192, 0.02617966, 0.0136209, 0.01022826
 63051861, -0.04185563, 0.03488494, -0.002272309, 0.009299497
 63101856, -0.01926182, 0.01439719, 0.01127219, 0.00929801
 63151843, -0.01982045, 0.01618009, 0.007677772, 0.009303031
 63206853, -0.009178147, 0.03299751, -0.000203797, 0.01022547
 63256865, 0.02498327, 0.0006774504, 0.02124526, 0.009297079
 63306979, 0.008116097, 0.01804328, -0.005902548, 0.009300241
 63361841, 0.0478452, 0.03361233, -0.005429916, 0.010229
 63411873, 0.04226693, -0.001475054, 0.02806891, 0.009296894
 63461835, 0.04023372, 0.0295187, 0.005274453, 0.00929987
 63511873, 0.05529236, 0.03113598, 0.01764437, 0.009300056
 63566825, 0.04866427, 0.007291981, 0.0345423, 0.01022695
 63616845, 0.03914762, 0.0397751, 0.01269405, 0.009299125
 63666993, 0.03921895, 0.03775589, 0.03482752, 0.009299498
 63722101, 0.03066393, 0.01314871, 0.05786685, 0.01022677
 63772103, 0.01963934, 0.05929728, 0.007332824, 0.009298753
 63822095, 0.01019777, 0.02533798, 0.03384165, 0.009298938
 63872889, 0.007707275, 0.02883726, 0.02218397, 0.009298753
 63926856, -0.006024379, 0.07037561, -0.005040023, 0.01022937
 63976833, -0.005738845, 0.01889832, 0.02980175, 0.009298753
 64026889, -0.0117756, 0.05277764, -0.003804333, 0.009298382
 64081848, -0.01960609, 0.05981127, 0.002297038, 0.01022974
 64131851, -0.01060011, 0.02173934, 0.01451308, 0.009297265
 64181865, -0.02544859, 0.06031476, -0.01480555, 0.009301171
 64236816, -0.01737342, 0.03752169, 0.01209762, 0.01022621
 64286842, -0.01502329, 0.02350831, 0.007431198, 0.009298752
 64336824, -0.02432779, 0.04532145, -0.01330358, 0.009300242
 64387079, -0.01345086, 0.01660907, 0.01242357, 0.009298196
 64441833, -0.01637332, 0.02817308, 0.003191699, 0.01022733
 64491874, -0.0255922, 0.03140301, -0.001773567, 0.009301542
 64541866, -0.009448553, 0.003945959, 0.01771671, 0.009296148
 64591850, -0.02193762, 0.02582637, 3.621751E-05, 0.009298753
 64647109, -0.01690021, 0.01580993, 0.01388034, 0.01023216
 64698263, -0.006518435, 0.001559533, 0.01549534, 0.009296522
 64747278, -0.02535836, 0.02542042, 0.0003701695, 0.009297451
 64801820, -0.009694149, 0.005445973, 0.01370858, 0.01022807
 64851971, -0.01024055, -0.001761022, 0.01113457, 0.00930117
 64906867, -0.02428304, 0.0214593, -0.01436851, 0.01022919
 64956999, -0.01069101, -0.001569446, 0.009260102, 0.00929708
 65006992, -0.01983356, 0.005154084, 0.002257374, 0.009299682
 65056852, -0.00972362, 0.01823908, -0.006125539, 0.009299311
 65106991, -0.01425977, -0.008140086, 0.01264095, 0.009298008
 65161829, -0.01556097, 0.009544712, -0.01171818, 0.0102264
 65211837, -0.006784515, 0.006843039, -0.001856033, 0.009300799
 65261813, -0.003657489, -0.01492194, 0.01616926, 0.009298195
 65316857, -0.01155015, 0.00296222, 0.0007504579, 0.0102277
 65366832, -0.009836502, -0.009051411, 0.006005281, 0.009300612
 65416840, -0.008661709, -0.01481207, 0.009178128, 0.009298939
 65467004, -0.02164108, -0.005345506, -0.003309696, 0.009296893
 65522157, -0.009564086, -0.02017554, -0.004888466, 0.01022937
 65571822, -0.01039428, -0.01705862, -0.009754623, 0.009300054
 65621830, -0.01068983, -0.00934096, -0.01646954, 0.009298754
 65676853, 0.01329072, -0.02279198, -0.008629359, 0.01022807
 65726825, 0.001347208, -0.01860085, -0.007949702, 0.009300055
 65776909, 0.02185315, -0.008655667, -0.003808299, 0.009296151
 65829256, 0.01749817, -0.02241894, 0.02239802, 0.009766295
 65879235, 0.01928599, -0.01170097, 0.01610521, 0.009296336
 65934257, 0.01925411, -0.005876157, 0.009578531, 0.01022807
 65984286, 0.01397627, -0.01958487, 0.01217904, 0.009299126
 66034207, 0.01965649, -0.008072557, -0.000395956, 0.009299124
 66084244, 0.01233152, -0.007179848, 0.00334423, 0.009298194
 66139247, 0.02136547, -0.01687745, 0.008784962, 0.01022863
 66189206, 0.01955066, -0.008774292, -0.003014846, 0.009299683
 66239219, 0.01698562, -0.001736121, 8.491678E-05, 0.009297823
 66295843, 0.03196703, -0.01276757, 0.006857313, 0.01022974
 66344764, 0.0166925, -0.004336223, 0.002493236, 0.009297452
 66395825, 0.0254311, -0.003446853, -0.005360175, 0.009299498
 66444653, 0.01813345, -0.004453264, -0.009649228, 0.009298194
 66499291, 0.02338107, -0.0004025681, 0.00237142, 0.01022733
 66549243, 0.01604402, -0.006453172, 0.00555585, 0.009300799
 66604231, 0.02449651, -1.952692E-05, 0.003916116, 0.01022844
 66654221, 0.01966895, 0.003185992, -0.001575669, 0.009298195
 66704281, 0.01604847, -0.01557059, 0.0110823, 0.009298753
 66754246, 0.0310823, 0.01822377, -0.01400961, 0.009299496
 66804385, 0.01667034, -0.00635136, 0.02102581, 0.009300427
 66859390, 0.0322023, -0.0119173, 0.03052917, 0.01022621
 66909434, 0.02089723, 0.03304995, -0.02016213, 0.009298754
 66959418, 0.02149153, -0.03562686, 0.05457556, 0.009299125
 67014417, 0.03657209, 0.02998011, -0.02444848, 0.0102303
 67064629, 0.02729805, 0.01174686, 0.007680884, 0.009296707
 67114406, 0.03831836, -0.003172218, -0.0007572633, 0.009298754
 67164379, 0.0375588, 0.06713898, -0.03596935, 0.009299311
 67219753, 0.04676037, -0.0009542983, 0.0400851, 0.01022863
 67269356, 0.04359939, 0.08068891, -0.02994362, 0.009299682
 67321939, 0.04574094, 0.04785068, 0.02932923, 0.009763878
 67372076, 0.04103588, 0.03995218, 0.03407209, 0.009297266
 67422099, 0.0380283, 0.09882443, 0.001309137, 0.009300798
 67477411, 0.02785753, 0.02617257, 0.04642083, 0.01022844
 67529639, 0.04346986, 0.07534157, -0.00924883, 0.009763134
 67579611, 0.02507389, 0.06008856, -0.004627421, 0.009297266
 67629402, 0.02948057, 0.01861885, 0.001788763, 0.009298752
 67679415, 0.01942048, 0.08041109, -0.0520808, 0.009298754
 67731951, 0.01846915, -0.007359467, 0.02428532, 0.009766852
 67781945, 0.01421902, 0.05164452, -0.04124679, 0.00929708
 67837213, 0.006846339, 0.02108865, -0.01785322, 0.01022789
 67887407, 0.006244064, -0.01930144, -0.0008168407, 0.009299682
 67939422, -0.005580033, 0.04661281, -0.04754888, 0.009762017
 67989447, 0.008423747, -0.02797317, 0.01564414, 0.00930024
 68039410, -0.0161263, 0.01762804, -0.028264, 0.009298195
 68094390, -0.002529853, 0.01081843, -0.01130341, 0.0102277
 68144681, -0.007887015, -0.02776701, 0.01641386, 0.009299126
 68194392, -0.0180733, 0.03145676, -0.04602657, 0.009300055
 68249721, -0.001902826, -0.02680404, 0.01263574, 0.01022714
 68300916, -0.02520292, 0.001682969, -0.03453656, 0.009298568
 68349750, 0.0007048692, 0.01234505, -0.02836465, 0.009298753
 68400897, -0.01698237, -0.03508912, 0.02255604, 0.009299311
 68454395, -0.0121957, 0.02697163, -0.03700561, 0.01022881
 68509423, -0.005080646, -0.02252167, 0.01642516, 0.01022863
 68554410, -0.01631177, 0.0006436547, -0.01183414, 0.008370551
 68606937, -0.004795788, 0.01023404, -0.007986661, 0.009761273
 68656919, -0.01599253, -0.03586076, 0.03060432, 0.009298754
 68711918, -0.01363458, 0.03623791, -0.04789887, 0.01023012
 68761917, -0.01186066, -0.04249958, 0.03276057, 0.00930024
 68811902, -0.01765883, 0.01712288, -0.05313297, 0.009296707
 68866913, -0.007022495, -0.009314444, -0.005363399, 0.0102303
 68916953, -0.01477355, -0.04101618, 0.02192538, 0.009298939
 68966927, -0.006957017, 0.02370408, -0.04973008, 0.009296707
 69016970, -0.01269346, -0.06393456, 0.0514623, 0.009299497
 69072981, -0.02287548, 0.00512057, -0.04681345, 0.01022714
 69122192, -0.002910352, -0.03034765, 0.009666275, 0.009298752
 69172208, -0.02592183, -0.02774169, 0.007495622, 0.009300055
 69226947, 0.001376173, 0.01483872, -0.02392831, 0.01022993
 69276947, -0.01759055, -0.05668684, 0.05164272, 0.009294661
 69329404, -0.01380562, 0.0229003, -0.02078562, 0.009766294
 69379396, -0.011731, -0.01982263, 0.03937733, 0.009298753
 69429409, -0.01315508, -0.004431869, -0.003789445, 0.009297637
 69484433, -0.01572911, 0.0271372, -0.00731852, 0.010229
 69534427, -0.01420886, -0.04041875, 0.05948446, 0.009300984
 69584623, -0.01464428, 0.04998691, -0.03963431, 0.009296148
 69634408, -0.02235071, -0.02895157, 0.04574077, 0.009298753
 69689393, -0.01553332, 0.01910121, -0.00934824, 0.01022863
 69739395, -0.03160613, 0.02552064, -0.01018699, 0.00929931
 69789389, -0.02483079, -0.03034949, 0.02467535, 0.009298753
 69844730, -0.03521909, 0.04641593, -0.05697824, 0.01022807
 69895978, -0.03459708, -0.03751786, 0.03903385, 0.009299312
 69944910, -0.02819414, 0.02755993, -0.03512343, 0.00929987
 69996174, -0.0410896, -0.006215739, 0.01945939, 0.009297637
 70049635, -0.03148244, -0.02229477, 0.0280775, 0.01022937
 70104402, -0.04075357, 0.03937618, -0.0369921, 0.01022863
 70149372, -0.03721872, -0.04928999, 0.05138523, 0.00836832
 70204542, -0.03520244, 0.02934235, -0.04239288, 0.01022826
 70254378, -0.04608318, -0.01440243, 0.01967013, 0.009299869
 70304627, -0.02419529, -0.008640522, 0.01448532, 0.009297266
 70354401, -0.04601402, 0.02282356, -0.006301041, 0.009298567
 70409425, -0.03638212, -0.03607529, 0.04680549, 0.01022863
 70459413, -0.03648487, 0.04993782, -0.02942037, 0.009298753
 70509425, -0.04479148, -0.03353048, 0.05871545, 0.009298939
 70564367, -0.03448365, 0.03048128, -0.01730038, 0.01022956
 70614392, -0.04481879, 0.01395069, 0.01612107, 0.009297824
 70664621, -0.03282591, -0.01360839, 0.02597528, 0.009298753
 70714393, -0.0436134, 0.04526879, -0.02494223, 0.009298753
 70769738, -0.04171009, -0.04127041, 0.05077477, 0.01022863
 70819714, -0.03455288, 0.05007493, -0.04652352, 0.009298753
 70870449, -0.04002761, -0.03479496, 0.05115234, 0.009298754
 70924416, -0.03705249, 0.01214329, -0.008535589, 0.01022974
 70974387, -0.03513339, 0.01529889, -0.006536751, 0.009298567
 71024651, -0.02992157, -0.03386497, 0.03782386, 0.009297824
 71074395, -0.02813614, 0.04251547, -0.03222823, 0.009299683
 71129396, -0.03537503, -0.04969721, 0.06837081, 0.01023049
 71179404, -0.02440364, 0.03739368, -0.03027956, 0.009295964
 71229397, -0.0302776, -0.02391898, 0.04581721, 0.009299126
 71284409, -0.0276214, -0.005278503, 0.01707924, 0.01022881
 71334406, -0.02868838, 0.03072506, -0.02270744, 0.009299125
 71384612, -0.02944452, -0.03993349, 0.04911515, 0.009297824
 71434409, -0.02399481, 0.03788552, -0.0417277, 0.009298753
 71489427, -0.03254855, -0.0314409, 0.0337759, 0.010229
 71539420, -0.02483929, -0.01031635, -0.005254266, 0.009300427
 71589378, -0.02763617, 0.006643178, -0.0163743, 0.009298381
 71644731, -0.02494517, -0.04975943, 0.03498776, 0.01022695
 71695985, -0.03003822, 0.01876676, -0.04424004, 0.009298753
 71744866, -0.02339279, -0.05064601, 0.04232896, 0.009298754
 71799404, -0.03141436, -0.01172959, -0.01132814, 0.01022733
 71849385, -0.02346678, -0.008337023, -0.003179191, 0.009300985
 71904364, -0.02598675, -0.05056663, 0.03018686, 0.0102277
 71949402, -0.02665859, 0.01227246, -0.02810661, 0.008369436
 72004405, -0.02131567, -0.05245475, 0.04307098, 0.01023123
 72054319, -0.03322209, -0.01602044, -0.007894296, 0.009295963
 72104621, -0.01941398, -0.01430731, -0.004422351, 0.00929838
 72159389, -0.02114221, -0.04762384, 0.026326, 0.01022881
 72209410, -0.03234843, 0.009671017, -0.0231248, 0.009298567
 72259394, -0.01006245, -0.04174309, 0.03846778, 0.009301171
 72309409, -0.03399641, -0.0002818538, -0.007239065, 0.009297079
 72364369, -0.01618365, -0.01048645, 0.005689654, 0.01022863
 72414417, -0.02011135, -0.03119109, 0.02616851, 0.009298009
 72464680, -0.02779069, 0.01813275, -0.02087462, 0.009298567
 72519739, -0.01524076, -0.03297768, 0.04298727, 0.010229
 72569850, -0.03785096, 0.006991792, 0.00262032, 0.009298754
 72619854, -0.008780081, -0.001524665, 0.01460709, 0.00929838
 72670482, -0.03174618, -0.01443384, 0.02192029, 0.009298937
 72724521, -0.02744609, 0.03260502, -0.0150201, 0.01022993
 72774370, -0.02049444, -0.02906749, 0.03687174, 0.009298753
 72824615, -0.03422279, 0.03150932, -0.02226643, 0.009297638
 72879421, -0.01854844, 0.002048068, 0.0142931, 0.01022844
 72929426, -0.03259888, -0.01126492, 0.02004606, 0.009298566
 72979409, -0.02607613, 0.03965582, -0.02395149, 0.009299869
 73034416, -0.02323829, -0.02420073, 0.03342481, 0.0102277
 73084420, -0.03889365, 0.03859338, -0.02921811, 0.009302844
 73136936, -0.01544544, -0.003652236, 0.01670183, 0.009760529
 73187092, -0.03468252, 0.0003757651, 0.006589563, 0.009300613
 73236930, -0.0165766, 0.03022221, -0.02466938, 0.009295777
 73286909, -0.02342761, -0.02376993, 0.02416792, 0.009299497
 73342375, -0.0320845, 0.03516793, -0.02859807, 0.01022807
 73393433, -0.003876216, -0.01107892, 0.02212362, 0.009299869
 73442215, -0.0317763, 0.006242853, 0.0003931788, 0.009297637
 73496964, -0.01000168, 0.0283048, -0.01583548, 0.01023514
 73546928, -0.01632524, -0.02439111, 0.03038605, 0.009294288
 73601941, -0.02554726, 0.02547084, -0.01698186, 0.01022974
 73651926, -0.006420879, 0.005332198, 0.005561445, 0.009298938
 73702067, -0.02874074, -0.01046838, 0.0144245, 0.009297078
 73751938, -0.008631658, 0.03324758, -0.02140525, 0.009297637
 73801938, -0.0207008, -0.0316436, 0.04505096, 0.00930024
 73856923, -0.02258483, 0.0235119, -0.01163764, 0.01022714
 73907002, -0.007733454, -0.001017711, 0.01362342, 0.009300241
 73956965, -0.02613036, -0.01751015, 0.02156868, 0.009300428
 74011961, -0.009783766, 0.03472503, -0.02580838, 0.01022695
 74062076, -0.01978697, -0.03101839, 0.03998759, 0.009299125
 74114768, -0.01725901, 0.008975757, -0.004324214, 0.009761086
 74164751, -0.01552873, 0.006395149, 0.003751384, 0.009298753
 74216926, -0.0276436, -0.03741848, 0.0318808, 0.009766108
 74266941, -0.02011744, 0.02910398, -0.03992693, 0.009298009
 74316940, -0.02890525, -0.04344114, 0.03130427, 0.009297267
 74371921, -0.02607991, -0.002718433, -0.01761279, 0.01022863
 74419389, -0.02191944, 0.005417695, -0.007084014, 0.00883363
 74475512, -0.02729242, -0.04177528, 0.02585796, 0.01022937
 74524804, -0.02313782, 0.0323326, -0.04387144, 0.009298008
 74574745, -0.02580952, -0.04561895, 0.04598979, 0.009298939
 74629407, -0.03227016, 0.01069204, -0.02904514, 0.010229
 74679418, -0.02416669, 0.0004548391, -0.01571287, 0.009297266
 74729423, -0.0303785, -0.02947523, 0.01555994, 0.009299869
 74779393, -0.02396485, 0.03440107, -0.03585806, 0.00930024
 74834423, -0.02880441, -0.04359775, 0.04286436, 0.01022863
 74884869, -0.02542296, 0.03309226, -0.02389251, 0.009297266
 74936952, -0.02522607, -0.01690839, 0.03354868, 0.009764435
 74987061, -0.01994993, -0.003284444, 0.005125302, 0.009298568
 75037102, -0.02438458, 0.01915971, -0.0009314134, 0.009300426
 75091915, -0.02274068, -0.03522846, 0.0458621, 0.0102303
 75142116, -0.01750473, 0.04328246, -0.04111077, 0.009294848
 75192059, -0.02603638, -0.03669847, 0.04786928, 0.009300613
 75247291, -0.02365053, 0.01060656, -0.01674127, 0.01022677
 75298628, -0.02662762, 0.01357112, -0.008370855, 0.009298568
 75347189, -0.02393536, -0.0324389, 0.02618213, 0.009300241
 75398380, -0.02619581, 0.03835202, -0.03924793, 0.009297451
 75451962, -0.0313026, -0.04267072, 0.05060326, 0.01022937
 75507079, -0.03153132, 0.02333739, -0.02586416, 0.01023012
 75551957, -0.02749535, -0.004174288, 0.02010279, 0.008369064
 75606925, -0.0333519, -0.007601999, 0.01116338, 0.01022621
 75656915, -0.03240694, 0.03971021, -0.03332384, 0.009298753
 75709407, -0.03584748, -0.02807027, 0.03253682, 0.009764805
 75759389, -0.03321794, 0.0312164, -0.03058432, 0.009299682
 75809404, -0.03258816, 0.0003376459, 0.009576974, 0.009297637
 75864363, -0.03614077, -0.007767888, 0.01526544, 0.0102277
 75911960, -0.03615865, 0.03874446, -0.02461584, 0.008836791
 75967240, -0.03279535, -0.02248392, 0.0306879, 0.01022658
 76017203, -0.03934682, 0.02437024, -0.01640954, 0.009300054
 76066898, -0.02564842, 0.001824759, 0.008607412, 0.00929931
 76121940, -0.03299181, -0.01379272, 0.01703352, 0.01022751
 76171949, -0.02811651, 0.03339931, -0.02229393, 0.009299125
 76224374, -0.02924415, -0.02723553, 0.03743857, 0.009761645
 76274383, -0.01596483, 0.01705188, -0.01253995, 0.009299497
 76324396, -0.03214981, 0.001868761, 0.007735219, 0.009298753
 76379631, -0.0155664, -0.01304423, 0.01273743, 0.01022788
 76429393, -0.02231757, 0.02703095, -0.02438362, 0.009299311
 76479378, -0.01618516, -0.02209684, 0.02774847, 0.009296709
 76529422, -0.01444779, 0.0118236, -0.01416186, 0.00930024
 76584383, -0.02203168, 0.002238225, 0.009613794, 0.010229
 76634383, -0.01120691, -0.02995596, 0.03037195, 0.009296892
 76684433, -0.02517957, 0.02152344, -0.02415027, 0.009300612
 76739868, -0.01475892, -0.03464744, 0.0329591, 0.01022919
 76790869, -0.02340429, -0.003810019, -0.004486916, 0.009299126
 76839712, -0.01602185, -0.005187427, 0.00922809, 0.009297451
 76890933, -0.01371637, -0.03239877, 0.02448952, 0.009298752
 76944407, -0.03063044, 0.009774188, -0.01621582, 0.01022863
 76994402, -0.01150049, -0.03350883, 0.02229218, 0.009297451
 77044432, -0.03082348, -0.001268122, -0.012117, 0.009300055
 77096938, -0.01482642, -0.006499756, 0.001764853, 0.009763691
 77146912, -0.01899299, -0.03134818, 0.01882205, 0.009298753
 77204418, -0.02972864, 0.006955794, -0.02004207, 0.01069226
 77249732, -0.007833918, -0.03197167, 0.01711034, 0.008371852
 77304414, -0.03250494, -0.01316582, -0.0044461, 0.01022565
 77354401, -0.01344661, 0.002776739, -0.004903832, 0.009300055
 77409399, -0.0145978, -0.02946479, 0.02449979, 0.01022937
 77459653, -0.02462056, 0.004962151, -0.01038979, 0.009298008
 77509420, -0.006315777, -0.01175767, 0.009693396, 0.009300613
 77559411, -0.02405094, -0.01917446, 0.01423448, 0.00929801
 77614411, -0.01374445, 0.01299612, -0.0173716, 0.01022807
 77664405, -0.01333283, -0.0251405, 0.01576731, 0.009298381
 77714618, -0.02046512, 0.008845447, -0.008536737, 0.009298753
 77764603, 0.00132521, 0.000173179, 0.009299934, 0.009298752
 77819660, -0.0261399, -0.01734542, 0.05039784, 0.01023012
 77869523, -0.007311333, 0.02748905, -0.001275385, 0.009297637
 77919423, -0.02410084, -0.02884772, 0.03263986, 0.009298195
 77974876, -0.0191344, 0.00272367, -0.01328816, 0.01022863
 78024774, -0.01597145, 0.00669719, -0.00611517, 0.009298752
 78075442, -0.02650251, -0.03439258, 0.03162442, 0.009298753
 78124718, -0.01744495, 0.02928828, -0.02767017, 0.009298753
 78179658, -0.02759013, -0.02367834, 0.03840838, 0.01023291
 78229403, -0.01425067, -0.002470962, -0.003506744, 0.009295033
 78279373, -0.01941461, 0.01250156, -0.02300454, 0.009298566
 78334410, -0.02082341, -0.02288246, 0.01361885, 0.01022826
 78384406, -0.006781318, 0.02260825, -0.02720289, 0.009298753
 78434396, -0.02721889, -0.00445167, 0.01271264, 0.009299311
 78484399, -0.007073085, 0.003367245, 0.004086539, 0.009298753
 78539649, -0.01674486, 0.02999887, -0.004734335, 0.01022807
 78589414, -0.01579359, -0.008283143, 0.02869692, 0.009298753
 78639388, -0.007235975, 0.02390932, -0.0006300572, 0.009298753
 78694391, -0.02918383, 0.008296296, 0.01516133, 0.01022844
 78742077, -0.003334629, -0.0001966333, 0.007367938, 0.008834002
 78798410, -0.02833765, 0.02359243, -0.01221669, 0.01022881
 78847196, -0.01597727, -0.0005213756, 0.006948324, 0.009302474
 78898429, -0.01588741, 0.01475664, -0.005315216, 0.009295964
 78951945, -0.03293476, 0.01381328, 0.001594643, 0.01023049
 79001944, -0.009633144, 0.003108108, 0.009535815, 0.009303776
 79051970, -0.03407148, 0.01668905, -0.0008021355, 0.009293545
 79104402, -0.0186442, 0.008475587, 0.005951479, 0.009761832
 79154390, -0.01981951, 0.01129443, -0.005414963, 0.009297822
 79209377, -0.03663291, 0.02063283, -0.002119464, 0.01022881
 79259422, -0.01038514, 0.005667198, 0.005999725, 0.009298567
 79309400, -0.03415338, 0.01613833, 0.002149171, 0.009301171
 79359387, -0.0196867, 0.01149534, 0.007261917, 0.009296335
 79411923, -0.02375608, 0.002925029, 0.01142587, 0.009763691
 79462094, -0.03021356, 0.01896555, -0.0003959319, 0.009300241
 79517238, -0.01729778, 0.01017825, 0.001017882, 0.01022826
 79567194, -0.03097179, 0.00418124, 0.009125586, 0.009297823
 79617200, -0.01751303, 0.01909537, -0.005238683, 0.009300055
 79671909, -0.02570391, 0.008536263, 0.009622199, 0.0102277
 79721916, -0.02466659, 0.008088275, 0.01069354, 0.009300055
 79771944, -0.013002, 0.02362356, -0.008023412, 0.009296893
 79826929, -0.03031935, 0.005806744, 0.01482333, 0.01023142
 79876911, -0.01565307, 0.01736845, 0.002197238, 0.009295963
 79926955, -0.01928217, 0.0170518, 0.00694587, 0.009300613
 79976949, -0.02397283, -0.001987552, 0.02180449, 0.009299682
 80031941, -0.02040325, 0.01944803, -0.001927356, 0.01022733
 80081980, -0.03603059, -0.003504107, 0.01570439, 0.009299683
 80131953, -0.02090336, 0.001950133, 0.0075436, 0.009297637
 80187035, -0.0375699, 0.01122373, 0.0072269, 0.01022863
 80236889, -0.02846201, -0.01682216, 0.02690103, 0.00929987
 80287048, -0.02819538, 0.005601304, 0.0003570486, 0.00929838
 80337060, -0.03406599, -0.003212573, 0.0140908, 0.009296893
 80393613, -0.02194255, -0.01129822, 0.01837886, 0.01022974
 80442289, -0.03221846, 0.008237284, -0.00167138, 0.009300055
 80493448, -0.02243731, -0.01126906, 0.005254675, 0.00929838
 80542428, -0.02079561, -0.0005985355, -0.01940638, 0.009299683
 80596963, -0.0248566, 0.009304593, -0.01860688, 0.01022584
 80646924, -0.006815302, -0.007515811, 0.00158452, 0.009298382
 80701912, -0.01724954, 0.0101356, -0.01265993, 0.01022863
 80751946, -0.01316035, 0.009624638, -0.006555541, 0.009299497
 80801893, -0.007316839, -0.004221492, 0.005021751, 0.009298009
 80851937, -0.01663075, 0.02073636, -0.01472276, 0.009300799
 80906952, -0.008043919, 0.001357052, 0.002945143, 0.01022677
 80956956, -0.01441904, 0.004191321, -0.004352365, 0.009300427
 81006969, -0.01462874, 0.01520108, -0.01332746, 0.009297637
 81056929, -0.01152308, -0.003556337, -0.001430156, 0.009299125
 81111934, -0.01499754, 0.01505945, -0.01651173, 0.0102303
 81161916, -0.009771148, 0.01533564, -0.01670438, 0.009296149
 81211950, -0.008313647, -0.0002469376, -0.001953619, 0.009298753
 81262053, -0.01003442, 0.02018138, -0.01426079, 0.00929801
 81317202, -0.01147532, 0.001054806, 0.007666767, 0.01022937
 81366925, -0.01062614, 0.002145407, 0.005287835, 0.009298753
 81419624, -0.01295411, 0.01653136, -0.008297582, 0.009764806
 81474398, -0.02135419, -0.01028911, 0.008669102, 0.01022733
 81519420, -0.008623132, 0.007843527, -0.01145499, 0.008374085
 81574384, -0.02460563, 2.710137E-05, 0.01147264, 0.01022342
 81624378, -0.01325399, -0.01768121, 0.01645611, 0.009298753
 81674422, -0.02600735, 0.01203493, -0.005659727, 0.009299684
 81729396, -0.03092187, -0.01967605, 0.01499749, 0.01022956
 81779605, -0.02096417, -0.01019789, 0.002300123, 0.009296893
 81829414, -0.03819083, 0.002452257, 0.001216336, 0.009299124
 81879414, -0.02278656, -0.02550769, 0.02517731, 0.00929838
 81934381, -0.03839299, 0.003126055, -0.008251125, 0.01022863
 81984412, -0.03087184, -0.008006622, 0.005162592, 0.009299683
 82034364, -0.02352616, -0.02011383, 0.009728851, 0.009299869
 82090941, -0.03979558, 0.00637166, -0.007838872, 0.01022658
 82139868, -0.0199305, -0.0230614, 0.02368489, 0.009298753
 82190908, -0.02885186, -0.01024542, 0.009482618, 0.009300054
 82239721, -0.02143973, 0.004320273, -0.002552292, 0.009297451
 82294403, -0.01791568, -0.02813448, 0.02625713, 0.01022733
 82344367, -0.02826192, 0.002856324, -0.01273444, 0.009301543
 82396913, -0.01429415, -0.008284076, -0.0004256485, 0.009762203
 82446937, -0.02107243, -0.01793418, 0.003577541, 0.009302843
 82496944, -0.01864872, 0.01435062, -0.02277518, 0.009298009
 82551933, -0.01812508, -0.007123557, 0.004737019, 0.01022658
 82601901, -0.02144946, 0.002535907, 0.001930956, 0.009303218
 82651931, -0.01893748, 0.02415058, -0.007025963, 0.009295034
 82709410, -0.01769921, -0.003107889, 0.02668341, 0.01069264
 82754609, -0.0179875, 0.01737115, -0.004226156, 0.008367762
 82809386, -0.01448972, 0.01445778, 0.007842404, 0.01023011
 82859654, -0.01567577, -0.009970584, 0.0281742, 0.009297824
 82909617, -0.02427514, 0.03131495, -0.007620427, 0.009298753
 82959417, -0.01694634, -0.01090473, 0.02860815, 0.009298196
 83014517, -0.0236508, 0.009026757, 0.0112503, 0.01022863
 83064396, -0.02494819, 0.02555848, -0.004133895, 0.009298753
 83114395, -0.01264776, -0.02053669, 0.03185398, 0.009298753
 83169391, -0.03262366, 0.03525209, -0.02549123, 0.01022863
 83219609, -0.01035129, -0.0105938, 0.02067488, 0.009299311
 83269408, -0.02624167, 0.01116923, -0.003597158, 0.009299311
 83319400, -0.01331165, 0.02305376, -0.002621647, 0.009298196
 83374730, -0.01239565, -0.007893804, 0.02798815, 0.01022881
 83424737, -0.02713579, 0.03674164, -0.007849638, 0.009297823
 83475454, -0.008959497, 0.0006282104, 0.02081809, 0.009298939
 83731931, -0.005807854, -0.001638442, 0.0082802, 0.008834002
 83787044, -0.02355143, -0.007938964, 0.01302905, 0.01023012
 83836919, -0.02156829, 0.02184246, -0.01769567, 0.009297266
 83886947, -0.01083591, -0.02622439, 0.02322396, 0.009300056
 83936923, -0.02948732, 0.008272368, -0.0101133, 0.009301171
 83991969, -0.01151831, -0.001420747, -0.0006623949, 0.01022491
 84041987, -0.01751261, -0.02458696, 0.01998308, 0.009298753
 84091921, -0.02333601, 0.01825443, -0.01986523, 0.009300612
 84147185, -0.01068127, -0.01692904, 0.01600718, 0.01022826
 84198416, -0.02351656, -0.01139379, 0.008369609, 0.009298566
 84247180, -0.0122216, 0.01520499, -0.02160711, 0.009298753
 84298408, -0.01354697, -0.02789664, 0.021625, 0.009298382
 84351946, -0.02102547, 0.006970264, -0.01733145, 0.0102277
 84406946, -0.01068489, -0.0006891473, 0.001487895, 0.01022993
 84451937, -0.01386232, -0.02500467, 0.02173624, 0.00836925
 84506920, -0.01510837, 0.01605109, -0.01280086, 0.01023086
 84556898, -0.01039912, -0.02632847, 0.03591835, 0.009297265
 84606917, -0.02091905, -0.003329952, 0.0006098694, 0.009298381
 84656931, -0.01518844, 0.002054116, -0.0001942995, 0.00929745
 84711915, -0.02006519, -0.02724339, 0.02196575, 0.01022863
 84761925, -0.0239788, 0.004914511, -0.01321654, 0.009299311
 84811921, -0.02240709, -0.008003701, -0.002691468, 0.009298195
 84866893, -0.02074483, -0.02134828, 0.000543692, 0.01022788
 84916931, -0.02880699, 0.009587915, -0.02354612, 0.009298754
 84966953, -0.0171374, -0.01923501, 0.01110247, 0.00930024
 85016941, -0.02164165, -0.009797987, 0.004068545, 0.00929801
 85072976, -0.02243354, 0.005702056, -0.001148398, 0.01022788
 85122162, -0.01376092, -0.02648285, 0.02981322, 0.009299682
 85172217, -0.02756737, 0.006991618, -0.006159017, 0.009300055
 85226925, -0.0143005, -0.004146431, 0.006217037, 0.01022714
 85276896, -0.01834819, -0.02508174, 0.02727497, 0.009300057
 85327063, -0.02346806, 0.02140055, -0.01550887, 0.009300799
 85381907, -0.01559126, -0.02501868, 0.03371345, 0.01022454
 85432082, -0.02898241, 0.004313918, -2.474617E-05, 0.009298752
 85482065, -0.01369376, 0.007773422, -0.005469904, 0.009299498
 85531950, -0.02185564, -0.02001271, 0.01910684, 0.009299311
 85587231, -0.02929358, 0.02794353, -0.02616288, 0.01022733
 85636915, -0.01239572, -0.01560635, 0.01856117, 0.009298753
 85686941, -0.03026993, 0.006733537, -0.006939291, 0.009300984
 85741914, -0.01581434, 0.01993346, -0.01961853, 0.0102264
 85791921, -0.01491879, -0.0231717, 0.02193012, 0.009300427
 85841938, -0.02411481, 0.03157981, -0.02886831, 0.009299682
 85891940, -0.007775786, -0.009840064, 0.02038503, 0.009297451
 85947204, -0.02512664, 0.005485247, 0.006676284, 0.01022974
 85998455, -0.01158739, 0.03273008, -0.01777892, 0.009298567
 86047203, -0.01312285, -0.0139631, 0.02838733, 0.009296522
 86101914, -0.02423074, 0.02804895, -0.01525222, 0.01022733
 86151945, -0.01019651, 0.01559355, -0.006760788, 0.009301541
 86206926, -0.02326621, -0.005127554, 0.02209071, 0.01023123
 86251930, -0.01979795, 0.0401975, -0.02332072, 0.008367762
 86306905, -0.02001625, -0.005503067, 0.02432901, 0.01022807
 86356916, -0.02852633, 0.0166936, -9.919284E-05, 0.009299311
 86406929, -0.01485844, 0.029462, -0.009434884, 0.009295777
 86456981, -0.02175242, -0.01202019, 0.03086641, 0.009301729
 86511947, -0.02788071, 0.04053607, -0.01389088, 0.01022844
 86561895, -0.01428629, 0.003955538, 0.01857127, 0.00929801
 86611906, -0.0245728, 0.006172836, 0.0106543, 0.009297265
 86666890, -0.02420199, 0.04120153, -0.02198658, 0.01022937
 86716971, -0.01805349, -0.01095839, 0.02722827, 0.009298195
 86766923, -0.0285869, 0.03066034, -0.01540892, 0.0093021
 86816934, -0.01495457, 0.01987914, 0.00210399, 0.009297266
 86872994, -0.02460913, 0.0006793957, 0.02352515, 0.01022714
 86922195, -0.02364279, 0.03962804, -0.01398481, 0.009301543
 86972174, -0.01239671, 0.0003648808, 0.01619064, 0.009295777
 87026955, -0.02737844, 0.006330059, 0.008663725, 0.0102277
 87076899, -0.01899465, 0.0325372, -0.01805321, 0.009298939
 87126939, -0.01374174, -0.01345231, 0.02341974, 0.009298938
 87176940, -0.03111264, 0.02626966, -0.01085041, 0.009299125
 87231937, -0.01053739, 0.009074348, 0.01161992, 0.01022789
 87281937, -0.02301415, -0.01305942, 0.02516948, 0.009298753
 87331936, -0.02368969, 0.03223385, -0.02069525, 0.009300427
 87387045, -0.01440649, -0.02140402, 0.02682841, 0.01022807
 87436942, -0.03522352, 0.01131401, -0.01060725, 0.009300799
 87486955, -0.01044311, 0.004356305, -0.001612819, 0.009295591
 87536928, -0.02808004, -0.01895592, 0.01872319, 0.009299869
 87591930, -0.02867551, 0.02328021, -0.01938203, 0.01023068
 87641935, -0.0130991, -0.02141426, 0.02297538, 0.009295591
 87691906, -0.0385116, 0.006669512, -0.00128891, 0.009298752
 87747168, -0.01688441, 0.009934036, 0.001024957, 0.01025094
 87799371, -0.02914796, -0.03297356, 0.02779404, 0.00974844
 87849385, -0.02953527, 0.01803002, -0.03339901, 0.009294104
 87899656, -0.02061868, -0.02023526, 0.01210834, 0.009295777
 87949619, -0.03149525, -0.01108527, 0.004643232, 0.009299869
 88004629, -0.01546425, 0.01686805, -0.01744425, 0.01022807
 88054538, -0.0194697, -0.03693777, 0.03831394, 0.009298753
 88104366, -0.02086688, 0.0181368, -0.02433005, 0.009298753
 88154391, -0.009371611, -0.0144865, 0.01099708, 0.009298753
 88209405, -0.02520557, -0.0171933, 0.00856281, 0.01022863
 88259427, -0.01232925, 0.02069036, -0.02883932, 0.009298754
 88309409, -0.01635116, -0.02977172, 0.02246947, 0.009301356
 88364400, -0.02315098, 0.006911777, -0.00478669, 0.0102277
 88414404, -0.006925662, 0.01475128, -0.001397818, 0.009297078
 88464393, -0.0182738, -0.02335696, 0.03375308, 0.009298753
 88514388, -0.006129033, 0.02967169, -0.02233033, 0.009300985
 88569708, -0.02241179, -0.00765905, 0.01698125, 0.0102264
 88619864, -0.002606809, 0.001955339, -0.005213252, 0.009299497
 88670456, -0.02156778, 0.0221506, -0.009196383, 0.009303959
 88724395, -0.014661, -0.01068485, 0.01928545, 0.01022268
 88774369, -0.009750674, 0.01432704, -0.01539356, 0.009299311
 88824382, -0.01938853, 0.009237085, -0.000911777, 0.009298381
 88874397, -0.007569963, -0.01256186, 0.01124198, 0.009298566
 88929428, -0.02334429, 0.02140137, -0.008632579, 0.01022863
 88979650, -0.0115882, -0.004869238, 0.01743758, 0.009298752
 89029409, -0.01747615, 0.0002543875, 0.007272112, 0.009299311
 89084413, -0.02238304, 0.02175617, -0.004248225, 0.01023067
 89134423, -0.01491981, -0.01420269, 0.02298948, 0.009296522
 89184413, -0.02554188, 0.01691149, -0.01040423, 0.00929838
 89234376, -0.01527691, 0.004911797, 0.00202335, 0.009298567
 89289422, -0.02708934, -0.003360705, 0.010012, 0.01022881
 89339599, -0.02246947, 0.02190575, -0.007494689, 0.009298753
 89389284, -0.01836888, -0.006340903, 0.01963275, 0.009299312
 89444412, -0.02463411, 0.007587203, 0.009645376, 0.01022807
 89497084, -0.01665591, 0.02116993, -0.003707894, 0.009762947
 89546930, -0.01808719, -0.01429186, 0.02816003, 0.009299496
 89596920, -0.02119243, 0.02139465, -0.00990752, 0.009297451
 89646909, -0.01442687, -0.0004284978, 0.0145955, 0.009300613
 89701911, -0.02202856, -0.005377716, 0.01964449, 0.01022807
 89751932, -0.01601018, 0.02194445, -0.009024367, 0.009298752
 89801934, -0.01791313, -0.01130036, 0.02100366, 0.009299869
 89851931, -0.01977945, 0.01075429, -0.004650821, 0.009300613
 89906935, -0.01303674, 0.01080418, 0.0005873383, 0.01022584
 89956930, -0.01357058, -0.01070497, 0.01610754, 0.009302287
 90006952, -0.01256419, 0.01990076, -0.008150198, 0.009295033
 90056928, -0.01523043, -0.004464613, 0.01460198, 0.009299869
 90111935, -0.009917277, 0.006543098, 0.002284535, 0.01023049
 90161921, -0.01263565, 0.0161815, -0.002204113, 0.009295776
 90211928, -0.009372952, -0.01105535, 0.01903148, 0.009298753
 90267981, -0.01593937, 0.01258763, -0.004346602, 0.01023291
 90317178, -0.01165798, 0.004124988, 0.003997998, 0.009295777
 90367402, -0.01343646, -0.00960377, 0.01686903, 0.009297451
 90417354, -0.01474788, 0.01462676, -0.008220486, 0.009301914
 90472068, -0.01848117, -0.006415725, 0.01124503, 0.0102264
 90522093, -0.01552863, -0.000336953, 0.009603542, 0.009298938
 90571936, -0.02055424, 0.009358713, 0.002160782, 0.009299683
 90622072, -0.02078639, -0.006900041, 0.01279356, 0.009297267
 90677221, -0.02194471, 0.005861556, -0.004110048, 0.01023067
 90729399, -0.02588389, 0.009509901, -0.007097812, 0.009762947
 90779608, -0.01843765, -0.005615198, 0.005345402, 0.009295219
 90829420, -0.02952108, 0.01684729, -0.003259063, 0.009300799
 90879407, -0.01555075, 0.002782311, 0.02132005, 0.009298381
 90934435, -0.01846429, -0.001981537, 0.01961755, 0.01022881
 90984384, -0.02881097, 0.02797431, -0.01172261, 0.009298939
 91034393, -0.01153115, -0.008279021, 0.01110245, 0.009300056
 91090928, -0.0300511, 0.007804594, -0.01041487, 0.01022677
 91139862, -0.02050693, 0.01925982, -0.02172353, 0.009298938
 91190866, -0.01614444, -0.01274005, 0.006988683, 0.009299312
 91239720, -0.02386886, 0.01912138, -0.01581839, 0.009298009
 91294390, -0.01228202, 0.007392354, -0.002436948, 0.01022751
 91344287, -0.02148353, -0.006146664, 0.004605466, 0.009303031
 91399365, -0.02071294, 0.01983971, -0.02263787, 0.01022547
 91449363, -0.01258077, -0.0003712425, -0.002996019, 0.009299311
 91499627, -0.02352254, -0.001939655, -0.0002822673, 0.009299869
 91549468, -0.01246084, 0.01666846, -0.01690239, 0.009298382
