TimeUS,COFN,COFE,CNe,CEe,POFN,POFE,PNe,PEe
 43758386, -0.001432093, -0.0005500543, 0.004279078, -0.004647371, -0.008436915, 0.003422602, 0.004377367, -0.004644176
 43829501, 0.006483061, 0.006593456, 0.004347178, -0.004738667, -0.001432093, -0.0005500543, 0.004279078, -0.004647371
 43915571, -0.001239065, 0.003164071, 0.004304242, -0.004690423, 0.002529704, 0.003042406, 0.00430266, -0.004682655
 43975623, -0.01229654, -3.128207E-05, 0.004550051, -0.004688706, -0.001239065, 0.003164071, 0.004304242, -0.004690423
 44025529, -0.001217786, 0.003098265, 0.004246848, -0.004627511, -0.01229654, -3.128207E-05, 0.004550051, -0.004688706
 44080577, 0.006408194, 0.009953783, 0.004159505, -0.004650684, -0.001217786, 0.003098265, 0.004246848, -0.004627511
 44135898, 0.002475296, 0.002961989, 0.0042584, -0.004633258, 0.006408194, 0.009953783, 0.004159505, -0.004650684
 44190547, -0.005173873, -0.00041034, 0.004429969, -0.004769135, 0.002475296, 0.002961989, 0.0042584, -0.004633258
 44245549, -0.001368323, -0.000507369, 0.004414584, -0.004792525, -0.005173873, -0.00041034, 0.004429969, -0.004769135
 44300569, -0.004983254, 0.003399349, 0.004419505, -0.004772984, -0.001368323, -0.000507369, 0.004414584, -0.004792525
 44355555, 0.002755218, 0.0068824, 0.00436389, -0.00480984, -0.004983254, 0.003399349, 0.004419505, -0.004772984
 44405527, 0.006600145, 0.006691959, 0.004408831, -0.004800662, 0.002755218, 0.0068824, 0.00436389, -0.00480984
 44461028, -0.005180376, -0.0004072014, 0.004380757, -0.004710866, 0.006600145, 0.006691959, 0.004408831, -0.004800662
 44515547, -0.004905453, 0.003324767, 0.004371739, -0.004718616, -0.005180376, -0.0004072014, 0.004380757, -0.004710866
 44570552, -0.004997388, 0.003306244, 0.004370533, -0.004714823, -0.004905453, 0.003324767, 0.004371739, -0.004718616
 44625573, 0.002761619, 0.006871045, 0.004332077, -0.004773397, -0.004997388, 0.003306244, 0.004370533, -0.004714823
 44680609, 0.002638675, 0.003155239, 0.004502374, -0.004891582, 0.002761619, 0.006871045, 0.004332077, -0.004773397
 44735996, -0.005463362, -0.0004674427, 0.004613415, -0.004961438, 0.002638675, 0.003155239, 0.004502374, -0.004891582
 44790527, -0.005208184, -0.0003470964, 0.004523063, -0.004864018, -0.005463362, -0.0004674427, 0.004613415, -0.004961438
 44840562, -0.001262503, 0.003241958, 0.004363033, -0.004744964, -0.005208184, -0.0003470964, 0.004523063, -0.004864018
 44895548, 0.006341412, 0.006463437, 0.004239816, -0.004611883, -0.001262503, 0.003241958, 0.004363033, -0.004744964
 44950598, -0.001070577, 0.006784232, 0.004222529, -0.004656493, 0.006341412, 0.006463437, 0.004239816, -0.004611883
 45005558, -0.005283803, -0.0004085915, 0.004471208, -0.004801669, -0.001070577, 0.006784232, 0.004222529, -0.004656493
 45061020, -0.004999244, 0.003420082, 0.004479732, -0.004828438, -0.005283803, -0.0004085915, 0.004471208, -0.004801669
 45115550, -0.001433003, -0.0005850201, 0.004401921, -0.004766257, -0.004999244, 0.003420082, 0.004479732, -0.004828438
 45170535, 0.006426544, 0.006576471, 0.004320154, -0.004694791, -0.001433003, -0.0005850201, 0.004401921, -0.004766257
 45220575, -0.001037056, 0.006641863, 0.004111636, -0.00453442, 0.006426544, 0.006576471, 0.004320154, -0.004694791
 45275583, -0.004763195, -0.0003813055, 0.004062199, -0.004351818, -0.001037056, 0.006641863, 0.004111636, -0.00453442
 45330547, -0.004591196, 0.003055258, 0.004018775, -0.004320468, -0.004763195, -0.0003813055, 0.004062199, -0.004351818
 45385996, -0.001303001, 0.003083816, 0.004174473, -0.004531735, -0.004591196, 0.003055258, 0.004018775, -0.004320468
 45440529, 0.006463483, 0.002911653, 0.004459535, -0.004776116, -0.001303001, 0.003083816, 0.004174473, -0.004531735
 45495545, -0.001160958, 0.007054363, 0.004372247, -0.004808549, 0.006463483, 0.002911653, 0.004459535, -0.004776116
 45550555, -0.005206804, -0.0003896, 0.00440411, -0.004719591, -0.001160958, 0.007054363, 0.004372247, -0.004808549
 45605523, -0.005089674, 0.003367923, 0.004392474, -0.004721944, -0.005206804, -0.0003896, 0.00440411, -0.004719591
 45661035, -0.005149156, -0.00036231, 0.004320793, -0.00462682, -0.005089674, 0.003367923, 0.004392474, -0.004721944
 45710986, 0.006244889, 0.006442445, 0.004229485, -0.004590107, -0.005149156, -0.00036231, 0.004320793, -0.00462682
 45765537, -0.001132153, 0.006782815, 0.00418504, -0.004605819, 0.006244889, 0.006442445, 0.004229485, -0.004590107
 45820564, -0.001368384, 0.003278592, 0.004409249, -0.004779524, -0.001132153, 0.006782815, 0.00418504, -0.004605819
 45875583, -0.008932492, -0.003878201, 0.004432302, -0.004688584, -0.001368384, 0.003278592, 0.004409249, -0.004779524
 45930547, -0.001352758, 0.003076965, 0.004193784, -0.004544671, -0.008932492, -0.003878201, 0.004432302, -0.004688584
 45986139, 0.005932025, 0.009541501, 0.004005108, -0.004464863, -0.001352758, 0.003076965, 0.004193784, -0.004544671
 46035992, 0.002077703, 0.002649768, 0.003751112, -0.004061077, 0.005932025, 0.009541501, 0.004005108, -0.004464863
 46090557, -0.004569866, -0.0003485783, 0.003827717, -0.004083294, 0.002077703, 0.002649768, 0.003751112, -0.004061077
 46145530, -0.004709026, -0.0002930565, 0.004019987, -0.00429395, -0.004569866, -0.0003485783, 0.003827717, -0.004083294
 46200611, -0.001219552, 0.002992432, 0.004103813, -0.004444357, -0.004709026, -0.0002930565, 0.004019987, -0.00429395
 46255616, 0.002529036, 0.006662128, 0.004189298, -0.004597604, -0.001219552, 0.002992432, 0.004103813, -0.004444357
 46311008, 0.002381076, 0.003005535, 0.004229464, -0.004572674, 0.002529036, 0.006662128, 0.004189298, -0.004597604
 46365574, -0.001283602, 0.003176517, 0.004263513, -0.004614412, 0.002381076, 0.003005535, 0.004229464, -0.004572674
 46420544, -0.005138682, 0.003435757, 0.004498829, -0.004826271, -0.001283602, 0.003176517, 0.004263513, -0.004614412
 46475607, -0.001384875, 0.00334455, 0.00455056, -0.004921553, -0.005138682, 0.003435757, 0.004498829, -0.004826271
 46525565, -0.001361671, 0.003286221, 0.004474853, -0.004839189, -0.001384875, 0.00334455, 0.00455056, -0.004921553
 46580584, 0.002703411, 0.006989324, 0.004429686, -0.004848163, -0.001361671, 0.003286221, 0.004474853, -0.004839189
 46635983, -0.008959096, -0.0002516973, 0.004517937, -0.004740509, 0.002703411, 0.006989324, 0.004429686, -0.004848163
 46690531, -0.001444062, -0.000491347, 0.004380889, -0.004719798, -0.008959096, -0.0002516973, 0.004517937, -0.004740509
 46745561, -0.001270208, 0.003214613, 0.004365141, -0.004718808, -0.001444062, -0.000491347, 0.004380889, -0.004719798
 46800596, 0.006634056, 0.01054252, 0.004409137, -0.004880289, -0.001270208, 0.003214613, 0.004365141, -0.004718808
 46850577, -0.001303446, 0.003171804, 0.004351443, -0.004702421, 0.006634056, 0.01054252, 0.004409137, -0.004880289
 46905547, -0.008937805, 0.003516047, 0.004537157, -0.004772105, -0.001303446, 0.003171804, 0.004351443, -0.004702421
 46960990, -0.005355487, -0.0003786548, 0.004595639, -0.004908818, -0.008937805, 0.003516047, 0.004537157, -0.004772105
 47015565, -0.001432708, -0.0005351724, 0.004529098, -0.004876244, -0.005355487, -0.0003786548, 0.004595639, -0.004908818
 47070529, 0.007039567, 0.006959058, 0.004544617, -0.004904583, -0.001432708, -0.0005351724, 0.004529098, -0.004876244
 47125575, -0.001054797, 0.003222044, 0.004429797, -0.004785118, 0.007039567, 0.006959058, 0.004544617, -0.004904583
 47175639, -0.001127568, 0.003255218, 0.004397788, -0.00475062, -0.001054797, 0.003222044, 0.004429797, -0.004785118
 47235998, -0.004829397, 0.003394357, 0.004414094, -0.004729351, -0.001127568, 0.003255218, 0.004397788, -0.00475062
 47290603, -0.001109526, 0.003203737, 0.00436785, -0.004716759, -0.004829397, 0.003394357, 0.004414094, -0.004729351
 47340555, -0.001028993, 0.007328723, 0.00452656, -0.004951159, -0.001109526, 0.003203737, 0.00436785, -0.004716759
 47395534, 0.006721169, 0.00302996, 0.004564757, -0.00486214, -0.001028993, 0.007328723, 0.00452656, -0.004951159
 47450603, -0.005055298, -0.0003961554, 0.004379399, -0.004670016, 0.006721169, 0.00302996, 0.004564757, -0.00486214
 47505565, -0.008275012, 0.003388949, 0.004354955, -0.004575767, -0.005055298, -0.0003961554, 0.004379399, -0.004670016
 47561118, -0.001183596, 0.003145047, 0.004272989, -0.00461129, -0.008275012, 0.003388949, 0.004354955, -0.004575767
 47615531, 0.01035268, 0.006642224, 0.004521463, -0.004776502, -0.001183596, 0.003145047, 0.004272989, -0.00461129
 47665569, -0.001240088, 0.003267074, 0.004479898, -0.004831878, 0.01035268, 0.006642224, 0.004521463, -0.004776502
 47720552, -0.005338473, -0.0004399891, 0.004576038, -0.004878649, -0.001240088, 0.003267074, 0.004479898, -0.004831878
 47775665, -0.008851361, 0.003589466, 0.004605667, -0.004843784, -0.005338473, -0.0004399891, 0.004576038, -0.004878649
 47830614, -0.001350826, -0.0005487244, 0.004437303, -0.004768227, -0.008851361, 0.003589466, 0.004605667, -0.004843784
 47886004, 0.00676604, 0.01067522, 0.004459157, -0.004919995, -0.001350826, -0.0005487244, 0.004437303, -0.004768227
 47940557, 0.002590771, 0.00306801, 0.004389647, -0.004724751, 0.00676604, 0.01067522, 0.004459157, -0.004919995
 47990535, -0.008827028, -0.0002766098, 0.004495114, -0.004702472, 0.002590771, 0.00306801, 0.004389647, -0.004724751
 48050574, -0.001288693, 0.003342292, 0.004485153, -0.004833775, -0.008827028, -0.0002766098, 0.004495114, -0.004702472
 48105553, -0.001509507, -0.0005804879, 0.004607143, -0.004947735, -0.001288693, 0.003342292, 0.004485153, -0.004833775
 48155528, 0.002709602, 0.006880782, 0.004347384, -0.004743588, -0.001509507, -0.0005804879, 0.004607143, -0.004947735
 48210981, -0.001089964, 0.006785061, 0.004219202, -0.004613013, 0.002709602, 0.006880782, 0.004347384, -0.004743588
 48265559, -0.001222728, 0.003121865, 0.004265516, -0.004595704, -0.001089964, 0.006785061, 0.004219202, -0.004613013
 48320535, -0.008571473, -0.000177267, 0.004415006, -0.004614013, -0.001222728, 0.003121865, 0.004265516, -0.004595704
 48375757, -0.00138073, -0.000537485, 0.004308023, -0.004623653, -0.008571473, -0.000177267, 0.004415006, -0.004614013
 48430544, 0.006436647, 0.006629549, 0.004379935, -0.004717959, -0.00138073, -0.000537485, 0.004308023, -0.004623653
 48480563, 0.002669052, 0.006812798, 0.00433479, -0.004725876, 0.006436647, 0.006629549, 0.004379935, -0.004717959
 48535990, -0.001253044, 0.003350744, 0.004532506, -0.004879709, 0.002669052, 0.006812798, 0.00433479, -0.004725876
 48590548, -0.005537175, -0.0003603681, 0.004887593, -0.00520765, -0.001253044, 0.003350744, 0.004532506, -0.004879709
 48645551, -0.01013927, -0.0003152686, 0.005104446, -0.005357907, -0.005537175, -0.0003603681, 0.004887593, -0.00520765
 48700566, 0.007223672, 0.007444884, 0.004819869, -0.005186954, -0.01013927, -0.0003152686, 0.005104446, -0.005357907
 48755564, -0.001124292, 0.007441148, 0.004613047, -0.005026951, 0.007223672, 0.007444884, 0.004819869, -0.005186954
 48805577, -0.001237992, 0.003350192, 0.00454767, -0.004893214, -0.001124292, 0.007441148, 0.004613047, -0.005026951
 48865620, -0.005740429, -0.004483918, 0.004879199, -0.005222446, -0.001237992, 0.003350192, 0.00454767, -0.004893214
 48915539, -0.005878933, 0.003960603, 0.005216711, -0.005571942, -0.005740429, -0.004483918, 0.004879199, -0.005222446
 48970543, 0.007512432, 0.00772099, 0.00502691, -0.00540501, -0.005878933, 0.003960603, 0.005216711, -0.005571942
 49025562, -0.001266326, 0.003537679, 0.004750331, -0.005108389, 0.007512432, 0.00772099, 0.00502691, -0.00540501
 49080576, -0.001255868, 0.003363291, 0.004608337, -0.004954908, -0.001266326, 0.003537679, 0.004750331, -0.005108389
 49136121, -0.00505932, 0.003443095, 0.004553764, -0.004857731, -0.001255868, 0.003363291, 0.004608337, -0.004954908
 49190550, -0.001226564, 0.003296908, 0.004474401, -0.004811063, -0.00505932, 0.003443095, 0.004553764, -0.004857731
 49240557, 0.002806781, 0.006988968, 0.004435772, -0.004825628, -0.001226564, 0.003296908, 0.004474401, -0.004811063
 49295565, 0.002536441, 0.002996478, 0.004238583, -0.004549616, 0.002806781, 0.006988968, 0.004435772, -0.004825628
 49350610, -0.008259557, 0.003276239, 0.00426667, -0.004454661, 0.002536441, 0.002996478, 0.004238583, -0.004549616
 49405586, -0.004847061, -0.0002805169, 0.004253912, -0.004515094, -0.008259557, 0.003276239, 0.00426667, -0.004454661
 49461425, -0.00117941, 0.003130852, 0.00426301, -0.004581502, -0.004847061, -0.0002805169, 0.004253912, -0.004515094
 49515539, 0.006324387, 0.002900065, 0.004357359, -0.004616867, -0.00117941, 0.003130852, 0.00426301, -0.004581502
 49570554, 0.002573083, 0.003078631, 0.00438174, -0.004700052, 0.006324387, 0.002900065, 0.004357359, -0.004616867
 49625548, -0.008980103, 0.003633956, 0.004656386, -0.004878129, 0.002573083, 0.003078631, 0.00438174, -0.004700052
 49680569, -0.001358489, -0.0004997404, 0.004521975, -0.004839619, -0.008980103, 0.003633956, 0.004656386, -0.004878129
 49730554, -0.001210228, 0.003270098, 0.004478929, -0.004808937, -0.001358489, -0.0004997404, 0.004521975, -0.004839619
 49786028, 0.006474407, 0.006673292, 0.004372863, -0.004695731, -0.001210228, 0.003270098, 0.004478929, -0.004808937
 49840561, -0.001127666, 0.00303605, 0.00415543, -0.004462455, 0.006474407, 0.006673292, 0.004372863, -0.004695731
 49895537, -0.004720843, 0.00321403, 0.004216737, -0.004486507, -0.001127666, 0.00303605, 0.00415543, -0.004462455
 49950570, -0.008359352, -0.0001750178, 0.004342848, -0.004520042, -0.004720843, 0.00321403, 0.004216737, -0.004486507
 50005579, -0.001163661, 0.003126453, 0.004268656, -0.004581978, -0.008359352, -0.0001750178, 0.004342848, -0.004520042
 50061417, 0.006589212, 0.01039191, 0.004356631, -0.004788102, -0.001163661, 0.003126453, 0.004268656, -0.004581978
 50110981, -0.001159708, 0.003144542, 0.004313286, -0.004628352, 0.006589212, 0.01039191, 0.004356631, -0.004788102
 50165564, -0.001168049, 0.003159563, 0.004328007, -0.004643803, -0.001159708, 0.003144542, 0.004313286, -0.004628352
 50220553, -0.005083244, -0.004006587, 0.004375256, -0.004667589, -0.001168049, 0.003159563, 0.004328007, -0.004643803
 50275598, -0.001213222, 0.003234296, 0.004409702, -0.004730067, -0.005083244, -0.004006587, 0.004375256, -0.004667589
 50330541, 0.006743357, 0.007016355, 0.004576652, -0.004909736, -0.001213222, 0.003234296, 0.004409702, -0.004730067
 50386014, -0.001238094, 0.003281918, 0.004500899, -0.004826528, 0.006743357, 0.007016355, 0.004576652, -0.004909736
 50435988, -0.004805907, 0.003288803, 0.004316967, -0.004590244, -0.001238094, 0.003281918, 0.004500899, -0.004826528
 50495544, -0.004716861, 0.003241812, 0.004294636, -0.004566751, -0.004805907, 0.003288803, 0.004316967, -0.004590244
 50545560, -0.004957905, -0.000421233, 0.004321946, -0.004577218, -0.004716861, 0.003241812, 0.004294636, -0.004566751
 50600560, 0.006533936, 0.006661657, 0.00437083, -0.00468528, -0.004957905, -0.000421233, 0.004321946, -0.004577218
 50655556, -0.001042064, 0.006931389, 0.004323396, -0.004700654, 0.006533936, 0.006661657, 0.00437083, -0.00468528
 50711122, -0.004873319, 0.003282551, 0.004372267, -0.004646925, -0.001042064, 0.006931389, 0.004323396, -0.004700654
 50765572, -0.001241107, -0.0004872437, 0.004342172, -0.004638419, -0.004873319, 0.003282551, 0.004372267, -0.004646925
 50820583, -0.001117754, 0.003184342, 0.00434707, -0.00465985, -0.001241107, -0.0004872437, 0.004342172, -0.004638419
 50875628, -0.00116597, 0.003188288, 0.004350929, -0.004663229, -0.001117754, 0.003184342, 0.00434707, -0.00465985
 50925588, 0.002781799, 0.007055373, 0.004480401, -0.004857379, -0.00116597, 0.003188288, 0.004350929, -0.004663229
 50980627, -0.001244374, 0.003374364, 0.004605062, -0.004933435, 0.002781799, 0.007055373, 0.004480401, -0.004857379
 51035991, -0.005006095, -0.004012366, 0.004382332, -0.004670464, -0.001244374, 0.003374364, 0.004605062, -0.004933435
 51090537, -0.001119567, 0.003081344, 0.004226711, -0.00452905, -0.005006095, -0.004012366, 0.004382332, -0.004670464
 51145558, 0.00689867, 0.01078904, 0.004503358, -0.004933812, -0.001119567, 0.003081344, 0.004226711, -0.00452905
 51200573, -0.00117155, 0.003313793, 0.004519991, -0.004841298, 0.00689867, 0.01078904, 0.004503358, -0.004933812
 51255571, -0.005004087, 0.003394652, 0.004500842, -0.004781053, -0.00117155, 0.003313793, 0.004519991, -0.004841298
 51311003, -0.005105918, -0.004128953, 0.004472559, -0.004765355, -0.005004087, 0.003394652, 0.004500842, -0.004781053
 51360935, -0.001115608, 0.003244777, 0.004409133, -0.004721846, -0.005105918, -0.004128953, 0.004472559, -0.004765355
 51415547, 0.002844114, 0.006895736, 0.004398248, -0.004764743, -0.001115608, 0.003244777, 0.004409133, -0.004721846
 51470551, 0.002696035, 0.003121121, 0.004392139, -0.004693974, 0.002844114, 0.006895736, 0.004398248, -0.004764743
 51525562, -0.004865238, 0.003350473, 0.004413031, -0.00468551, 0.002696035, 0.003121121, 0.004392139, -0.004693974
 51580579, -0.004853415, -0.0003239515, 0.004406274, -0.004663002, -0.004865238, 0.003350473, 0.004413031, -0.00468551
 51635994, -0.00108266, 0.003222276, 0.004366443, -0.004673987, -0.004853415, -0.0003239515, 0.004406274, -0.004663002
 51690544, 0.002835101, 0.006897486, 0.004371996, -0.004735276, -0.00108266, 0.003222276, 0.004366443, -0.004673987
 51740592, -0.0009846173, 0.006994077, 0.004361522, -0.004732559, 0.002835101, 0.006897486, 0.004371996, -0.004735276
 51795538, -0.001095383, 0.00316045, 0.004362612, -0.004667985, -0.0009846173, 0.006994077, 0.004361522, -0.004732559
 51850592, -0.004872536, -0.0003156183, 0.004399345, -0.004652665, -0.001095383, 0.00316045, 0.004362612, -0.004667985
 51905540, -0.00475969, 0.003294426, 0.004398542, -0.00466782, -0.004872536, -0.0003156183, 0.004399345, -0.004652665
 51960984, 0.006263909, 0.002854228, 0.004257177, -0.004486073, -0.00475969, 0.003294426, 0.004398542, -0.00466782
 52015636, -0.0009070187, 0.006623332, 0.004142848, -0.004499858, 0.006263909, 0.002854228, 0.004257177, -0.004486073
 52065550, -0.001032651, 0.003080442, 0.004199784, -0.004493482, -0.0009070187, 0.006623332, 0.004142848, -0.004499858
 52125566, -0.008474561, -0.00385774, 0.004375819, -0.0045712, -0.001032651, 0.003080442, 0.004199784, -0.004493482
 52175642, -0.0009341486, 0.003061373, 0.004160968, -0.00445183, -0.008474561, -0.00385774, 0.004375819, -0.0045712
 52230530, 0.009704146, 0.006136603, 0.004233724, -0.004415214, -0.0009341486, 0.003061373, 0.004160968, -0.00445183
 52286144, -0.0009591546, 0.00293431, 0.003996136, -0.004275254, 0.009704146, 0.006136603, 0.004233724, -0.004415214
 52340553, -0.0009293985, 0.002911589, 0.003954358, -0.00423056, -0.0009591546, 0.00293431, 0.003996136, -0.004275254
 52395580, -0.007548535, 0.003079201, 0.004051642, -0.004205156, -0.0009293985, 0.002911589, 0.003954358, -0.00423056
 52450620, -0.004324601, 0.00297395, 0.003956159, -0.004189037, -0.007548535, 0.003079201, 0.004051642, -0.004205156
 52500599, 0.002479739, 0.002745556, 0.003912951, -0.004174111, -0.004324601, 0.00297395, 0.003956159, -0.004189037
 52555601, 0.002593504, 0.006270409, 0.004024443, -0.004360263, 0.002479739, 0.002745556, 0.003912951, -0.004174111
 52610995, -0.0009484056, 0.002988741, 0.004104806, -0.004387678, 0.002593504, 0.006270409, 0.004024443, -0.004360263
 52665534, -0.00816318, -0.0002557994, 0.004315584, -0.004472426, -0.0009484056, 0.002988741, 0.004104806, -0.004387678
 52720552, -0.001095662, -0.0005229594, 0.004256685, -0.00453173, -0.00816318, -0.0002557994, 0.004315584, -0.004472426
 52775757, 0.002878038, 0.006739419, 0.004302812, -0.004651837, -0.001095662, -0.0005229594, 0.004256685, -0.00453173
 52830561, 0.002732, 0.003064376, 0.004322038, -0.004607706, 0.002878038, 0.006739419, 0.004302812, -0.004651837
 52880583, -0.001064635, 0.003183668, 0.004331081, -0.004626716, 0.002732, 0.003064376, 0.004322038, -0.004607706
 52940556, -0.004629693, 0.003313303, 0.004378144, -0.004640495, -0.001064635, 0.003183668, 0.004331081, -0.004626716
 52990553, -0.0009738722, 0.003132813, 0.00422579, -0.004514974, -0.004629693, 0.003313303, 0.004378144, -0.004640495
 53045556, 0.002701413, 0.006437671, 0.00411148, -0.004449402, -0.0009738722, 0.003132813, 0.00422579, -0.004514974
 53100565, -0.0009280522, 0.002952948, 0.004024403, -0.004300093, 0.002701413, 0.006437671, 0.00411148, -0.004449402
 53155547, -0.0009202335, 0.002981487, 0.004039146, -0.004315867, -0.0009280522, 0.002952948, 0.004024403, -0.004300093
 53210994, -0.00114909, -0.003921917, 0.004121409, -0.004415868, -0.0009202335, 0.002981487, 0.004039146, -0.004315867
 53265563, -0.004638132, 0.003239317, 0.004311219, -0.00456542, -0.00114909, -0.003921917, 0.004121409, -0.004415868
 53315553, 0.006926825, 0.006987111, 0.004543457, -0.004846453, -0.004638132, 0.003239317, 0.004311219, -0.00456542
 53370564, -0.0009332006, 0.007271104, 0.004570849, -0.004940998, 0.006926825, 0.006987111, 0.004543457, -0.004846453
 53425562, -0.001038215, 0.00343562, 0.004671405, -0.004985414, -0.0009332006, 0.007271104, 0.004570849, -0.004940998
 53480566, -0.009321906, -0.00425528, 0.004844319, -0.005067837, -0.001038215, 0.00343562, 0.004671405, -0.004985414
 53535985, -0.005162817, 0.003594391, 0.004810611, -0.005096959, -0.009321906, -0.00425528, 0.004844319, -0.005067837
 53590536, 0.007194672, 0.01120008, 0.004730188, -0.005148805, -0.005162817, 0.003594391, 0.004810611, -0.005096959
 53645481, -0.001000802, 0.00336379, 0.004564122, -0.004870485, 0.007194672, 0.01120008, 0.004730188, -0.005148805
 53695490, -0.001020894, 0.003405619, 0.00461687, -0.004926272, -0.001000802, 0.00336379, 0.004564122, -0.004870485
 53750534, -0.005100599, -0.0004072965, 0.004710706, -0.004974486, -0.001020894, 0.003405619, 0.00461687, -0.004926272
 53805484, -0.005110885, -0.0004656157, 0.004651591, -0.00490997, -0.005100599, -0.0004072965, 0.004710706, -0.004974486
 53861552, 0.003075079, 0.007096501, 0.004536354, -0.004891595, -0.005110885, -0.0004656157, 0.004651591, -0.00490997
 53915485, 0.002999311, 0.00329417, 0.004652765, -0.004952845, 0.003075079, 0.007096501, 0.004536354, -0.004891595
 53970533, -0.00100776, 0.003446202, 0.004695647, -0.005008657, 0.002999311, 0.00329417, 0.004652765, -0.004952845
 54025563, -0.005011693, 0.00354514, 0.004784002, -0.005067872, -0.00100776, 0.003446202, 0.004695647, -0.005008657
 54080486, -0.005070693, 0.00357242, 0.004755126, -0.005036592, -0.005011693, 0.00354514, 0.004784002, -0.005067872
 54130538, 0.00304154, 0.003275574, 0.004641728, -0.004940937, -0.005070693, 0.00357242, 0.004755126, -0.005036592
 54185875, 0.002900623, 0.003178305, 0.004547321, -0.004841251, 0.00304154, 0.003275574, 0.004641728, -0.004940937
 54240527, -0.0009528421, 0.003246661, 0.004476618, -0.004776827, 0.002900623, 0.003178305, 0.004547321, -0.004841251
 54295520, -0.008596326, 0.003600768, 0.004668579, -0.004869952, -0.0009528421, 0.003246661, 0.004476618, -0.004776827
 54350516, -0.0009872877, 0.003413123, 0.004633217, -0.004945072, -0.008596326, 0.003600768, 0.004668579, -0.004869952
 54405488, 0.007344145, 0.007326848, 0.00477442, -0.005089871, -0.0009872877, 0.003413123, 0.004633217, -0.004945072
 54461379, -0.0009964339, 0.003500366, 0.004759299, -0.005080321, 0.007344145, 0.007326848, 0.00477442, -0.005089871
 54510871, -0.005103027, -0.0004641381, 0.0046854, -0.004950496, -0.0009964339, 0.003500366, 0.004759299, -0.005080321
 54565496, -0.004716702, -0.0003686792, 0.004412303, -0.004659805, -0.005103027, -0.0004641381, 0.0046854, -0.004950496
 54620489, -0.000903264, 0.003160664, 0.004323779, -0.00461782, -0.004716702, -0.0003686792, 0.004412303, -0.004659805
 54675515, 0.006781016, 0.006705577, 0.00440268, -0.004694349, -0.000903264, 0.003160664, 0.004323779, -0.00461782
 54730489, 0.00281289, 0.003067848, 0.004355744, -0.00464078, 0.006781016, 0.006705577, 0.00440268, -0.004694349
 54785993, -0.004689267, 0.003307599, 0.004388581, -0.004648987, 0.00281289, 0.003067848, 0.004355744, -0.00464078
 54840525, -0.004701577, -0.0003924873, 0.004392146, -0.004637374, -0.004689267, 0.003307599, 0.004388581, -0.004648987
 54895517, -0.0008912306, 0.003109657, 0.004228173, -0.004515953, -0.004701577, -0.0003924873, 0.004392146, -0.004637374
 54950514, -0.0007134028, 0.006376935, 0.004015334, -0.00435717, -0.0008912306, 0.003109657, 0.004228173, -0.004515953
 55000495, 0.006024656, 0.002648582, 0.004003432, -0.004200095, -0.0007134028, 0.006376935, 0.004015334, -0.00435717
 55055476, -0.004365556, 0.003104514, 0.00412043, -0.004363529, 0.006024656, 0.002648582, 0.004003432, -0.004200095
 55110867, -0.008089351, -0.000230664, 0.004335272, -0.004495182, -0.004365556, 0.003104514, 0.00412043, -0.004363529
 55165559, -0.0009462029, 0.003279224, 0.004442865, -0.004745486, -0.008089351, -0.000230664, 0.004335272, -0.004495182
 55220472, 0.003152872, 0.00725515, 0.004595431, -0.004960461, -0.0009462029, 0.003279224, 0.004442865, -0.004745486
 55275537, 0.003059241, 0.00328606, 0.004689686, -0.004997703, 0.003152872, 0.00725515, 0.004595431, -0.004960461
 55330481, -0.0009962036, 0.003404981, 0.004656108, -0.004973369, 0.003059241, 0.00328606, 0.004689686, -0.004997703
 55385881, -0.008667539, 0.003589366, 0.004663132, -0.004867016, -0.0009962036, 0.003404981, 0.004656108, -0.004973369
 55436077, 0.002933193, 0.003161136, 0.004495908, -0.004792726, -0.008667539, 0.003589366, 0.004663132, -0.004867016
 55490471, -0.0009650112, 0.003244238, 0.00445446, -0.00475955, 0.002933193, 0.003161136, 0.004495908, -0.004792726
 55545560, 0.002752375, 0.003063975, 0.004309783, -0.004595853, -0.0009650112, 0.003244238, 0.00445446, -0.00475955
 55600551, -0.000933696, 0.003024346, 0.004150542, -0.004436573, 0.002752375, 0.003063975, 0.004309783, -0.004595853
 55655489, -0.004331584, 0.003093537, 0.004091571, -0.004335872, -0.000933696, 0.003024346, 0.004150542, -0.004436573
 55710860, -0.001042515, -0.0005368799, 0.004010597, -0.004270569, -0.004331584, 0.003093537, 0.004091571, -0.004335872
 55765501, 0.00275353, 0.006472371, 0.004143831, -0.004485001, -0.001042515, -0.0005368799, 0.004010597, -0.004270569
 55815494, -0.0008256367, 0.006590122, 0.004148762, -0.004500046, 0.00275353, 0.006472371, 0.004143831, -0.004485001
 55870502, -0.0009630388, 0.002990584, 0.004082277, -0.004363461, -0.0008256367, 0.006590122, 0.004148762, -0.004500046
 55925480, -0.004461569, -0.0002905714, 0.004113706, -0.004341239, -0.0009630388, 0.002990584, 0.004082277, -0.004363461
 55980516, -0.001105187, -0.0005245054, 0.004178805, -0.004449079, -0.004461569, -0.0002905714, 0.004113706, -0.004341239
 56035862, -0.0007660993, 0.01048083, 0.004238577, -0.004709338, -0.001105187, -0.0005245054, 0.004178805, -0.004449079
 56090481, 0.002694958, 0.002992334, 0.004283958, -0.004568117, -0.0007660993, 0.01048083, 0.004238577, -0.004709338
 56145493, -0.001008309, 0.00323954, 0.004371557, -0.004672341, 0.002694958, 0.002992334, 0.004283958, -0.004568117
 56200528, -0.005117646, -0.004199069, 0.004574661, -0.004865104, -0.001008309, 0.00323954, 0.004371557, -0.004672341
 56255527, -0.001076796, 0.003329213, 0.004526453, -0.004837906, -0.005117646, -0.004199069, 0.004574661, -0.004865104
 56305507, -0.0009293775, 0.007140881, 0.004482862, -0.00485491, -0.001076796, 0.003329213, 0.004526453, -0.004837906
 56360891, 0.002826802, 0.006790838, 0.004326127, -0.004681351, -0.0009293775, 0.007140881, 0.004482862, -0.00485491
 56415475, -0.004574292, 0.003179359, 0.00420091, -0.004453569, 0.002826802, 0.006790838, 0.004326127, -0.004681351
 56470565, -0.001125962, -0.0004200441, 0.004335841, -0.00462035, -0.004574292, 0.003179359, 0.00420091, -0.004453569
 56525484, -0.00506424, -0.0004398332, 0.004553242, -0.004814996, -0.001125962, -0.0004200441, 0.004335841, -0.00462035
 56580495, 0.00298631, 0.007031797, 0.00446934, -0.004833886, -0.00506424, -0.0004398332, 0.004553242, -0.004814996
 56630505, 0.00287333, 0.006957858, 0.004443367, -0.004806448, 0.00298631, 0.007031797, 0.00446934, -0.004833886
 56685872, -0.004674489, 0.003236125, 0.004276702, -0.004535249, 0.00287333, 0.006957858, 0.004443367, -0.004806448
 56740559, -0.001052994, -0.0004067678, 0.004110949, -0.004381022, -0.004674489, 0.003236125, 0.004276702, -0.004535249
 56795495, -0.001082666, -0.0005391715, 0.004200184, -0.004476268, -0.001052994, -0.0004067678, 0.004110949, -0.004381022
 56850527, -0.000855286, 0.006787601, 0.004238694, -0.004600179, -0.001082666, -0.0005391715, 0.004200184, -0.004476268
 56905500, -0.0009429829, 0.003024068, 0.004111861, -0.00439971, -0.000855286, 0.006787601, 0.004238694, -0.004600179
 56960860, -0.0009733441, 0.003005878, 0.004094567, -0.004381321, -0.0009429829, 0.003024068, 0.004111861, -0.00439971
 57015548, -0.004484885, 0.003175581, 0.004225443, -0.00448337, -0.0009733441, 0.003005878, 0.004094567, -0.004381321
 57070530, -0.000998511, 0.003086125, 0.004232413, -0.00452886, -0.004484885, 0.003175581, 0.004225443, -0.00448337
 57120516, 0.002868781, 0.006732964, 0.004285816, -0.00464185, -0.000998511, 0.003086125, 0.004232413, -0.00452886
 57175642, -0.0009962259, 0.00315774, 0.004298411, -0.004600771, 0.002868781, 0.006732964, 0.004285816, -0.00464185
 57230493, -0.001001522, 0.003177066, 0.004320224, -0.004624464, -0.0009962259, 0.00315774, 0.004298411, -0.004600771
 57285875, -0.001252332, -0.004262473, 0.004456002, -0.004782933, -0.001001522, 0.003177066, 0.004320224, -0.004624464
 57340497, -0.001047772, 0.003349512, 0.004593337, -0.004917022, -0.001252332, -0.004262473, 0.004456002, -0.004782933
 57395503, 0.003104497, 0.007391079, 0.004689084, -0.005072621, -0.001047772, 0.003349512, 0.004593337, -0.004917022
 57450507, -0.0009759488, 0.007495008, 0.004720577, -0.005113905, 0.003104497, 0.007391079, 0.004689084, -0.005072621
 57500492, -0.00102342, 0.003332432, 0.00451983, -0.004840561, -0.0009759488, 0.007495008, 0.004720577, -0.005113905
 57555508, -0.008517673, -0.003846763, 0.004408212, -0.004613262, -0.00102342, 0.003332432, 0.00451983, -0.004840561
 57610870, -0.001013243, 0.003157947, 0.004307962, -0.004615233, -0.008517673, -0.003846763, 0.004408212, -0.004613262
 57665503, 0.006662393, 0.006648947, 0.004391101, -0.004698741, -0.001013243, 0.003157947, 0.004307962, -0.004615233
 57720484, -0.0008570438, 0.006924972, 0.004335083, -0.004709009, 0.006662393, 0.006648947, 0.004391101, -0.004698741
 57775633, -0.004793794, 0.003315286, 0.004446637, -0.004725368, -0.0008570438, 0.006924972, 0.004335083, -0.004709009
 57830505, -0.001169513, -0.000501123, 0.004520196, -0.004825355, -0.004793794, 0.003315286, 0.004446637, -0.004725368
 57885877, -0.001058878, 0.003321584, 0.004568252, -0.00489266, -0.001169513, -0.000501123, 0.004520196, -0.004825355
 57935863, 0.00298464, 0.007101778, 0.004501091, -0.004876133, -0.001058878, 0.003321584, 0.004568252, -0.00489266
 57990481, -0.001032771, 0.003248252, 0.004393491, -0.004707534, 0.00298464, 0.007101778, 0.004501091, -0.004876133
 58045550, -0.004597988, 0.003207617, 0.004247006, -0.004512369, -0.001032771, 0.003248252, 0.004393491, -0.004707534
 58100500, -0.004893047, -0.004046756, 0.00437016, -0.004660009, -0.004597988, 0.003207617, 0.004247006, -0.004512369
 58155489, -0.0009997681, 0.003307856, 0.004513932, -0.004837411, -0.004893047, -0.004046756, 0.00437016, -0.004660009
 58210860, -0.0009002446, 0.007380574, 0.004594188, -0.004987006, -0.0009997681, 0.003307856, 0.004513932, -0.004837411
 58265479, 0.007044509, 0.003187584, 0.004745793, -0.005021053, -0.0009002446, 0.007380574, 0.004594188, -0.004987006
 58315538, -0.001075094, 0.003477944, 0.004737768, -0.005078826, 0.007044509, 0.003187584, 0.004745793, -0.005021053
 58370497, -0.009267094, -0.0002463161, 0.004872368, -0.005095063, -0.001075094, 0.003477944, 0.004737768, -0.005078826
 58425470, -0.00106879, 0.003439772, 0.004667345, -0.005005157, -0.009267094, -0.0002463161, 0.004872368, -0.005095063
 58480526, 0.003202743, 0.01115811, 0.004560527, -0.005053916, -0.00106879, 0.003439772, 0.004667345, -0.005005157
 58535860, 0.002847064, 0.003136692, 0.004494154, -0.004811254, 0.003202743, 0.01115811, 0.004560527, -0.005053916
 58590525, -0.001015813, 0.003255864, 0.004451742, -0.004775897, 0.002847064, 0.003136692, 0.004494154, -0.004811254
 58645553, -0.004846412, -0.0003607706, 0.00445273, -0.00472463, -0.001015813, 0.003255864, 0.004451742, -0.004775897
 58700499, -0.001122965, -0.0006249915, 0.004591946, -0.004910743, -0.004846412, -0.0003607706, 0.00445273, -0.00472463
 58750585, -0.0009961528, 0.007861542, 0.004896765, -0.005312321, -0.001122965, -0.0006249915, 0.004591946, -0.004910743
 58805511, -0.001137634, 0.00369947, 0.005022682, -0.005386992, -0.0009961528, 0.007861542, 0.004896765, -0.005312321
 58861409, -0.001133835, 0.003521145, 0.004785831, -0.005133698, -0.001137634, 0.00369947, 0.005022682, -0.005386992
 58915505, -0.004946593, -0.000378477, 0.004545235, -0.004825157, -0.001133835, 0.003521145, 0.004785831, -0.005133698
 58970477, -0.0009821033, 0.003189706, 0.004348071, -0.004666927, -0.004946593, -0.000378477, 0.004545235, -0.004825157
 59025482, 0.006516851, 0.006509568, 0.004309493, -0.004621326, -0.0009821033, 0.003189706, 0.004348071, -0.004666927
 59080562, 0.002786278, 0.003023175, 0.004293007, -0.004598484, 0.006516851, 0.006509568, 0.004309493, -0.004621326
 59135850, -0.004556448, 0.00318693, 0.0042227, -0.00449564, 0.002786278, 0.003023175, 0.004293007, -0.004598484
 59185877, -0.007902069, 0.003288473, 0.004225163, -0.004414004, -0.004556448, 0.00318693, 0.0042227, -0.00449564
 59240557, -0.001083646, -0.0005487359, 0.004143908, -0.004434888, -0.007902069, 0.003288473, 0.004225163, -0.004414004
 59295487, 0.0028042, 0.006620791, 0.00422464, -0.00459459, -0.001083646, -0.0005487359, 0.004143908, -0.004434888
 59350568, 0.002924796, 0.00689802, 0.004380456, -0.004761435, 0.0028042, 0.006620791, 0.00422464, -0.00459459
 59405490, -0.001041826, 0.00330158, 0.004536232, -0.004873251, 0.002924796, 0.00689802, 0.004380456, -0.004761435
 59461384, -0.009067199, -0.0002647431, 0.004753113, -0.00497512, -0.001041826, 0.00330158, 0.004536232, -0.004873251
 59515499, -0.001091073, 0.003425535, 0.004644138, -0.004989719, -0.009067199, -0.0002647431, 0.004753113, -0.00497512
 59570486, 0.002917469, 0.003192325, 0.004579144, -0.004910355, -0.001091073, 0.003425535, 0.004644138, -0.004989719
 59620510, 0.003010806, 0.007137762, 0.00456469, -0.004957662, 0.002917469, 0.003192325, 0.004579144, -0.004910355
 59675510, -0.005105391, 0.003550551, 0.004663733, -0.004973404, 0.003010806, 0.007137762, 0.00456469, -0.004957662
 59730483, -0.001196817, -0.0005513841, 0.004635548, -0.004964726, -0.005105391, 0.003550551, 0.004663733, -0.004973404
 59785886, -0.001045897, 0.003337827, 0.004534116, -0.004872401, -0.001196817, -0.0005513841, 0.004635548, -0.004964726
 59840501, -0.001077963, 0.003255398, 0.004469103, -0.004802556, -0.001045897, 0.003337827, 0.004534116, -0.004872401
 59895473, 0.002731629, 0.003131557, 0.004435677, -0.00475836, -0.001077963, 0.003255398, 0.004469103, -0.004802556
 59950502, -0.00106226, 0.003285125, 0.004407687, -0.004737714, 0.002731629, 0.003131557, 0.004435677, -0.00475836
 60005542, -0.008531219, 0.003497213, 0.004504532, -0.004719822, -0.00106226, 0.003285125, 0.004407687, -0.004737714
 60055473, -0.001083537, 0.003292225, 0.004496412, -0.004832437, -0.008531219, 0.003497213, 0.004504532, -0.004719822
 60110861, -0.001094403, 0.003317033, 0.004581267, -0.004923682, -0.001083537, 0.003292225, 0.004496412, -0.004832437
 60165535, 0.006959864, 0.007018833, 0.004609391, -0.004952086, -0.001094403, 0.003317033, 0.004581267, -0.004923682
 60220517, -0.001083978, 0.003270997, 0.004477299, -0.00481405, 0.006959864, 0.007018833, 0.004609391, -0.004952086
 60275544, -0.008712496, -0.0002502904, 0.004547423, -0.004754256, -0.001083978, 0.003270997, 0.004477299, -0.00481405
 60330483, -0.001014659, 0.003266898, 0.004410045, -0.004744275, -0.008712496, -0.0002502904, 0.004547423, -0.004754256
 60386097, -0.001009756, 0.003110664, 0.00421683, -0.004537851, -0.001014659, 0.003266898, 0.004410045, -0.004744275
 60435860, 0.006239589, 0.002803042, 0.004224961, -0.004477097, -0.001009756, 0.003110664, 0.00421683, -0.004537851
 60490475, -0.00100853, 0.003102577, 0.004205455, -0.004526644, 0.006239589, 0.002803042, 0.004224961, -0.004477097
 60545500, -0.001017921, 0.003094146, 0.00425565, -0.004580265, -0.00100853, 0.003102577, 0.004205455, -0.004526644
 60600498, -0.004723168, 0.003264297, 0.004325978, -0.004616493, -0.001017921, 0.003094146, 0.00425565, -0.004580265
 60655526, -0.001068709, 0.003200993, 0.004374776, -0.004707925, -0.004723168, 0.003264297, 0.004325978, -0.004616493
 60710860, 0.002944624, 0.007036401, 0.00449673, -0.004892318, -0.001068709, 0.003200993, 0.004374776, -0.004707925
 60765508, -0.004973914, 0.003473473, 0.004580864, -0.004891638, 0.002944624, 0.007036401, 0.00449673, -0.004892318
 60820490, -0.008801535, -0.0002271123, 0.004590213, -0.004803689, -0.004973914, 0.003473473, 0.004580864, -0.004891638
 60870496, -0.001046964, 0.003276053, 0.004442696, -0.004780862, -0.008801535, -0.0002271123, 0.004590213, -0.004803689
 60925537, 0.006537944, 0.002943799, 0.004472271, -0.004746465, -0.001046964, 0.003276053, 0.004442696, -0.004780862
 60980525, 0.002718599, 0.006505108, 0.004149859, -0.004524231, 0.006537944, 0.002943799, 0.004472271, -0.004746465
 61035477, -0.007591202, 0.003038383, 0.004002017, -0.00417538, 0.002718599, 0.006505108, 0.004149859, -0.004524231
 61090498, -0.00112682, -0.003604093, 0.003747911, -0.004052933, -0.007591202, 0.003038383, 0.004002017, -0.00417538
 61146148, -0.0008667782, 0.002646292, 0.003618148, -0.003899544, -0.00112682, -0.003604093, 0.003747911, -0.004052933
 61200481, 0.002799226, 0.009912478, 0.004050517, -0.004538436, -0.0008667782, 0.002646292, 0.003618148, -0.003899544
 61250499, 0.002648244, 0.003007921, 0.004253848, -0.004572055, 0.002799226, 0.009912478, 0.004050517, -0.004538436
 61305505, -0.004555094, 0.003162109, 0.004148578, -0.004428666, 0.002648244, 0.003007921, 0.004253848, -0.004572055
 61360509, -0.004499525, -0.0003420115, 0.004060748, -0.004318522, -0.004555094, 0.003162109, 0.004148578, -0.004428666
 61415505, -0.001101473, -0.0005294456, 0.004136698, -0.004440736, -0.004499525, -0.0003420115, 0.004060748, -0.004318522
 61470864, 0.002786382, 0.006569672, 0.004196295, -0.004577634, -0.001101473, -0.0005294456, 0.004136698, -0.004440736
 61525491, 0.002787095, 0.006604506, 0.004251182, -0.004635193, 0.002786382, 0.006569672, 0.004196295, -0.004577634
 61580507, -0.001008667, 0.003190937, 0.004345156, -0.004681743, 0.002787095, 0.006604506, 0.004251182, -0.004635193
 61635538, -0.008865382, -0.0002435998, 0.004630037, -0.004853393, -0.001008667, 0.003190937, 0.004345156, -0.004681743
 61685493, -0.001250495, -0.0006280607, 0.004595587, -0.004933976, -0.008865382, -0.0002435998, 0.004630037, -0.004853393
 61740559, 0.003055212, 0.007312723, 0.004683876, -0.005096352, -0.001250495, -0.0006280607, 0.004595587, -0.004933976
 61796095, -0.001143119, 0.003497824, 0.004730648, -0.00509463, 0.003055212, 0.007312723, 0.004683876, -0.005096352
 61850555, -0.001145536, 0.00343808, 0.004755369, -0.005120005, -0.001143119, 0.003497824, 0.004730648, -0.00509463
 61905496, -0.005023476, 0.003572153, 0.00469295, -0.005018471, -0.001145536, 0.00343808, 0.004755369, -0.005120005
 61960540, -0.001053546, 0.003313316, 0.004547415, -0.004897692, -0.005023476, 0.003572153, 0.00469295, -0.005018471
 62015508, 0.002602245, 0.002895718, 0.004143187, -0.004454647, -0.001053546, 0.003313316, 0.004547415, -0.004897692
 62070868, -0.0009456631, 0.002911211, 0.003942914, -0.004250375, 0.002602245, 0.002895718, 0.004143187, -0.004454647
 62120843, -0.001008235, 0.003041781, 0.004109601, -0.004429257, -0.0009456631, 0.002911211, 0.003942914, -0.004250375
 62175592, -0.001028166, 0.003209624, 0.004363591, -0.004701903, -0.001008235, 0.003041781, 0.004109601, -0.004429257
 62230519, -0.0049447, 0.003462129, 0.004517426, -0.00482938, -0.001028166, 0.003209624, 0.004363591, -0.004701903
 62285527, 0.002908634, 0.003239639, 0.004611892, -0.004959899, -0.0049447, 0.003462129, 0.004517426, -0.00482938
 62340480, -0.000898739, 0.006927432, 0.004337628, -0.004739648, 0.002908634, 0.003239639, 0.004611892, -0.004959899
 62395848, -0.00101689, 0.003079104, 0.004235486, -0.004566199, -0.000898739, 0.006927432, 0.004337628, -0.004739648
 62450520, -0.00473924, -0.0003350829, 0.004299492, -0.004581242, -0.00101689, 0.003079104, 0.004235486, -0.004566199
 62500554, -0.001016738, 0.003202738, 0.004356373, -0.004697029, -0.00473924, -0.0003350829, 0.004299492, -0.004581242
 62555484, 0.002862477, 0.00314432, 0.004531721, -0.004875239, -0.001016738, 0.003202738, 0.004356373, -0.004697029
 62610488, -0.00095281, 0.007305359, 0.00453161, -0.00494852, 0.002862477, 0.00314432, 0.004531721, -0.004875239
 62665498, -0.001033671, 0.00329698, 0.004466097, -0.004814744, -0.00095281, 0.007305359, 0.00453161, -0.00494852
 62720860, -0.001152144, -0.0004971927, 0.004423169, -0.004751847, -0.001033671, 0.00329698, 0.004466097, -0.004814744
 62775589, -0.004796226, 0.003360613, 0.00443096, -0.004738626, -0.001152144, -0.0004971927, 0.004423169, -0.004751847
 62830490, 0.002817565, 0.003090054, 0.004391447, -0.004723649, -0.004796226, 0.003360613, 0.00443096, -0.004738626
 62885522, 0.002882465, 0.006822324, 0.004375281, -0.004769891, 0.002817565, 0.003090054, 0.004391447, -0.004723649
 62935511, -0.0009727944, 0.003088188, 0.004237323, -0.004568005, 0.002882465, 0.006822324, 0.004375281, -0.004769891
 62990482, -0.004569779, -0.0003304199, 0.004179359, -0.004451037, -0.0009727944, 0.003088188, 0.004237323, -0.004568005
 63046150, -0.001003984, 0.003052995, 0.004164631, -0.004490276, -0.004569779, -0.0003304199, 0.004179359, -0.004451037
 63100485, -0.001013148, 0.003113713, 0.004227932, -0.004558459, -0.001003984, 0.003052995, 0.004164631, -0.004490276
 63155477, -0.0009113509, 0.007152655, 0.004437368, -0.00484791, -0.001013148, 0.003113713, 0.004227932, -0.004558459
 63210551, -0.00103085, 0.003362552, 0.004536897, -0.004890977, -0.0009113509, 0.007152655, 0.004437368, -0.00484791
 63265534, -0.004862466, 0.003441014, 0.004503805, -0.004818621, -0.00103085, 0.003362552, 0.004536897, -0.004890977
 63320984, -0.00114987, -0.0005687871, 0.004358371, -0.004683739, -0.004862466, 0.003441014, 0.004503805, -0.004818621
 63371088, 0.006294488, 0.00286755, 0.004296895, -0.004567134, -0.00114987, -0.0005687871, 0.004358371, -0.004683739
 63425472, -0.0009943026, 0.003057045, 0.004165405, -0.004493514, 0.006294488, 0.00286755, 0.004296895, -0.004567134
 63480485, -0.0009901087, 0.003093837, 0.004227917, -0.004560721, -0.0009943026, 0.003057045, 0.004165405, -0.004493514
 63535534, -0.008368176, -0.0002154975, 0.004386082, -0.004592358, -0.0009901087, 0.003093837, 0.004227917, -0.004560721
 63590523, -0.000998417, 0.003153079, 0.004287016, -0.004624265, -0.008368176, -0.0002154975, 0.004386082, -0.004592358
 63646150, 0.002884636, 0.006746893, 0.004313883, -0.00470762, -0.000998417, 0.003153079, 0.004287016, -0.004624265
 63695874, -0.0006299622, 0.006935781, 0.004316115, -0.004721461, 0.002884636, 0.006746893, 0.004313883, -0.00470762
 63750497, -0.001041318, 0.003186344, 0.004325227, -0.004664794, -0.0006299622, 0.006935781, 0.004316115, -0.004721461
 63805579, -0.001090657, -0.0004648969, 0.004331638, -0.004655142, -0.001041318, 0.003186344, 0.004325227, -0.004664794
 63860511, -0.004730998, 0.003324596, 0.004371946, -0.004676731, -0.001090657, -0.0004648969, 0.004331638, -0.004655142
 63915484, 0.002788397, 0.003035873, 0.004347367, -0.004678364, -0.004730998, 0.003324596, 0.004371946, -0.004676731
 63970860, -0.0008813387, 0.006978234, 0.004336384, -0.00474229, 0.002788397, 0.003035873, 0.004347367, -0.004678364
 64025489, -0.0009859595, 0.003195894, 0.004339708, -0.004680937, -0.0008813387, 0.006978234, 0.004336384, -0.00474229
 64080518, -0.001095703, -0.0005267308, 0.004340823, -0.004665954, -0.0009859595, 0.003195894, 0.004339708, -0.004680937
 64135491, -0.004898685, -0.0004574328, 0.00437845, -0.00466815, -0.001095703, -0.0005267308, 0.004340823, -0.004665954
 64185504, 0.002951498, 0.006847608, 0.004348424, -0.004746198, -0.004898685, -0.0004574328, 0.00437845, -0.00466815
 64240519, 0.003001314, 0.006924585, 0.004413808, -0.00481577, 0.002951498, 0.006847608, 0.004348424, -0.004746198
 64295888, -0.0009993413, 0.003395849, 0.004553503, -0.004913184, 0.003001314, 0.006924585, 0.004413808, -0.00481577
 64350490, -0.00884766, -0.000265432, 0.004605785, -0.004834107, -0.0009993413, 0.003395849, 0.004553503, -0.004913184
 64405515, -0.0009542649, 0.003131015, 0.004266604, -0.004604877, -0.00884766, -0.000265432, 0.004605785, -0.004834107
 64460506, 0.002707198, 0.002950074, 0.004197572, -0.004520445, -0.0009542649, 0.003131015, 0.004266604, -0.004604877
 64515491, -0.0007942331, 0.006791938, 0.004239143, -0.004641343, 0.002707198, 0.002950074, 0.004197572, -0.004520445
 64565525, -0.0009466942, 0.003202843, 0.004331907, -0.004675683, -0.0007942331, 0.006791938, 0.004239143, -0.004641343
 64620860, -0.001142742, -0.0005021397, 0.004506457, -0.004846523, -0.0009466942, 0.003202843, 0.004331907, -0.004675683
 64675520, -0.001126872, -0.0005496556, 0.004496762, -0.004835993, -0.001142742, -0.0005021397, 0.004506457, -0.004846523
 64730493, -0.0008601201, 0.00716844, 0.004454817, -0.004870695, -0.001126872, -0.0005496556, 0.004496762, -0.004835993
 64785555, -0.0008456022, 0.007282794, 0.004535648, -0.004956323, -0.0008601201, 0.00716844, 0.004454817, -0.004870695
 64840574, 0.003056193, 0.003268406, 0.004649323, -0.005004323, -0.0008456022, 0.007282794, 0.004535648, -0.004956323
 64895879, -0.005102974, -0.004179926, 0.004567349, -0.004903554, 0.003056193, 0.003268406, 0.004649323, -0.005004323
 64950479, -0.004856994, 0.003458415, 0.004520491, -0.004839607, -0.005102974, -0.004179926, 0.004567349, -0.004903554
 65000478, 0.002975669, 0.006953478, 0.004441332, -0.004844871, -0.004856994, 0.003458415, 0.004520491, -0.004839607
 65055486, -0.0008102382, 0.007083849, 0.004398664, -0.004810481, 0.002975669, 0.006953478, 0.004441332, -0.004844871
 65110551, -0.0009768044, 0.003250174, 0.004385671, -0.004732362, -0.0008102382, 0.007083849, 0.004398664, -0.004810481
 65165500, -0.004962142, -0.004081576, 0.004404696, -0.004729573, -0.0009768044, 0.003250174, 0.004385671, -0.004732362
 65220838, -0.0009830749, 0.00320707, 0.004359232, -0.004704489, -0.004962142, -0.004081576, 0.004404696, -0.004729573
 65275506, 0.00299583, 0.006847356, 0.004360502, -0.004760244, -0.0009830749, 0.00320707, 0.004359232, -0.004704489
 65330489, -0.000829995, 0.006951069, 0.004346759, -0.004756208, 0.00299583, 0.006847356, 0.004360502, -0.004760244
 65380571, -0.0009615944, 0.00317286, 0.004280209, -0.004621397, -0.000829995, 0.006951069, 0.004346759, -0.004756208
 65440486, -0.004568068, -0.000346246, 0.00416797, -0.004445337, -0.0009615944, 0.00317286, 0.004280209, -0.004621397
 65490487, -0.0009381676, 0.003025676, 0.004126897, -0.004456554, -0.004568068, -0.000346246, 0.00416797, -0.004445337
 65546138, 0.002882, 0.006616495, 0.004210434, -0.004601938, -0.0009381676, 0.003025676, 0.004126897, -0.004456554
 65600489, 0.002807169, 0.003083281, 0.004382732, -0.004721399, 0.002882, 0.006616495, 0.004210434, -0.004601938
 65655490, -0.0009907626, 0.003344693, 0.004532044, -0.004891785, 0.002807169, 0.003083281, 0.004382732, -0.004721399
 65710494, -0.005053002, -0.0003528576, 0.004639799, -0.004956264, -0.0009907626, 0.003344693, 0.004532044, -0.004891785
 65765511, -0.001032352, 0.003454662, 0.004682137, -0.00505279, -0.005053002, -0.0003528576, 0.004639799, -0.004956264
 65820882, -0.0009947856, 0.003330466, 0.004560807, -0.004922064, -0.001032352, 0.003454662, 0.004682137, -0.00505279
 65870882, -0.000814305, 0.007204882, 0.004502528, -0.004922614, -0.0009947856, 0.003330466, 0.004560807, -0.004922064
 65925493, -0.0009994761, 0.003270174, 0.004446396, -0.004799414, -0.000814305, 0.007204882, 0.004502528, -0.004922614
 65980521, -0.004862809, -0.0003541012, 0.004444223, -0.004744453, -0.0009994761, 0.003270174, 0.004446396, -0.004799414
 66035513, -0.0009711764, 0.003277203, 0.004383944, -0.004733409, -0.004862809, -0.0003541012, 0.004444223, -0.004744453
 66090489, 0.002816865, 0.003094328, 0.004382494, -0.004721445, -0.0009711764, 0.003277203, 0.004383944, -0.004733409
 66146287, -0.0008051643, 0.006974441, 0.004358355, -0.004769993, 0.002816865, 0.003094328, 0.004382494, -0.004721445
 66200466, -0.0009645718, 0.00324756, 0.004418282, -0.004770675, -0.0008051643, 0.006974441, 0.004358355, -0.004769993
 66255544, -0.005060745, -0.0003750942, 0.004596184, -0.004910142, -0.0009645718, 0.00324756, 0.004418282, -0.004770675
 66310559, -0.001021203, 0.003359889, 0.004560927, -0.004924939, -0.005060745, -0.0003750942, 0.004596184, -0.004910142
 66360579, 0.00293246, 0.003166962, 0.004492023, -0.0048409, -0.001021203, 0.003359889, 0.004560927, -0.004924939
 66415542, -0.001008599, 0.003263678, 0.004430997, -0.004785891, 0.00293246, 0.003166962, 0.004492023, -0.0048409
 66470850, -0.0009839809, 0.003244343, 0.004407475, -0.004760698, -0.001008599, 0.003263678, 0.004430997, -0.004785891
 66525499, -0.0009191015, 0.00325432, 0.004382708, -0.004734683, -0.0009839809, 0.003244343, 0.004407475, -0.004760698
 66580506, -0.004721793, 0.003310794, 0.004403096, -0.004718268, -0.0009191015, 0.00325432, 0.004382708, -0.004734683
 66635504, 0.00285339, 0.003074965, 0.004367316, -0.004706739, -0.004721793, 0.003310794, 0.004403096, -0.004718268
 66690497, -0.0008161643, 0.006971776, 0.004350054, -0.00476297, 0.00285339, 0.003074965, 0.004367316, -0.004706739
 66740494, -0.0009395663, 0.003199019, 0.004347546, -0.004695676, -0.0008161643, 0.006971776, 0.004350054, -0.00476297
 66795863, -0.001293779, -0.004174619, 0.004344249, -0.004705061, -0.0009395663, 0.003199019, 0.004347546, -0.004695676
 66850513, -0.0009302445, 0.003211862, 0.004342966, -0.004690805, -0.001293779, -0.004174619, 0.004344249, -0.004705061
 66905476, -0.0007934747, 0.007002237, 0.004339301, -0.004751899, -0.0009302445, 0.003211862, 0.004342966, -0.004690805
 66960500, -0.0009904049, 0.003365039, 0.004511509, -0.004871751, -0.0007934747, 0.007002237, 0.004339301, -0.004751899
 67015513, -0.0008560756, 0.007476828, 0.004618732, -0.005050336, -0.0009904049, 0.003365039, 0.004511509, -0.004871751
 67070845, -0.001176418, -0.0005107475, 0.004671929, -0.005028455, -0.0008560756, 0.007476828, 0.004618732, -0.005050336
 67125499, -0.005109921, 0.003622327, 0.004758391, -0.005101903, -0.001176418, -0.0005107475, 0.004671929, -0.005028455
 67175579, -0.001070137, 0.003537586, 0.004757958, -0.005137925, -0.005109921, 0.003622327, 0.004758391, -0.005101903
 67230485, 0.003225765, 0.007503171, 0.004780444, -0.005213736, -0.001070137, 0.003537586, 0.004757958, -0.005137925
 67285529, -0.0010457, 0.003544039, 0.004789393, -0.005172942, 0.003225765, 0.007503171, 0.004780444, -0.005213736
 67340509, -0.005143209, -0.0003582961, 0.00471201, -0.005039395, -0.0010457, 0.003544039, 0.004789393, -0.005172942
 67395845, -0.0009807333, 0.003344318, 0.00455689, -0.004923657, -0.005143209, -0.0003582961, 0.00471201, -0.005039395
 67450553, 0.002958053, 0.003262311, 0.004576341, -0.004935178, -0.0009807333, 0.003344318, 0.00455689, -0.004923657
 67505506, -0.001006964, 0.003420851, 0.004655764, -0.005030563, 0.002958053, 0.003262311, 0.004576341, -0.004935178
 67555496, -0.000820908, 0.007385143, 0.004589204, -0.005021945, -0.001006964, 0.003420851, 0.004655764, -0.005030563
 67610531, -0.004964674, -0.0003297471, 0.004561801, -0.004878013, -0.000820908, 0.007385143, 0.004589204, -0.005021945
 67665498, -0.001027987, 0.003385341, 0.00458153, -0.004951051, -0.004964674, -0.0003297471, 0.004561801, -0.004878013
 67720997, 0.003088645, 0.003301975, 0.004675709, -0.005041736, -0.001027987, 0.003385341, 0.00458153, -0.004951051
 67775652, -0.001015446, 0.003476598, 0.004719759, -0.00509947, 0.003088645, 0.003301975, 0.004675709, -0.005041736
 67830535, -0.0009012836, 0.007619667, 0.004742804, -0.005185092, -0.001015446, 0.003476598, 0.004719759, -0.00509947
 67885554, -0.00529464, -0.0004037211, 0.004805746, -0.005140383, -0.0009012836, 0.007619667, 0.004742804, -0.005185092
 67940500, -0.001027547, 0.003549697, 0.004788122, -0.005172475, -0.00529464, -0.0004037211, 0.004805746, -0.005140383
 67990552, 0.00313105, 0.003388169, 0.004805529, -0.005181172, -0.001027547, 0.003549697, 0.004788122, -0.005172475
 68046152, -0.001007959, 0.003562941, 0.004803793, -0.005189749, 0.00313105, 0.003388169, 0.004805529, -0.005181172
 68100490, -0.0008777094, 0.007725634, 0.004806677, -0.005253889, -0.001007959, 0.003562941, 0.004803793, -0.005189749
 68155473, -0.0052903, -0.0004055774, 0.004845838, -0.005185389, -0.0008777094, 0.007725634, 0.004806677, -0.005253889
 68210500, -0.001037667, 0.003538967, 0.004813479, -0.005200966, -0.0052903, -0.0004055774, 0.004845838, -0.005185389
 68265498, 0.003216502, 0.003510409, 0.00495514, -0.005344192, -0.001037667, 0.003538967, 0.004813479, -0.005200966
 68320880, -0.00113738, 0.003873272, 0.005241618, -0.005662625, 0.003216502, 0.003510409, 0.00495514, -0.005344192
 68370861, -0.0009423124, 0.008468819, 0.005244958, -0.005725201, -0.00113738, 0.003873272, 0.005241618, -0.005662625
 68425482, -0.001237533, -0.0006189964, 0.005095077, -0.005490734, -0.0009423124, 0.008468819, 0.005244958, -0.005725201
 68480504, -0.001031979, 0.003618468, 0.004874142, -0.005268634, -0.001237533, -0.0006189964, 0.005095077, -0.005490734
 68535510, -0.001025784, 0.003429509, 0.004683187, -0.00506282, -0.001031979, 0.003618468, 0.004874142, -0.005268634
 82015560, -0.0007868929, 0.0032927, 0.00441246, -0.004783971, -0.0007788407, 0.003334525, 0.004458152, -0.004833449
 82070990, -0.0008939537, -0.0005099038, 0.004391768, -0.004745072, -0.0007868929, 0.0032927, 0.00441246, -0.004783971
 82125538, 0.003058035, 0.003077124, 0.004381747, -0.004737675, -0.0008939537, -0.0005099038, 0.004391768, -0.004745072
 82180584, -0.0007192904, 0.003241517, 0.004354654, -0.004722194, 0.003058035, 0.003077124, 0.004381747, -0.004737675
 82235578, -0.0006270049, 0.007251659, 0.004464762, -0.004905805, -0.0007192904, 0.003241517, 0.004354654, -0.004722194
 82290546, -0.000783001, 0.003438725, 0.004553895, -0.004937417, -0.0006270049, 0.007251659, 0.004464762, -0.004905805
 82346361, -0.005177173, -0.0003721569, 0.004919259, -0.005283314, -0.000783001, 0.003438725, 0.004553895, -0.004937417
 82400541, -0.000850574, 0.003863464, 0.00520099, -0.005635177, -0.005177173, -0.0003721569, 0.004919259, -0.005283314
 82450547, -0.0007066063, 0.008274573, 0.005099847, -0.005585651, -0.000850574, 0.003863464, 0.00520099, -0.005635177
 82505547, 0.003471282, 0.003553564, 0.005009973, -0.005416747, -0.0007066063, 0.008274573, 0.005099847, -0.005585651
 82560561, -0.005589663, -0.000434615, 0.005302797, -0.005698448, 0.003471282, 0.003553564, 0.005009973, -0.005416747
 82615615, -0.0008462575, 0.003900871, 0.005253776, -0.005691182, -0.005589663, -0.000434615, 0.005302797, -0.005698448
 82670892, -0.0008183487, 0.003750623, 0.005019975, -0.005438659, -0.0008462575, 0.003900871, 0.005253776, -0.005691182
 82725554, -0.0006442416, 0.007684445, 0.004773044, -0.005232804, -0.0008183487, 0.003750623, 0.005019975, -0.005438659
 82780565, -0.0008327145, 0.003822006, 0.005128903, -0.00555532, -0.0006442416, 0.007684445, 0.004773044, -0.005232804
 82830546, -0.001091174, -0.0005782991, 0.005292504, -0.005716427, -0.0008327145, 0.003822006, 0.005128903, -0.00555532
 82885594, -0.000844571, 0.003822298, 0.005121456, -0.005546851, -0.001091174, -0.0005782991, 0.005292504, -0.005716427
 82940525, -0.0008341856, 0.003743164, 0.00501163, -0.005427855, -0.000844571, 0.003822298, 0.005121456, -0.005546851
 82995974, -0.000615107, 0.007953162, 0.004938515, -0.005408277, -0.0008341856, 0.003743164, 0.00501163, -0.005427855
 83050542, 0.003451259, 0.003429761, 0.004855383, -0.005245325, -0.000615107, 0.007953162, 0.004938515, -0.005408277
 83105541, -0.0007424481, 0.003490816, 0.00466136, -0.005049194, 0.003451259, 0.003429761, 0.004855383, -0.005245325
 83160605, -0.004553968, 0.003411236, 0.004455533, -0.004792335, -0.0007424481, 0.003490816, 0.00466136, -0.005049194
 83215567, -0.0006897207, 0.003153636, 0.004219515, -0.004572632, -0.004553968, 0.003411236, 0.004455533, -0.004792335
 83265607, -0.0007542247, 0.003280919, 0.004369695, -0.00473413, -0.0006897207, 0.003153636, 0.004219515, -0.004572632
 83321121, 0.003167084, 0.0032218, 0.004539183, -0.004903093, -0.0007542247, 0.003280919, 0.004369695, -0.00473413
 83375640, -0.000958301, -0.0005201024, 0.00462884, -0.004995832, 0.003167084, 0.0032218, 0.004539183, -0.004903093
 83430546, -0.0007840505, 0.003449452, 0.004675053, -0.005061344, -0.000958301, -0.0005201024, 0.00462884, -0.004995832
 83485532, -0.0007540026, 0.003481471, 0.004724027, -0.005113697, -0.0007840505, 0.003449452, 0.004675053, -0.005061344
 83540541, -0.000620388, 0.007717545, 0.004753378, -0.005207862, -0.0007540026, 0.003481471, 0.004724027, -0.005113697
 83595989, -0.0008324997, 0.003583766, 0.004776349, -0.005169832, -0.000620388, 0.007717545, 0.004753378, -0.005207862
 83650589, -0.005019138, -0.0003430182, 0.004817104, -0.005165157, -0.0008324997, 0.003583766, 0.004776349, -0.005169832
 83700547, -0.0007941657, 0.003438701, 0.004625321, -0.005006067, -0.005019138, -0.0003430182, 0.004817104, -0.005165157
 83755539, -0.0007531665, 0.003419525, 0.004587043, -0.004964486, -0.0007941657, 0.003438701, 0.004625321, -0.005006067
 83810589, -0.0006005635, 0.00746134, 0.004642404, -0.005085425, -0.0007531665, 0.003419525, 0.004587043, -0.004964486
 83865542, -0.0007739103, 0.003477705, 0.004639607, -0.005020489, -0.0006005635, 0.00746134, 0.004642404, -0.005085425
 83921107, -0.0007658923, 0.003389241, 0.004531152, -0.004903233, -0.0007739103, 0.003477705, 0.004639607, -0.005020489
 83975650, -0.000805662, 0.003578316, 0.004826596, -0.005220735, -0.0007658923, 0.003389241, 0.004531152, -0.004903233
 84030527, -0.0008666572, 0.003739283, 0.005067567, -0.005479482, -0.000805662, 0.003578316, 0.004826596, -0.005220735
 84080588, 0.003566474, 0.003595149, 0.005087653, -0.005488555, -0.0008666572, 0.003739283, 0.005067567, -0.005479482
 84135560, 0.003525015, 0.003572453, 0.004995645, -0.00538934, 0.003566474, 0.003595149, 0.005087653, -0.005488555
 84190568, -0.009487323, -0.0002624584, 0.005044747, -0.005331445, 0.003525015, 0.003572453, 0.004995645, -0.00538934
 84246190, -0.0008283725, 0.003629202, 0.004896984, -0.005294236, -0.009487323, -0.0002624584, 0.005044747, -0.005331445
 84300545, -0.0007969702, 0.0036736, 0.004868366, -0.005263652, -0.0008283725, 0.003629202, 0.004896984, -0.005294236
 84355569, -0.000836379, 0.003610978, 0.004850109, -0.00524304, -0.0007969702, 0.0036736, 0.004868366, -0.005263652
 84410556, 0.003622232, 0.007667277, 0.004852275, -0.005292845, -0.000836379, 0.003610978, 0.004850109, -0.00524304
 84460610, -0.0007897224, 0.003606098, 0.004833019, -0.005223793, 0.003622232, 0.007667277, 0.004852275, -0.005292845
 84515560, -0.004883652, -0.0003195184, 0.004688563, -0.005019076, -0.0007897224, 0.003606098, 0.004833019, -0.005223793
 84570991, -0.0007477308, 0.003389134, 0.004575543, -0.004945903, -0.004883652, -0.0003195184, 0.004688563, -0.005019076
 84625556, -0.0005721084, 0.006951609, 0.004318584, -0.004732403, -0.0007477308, 0.003389134, 0.004575543, -0.004945903
 84680571, 0.003021576, 0.003167008, 0.004426398, -0.004776974, -0.0005721084, 0.006951609, 0.004318584, -0.004732403
 84735628, -0.008432491, 0.00237508, 0.004856609, -0.005136008, 0.003021576, 0.003167008, 0.004426398, -0.004776974
 84790593, -0.006166389, 0.003862146, 0.005168778, -0.005530494, -0.008432491, 0.00237508, 0.004856609, -0.005136008
 84846262, 0.003240282, 0.003883426, 0.005366523, -0.005783798, -0.006166389, 0.003862146, 0.005168778, -0.005530494
