TimeUS,mX,mY,mZ,obX,obY,ofX,ofY,rfD,gpSA,gpHA,gpVA,gpT,aT,ofT
 96250905, 44.699, 188.6043, 519.4944, -0.01076781, 0.03231319, 0, 0, 0.3709369, 0.3, 1.006, 1.209, 96194, 96250450, 96228
 96253776, 44.699, 188.6043, 519.4944, -0.01076781, 0.03231319, 0, 0, 0.3709369, 0.3, 1.006, 1.209, 96194, 96252950, 96228
 96255874, 44.699, 188.6043, 519.4944, -0.01076781, 0.03231319, 0, 0, 0.3709369, 0.3, 1.006, 1.209, 96194, 96255451, 96228
 96258526, 44.699, 188.6043, 519.4944, -0.01076781, 0.03231319, 0, 0, 0.3709369, 0.3, 1.006, 1.209, 96194, 96257951, 96228
 96260889, 44.699, 188.6043, 519.4944, -0.01076781, 0.03231319, 0, 0, 0.3709369, 0.3, 1.006, 1.209, 96194, 96260451, 96228
 96263918, 44.699, 188.6043, 519.4944, -0.01076781, 0.03231319, 0, 0, 0.3709369, 0.3, 1.006, 1.209, 96194, 96262950, 96228
 96265924, 44.699, 188.6043, 519.4944, -0.01076781, 0.03231319, 0, 0, 0.3709369, 0.3, 1.006, 1.209, 96194, 96265457, 96228
 96268533, 44.699, 188.6043, 519.4944, -0.01076781, 0.03231319, 0, 0, 0.3709369, 0.3, 1.006, 1.209, 96194, 96267950, 96228
 96270903, 44.699, 188.6043, 519.4944, -0.01076781, 0.03231319, 0, 0, 0.3709369, 0.3, 1.006, 1.209, 96194, 96270463, 96228
 96273764, 44.699, 188.6043, 519.4944, -0.01076781, 0.03231319, 0, 0, 0.3709369, 0.3, 1.006, 1.209, 96194, 96272951, 96228
 96275907, 44.699, 188.6043, 519.4944, -0.01076781, 0.03231319, 0, 0, 0.3709369, 0.3, 1.006, 1.209, 96194, 96275465, 96228
 96278537, 44.699, 188.6043, 519.4944, -0.01076781, 0.03231319, 0, 0, 0.3709369, 0.3, 1.006, 1.209, 96194, 96277950, 96228
 96280892, 44.699, 188.6043, 519.4944, -0.01076781, 0.03231319, 0, 0, 0.3709369, 0.3, 1.006, 1.209, 96194, 96280452, 96228
 96283769, 44.699, 188.6043, 519.4944, -0.01076781, 0.03231319, 0, 0, 0.3709369, 0.3, 1.006, 1.209, 96194, 96282959, 96228
 96285906, 44.699, 188.6043, 519.4944, -0.01097475, 0.03214905, 0, 0, 0.3709369, 0.3, 1.006, 1.209, 96194, 96285451, 96283
 96288491, 44.699, 188.6043, 519.4944, -0.01097475, 0.03214905, 0, 0, 0.3709369, 0.3, 1.006, 1.209, 96194, 96287950, 96283
 96290934, 44.699, 188.6043, 519.4944, -0.01097475, 0.03214905, 0, 0, 0.3709369, 0.3, 1.006, 1.209, 96194, 96290451, 96283
 96293754, 44.699, 188.6043, 519.4944, -0.01097475, 0.03214905, 0, 0, 0.3709369, 0.3, 1.006, 1.209, 96194, 96292950, 96283
 96295960, 44.699, 188.6043, 519.4944, -0.01097475, 0.03214905, 0, 0, 0.3709369, 0.3, 1.006, 1.209, 96194, 96295459, 96283
 96298533, 44.699, 188.6043, 519.4944, -0.01097475, 0.03214905, 0, 0, 0.3709369, 0.3, 1.006, 1.209, 96194, 96297951, 96283
 96300909, 44.699, 188.6043, 519.4944, -0.01097475, 0.03214905, 0, 0, 0.3709369, 0.3, 1.006, 1.209, 96194, 96300474, 96283
 96303856, 44.699, 188.6043, 519.4944, -0.01097475, 0.03214905, 0, 0, 0.3709369, 0.3, 1.006, 1.209, 96194, 96302951, 96283
 96305893, 44.699, 188.6043, 519.4944, -0.01097475, 0.03214905, 0, 0, 0.3709369, 0.3, 1.006, 1.209, 96194, 96305451, 96283
 96308534, 44.699, 188.6043, 519.4944, -0.01097475, 0.03214905, 0, 0, 0.3709369, 0.3, 1.006, 1.209, 96194, 96307950, 96283
 96310899, 44.699, 188.6043, 519.4944, -0.01097475, 0.03214905, 0, 0, 0.3709369, 0.3, 1.006, 1.209, 96194, 96310451, 96283
 96314039, 44.699, 188.6043, 519.4944, -0.01097475, 0.03214905, 0, 0, 0.3709369, 0.3, 1.006, 1.209, 96194, 96312951, 96283
 96315921, 44.699, 188.6043, 519.4944, -0.01097475, 0.03214905, 0, 0, 0.3709369, 0.3, 1.006, 1.209, 96194, 96315452, 96283
 96318517, 44.79649, 187.08, 523.4408, -0.01097475, 0.03214905, 0, 0, 0.3709369, 0.3, 1.006, 1.209, 96194, 96317954, 96283
 96320911, 44.79649, 187.08, 523.4408, -0.01097475, 0.03214905, 0, 0, 0.3709369, 0.3, 1.006, 1.209, 96194, 96320465, 96283
 96323802, 44.79649, 187.08, 523.4408, -0.01097475, 0.03214905, 0, 0, 0.3709369, 0.3, 1.006, 1.209, 96194, 96322969, 96283
 96325889, 44.79649, 187.08, 523.4408, -0.01097475, 0.03214905, 0, 0, 0.3709369, 0.3, 1.006, 1.209, 96194, 96325455, 96283
 96328527, 44.79649, 187.08, 523.4408, -0.01097475, 0.03214905, 0, 0, 0.3709369, 0.3, 1.006, 1.209, 96194, 96327951, 96283
 96330891, 44.79649, 187.08, 523.4408, -0.01097475, 0.03214905, 0, 0, 0.3709369, 0.3, 1.006, 1.209, 96194, 96330451, 96283
 96334249, 44.79649, 187.08, 523.4408, -0.01097475, 0.03214905, 0, 0, 0.3709369, 0.3, 1.006, 1.209, 96194, 96332951, 96283
 96335923, 44.79649, 187.08, 523.4408, -0.01097475, 0.03214905, 0, 0, 0.3709369, 0.3, 1.006, 1.209, 96194, 96335451, 96283
 96338507, 44.79649, 187.08, 523.4408, -0.01097475, 0.03214905, 0, 0, 0.3709369, 0.3, 1.006, 1.209, 96194, 96337950, 96283
 96340869, 44.79649, 187.08, 523.4408, -0.0109364, 0.03203465, 0, 0, 0.3709369, 0.3, 1.006, 1.209, 96194, 96340452, 96338
 96343786, 44.79649, 187.08, 523.4408, -0.0109364, 0.03203465, 0, 0, 0.3709369, 0.3, 1.006, 1.209, 96194, 96342950, 96338
 96345915, 44.79649, 187.08, 523.4408, -0.0109364, 0.03203465, 0, 0, 0.3709369, 0.3, 1.006, 1.209, 96194, 96345459, 96338
 96348560, 44.79649, 187.08, 523.4408, -0.0109364, 0.03203465, 0, 0, 0.3709369, 0.3, 1.006, 1.209, 96194, 96347951, 96338
 96350912, 44.79649, 187.08, 523.4408, -0.0109364, 0.03203465, 0, 0, 0.3709369, 0.3, 1.006, 1.209, 96194, 96350472, 96338
 96353776, 44.79649, 187.08, 523.4408, -0.0109364, 0.03203465, 0, 0, 0.3709369, 0.3, 1.006, 1.209, 96194, 96352951, 96338
 96355893, 44.79649, 187.08, 523.4408, -0.0109364, 0.03203465, 0, 0, 0.3709369, 0.3, 1.006, 1.209, 96194, 96355455, 96338
 96358538, 44.79649, 187.08, 523.4408, -0.0109364, 0.03203465, 0, 0, 0.3709369, 0.3, 1.006, 1.209, 96194, 96357951, 96338
 96360926, 44.79649, 187.08, 523.4408, -0.0109364, 0.03203465, 0, 0, 0.3709369, 0.3, 1.006, 1.209, 96194, 96360451, 96338
 96363772, 44.79649, 187.08, 523.4408, -0.0109364, 0.03203465, 0, 0, 0.3709369, 0.3, 1.006, 1.209, 96194, 96362951, 96338
 96365904, 44.79649, 187.08, 523.4408, -0.0109364, 0.03203465, 0, 0, 0.3709369, 0.3, 1.006, 1.209, 96194, 96365468, 96338
 96368532, 44.79649, 187.08, 523.4408, -0.0109364, 0.03203465, 0, 0, 0.3709369, 0.3, 1.006, 1.209, 96194, 96367956, 96338
 96370884, 44.79649, 187.08, 523.4408, -0.0109364, 0.03203465, 0, 0, 0.3709369, 0.3, 1.006, 1.209, 96194, 96370452, 96338
 96373780, 44.79649, 187.08, 523.4408, -0.0109364, 0.03203465, 0, 0, 0.3709369, 0.3, 1.006, 1.209, 96194, 96372950, 96338
 96375920, 44.79649, 187.08, 523.4408, -0.0109364, 0.03203465, 0, 0, 0.3709369, 0.3, 1.006, 1.209, 96194, 96375451, 96338
 96378489, 44.79649, 187.08, 523.4408, -0.0109364, 0.03203465, 0, 0, 0.3709369, 0.3, 1.006, 1.209, 96194, 96377950, 96338
 96380950, 44.79649, 187.08, 523.4408, -0.0109364, 0.03203465, 0, 0, 0.3709369, 0.3, 1.006, 1.209, 96194, 96380451, 96338
 96383761, 44.79649, 187.08, 523.4408, -0.0109364, 0.03203465, 0, 0, 0.3709369, 0.3, 1.006, 1.209, 96194, 96382950, 96338
 96385880, 44.79649, 187.08, 523.4408, -0.0109364, 0.03203465, 0, 0, 0.3709369, 0.3, 1.006, 1.209, 96194, 96385451, 96338
 96388570, 44.79649, 187.08, 523.4408, -0.0109364, 0.03203465, 0, 0, 0.3709369, 0.3, 1.006, 1.209, 96194, 96387951, 96338
 96390917, 44.79649, 187.08, 523.4408, -0.0109364, 0.03203465, 0, 0, 0.3709369, 0.3, 1.006, 1.209, 96194, 96390464, 96338
 96393759, 44.79649, 187.08, 523.4408, -0.0109364, 0.03203465, 0, 0, 0.3709369, 0.3, 1.006, 1.209, 96194, 96392953, 96338
 96395908, 44.79649, 187.08, 523.4408, -0.01074804, 0.03216856, 0, 0, 0.3709369, 0.3, 1.006, 1.209, 96194, 96395471, 96393
 96398513, 44.79649, 187.08, 523.4408, -0.01074804, 0.03216856, 0, 0, 0.3709369, 0.3, 1.006, 1.209, 96194, 96397951, 96393
 96400939, 44.79649, 187.08, 523.4408, -0.01074804, 0.03216856, 0, 0, 0.3709369, 0.3, 1.006, 1.209, 96194, 96400462, 96393
 96403895, 44.79649, 187.08, 523.4408, -0.01074804, 0.03216856, 0, 0, 0.3709369, 0.3, 1.006, 1.209, 96194, 96402951, 96393
 96405903, 44.79649, 187.08, 523.4408, -0.01074804, 0.03216856, 0, 0, 0.3709369, 0.3, 1.006, 1.209, 96194, 96405459, 96393
 96408515, 44.79649, 187.08, 523.4408, -0.01074804, 0.03216856, 0, 0, 0.3709369, 0.3, 1.006, 1.209, 96194, 96407951, 96393
 96410904, 44.79649, 187.08, 523.4408, -0.01074804, 0.03216856, 0, 0, 0.3709369, 0.3, 1.006, 1.209, 96194, 96410457, 96393
 96413778, 44.79649, 187.08, 523.4408, -0.01074804, 0.03216856, 0, 0, 0.3709369, 0.3, 1.006, 1.209, 96194, 96412950, 96393
 96415885, 44.79649, 187.08, 523.4408, -0.01074804, 0.03216856, 0, 0, 0.3709369, 0.3, 1.006, 1.209, 96194, 96415464, 96393
 96418584, 45.64825, 189.6803, 514.2424, -0.01074804, 0.03216856, 0, 0, 0.3709369, 0.268, 1.005, 1.209, 96394, 96417968, 96393
 96420908, 45.64825, 189.6803, 514.2424, -0.01074804, 0.03216856, 0, 0, 0.3709369, 0.268, 1.005, 1.209, 96394, 96420459, 96393
 96424021, 45.64825, 189.6803, 514.2424, -0.01074804, 0.03216856, 0, 0, 0.3709369, 0.268, 1.005, 1.209, 96394, 96422950, 96393
 96425951, 45.64825, 189.6803, 514.2424, -0.01074804, 0.03216856, 0, 0, 0.3709369, 0.268, 1.005, 1.209, 96394, 96425459, 96393
 96428500, 45.64825, 189.6803, 514.2424, -0.01074804, 0.03216856, 0, 0, 0.3709369, 0.268, 1.005, 1.209, 96394, 96427952, 96393
 96430863, 45.64825, 189.6803, 514.2424, -0.01074804, 0.03216856, 0, 0, 0.3709369, 0.268, 1.005, 1.209, 96394, 96430458, 96393
 96433781, 45.64825, 189.6803, 514.2424, -0.01074804, 0.03216856, 0, 0, 0.3709369, 0.268, 1.005, 1.209, 96394, 96432951, 96393
 96435882, 45.64825, 189.6803, 514.2424, -0.01074804, 0.03216856, 0, 0, 0.3709369, 0.268, 1.005, 1.209, 96394, 96435457, 96393
 96438531, 45.64825, 189.6803, 514.2424, -0.01074804, 0.03216856, 0, 0, 0.3709369, 0.268, 1.005, 1.209, 96394, 96437951, 96393
 96440899, 45.64825, 189.6803, 514.2424, -0.01074804, 0.03216856, 0, 0, 0.3709369, 0.268, 1.005, 1.209, 96394, 96440451, 96393
 96443788, 45.64825, 189.6803, 514.2424, -0.01074804, 0.03216856, 0, 0, 0.3709369, 0.268, 1.005, 1.209, 96394, 96442957, 96393
 96445906, 45.64825, 189.6803, 514.2424, -0.01074804, 0.03216856, 0, 0, 0.3709369, 0.268, 1.005, 1.209, 96394, 96445463, 96393
 96448533, 45.64825, 189.6803, 514.2424, -0.01074804, 0.03216856, 0, 0, 0.3709369, 0.268, 1.005, 1.209, 96394, 96447950, 96393
 96450898, 45.64825, 189.6803, 514.2424, -0.01074826, 0.03199556, 0, 0, 0.3709369, 0.268, 1.005, 1.209, 96394, 96450463, 96448
 96453932, 45.64825, 189.6803, 514.2424, -0.01074826, 0.03199556, 0, 0, 0.3709369, 0.268, 1.005, 1.209, 96394, 96452950, 96448
 96455902, 45.64825, 189.6803, 514.2424, -0.01074826, 0.03199556, 0, 0, 0.3709369, 0.268, 1.005, 1.209, 96394, 96455452, 96448
 96458528, 45.64825, 189.6803, 514.2424, -0.01074826, 0.03199556, 0, 0, 0.3709369, 0.268, 1.005, 1.209, 96394, 96457951, 96448
 96460906, 45.64825, 189.6803, 514.2424, -0.01074826, 0.03199556, 0, 0, 0.3709369, 0.268, 1.005, 1.209, 96394, 96460473, 96448
 96463802, 45.64825, 189.6803, 514.2424, -0.01074826, 0.03199556, 0, 0, 0.3709369, 0.268, 1.005, 1.209, 96394, 96462961, 96448
 96465902, 45.64825, 189.6803, 514.2424, -0.01074826, 0.03199556, 0, 0, 0.3709369, 0.268, 1.005, 1.209, 96394, 96465463, 96448
 96468519, 45.64825, 189.6803, 514.2424, -0.01074826, 0.03199556, 0, 0, 0.3709369, 0.268, 1.005, 1.209, 96394, 96467950, 96448
 96470934, 45.64825, 189.6803, 514.2424, -0.01074826, 0.03199556, 0, 0, 0.3709369, 0.268, 1.005, 1.209, 96394, 96470459, 96448
 96473765, 45.64825, 189.6803, 514.2424, -0.01074826, 0.03199556, 0, 0, 0.3709369, 0.268, 1.005, 1.209, 96394, 96472951, 96448
 96475933, 45.64825, 189.6803, 514.2424, -0.01074826, 0.03199556, 0, 0, 0.3709369, 0.268, 1.005, 1.209, 96394, 96475473, 96448
 96478494, 45.64825, 189.6803, 514.2424, -0.01074826, 0.03199556, 0, 0, 0.3709369, 0.268, 1.005, 1.209, 96394, 96477951, 96448
 96480909, 45.64825, 189.6803, 514.2424, -0.01074826, 0.03199556, 0, 0, 0.3709369, 0.268, 1.005, 1.209, 96394, 96480451, 96448
 96483836, 45.64825, 189.6803, 514.2424, -0.01074826, 0.03199556, 0, 0, 0.3709369, 0.268, 1.005, 1.209, 96394, 96483025, 96448
 96485901, 45.64825, 189.6803, 514.2424, -0.01074826, 0.03199556, 0, 0, 0.3709369, 0.268, 1.005, 1.209, 96394, 96485464, 96448
 96488519, 45.64825, 189.6803, 514.2424, -0.01074826, 0.03199556, 0, 0, 0.3709369, 0.268, 1.005, 1.209, 96394, 96487951, 96448
 96490895, 45.64825, 189.6803, 514.2424, -0.01074826, 0.03199556, 0, 0, 0.3709369, 0.268, 1.005, 1.209, 96394, 96490451, 96448
 96493926, 45.64825, 189.6803, 514.2424, -0.01074826, 0.03199556, 0, 0, 0.3709369, 0.268, 1.005, 1.209, 96394, 96492950, 96448
 96495902, 45.64825, 189.6803, 514.2424, -0.01074826, 0.03199556, 0, 0, 0.3709369, 0.268, 1.005, 1.209, 96394, 96495459, 96448
 96498525, 45.64825, 189.6803, 514.2424, -0.01074826, 0.03199556, 0, 0, 0.3709369, 0.268, 1.005, 1.209, 96394, 96497965, 96448
 96500906, 45.64825, 189.6803, 514.2424, -0.01129905, 0.03212659, 0, 0, 0.3709369, 0.268, 1.005, 1.209, 96394, 96500467, 96498
 96503848, 45.64825, 189.6803, 514.2424, -0.01129905, 0.03212659, 0, 0, 0.3709369, 0.268, 1.005, 1.209, 96394, 96502951, 96498
 96505962, 45.64825, 189.6803, 514.2424, -0.01129905, 0.03212659, 0, 0, 0.3709369, 0.268, 1.005, 1.209, 96394, 96505466, 96498
 96508516, 45.64825, 189.6803, 514.2424, -0.01129905, 0.03212659, 0, 0, 0.3709369, 0.268, 1.005, 1.209, 96394, 96507974, 96498
 96510897, 45.64825, 189.6803, 514.2424, -0.01129905, 0.03212659, 0, 0, 0.3709369, 0.268, 1.005, 1.209, 96394, 96510464, 96498
 96513887, 45.64825, 189.6803, 514.2424, -0.01129905, 0.03212659, 0, 0, 0.3709369, 0.268, 1.005, 1.209, 96394, 96512952, 96498
 96515943, 45.64825, 189.6803, 514.2424, -0.01129905, 0.03212659, 0, 0, 0.3709369, 0.268, 1.005, 1.209, 96394, 96515451, 96498
 96518534, 46.33384, 187.8659, 521.6335, -0.01129905, 0.03212659, 0, 0, 0.3709369, 0.268, 1.005, 1.209, 96394, 96517952, 96498
 96520889, 46.33384, 187.8659, 521.6335, -0.01129905, 0.03212659, 0, 0, 0.3709369, 0.268, 1.005, 1.209, 96394, 96520458, 96498
 96524117, 46.33384, 187.8659, 521.6335, -0.01129905, 0.03212659, 0, 0, 0.3709369, 0.268, 1.005, 1.209, 96394, 96522950, 96498
 96525897, 46.33384, 187.8659, 521.6335, -0.01129905, 0.03212659, 0, 0, 0.3709369, 0.268, 1.005, 1.209, 96394, 96525452, 96498
 96528514, 46.33384, 187.8659, 521.6335, -0.01129905, 0.03212659, 0, 0, 0.3709369, 0.268, 1.005, 1.209, 96394, 96527952, 96498
 96530912, 46.33384, 187.8659, 521.6335, -0.01129905, 0.03212659, 0, 0, 0.3709369, 0.268, 1.005, 1.209, 96394, 96530466, 96498
 96533750, 46.33384, 187.8659, 521.6335, -0.01129905, 0.03212659, 0, 0, 0.3709369, 0.268, 1.005, 1.209, 96394, 96532951, 96498
 96535895, 46.33384, 187.8659, 521.6335, -0.01129905, 0.03212659, 0, 0, 0.3709369, 0.268, 1.005, 1.209, 96394, 96535461, 96498
 96538569, 46.33384, 187.8659, 521.6335, -0.01129905, 0.03212659, 0, 0, 0.3709369, 0.268, 1.005, 1.209, 96394, 96537955, 96498
 96540887, 46.33384, 187.8659, 521.6335, -0.01129905, 0.03212659, 0, 0, 0.3709369, 0.268, 1.005, 1.209, 96394, 96540503, 96498
 96543751, 46.33384, 187.8659, 521.6335, -0.01129905, 0.03212659, 0, 0, 0.3709369, 0.268, 1.005, 1.209, 96394, 96542951, 96498
 96546344, 46.33384, 187.8659, 521.6335, -0.01129905, 0.03212659, 0, 0, 0.3709369, 0.268, 1.005, 1.209, 96394, 96545861, 96498
 96549356, 46.33384, 187.8659, 521.6335, -0.01129905, 0.03212659, 0, 0, 0.3709369, 0.268, 1.005, 1.209, 96394, 96548897, 96498
 96552787, 46.33384, 187.8659, 521.6335, -0.01129905, 0.03212659, 0, 0, 0.3709369, 0.268, 1.005, 1.209, 96394, 96552119, 96498
 96555368, 46.33384, 187.8659, 521.6335, -0.01129905, 0.03212659, 0, 0, 0.3709369, 0.268, 1.005, 1.209, 96394, 96554635, 96498
 96557744, 46.33384, 187.8659, 521.6335, -0.01091929, 0.03189049, 0, 0, 0.3709369, 0.268, 1.005, 1.209, 96394, 96557141, 96555
 96560085, 46.33384, 187.8659, 521.6335, -0.01091929, 0.03189049, 0, 0, 0.3709369, 0.268, 1.005, 1.209, 96394, 96559629, 96555
 96562699, 46.33384, 187.8659, 521.6335, -0.01091929, 0.03189049, 0, 0, 0.3709369, 0.268, 1.005, 1.209, 96394, 96562133, 96555
 96565366, 46.33384, 187.8659, 521.6335, -0.01091929, 0.03189049, 0, 0, 0.3709369, 0.268, 1.005, 1.209, 96394, 96564640, 96555
 96567736, 46.33384, 187.8659, 521.6335, -0.01091929, 0.03189049, 0, 0, 0.3709369, 0.268, 1.005, 1.209, 96394, 96567141, 96555
 96570032, 46.33384, 187.8659, 521.6335, -0.01091929, 0.03189049, 0, 0, 0.3709369, 0.268, 1.005, 1.209, 96394, 96569628, 96555
 96572813, 46.33384, 187.8659, 521.6335, -0.01091929, 0.03189049, 0, 0, 0.3709369, 0.268, 1.005, 1.209, 96394, 96572133, 96555
 96575331, 46.33384, 187.8659, 521.6335, -0.01091929, 0.03189049, 0, 0, 0.3709369, 0.268, 1.005, 1.209, 96394, 96574628, 96555
 96577717, 46.33384, 187.8659, 521.6335, -0.01091929, 0.03189049, 0, 0, 0.3709369, 0.268, 1.005, 1.209, 96394, 96577138, 96555
 96580072, 46.33384, 187.8659, 521.6335, -0.01091929, 0.03189049, 0, 0, 0.3709369, 0.268, 1.005, 1.209, 96394, 96579629, 96555
 96582820, 46.33384, 187.8659, 521.6335, -0.01091929, 0.03189049, 0, 0, 0.3709369, 0.268, 1.005, 1.209, 96394, 96582133, 96555
 96585444, 46.33384, 187.8659, 521.6335, -0.01091929, 0.03189049, 0, 0, 0.3709369, 0.268, 1.005, 1.209, 96394, 96584629, 96555
 96587691, 46.33384, 187.8659, 521.6335, -0.01091929, 0.03189049, 0, 0, 0.3709369, 0.268, 1.005, 1.209, 96394, 96587138, 96555
 96590026, 46.33384, 187.8659, 521.6335, -0.01091929, 0.03189049, 0, 0, 0.3709369, 0.268, 1.005, 1.209, 96394, 96589628, 96555
 96592715, 46.33384, 187.8659, 521.6335, -0.01091929, 0.03189049, 0, 0, 0.3709369, 0.268, 1.005, 1.209, 96394, 96592134, 96555
 96595333, 46.33384, 187.8659, 521.6335, -0.01091929, 0.03189049, 0, 0, 0.3709369, 0.268, 1.005, 1.209, 96394, 96594631, 96555
 96597717, 46.33384, 187.8659, 521.6335, -0.01091929, 0.03189049, 0, 0, 0.3709369, 0.268, 1.005, 1.209, 96394, 96597135, 96555
 96600022, 46.33384, 187.8659, 521.6335, -0.01091929, 0.03189049, 0, 0, 0.3709369, 0.268, 1.005, 1.209, 96394, 96599631, 96555
 96602718, 46.33384, 187.8659, 521.6335, -0.01091929, 0.03189049, 0, 0, 0.3709369, 0.268, 1.005, 1.209, 96394, 96602133, 96555
 96605698, 46.33384, 187.8659, 521.6335, -0.01091929, 0.03189049, 0, 0, 0.3709369, 0.268, 1.005, 1.209, 96394, 96604634, 96555
 96607710, 46.33384, 187.8659, 521.6335, -0.01091929, 0.03189049, 0, 0, 0.3709369, 0.268, 1.005, 1.209, 96394, 96607133, 96555
 96610073, 46.33384, 187.8659, 521.6335, -0.01091929, 0.03189049, 0, 0, 0.3709369, 0.268, 1.005, 1.209, 96394, 96609628, 96555
 96612699, 46.33384, 187.8659, 521.6335, -0.01107567, 0.03194669, 0, 0, 0.3709369, 0.268, 1.005, 1.209, 96394, 96612147, 96610
 96615579, 46.33384, 187.8659, 521.6335, -0.01107567, 0.03194669, 0, 0, 0.3709369, 0.268, 1.005, 1.209, 96394, 96614632, 96610
 96617723, 46.33384, 187.8659, 521.6335, -0.01107567, 0.03194669, 0, 0, 0.3709369, 0.268, 1.005, 1.209, 96394, 96617134, 96610
 96620068, 45.97911, 189.6806, 515.8682, -0.01107567, 0.03194669, 0, 0, 0.3709369, 0.3, 1.005, 1.208, 96594, 96619629, 96610
 96622727, 45.97911, 189.6806, 515.8682, -0.01107567, 0.03194669, 0, 0, 0.3709369, 0.3, 1.005, 1.208, 96594, 96622135, 96610
 96625365, 45.97911, 189.6806, 515.8682, -0.01107567, 0.03194669, 0, 0, 0.3709369, 0.3, 1.005, 1.208, 96594, 96624632, 96610
 96627772, 45.97911, 189.6806, 515.8682, -0.01107567, 0.03194669, 0, 0, 0.3709369, 0.3, 1.005, 1.208, 96594, 96627145, 96610
 96630043, 45.97911, 189.6806, 515.8682, -0.01107567, 0.03194669, 0, 0, 0.3709369, 0.3, 1.005, 1.208, 96594, 96629635, 96610
 96632704, 45.97911, 189.6806, 515.8682, -0.01107567, 0.03194669, 0, 0, 0.3709369, 0.3, 1.005, 1.208, 96594, 96632133, 96610
 96635344, 45.97911, 189.6806, 515.8682, -0.01107567, 0.03194669, 0, 0, 0.3709369, 0.3, 1.005, 1.208, 96594, 96634629, 96610
 96637697, 45.97911, 189.6806, 515.8682, -0.01107567, 0.03194669, 0, 0, 0.3709369, 0.3, 1.005, 1.208, 96594, 96637133, 96610
 96640015, 45.97911, 189.6806, 515.8682, -0.01107567, 0.03194669, 0, 0, 0.3709369, 0.3, 1.005, 1.208, 96594, 96639630, 96610
 96642709, 45.97911, 189.6806, 515.8682, -0.01107567, 0.03194669, 0, 0, 0.3709369, 0.3, 1.005, 1.208, 96594, 96642133, 96610
 96645344, 45.97911, 189.6806, 515.8682, -0.01107567, 0.03194669, 0, 0, 0.3709369, 0.3, 1.005, 1.208, 96594, 96644628, 96610
 96647733, 45.97911, 189.6806, 515.8682, -0.01107567, 0.03194669, 0, 0, 0.3709369, 0.3, 1.005, 1.208, 96594, 96647139, 96610
 96650048, 45.97911, 189.6806, 515.8682, -0.01107567, 0.03194669, 0, 0, 0.3709369, 0.3, 1.005, 1.208, 96594, 96649628, 96610
 96652848, 45.97911, 189.6806, 515.8682, -0.01107567, 0.03194669, 0, 0, 0.3709369, 0.3, 1.005, 1.208, 96594, 96652133, 96610
 96655429, 45.97911, 189.6806, 515.8682, -0.01107567, 0.03194669, 0, 0, 0.3709369, 0.3, 1.005, 1.208, 96594, 96654631, 96610
 96657704, 45.97911, 189.6806, 515.8682, -0.01107567, 0.03194669, 0, 0, 0.3709369, 0.3, 1.005, 1.208, 96594, 96657137, 96610
 96660053, 45.97911, 189.6806, 515.8682, -0.01107567, 0.03194669, 0, 0, 0.3709369, 0.3, 1.005, 1.208, 96594, 96659637, 96610
 96662734, 45.97911, 189.6806, 515.8682, -0.01107567, 0.03194669, 0, 0, 0.3709369, 0.3, 1.005, 1.208, 96594, 96662133, 96610
 96665462, 45.97911, 189.6806, 515.8682, -0.01107567, 0.03194669, 0, 0, 0.3709369, 0.3, 1.005, 1.208, 96594, 96664628, 96610
 96667724, 45.97911, 189.6806, 515.8682, -0.01064075, 0.03178788, 0, 0, 0.3709369, 0.3, 1.005, 1.208, 96594, 96667133, 96665
 96670051, 45.97911, 189.6806, 515.8682, -0.01064075, 0.03178788, 0, 0, 0.3709369, 0.3, 1.005, 1.208, 96594, 96669638, 96665
 96672789, 45.97911, 189.6806, 515.8682, -0.01064075, 0.03178788, 0, 0, 0.3709369, 0.3, 1.005, 1.208, 96594, 96672142, 96665
 96675340, 45.97911, 189.6806, 515.8682, -0.01064075, 0.03178788, 0, 0, 0.3709369, 0.3, 1.005, 1.208, 96594, 96674629, 96665
 96677723, 45.97911, 189.6806, 515.8682, -0.01064075, 0.03178788, 0, 0, 0.3709369, 0.3, 1.005, 1.208, 96594, 96677134, 96665
 96680028, 45.97911, 189.6806, 515.8682, -0.01064075, 0.03178788, 0, 0, 0.3709369, 0.3, 1.005, 1.208, 96594, 96679630, 96665
 96682721, 45.97911, 189.6806, 515.8682, -0.01064075, 0.03178788, 0, 0, 0.3709369, 0.3, 1.005, 1.208, 96594, 96682134, 96665
 96685581, 45.97911, 189.6806, 515.8682, -0.01064075, 0.03178788, 0, 0, 0.3709369, 0.3, 1.005, 1.208, 96594, 96684805, 96665
 96688290, 45.97911, 189.6806, 515.8682, -0.01064075, 0.03178788, 0, 0, 0.3709369, 0.3, 1.005, 1.208, 96594, 96687819, 96665
 96690777, 45.97911, 189.6806, 515.8682, -0.01064075, 0.03178788, 0, 0, 0.3709369, 0.3, 1.005, 1.208, 96594, 96690303, 96665
 96693335, 45.97911, 189.6806, 515.8682, -0.01064075, 0.03178788, 0, 0, 0.3709369, 0.3, 1.005, 1.208, 96594, 96692803, 96665
 96696004, 45.97911, 189.6806, 515.8682, -0.01064075, 0.03178788, 0, 0, 0.3709369, 0.3, 1.005, 1.208, 96594, 96695303, 96665
 96698310, 45.97911, 189.6806, 515.8682, -0.01064075, 0.03178788, 0, 0, 0.3709369, 0.3, 1.005, 1.208, 96594, 96697810, 96665
 96700773, 45.97911, 189.6806, 515.8682, -0.01064075, 0.03178788, 0, 0, 0.3709369, 0.3, 1.005, 1.208, 96594, 96700303, 96665
 96703309, 45.97911, 189.6806, 515.8682, -0.01064075, 0.03178788, 0, 0, 0.3709369, 0.3, 1.005, 1.208, 96594, 96702808, 96665
 96706203, 45.97911, 189.6806, 515.8682, -0.01064075, 0.03178788, 0, 0, 0.3709369, 0.3, 1.005, 1.208, 96594, 96705315, 96665
 96708303, 45.97911, 189.6806, 515.8682, -0.01064075, 0.03178788, 0, 0, 0.3709369, 0.3, 1.005, 1.208, 96594, 96707804, 96665
 96710793, 45.97911, 189.6806, 515.8682, -0.01064075, 0.03178788, 0, 0, 0.3709369, 0.3, 1.005, 1.208, 96594, 96710304, 96665
 96713329, 45.97911, 189.6806, 515.8682, -0.01064075, 0.03178788, 0, 0, 0.3709369, 0.3, 1.005, 1.208, 96594, 96712803, 96665
 96716460, 45.97911, 189.6806, 515.8682, -0.01064075, 0.03178788, 0, 0, 0.3709369, 0.3, 1.005, 1.208, 96594, 96715305, 96665
 96718303, 45.97911, 189.6806, 515.8682, -0.01064075, 0.03178788, 0, 0, 0.3709369, 0.3, 1.005, 1.208, 96594, 96717803, 96665
 96720794, 43.39132, 187.0957, 524.361, -0.01064075, 0.03178788, 0, 0, 0.3709369, 0.3, 1.005, 1.208, 96594, 96720315, 96665
 96723321, 43.39132, 187.0957, 524.361, -0.01060166, 0.03212506, 0, 0, 0.3709369, 0.3, 1.005, 1.208, 96594, 96722814, 96720
 96726572, 43.39132, 187.0957, 524.361, -0.01060166, 0.03212506, 0, 0, 0.3709369, 0.3, 1.005, 1.208, 96594, 96725304, 96720
 96728296, 43.39132, 187.0957, 524.361, -0.01060166, 0.03212506, 0, 0, 0.3709369, 0.3, 1.005, 1.208, 96594, 96727809, 96720
 96730800, 43.39132, 187.0957, 524.361, -0.01060166, 0.03212506, 0, 0, 0.3709369, 0.3, 1.005, 1.208, 96594, 96730303, 96720
 96733267, 43.39132, 187.0957, 524.361, -0.01060166, 0.03212506, 0, 0, 0.3709369, 0.3, 1.005, 1.208, 96594, 96732803, 96720
 96736068, 43.39132, 187.0957, 524.361, -0.01060166, 0.03212506, 0, 0, 0.3709369, 0.3, 1.005, 1.208, 96594, 96735303, 96720
 96738326, 43.39132, 187.0957, 524.361, -0.01060166, 0.03212506, 0, 0, 0.3709369, 0.3, 1.005, 1.208, 96594, 96737805, 96720
 96740818, 43.39132, 187.0957, 524.361, -0.01060166, 0.03212506, 0, 0, 0.3709369, 0.3, 1.005, 1.208, 96594, 96740305, 96720
 96743294, 43.39132, 187.0957, 524.361, -0.01060166, 0.03212506, 0, 0, 0.3709369, 0.3, 1.005, 1.208, 96594, 96742804, 96720
 96746048, 43.39132, 187.0957, 524.361, -0.01060166, 0.03212506, 0, 0, 0.3709369, 0.3, 1.005, 1.208, 96594, 96745303, 96720
 96748306, 43.39132, 187.0957, 524.361, -0.01060166, 0.03212506, 0, 0, 0.3709369, 0.3, 1.005, 1.208, 96594, 96747808, 96720
 96750782, 43.39132, 187.0957, 524.361, -0.01060166, 0.03212506, 0, 0, 0.3709369, 0.3, 1.005, 1.208, 96594, 96750311, 96720
 96753287, 43.39132, 187.0957, 524.361, -0.01060166, 0.03212506, 0, 0, 0.3709369, 0.3, 1.005, 1.208, 96594, 96752805, 96720
 96756037, 43.39132, 187.0957, 524.361, -0.01060166, 0.03212506, 0, 0, 0.3709369, 0.3, 1.005, 1.208, 96594, 96755307, 96720
 96758279, 43.39132, 187.0957, 524.361, -0.01060166, 0.03212506, 0, 0, 0.3709369, 0.3, 1.005, 1.208, 96594, 96757803, 96720
 96760835, 43.39132, 187.0957, 524.361, -0.01060166, 0.03212506, 0, 0, 0.3709369, 0.3, 1.005, 1.208, 96594, 96760304, 96720
 96763289, 43.39132, 187.0957, 524.361, -0.01060166, 0.03212506, 0, 0, 0.3709369, 0.3, 1.005, 1.208, 96594, 96762820, 96720
 96766254, 43.39132, 187.0957, 524.361, -0.01060166, 0.03212506, 0, 0, 0.3709369, 0.3, 1.005, 1.208, 96594, 96765303, 96720
 96768332, 43.39132, 187.0957, 524.361, -0.01060166, 0.03212506, 0, 0, 0.3709369, 0.3, 1.005, 1.208, 96594, 96767809, 96720
 96770789, 43.39132, 187.0957, 524.361, -0.01060166, 0.03212506, 0, 0, 0.3709369, 0.3, 1.005, 1.208, 96594, 96770304, 96720
 96773304, 43.39132, 187.0957, 524.361, -0.01060166, 0.03212506, 0, 0, 0.3709369, 0.3, 1.005, 1.208, 96594, 96772810, 96720
 96776022, 43.39132, 187.0957, 524.361, -0.01060166, 0.03212506, 0, 0, 0.3709369, 0.3, 1.005, 1.208, 96594, 96775303, 96720
 96778324, 43.39132, 187.0957, 524.361, -0.01065786, 0.03202244, 0, 0, 0.3709369, 0.3, 1.005, 1.208, 96594, 96777809, 96776
 96780771, 43.39132, 187.0957, 524.361, -0.01065786, 0.03202244, 0, 0, 0.3709369, 0.3, 1.005, 1.208, 96594, 96780304, 96776
 96783348, 43.39132, 187.0957, 524.361, -0.01065786, 0.03202244, 0, 0, 0.3709369, 0.3, 1.005, 1.208, 96594, 96782805, 96776
 96786048, 43.39132, 187.0957, 524.361, -0.01065786, 0.03202244, 0, 0, 0.3709369, 0.3, 1.005, 1.208, 96594, 96785318, 96776
 96788294, 43.39132, 187.0957, 524.361, -0.01065786, 0.03202244, 0, 0, 0.3709369, 0.3, 1.005, 1.208, 96594, 96787811, 96776
 96790792, 43.39132, 187.0957, 524.361, -0.01065786, 0.03202244, 0, 0, 0.3709369, 0.3, 1.005, 1.208, 96594, 96790304, 96776
 96793277, 43.39132, 187.0957, 524.361, -0.01065786, 0.03202244, 0, 0, 0.3709369, 0.3, 1.005, 1.208, 96594, 96792804, 96776
 96796019, 43.39132, 187.0957, 524.361, -0.01065786, 0.03202244, 0, 0, 0.3709369, 0.3, 1.005, 1.208, 96594, 96795304, 96776
 96798316, 43.39132, 187.0957, 524.361, -0.01065786, 0.03202244, 0, 0, 0.3709369, 0.3, 1.005, 1.208, 96594, 96797812, 96776
 96800779, 43.39132, 187.0957, 524.361, -0.01065786, 0.03202244, 0, 0, 0.3709369, 0.3, 1.005, 1.208, 96594, 96800303, 96776
 96803306, 43.39132, 187.0957, 524.361, -0.01065786, 0.03202244, 0, 0, 0.3709369, 0.3, 1.005, 1.208, 96594, 96802803, 96776
 96806048, 43.39132, 187.0957, 524.361, -0.01065786, 0.03202244, 0, 0, 0.3709369, 0.3, 1.005, 1.208, 96594, 96805303, 96776
 96808338, 43.39132, 187.0957, 524.361, -0.01065786, 0.03202244, 0, 0, 0.3709369, 0.3, 1.005, 1.208, 96594, 96807803, 96776
 96810796, 43.39132, 187.0957, 524.361, -0.01065786, 0.03202244, 0, 0, 0.3709369, 0.3, 1.005, 1.208, 96594, 96810311, 96776
 96813280, 43.39132, 187.0957, 524.361, -0.01065786, 0.03202244, 0, 0, 0.3709369, 0.3, 1.005, 1.208, 96594, 96812805, 96776
 96816326, 43.39132, 187.0957, 524.361, -0.01065786, 0.03202244, 0, 0, 0.3709369, 0.3, 1.005, 1.208, 96594, 96815316, 96776
 96818335, 43.39132, 187.0957, 524.361, -0.01065786, 0.03202244, 0, 0, 0.3709369, 0.3, 1.005, 1.208, 96594, 96817804, 96776
 96820880, 45.609, 189.7556, 516.4429, -0.01065786, 0.03202244, 0, 0, 0.3709369, 0.303, 1.005, 1.208, 96794, 96820304, 96776
 96823288, 45.609, 189.7556, 516.4429, -0.01065786, 0.03202244, 0, 0, 0.3709369, 0.303, 1.005, 1.208, 96794, 96822807, 96776
 96826118, 45.609, 189.7556, 516.4429, -0.01065786, 0.03202244, 0, 0, 0.3709369, 0.303, 1.005, 1.208, 96794, 96825304, 96776
 96828347, 45.609, 189.7556, 516.4429, -0.01065786, 0.03202244, 0, 0, 0.3709369, 0.303, 1.005, 1.208, 96794, 96827804, 96776
 96830777, 45.609, 189.7556, 516.4429, -0.01065786, 0.03202244, 0, 0, 0.3709369, 0.303, 1.005, 1.208, 96794, 96830304, 96776
 96833290, 45.609, 189.7556, 516.4429, -0.01104789, 0.03218318, 0, 0, 0.3709369, 0.303, 1.005, 1.208, 96794, 96832804, 96830
 96836013, 45.609, 189.7556, 516.4429, -0.01104789, 0.03218318, 0, 0, 0.3709369, 0.303, 1.005, 1.208, 96794, 96835304, 96830
 96838297, 45.609, 189.7556, 516.4429, -0.01104789, 0.03218318, 0, 0, 0.3709369, 0.303, 1.005, 1.208, 96794, 96837806, 96830
 96840823, 45.609, 189.7556, 516.4429, -0.01104789, 0.03218318, 0, 0, 0.3709369, 0.303, 1.005, 1.208, 96794, 96840308, 96830
 96843267, 45.609, 189.7556, 516.4429, -0.01104789, 0.03218318, 0, 0, 0.3709369, 0.303, 1.005, 1.208, 96794, 96842803, 96830
 96846059, 45.609, 189.7556, 516.4429, -0.01104789, 0.03218318, 0, 0, 0.3709369, 0.303, 1.005, 1.208, 96794, 96845303, 96830
 96848284, 45.609, 189.7556, 516.4429, -0.01104789, 0.03218318, 0, 0, 0.3709369, 0.303, 1.005, 1.208, 96794, 96847814, 96830
 96850840, 45.609, 189.7556, 516.4429, -0.01104789, 0.03218318, 0, 0, 0.3709369, 0.303, 1.005, 1.208, 96794, 96850304, 96830
 96853283, 45.609, 189.7556, 516.4429, -0.01104789, 0.03218318, 0, 0, 0.3709369, 0.303, 1.005, 1.208, 96794, 96852803, 96830
 96856060, 45.609, 189.7556, 516.4429, -0.01104789, 0.03218318, 0, 0, 0.3709369, 0.303, 1.005, 1.208, 96794, 96855303, 96830
 96858310, 45.609, 189.7556, 516.4429, -0.01104789, 0.03218318, 0, 0, 0.3709369, 0.303, 1.005, 1.208, 96794, 96857809, 96830
 96860808, 45.609, 189.7556, 516.4429, -0.01104789, 0.03218318, 0, 0, 0.3709369, 0.303, 1.005, 1.208, 96794, 96860313, 96830
 96863294, 45.609, 189.7556, 516.4429, -0.01104789, 0.03218318, 0, 0, 0.3709369, 0.303, 1.005, 1.208, 96794, 96862804, 96830
 96866033, 45.609, 189.7556, 516.4429, -0.01104789, 0.03218318, 0, 0, 0.3709369, 0.303, 1.005, 1.208, 96794, 96865309, 96830
 96868284, 45.609, 189.7556, 516.4429, -0.01104789, 0.03218318, 0, 0, 0.3709369, 0.303, 1.005, 1.208, 96794, 96867828, 96830
 96870854, 45.609, 189.7556, 516.4429, -0.01104789, 0.03218318, 0, 0, 0.3709369, 0.303, 1.005, 1.208, 96794, 96870303, 96830
 96873319, 45.609, 189.7556, 516.4429, -0.01104789, 0.03218318, 0, 0, 0.3709369, 0.303, 1.005, 1.208, 96794, 96872810, 96830
 96876044, 45.609, 189.7556, 516.4429, -0.01104789, 0.03218318, 0, 0, 0.3709369, 0.303, 1.005, 1.208, 96794, 96875315, 96830
 96878317, 45.609, 189.7556, 516.4429, -0.01104789, 0.03218318, 0, 0, 0.3709369, 0.303, 1.005, 1.208, 96794, 96877803, 96830
 96880816, 45.609, 189.7556, 516.4429, -0.01104789, 0.03218318, 0, 0, 0.3709369, 0.303, 1.005, 1.208, 96794, 96880304, 96830
 96883327, 45.609, 189.7556, 516.4429, -0.01104789, 0.03218318, 0, 0, 0.3709369, 0.303, 1.005, 1.208, 96794, 96882809, 96830
 96886024, 45.609, 189.7556, 516.4429, -0.01104789, 0.03218318, 0, 0, 0.3709369, 0.303, 1.005, 1.208, 96794, 96885313, 96830
 96888320, 45.609, 189.7556, 516.4429, -0.01063342, 0.0319076, 0, 0, 0.3709369, 0.303, 1.005, 1.208, 96794, 96887819, 96886
 96890801, 45.609, 189.7556, 516.4429, -0.01063342, 0.0319076, 0, 0, 0.3709369, 0.303, 1.005, 1.208, 96794, 96890314, 96886
 96893276, 45.609, 189.7556, 516.4429, -0.01063342, 0.0319076, 0, 0, 0.3709369, 0.303, 1.005, 1.208, 96794, 96892804, 96886
 96896274, 45.609, 189.7556, 516.4429, -0.01063342, 0.0319076, 0, 0, 0.3709369, 0.303, 1.005, 1.208, 96794, 96895304, 96886
 96898306, 45.609, 189.7556, 516.4429, -0.01063342, 0.0319076, 0, 0, 0.3709369, 0.303, 1.005, 1.208, 96794, 96897806, 96886
 96900817, 45.609, 189.7556, 516.4429, -0.01063342, 0.0319076, 0, 0, 0.3709369, 0.303, 1.005, 1.208, 96794, 96900304, 96886
 96903298, 45.609, 189.7556, 516.4429, -0.01063342, 0.0319076, 0, 0, 0.3709369, 0.303, 1.005, 1.208, 96794, 96902804, 96886
 96905996, 45.609, 189.7556, 516.4429, -0.01063342, 0.0319076, 0, 0, 0.3709369, 0.303, 1.005, 1.208, 96794, 96905305, 96886
 96908306, 45.609, 189.7556, 516.4429, -0.01063342, 0.0319076, 0, 0, 0.3709369, 0.303, 1.005, 1.208, 96794, 96907805, 96886
 96910795, 45.609, 189.7556, 516.4429, -0.01063342, 0.0319076, 0, 0, 0.3709369, 0.303, 1.005, 1.208, 96794, 96910326, 96886
 96913292, 45.609, 189.7556, 516.4429, -0.01063342, 0.0319076, 0, 0, 0.3709369, 0.303, 1.005, 1.208, 96794, 96912809, 96886
 96916299, 45.609, 189.7556, 516.4429, -0.01063342, 0.0319076, 0, 0, 0.3709369, 0.303, 1.005, 1.208, 96794, 96915305, 96886
 96918324, 45.609, 189.7556, 516.4429, -0.01063342, 0.0319076, 0, 0, 0.3709369, 0.303, 1.005, 1.208, 96794, 96917804, 96886
 96920818, 42.16421, 186.8989, 519.0411, -0.01063342, 0.0319076, 0, 0, 0.3709369, 0.303, 1.005, 1.208, 96794, 96920303, 96886
 96923320, 42.16421, 186.8989, 519.0411, -0.01063342, 0.0319076, 0, 0, 0.3709369, 0.303, 1.005, 1.208, 96794, 96922815, 96886
 96926698, 42.16421, 186.8989, 519.0411, -0.01063342, 0.0319076, 0, 0, 0.3709369, 0.303, 1.005, 1.208, 96794, 96925304, 96886
 96928286, 42.16421, 186.8989, 519.0411, -0.01063342, 0.0319076, 0, 0, 0.3709369, 0.303, 1.005, 1.208, 96794, 96927803, 96886
 96930772, 42.16421, 186.8989, 519.0411, -0.01063342, 0.0319076, 0, 0, 0.3709369, 0.303, 1.005, 1.208, 96794, 96930304, 96886
 96933273, 42.16421, 186.8989, 519.0411, -0.01063342, 0.0319076, 0, 0, 0.3709369, 0.303, 1.005, 1.208, 96794, 96932809, 96886
 96936072, 42.16421, 186.8989, 519.0411, -0.01063342, 0.0319076, 0, 0, 0.3709369, 0.303, 1.005, 1.208, 96794, 96935308, 96886
 96938304, 42.16421, 186.8989, 519.0411, -0.01063342, 0.0319076, 0, 0, 0.3709369, 0.303, 1.005, 1.208, 96794, 96937808, 96886
 96940833, 42.16421, 186.8989, 519.0411, -0.01063342, 0.0319076, 0, 0, 0.3709369, 0.303, 1.005, 1.208, 96794, 96940303, 96886
 96943275, 42.16421, 186.8989, 519.0411, -0.01090463, 0.03229609, 0, 0, 0.3709369, 0.303, 1.005, 1.208, 96794, 96942808, 96940
 96946038, 42.16421, 186.8989, 519.0411, -0.01090463, 0.03229609, 0, 0, 0.3709369, 0.303, 1.005, 1.208, 96794, 96945308, 96940
 96948320, 42.16421, 186.8989, 519.0411, -0.01090463, 0.03229609, 0, 0, 0.3709369, 0.303, 1.005, 1.208, 96794, 96947826, 96940
 96950786, 42.16421, 186.8989, 519.0411, -0.01090463, 0.03229609, 0, 0, 0.3709369, 0.303, 1.005, 1.208, 96794, 96950306, 96940
 96953293, 42.16421, 186.8989, 519.0411, -0.01090463, 0.03229609, 0, 0, 0.3709369, 0.303, 1.005, 1.208, 96794, 96952803, 96940
 96956010, 42.16421, 186.8989, 519.0411, -0.01090463, 0.03229609, 0, 0, 0.3709369, 0.303, 1.005, 1.208, 96794, 96955303, 96940
 96958311, 42.16421, 186.8989, 519.0411, -0.01090463, 0.03229609, 0, 0, 0.3709369, 0.303, 1.005, 1.208, 96794, 96957816, 96940
 96960790, 42.16421, 186.8989, 519.0411, -0.01090463, 0.03229609, 0, 0, 0.3709369, 0.303, 1.005, 1.208, 96794, 96960306, 96940
 96963320, 42.16421, 186.8989, 519.0411, -0.01090463, 0.03229609, 0, 0, 0.3709369, 0.303, 1.005, 1.208, 96794, 96962804, 96940
 96966032, 42.16421, 186.8989, 519.0411, -0.01090463, 0.03229609, 0, 0, 0.3709369, 0.303, 1.005, 1.208, 96794, 96965305, 96940
 96968292, 42.16421, 186.8989, 519.0411, -0.01090463, 0.03229609, 0, 0, 0.3709369, 0.303, 1.005, 1.208, 96794, 96967809, 96940
 96970792, 42.16421, 186.8989, 519.0411, -0.01090463, 0.03229609, 0, 0, 0.3709369, 0.303, 1.005, 1.208, 96794, 96970304, 96940
 96973285, 42.16421, 186.8989, 519.0411, -0.01090463, 0.03229609, 0, 0, 0.3709369, 0.303, 1.005, 1.208, 96794, 96972810, 96940
 96976248, 42.16421, 186.8989, 519.0411, -0.01090463, 0.03229609, 0, 0, 0.3709369, 0.303, 1.005, 1.208, 96794, 96975304, 96940
 96978360, 42.16421, 186.8989, 519.0411, -0.01090463, 0.03229609, 0, 0, 0.3709369, 0.303, 1.005, 1.208, 96794, 96977803, 96940
 96980775, 42.16421, 186.8989, 519.0411, -0.01090463, 0.03229609, 0, 0, 0.3709369, 0.303, 1.005, 1.208, 96794, 96980304, 96940
 96983302, 42.16421, 186.8989, 519.0411, -0.01090463, 0.03229609, 0, 0, 0.3709369, 0.303, 1.005, 1.208, 96794, 96982803, 96940
 96986039, 42.16421, 186.8989, 519.0411, -0.01090463, 0.03229609, 0, 0, 0.3709369, 0.303, 1.005, 1.208, 96794, 96985303, 96940
 96988327, 42.16421, 186.8989, 519.0411, -0.01090463, 0.03229609, 0, 0, 0.3709369, 0.303, 1.005, 1.208, 96794, 96987803, 96940
 96990802, 42.16421, 186.8989, 519.0411, -0.01090463, 0.03229609, 0, 0, 0.3709369, 0.303, 1.005, 1.208, 96794, 96990309, 96940
 96993308, 42.16421, 186.8989, 519.0411, -0.01090463, 0.03229609, 0, 0, 0.3709369, 0.303, 1.005, 1.208, 96794, 96992834, 96940
 96996061, 42.16421, 186.8989, 519.0411, -0.01090463, 0.03229609, 0, 0, 0.3709369, 0.303, 1.005, 1.208, 96794, 96995315, 96940
 96998293, 42.16421, 186.8989, 519.0411, -0.01072854, 0.03199548, 0, 0, 0.3709369, 0.303, 1.005, 1.208, 96794, 96997807, 96996
 97000807, 42.16421, 186.8989, 519.0411, -0.01072854, 0.03199548, 0, 0, 0.3709369, 0.303, 1.005, 1.208, 96794, 97000303, 96996
 97003266, 42.16421, 186.8989, 519.0411, -0.01072854, 0.03199548, 0, 0, 0.3709369, 0.303, 1.005, 1.208, 96794, 97002807, 96996
 97006215, 42.16421, 186.8989, 519.0411, -0.01072854, 0.03199548, 0, 0, 0.3709369, 0.303, 1.005, 1.208, 96794, 97005303, 96996
 97008361, 42.16421, 186.8989, 519.0411, -0.01072854, 0.03199548, 0, 0, 0.3709369, 0.303, 1.005, 1.208, 96794, 97007803, 96996
 97010792, 42.16421, 186.8989, 519.0411, -0.01072854, 0.03199548, 0, 0, 0.3709369, 0.303, 1.005, 1.208, 96794, 97010321, 96996
 97013310, 42.16421, 186.8989, 519.0411, -0.01072854, 0.03199548, 0, 0, 0.3709369, 0.303, 1.005, 1.208, 96794, 97012815, 96996
 97016121, 42.16421, 186.8989, 519.0411, -0.01072854, 0.03199548, 0, 0, 0.3709369, 0.303, 1.005, 1.208, 96794, 97015303, 96996
 97018311, 42.16421, 186.8989, 519.0411, -0.01072854, 0.03199548, 0, 0, 0.3709369, 0.303, 1.005, 1.208, 96794, 97017803, 96996
 97020819, 45.18372, 189.3352, 516.4357, -0.01072854, 0.03199548, 0, 0, 0.3709369, 0.304, 1.005, 1.208, 96994, 97020303, 96996
 97023292, 45.18372, 189.3352, 516.4357, -0.01072854, 0.03199548, 0, 0, 0.3709369, 0.304, 1.005, 1.208, 96994, 97022803, 96996
 97026080, 45.18372, 189.3352, 516.4357, -0.01072854, 0.03199548, 0, 0, 0.3709369, 0.304, 1.005, 1.208, 96994, 97025310, 96996
 97028318, 45.18372, 189.3352, 516.4357, -0.01072854, 0.03199548, 0, 0, 0.3709369, 0.304, 1.005, 1.208, 96994, 97027803, 96996
 97030854, 45.18372, 189.3352, 516.4357, -0.01072854, 0.03199548, 0, 0, 0.3709369, 0.304, 1.005, 1.208, 96994, 97030309, 96996
 97033287, 45.18372, 189.3352, 516.4357, -0.01072854, 0.03199548, 0, 0, 0.3709369, 0.304, 1.005, 1.208, 96994, 97032803, 96996
 97036062, 45.18372, 189.3352, 516.4357, -0.01072854, 0.03199548, 0, 0, 0.3709369, 0.304, 1.005, 1.208, 96994, 97035303, 96996
 97038318, 45.18372, 189.3352, 516.4357, -0.01072854, 0.03199548, 0, 0, 0.3709369, 0.304, 1.005, 1.208, 96994, 97037806, 96996
 97040803, 45.18372, 189.3352, 516.4357, -0.01072854, 0.03199548, 0, 0, 0.3709369, 0.304, 1.005, 1.208, 96994, 97040303, 96996
 97043307, 45.18372, 189.3352, 516.4357, -0.01072854, 0.03199548, 0, 0, 0.3709369, 0.304, 1.005, 1.208, 96994, 97042805, 96996
 97046006, 45.18372, 189.3352, 516.4357, -0.01072854, 0.03199548, 0, 0, 0.3709369, 0.304, 1.005, 1.208, 96994, 97045303, 96996
 97048324, 45.18372, 189.3352, 516.4357, -0.01072202, 0.03200823, 0, 0, 0.3709369, 0.304, 1.005, 1.208, 96994, 97047813, 97046
 97050805, 45.18372, 189.3352, 516.4357, -0.01072202, 0.03200823, 0, 0, 0.3709369, 0.304, 1.005, 1.208, 96994, 97050309, 97046
 97053309, 45.18372, 189.3352, 516.4357, -0.01072202, 0.03200823, 0, 0, 0.3709369, 0.304, 1.005, 1.208, 96994, 97052809, 97046
 97056036, 45.18372, 189.3352, 516.4357, -0.01072202, 0.03200823, 0, 0, 0.3709369, 0.304, 1.005, 1.208, 96994, 97055308, 97046
 97058302, 45.18372, 189.3352, 516.4357, -0.01072202, 0.03200823, 0, 0, 0.3709369, 0.304, 1.005, 1.208, 96994, 97057808, 97046
 97060804, 45.18372, 189.3352, 516.4357, -0.01072202, 0.03200823, 0, 0, 0.3709369, 0.304, 1.005, 1.208, 96994, 97060313, 97046
 97063279, 45.18372, 189.3352, 516.4357, -0.01072202, 0.03200823, 0, 0, 0.3709369, 0.304, 1.005, 1.208, 96994, 97062803, 97046
 97066040, 45.18372, 189.3352, 516.4357, -0.01072202, 0.03200823, 0, 0, 0.3709369, 0.304, 1.005, 1.208, 96994, 97065314, 97046
 97068343, 45.18372, 189.3352, 516.4357, -0.01072202, 0.03200823, 0, 0, 0.3709369, 0.304, 1.005, 1.208, 96994, 97067813, 97046
 97070762, 45.18372, 189.3352, 516.4357, -0.01072202, 0.03200823, 0, 0, 0.3709369, 0.304, 1.005, 1.208, 96994, 97070306, 97046
 97073295, 45.18372, 189.3352, 516.4357, -0.01072202, 0.03200823, 0, 0, 0.3709369, 0.304, 1.005, 1.208, 96994, 97072804, 97046
 97076045, 45.18372, 189.3352, 516.4357, -0.01072202, 0.03200823, 0, 0, 0.3709369, 0.304, 1.005, 1.208, 96994, 97075309, 97046
 97078342, 45.18372, 189.3352, 516.4357, -0.01072202, 0.03200823, 0, 0, 0.3709369, 0.304, 1.005, 1.208, 96994, 97077803, 97046
 97080843, 45.18372, 189.3352, 516.4357, -0.01072202, 0.03200823, 0, 0, 0.3709369, 0.304, 1.005, 1.208, 96994, 97080303, 97046
 97083332, 45.18372, 189.3352, 516.4357, -0.01072202, 0.03200823, 0, 0, 0.3709369, 0.304, 1.005, 1.208, 96994, 97082808, 97046
 97086038, 45.18372, 189.3352, 516.4357, -0.01072202, 0.03200823, 0, 0, 0.3709369, 0.304, 1.005, 1.208, 96994, 97085319, 97046
 97088292, 45.18372, 189.3352, 516.4357, -0.01072202, 0.03200823, 0, 0, 0.3709369, 0.304, 1.005, 1.208, 96994, 97087803, 97046
 97090785, 45.18372, 189.3352, 516.4357, -0.01072202, 0.03200823, 0, 0, 0.3709369, 0.304, 1.005, 1.208, 96994, 97090309, 97046
 97093287, 45.18372, 189.3352, 516.4357, -0.01072202, 0.03200823, 0, 0, 0.3709369, 0.304, 1.005, 1.208, 96994, 97092803, 97046
 97096051, 45.18372, 189.3352, 516.4357, -0.01072202, 0.03200823, 0, 0, 0.3709369, 0.304, 1.005, 1.208, 96994, 97095303, 97046
 97098351, 45.18372, 189.3352, 516.4357, -0.01072202, 0.03200823, 0, 0, 0.3709369, 0.304, 1.005, 1.208, 96994, 97097808, 97046
 97100804, 45.18372, 189.3352, 516.4357, -0.01072202, 0.03200823, 0, 0, 0.3709369, 0.304, 1.005, 1.208, 96994, 97100303, 97046
 97103295, 45.18372, 189.3352, 516.4357, -0.01069179, 0.03196861, 0, 0, 0.3709369, 0.304, 1.005, 1.208, 96994, 97102804, 97100
 97106105, 45.18372, 189.3352, 516.4357, -0.01069179, 0.03196861, 0, 0, 0.3709369, 0.304, 1.005, 1.208, 96994, 97105303, 97100
 97108284, 45.18372, 189.3352, 516.4357, -0.01069179, 0.03196861, 0, 0, 0.3709369, 0.304, 1.005, 1.208, 96994, 97107803, 97100
 97110808, 45.18372, 189.3352, 516.4357, -0.01069179, 0.03196861, 0, 0, 0.3709369, 0.304, 1.005, 1.208, 96994, 97110304, 97100
 97113294, 45.18372, 189.3352, 516.4357, -0.01069179, 0.03196861, 0, 0, 0.3709369, 0.304, 1.005, 1.208, 96994, 97112834, 97100
 97116230, 45.18372, 189.3352, 516.4357, -0.01069179, 0.03196861, 0, 0, 0.3709369, 0.304, 1.005, 1.208, 96994, 97115310, 97100
 97118294, 45.18372, 189.3352, 516.4357, -0.01069179, 0.03196861, 0, 0, 0.3709369, 0.304, 1.005, 1.208, 96994, 97117809, 97100
 97120863, 42.52218, 187.0238, 522.5544, -0.01069179, 0.03196861, 0, 0, 0.3709369, 0.304, 1.005, 1.208, 96994, 97120309, 97100
 97123317, 42.52218, 187.0238, 522.5544, -0.01069179, 0.03196861, 0, 0, 0.3709369, 0.304, 1.005, 1.208, 96994, 97122804, 97100
 97126552, 42.52218, 187.0238, 522.5544, -0.01069179, 0.03196861, 0, 0, 0.3709369, 0.304, 1.005, 1.208, 96994, 97125304, 97100
 97128297, 42.52218, 187.0238, 522.5544, -0.01069179, 0.03196861, 0, 0, 0.3709369, 0.304, 1.005, 1.208, 96994, 97127804, 97100
 97132362, 42.52218, 187.0238, 522.5544, -0.01069179, 0.03196861, 0, 0, 0.3709369, 0.304, 1.005, 1.208, 96994, 97131850, 97100
 97134889, 42.52218, 187.0238, 522.5544, -0.01069179, 0.03196861, 0, 0, 0.3709369, 0.304, 1.005, 1.208, 96994, 97134359, 97100
 97137663, 42.52218, 187.0238, 522.5544, -0.01069179, 0.03196861, 0, 0, 0.3709369, 0.304, 1.005, 1.208, 96994, 97136865, 97100
 97139881, 42.52218, 187.0238, 522.5544, -0.01069179, 0.03196861, 0, 0, 0.3709369, 0.304, 1.005, 1.208, 96994, 97139369, 97100
 97143371, 42.52218, 187.0238, 522.5544, -0.01069179, 0.03196861, 0, 0, 0.3709369, 0.304, 1.005, 1.208, 96994, 97142874, 97100
 97145905, 42.52218, 187.0238, 522.5544, -0.01069179, 0.03196861, 0, 0, 0.3709369, 0.304, 1.005, 1.208, 96994, 97145380, 97100
 97148657, 42.52218, 187.0238, 522.5544, -0.01069179, 0.03196861, 0, 0, 0.3709369, 0.304, 1.005, 1.208, 96994, 97147882, 97100
 97152608, 42.52218, 187.0238, 522.5544, -0.01069179, 0.03196861, 0, 0, 0.3709369, 0.304, 1.005, 1.208, 96994, 97152072, 97100
 97156061, 42.52218, 187.0238, 522.5544, -0.01069179, 0.03196861, 0, 0, 0.3709369, 0.304, 1.005, 1.208, 96994, 97155639, 97100
 97158712, 42.52218, 187.0238, 522.5544, -0.01069179, 0.03196861, 0, 0, 0.3709369, 0.304, 1.005, 1.208, 96994, 97158153, 97100
 97161481, 42.52218, 187.0238, 522.5544, -0.01069179, 0.03196861, 0, 0, 0.3709369, 0.304, 1.005, 1.208, 96994, 97160648, 97100
 97164604, 42.52218, 187.0238, 522.5544, -0.01052347, 0.03211528, 0, 0, 0.3709369, 0.304, 1.005, 1.208, 96994, 97163999, 97161
 97166904, 42.52218, 187.0238, 522.5544, -0.01052347, 0.03211528, 0, 0, 0.3709369, 0.304, 1.005, 1.208, 96994, 97166508, 97161
 97169581, 42.52218, 187.0238, 522.5544, -0.01052347, 0.03211528, 0, 0, 0.3709369, 0.304, 1.005, 1.208, 96994, 97169009, 97161
 97172269, 42.52218, 187.0238, 522.5544, -0.01052347, 0.03211528, 0, 0, 0.3709369, 0.304, 1.005, 1.208, 96994, 97171509, 97161
 97174570, 42.52218, 187.0238, 522.5544, -0.01052347, 0.03211528, 0, 0, 0.3709369, 0.304, 1.005, 1.208, 96994, 97174008, 97161
 97176948, 42.52218, 187.0238, 522.5544, -0.01052347, 0.03211528, 0, 0, 0.3709369, 0.304, 1.005, 1.208, 96994, 97176515, 97161
 97179566, 42.52218, 187.0238, 522.5544, -0.01052347, 0.03211528, 0, 0, 0.3709369, 0.304, 1.005, 1.208, 96994, 97179008, 97161
 97182256, 42.52218, 187.0238, 522.5544, -0.01052347, 0.03211528, 0, 0, 0.3709369, 0.304, 1.005, 1.208, 96994, 97181508, 97161
 97184617, 42.52218, 187.0238, 522.5544, -0.01052347, 0.03211528, 0, 0, 0.3709369, 0.304, 1.005, 1.208, 96994, 97184010, 97161
 97186941, 42.52218, 187.0238, 522.5544, -0.01052347, 0.03211528, 0, 0, 0.3709369, 0.304, 1.005, 1.208, 96994, 97186508, 97161
 97189588, 42.52218, 187.0238, 522.5544, -0.01052347, 0.03211528, 0, 0, 0.3709369, 0.304, 1.005, 1.208, 96994, 97189009, 97161
 97192214, 42.52218, 187.0238, 522.5544, -0.01052347, 0.03211528, 0, 0, 0.3709369, 0.304, 1.005, 1.208, 96994, 97191510, 97161
 97194603, 42.52218, 187.0238, 522.5544, -0.01052347, 0.03211528, 0, 0, 0.3709369, 0.304, 1.005, 1.208, 96994, 97194014, 97161
 97196941, 42.52218, 187.0238, 522.5544, -0.01052347, 0.03211528, 0, 0, 0.3709369, 0.304, 1.005, 1.208, 96994, 97196521, 97161
 97199582, 42.52218, 187.0238, 522.5544, -0.01052347, 0.03211528, 0, 0, 0.3709369, 0.304, 1.005, 1.208, 96994, 97199014, 97161
 97202259, 42.52218, 187.0238, 522.5544, -0.01052347, 0.03211528, 0, 0, 0.3709369, 0.304, 1.005, 1.208, 96994, 97201508, 97161
 97204563, 42.52218, 187.0238, 522.5544, -0.01052347, 0.03211528, 0, 0, 0.3709369, 0.304, 1.005, 1.208, 96994, 97204021, 97161
 97206931, 42.52218, 187.0238, 522.5544, -0.01052347, 0.03211528, 0, 0, 0.3709369, 0.304, 1.005, 1.208, 96994, 97206508, 97161
 97209615, 42.52218, 187.0238, 522.5544, -0.01052347, 0.03211528, 0, 0, 0.3709369, 0.304, 1.005, 1.208, 96994, 97209015, 97161
 97212320, 42.52218, 187.0238, 522.5544, -0.01052347, 0.03211528, 0, 0, 0.3709369, 0.304, 1.005, 1.208, 96994, 97211511, 97161
 97214573, 42.52218, 187.0238, 522.5544, -0.01065786, 0.03184652, 0, 0, 0.3709369, 0.304, 1.005, 1.208, 96994, 97214008, 97212
 97216913, 42.52218, 187.0238, 522.5544, -0.01065786, 0.03184652, 0, 0, 0.3709369, 0.304, 1.005, 1.208, 96994, 97216514, 97212
 97219595, 42.52218, 187.0238, 522.5544, -0.01065786, 0.03184652, 0, 0, 0.3709369, 0.304, 1.005, 1.208, 96994, 97219008, 97212
 97222451, 42.52218, 187.0238, 522.5544, -0.01065786, 0.03184652, 0, 0, 0.3709369, 0.304, 1.005, 1.208, 96994, 97221513, 97212
 97224570, 42.52218, 187.0238, 522.5544, -0.01065786, 0.03184652, 0, 0, 0.3709369, 0.304, 1.005, 1.208, 96994, 97224009, 97212
 97226957, 46.00507, 188.9585, 517.2852, -0.01065786, 0.03184652, 0, 0, 0.3709369, 0.305, 1.006, 1.207, 97194, 97226514, 97212
 97229547, 46.00507, 188.9585, 517.2852, -0.01065786, 0.03184652, 0, 0, 0.3709369, 0.305, 1.006, 1.207, 97194, 97229008, 97212
 97232516, 46.00507, 188.9585, 517.2852, -0.01065786, 0.03184652, 0, 0, 0.3709369, 0.305, 1.006, 1.207, 97194, 97231510, 97212
 97234568, 46.00507, 188.9585, 517.2852, -0.01065786, 0.03184652, 0, 0, 0.3709369, 0.305, 1.006, 1.207, 97194, 97234029, 97212
 97236992, 46.00507, 188.9585, 517.2852, -0.01065786, 0.03184652, 0, 0, 0.3709369, 0.305, 1.006, 1.207, 97194, 97236535, 97212
 97239618, 46.00507, 188.9585, 517.2852, -0.01065786, 0.03184652, 0, 0, 0.3709369, 0.305, 1.006, 1.207, 97194, 97239012, 97212
 97242221, 46.00507, 188.9585, 517.2852, -0.01065786, 0.03184652, 0, 0, 0.3709369, 0.305, 1.006, 1.207, 97194, 97241508, 97212
 97244603, 46.00507, 188.9585, 517.2852, -0.01065786, 0.03184652, 0, 0, 0.3709369, 0.305, 1.006, 1.207, 97194, 97244009, 97212
 97246895, 46.00507, 188.9585, 517.2852, -0.01065786, 0.03184652, 0, 0, 0.3709369, 0.305, 1.006, 1.207, 97194, 97246508, 97212
 97249612, 46.00507, 188.9585, 517.2852, -0.01065786, 0.03184652, 0, 0, 0.3709369, 0.305, 1.006, 1.207, 97194, 97249008, 97212
 97252270, 46.00507, 188.9585, 517.2852, -0.01065786, 0.03184652, 0, 0, 0.3709369, 0.305, 1.006, 1.207, 97194, 97251510, 97212
 97254589, 46.00507, 188.9585, 517.2852, -0.01065786, 0.03184652, 0, 0, 0.3709369, 0.305, 1.006, 1.207, 97194, 97254008, 97212
 97256963, 46.00507, 188.9585, 517.2852, -0.01065786, 0.03184652, 0, 0, 0.3709369, 0.305, 1.006, 1.207, 97194, 97256518, 97212
 97259573, 46.00507, 188.9585, 517.2852, -0.01065786, 0.03184652, 0, 0, 0.3709369, 0.305, 1.006, 1.207, 97194, 97259013, 97212
 97262263, 46.00507, 188.9585, 517.2852, -0.01065786, 0.03184652, 0, 0, 0.3709369, 0.305, 1.006, 1.207, 97194, 97261508, 97212
 97264588, 46.00507, 188.9585, 517.2852, -0.01065786, 0.03184652, 0, 0, 0.3709369, 0.305, 1.006, 1.207, 97194, 97264009, 97212
 97266889, 46.00507, 188.9585, 517.2852, -0.01065786, 0.03184652, 0, 0, 0.3709369, 0.305, 1.006, 1.207, 97194, 97266508, 97212
 97269617, 46.00507, 188.9585, 517.2852, -0.01094395, 0.03219811, 0, 0, 0.3709369, 0.305, 1.006, 1.207, 97194, 97269009, 97266
 97272246, 46.00507, 188.9585, 517.2852, -0.01094395, 0.03219811, 0, 0, 0.3709369, 0.305, 1.006, 1.207, 97194, 97271510, 97266
 97274582, 46.00507, 188.9585, 517.2852, -0.01094395, 0.03219811, 0, 0, 0.3709369, 0.305, 1.006, 1.207, 97194, 97274008, 97266
 97276969, 46.00507, 188.9585, 517.2852, -0.01094395, 0.03219811, 0, 0, 0.3709369, 0.305, 1.006, 1.207, 97194, 97276513, 97266
 97279564, 46.00507, 188.9585, 517.2852, -0.01094395, 0.03219811, 0, 0, 0.3709369, 0.305, 1.006, 1.207, 97194, 97279008, 97266
 97282236, 46.00507, 188.9585, 517.2852, -0.01094395, 0.03219811, 0, 0, 0.3709369, 0.305, 1.006, 1.207, 97194, 97281510, 97266
 97284559, 46.00507, 188.9585, 517.2852, -0.01094395, 0.03219811, 0, 0, 0.3709369, 0.305, 1.006, 1.207, 97194, 97284008, 97266
 97286936, 46.00507, 188.9585, 517.2852, -0.01094395, 0.03219811, 0, 0, 0.3709369, 0.305, 1.006, 1.207, 97194, 97286520, 97266
 97289606, 46.00507, 188.9585, 517.2852, -0.01094395, 0.03219811, 0, 0, 0.3709369, 0.305, 1.006, 1.207, 97194, 97289008, 97266
 97292497, 46.00507, 188.9585, 517.2852, -0.01094395, 0.03219811, 0, 0, 0.3709369, 0.305, 1.006, 1.207, 97194, 97291509, 97266
 97294590, 46.00507, 188.9585, 517.2852, -0.01094395, 0.03219811, 0, 0, 0.3709369, 0.305, 1.006, 1.207, 97194, 97294008, 97266
 97296962, 46.00507, 188.9585, 517.2852, -0.01094395, 0.03219811, 0, 0, 0.3709369, 0.305, 1.006, 1.207, 97194, 97296513, 97266
 97299611, 46.00507, 188.9585, 517.2852, -0.01094395, 0.03219811, 0, 0, 0.3709369, 0.305, 1.006, 1.207, 97194, 97299009, 97266
 97302250, 46.00507, 188.9585, 517.2852, -0.01094395, 0.03219811, 0, 0, 0.3709369, 0.305, 1.006, 1.207, 97194, 97301508, 97266
 97304548, 46.00507, 188.9585, 517.2852, -0.01094395, 0.03219811, 0, 0, 0.3709369, 0.305, 1.006, 1.207, 97194, 97304009, 97266
 97306952, 46.00507, 188.9585, 517.2852, -0.01094395, 0.03219811, 0, 0, 0.3709369, 0.305, 1.006, 1.207, 97194, 97306509, 97266
 97309572, 46.00507, 188.9585, 517.2852, -0.01094395, 0.03219811, 0, 0, 0.3709369, 0.305, 1.006, 1.207, 97194, 97309010, 97266
 97312337, 46.00507, 188.9585, 517.2852, -0.01094395, 0.03219811, 0, 0, 0.3709369, 0.305, 1.006, 1.207, 97194, 97311509, 97266
 97314570, 46.00507, 188.9585, 517.2852, -0.01094395, 0.03219811, 0, 0, 0.3709369, 0.305, 1.006, 1.207, 97194, 97314008, 97266
 97316926, 46.00507, 188.9585, 517.2852, -0.01094395, 0.03219811, 0, 0, 0.3709369, 0.305, 1.006, 1.207, 97194, 97316519, 97266
 97319601, 46.00507, 188.9585, 517.2852, -0.01094395, 0.03219811, 0, 0, 0.3709369, 0.305, 1.006, 1.207, 97194, 97319009, 97266
 97322595, 46.00507, 188.9585, 517.2852, -0.01094395, 0.03219811, 0, 0, 0.3709369, 0.305, 1.006, 1.207, 97194, 97321510, 97266
 97324583, 46.00507, 188.9585, 517.2852, -0.01069939, 0.03211528, 0, 0, 0.3709369, 0.305, 1.006, 1.207, 97194, 97324010, 97322
 97326939, 42.53003, 187.0087, 522.1143, -0.01069939, 0.03211528, 0, 0, 0.3709369, 0.305, 1.006, 1.207, 97194, 97326508, 97322
 97329551, 42.53003, 187.0087, 522.1143, -0.01069939, 0.03211528, 0, 0, 0.3709369, 0.305, 1.006, 1.207, 97194, 97329008, 97322
 97332695, 42.53003, 187.0087, 522.1143, -0.01069939, 0.03211528, 0, 0, 0.3709369, 0.305, 1.006, 1.207, 97194, 97331509, 97322
 97334573, 42.53003, 187.0087, 522.1143, -0.01069939, 0.03211528, 0, 0, 0.3709369, 0.305, 1.006, 1.207, 97194, 97334009, 97322
 97336900, 42.53003, 187.0087, 522.1143, -0.01069939, 0.03211528, 0, 0, 0.3709369, 0.305, 1.006, 1.207, 97194, 97336513, 97322
 97339611, 42.53003, 187.0087, 522.1143, -0.01069939, 0.03211528, 0, 0, 0.3709369, 0.305, 1.006, 1.207, 97194, 97339027, 97322
 97342385, 42.53003, 187.0087, 522.1143, -0.01069939, 0.03211528, 0, 0, 0.3709369, 0.305, 1.006, 1.207, 97194, 97341508, 97322
 97344622, 42.53003, 187.0087, 522.1143, -0.01069939, 0.03211528, 0, 0, 0.3709369, 0.305, 1.006, 1.207, 97194, 97344008, 97322
 97346905, 42.53003, 187.0087, 522.1143, -0.01069939, 0.03211528, 0, 0, 0.3709369, 0.305, 1.006, 1.207, 97194, 97346515, 97322
 97349608, 42.53003, 187.0087, 522.1143, -0.01069939, 0.03211528, 0, 0, 0.3709369, 0.305, 1.006, 1.207, 97194, 97349008, 97322
 97352284, 42.53003, 187.0087, 522.1143, -0.01069939, 0.03211528, 0, 0, 0.3709369, 0.305, 1.006, 1.207, 97194, 97351517, 97322
 97354559, 42.53003, 187.0087, 522.1143, -0.01069939, 0.03211528, 0, 0, 0.3709369, 0.305, 1.006, 1.207, 97194, 97354008, 97322
 97356926, 42.53003, 187.0087, 522.1143, -0.01069939, 0.03211528, 0, 0, 0.3709369, 0.305, 1.006, 1.207, 97194, 97356514, 97322
 97359592, 42.53003, 187.0087, 522.1143, -0.01069939, 0.03211528, 0, 0, 0.3709369, 0.305, 1.006, 1.207, 97194, 97359008, 97322
 97362252, 42.53003, 187.0087, 522.1143, -0.01069939, 0.03211528, 0, 0, 0.3709369, 0.305, 1.006, 1.207, 97194, 97361514, 97322
 97364577, 42.53003, 187.0087, 522.1143, -0.01069939, 0.03211528, 0, 0, 0.3709369, 0.305, 1.006, 1.207, 97194, 97364009, 97322
 97366928, 42.53003, 187.0087, 522.1143, -0.01069939, 0.03211528, 0, 0, 0.3709369, 0.305, 1.006, 1.207, 97194, 97366508, 97322
 97369598, 42.53003, 187.0087, 522.1143, -0.01069939, 0.03211528, 0, 0, 0.3709369, 0.305, 1.006, 1.207, 97194, 97369008, 97322
 97372269, 42.53003, 187.0087, 522.1143, -0.01069939, 0.03211528, 0, 0, 0.3709369, 0.305, 1.006, 1.207, 97194, 97371510, 97322
 97374575, 42.53003, 187.0087, 522.1143, -0.01069939, 0.03211528, 0, 0, 0.3709369, 0.305, 1.006, 1.207, 97194, 97374021, 97322
 97376930, 42.53003, 187.0087, 522.1143, -0.01069939, 0.03211528, 0, 0, 0.3709369, 0.305, 1.006, 1.207, 97194, 97376513, 97322
 97379579, 42.53003, 187.0087, 522.1143, -0.01077486, 0.03181752, 0, 0, 0.3709369, 0.305, 1.006, 1.207, 97194, 97379008, 97376
 97382264, 42.53003, 187.0087, 522.1143, -0.01077486, 0.03181752, 0, 0, 0.3709369, 0.305, 1.006, 1.207, 97194, 97381521, 97376
 97384585, 42.53003, 187.0087, 522.1143, -0.01077486, 0.03181752, 0, 0, 0.3709369, 0.305, 1.006, 1.207, 97194, 97384016, 97376
 97386909, 42.53003, 187.0087, 522.1143, -0.01077486, 0.03181752, 0, 0, 0.3709369, 0.305, 1.006, 1.207, 97194, 97386509, 97376
 97389645, 42.53003, 187.0087, 522.1143, -0.01077486, 0.03181752, 0, 0, 0.3709369, 0.305, 1.006, 1.207, 97194, 97389008, 97376
 97392149, 42.53003, 187.0087, 522.1143, -0.01077486, 0.03181752, 0, 0, 0.3709369, 0.305, 1.006, 1.207, 97194, 97391509, 97376
 97394615, 42.53003, 187.0087, 522.1143, -0.01077486, 0.03181752, 0, 0, 0.3709369, 0.305, 1.006, 1.207, 97194, 97394012, 97376
 97396972, 42.53003, 187.0087, 522.1143, -0.01077486, 0.03181752, 0, 0, 0.3709369, 0.305, 1.006, 1.207, 97194, 97396513, 97376
 97399558, 42.53003, 187.0087, 522.1143, -0.01077486, 0.03181752, 0, 0, 0.3709369, 0.305, 1.006, 1.207, 97194, 97399008, 97376
 97402268, 42.53003, 187.0087, 522.1143, -0.01077486, 0.03181752, 0, 0, 0.3709369, 0.305, 1.006, 1.207, 97194, 97401508, 97376
 97404552, 42.53003, 187.0087, 522.1143, -0.01077486, 0.03181752, 0, 0, 0.3709369, 0.305, 1.006, 1.207, 97194, 97404009, 97376
 97406962, 42.53003, 187.0087, 522.1143, -0.01077486, 0.03181752, 0, 0, 0.3709369, 0.301, 1.006, 1.207, 97394, 97406517, 97376
 97409556, 42.53003, 187.0087, 522.1143, -0.01077486, 0.03181752, 0, 0, 0.3709369, 0.301, 1.006, 1.207, 97394, 97409008, 97376
 97412539, 42.53003, 187.0087, 522.1143, -0.01077486, 0.03181752, 0, 0, 0.3709369, 0.301, 1.006, 1.207, 97394, 97411509, 97376
 97414587, 42.53003, 187.0087, 522.1143, -0.01077486, 0.03181752, 0, 0, 0.3709369, 0.301, 1.006, 1.207, 97394, 97414009, 97376
 97416900, 42.53003, 187.0087, 522.1143, -0.01077486, 0.03181752, 0, 0, 0.3709369, 0.301, 1.006, 1.207, 97394, 97416513, 97376
 97419607, 42.53003, 187.0087, 522.1143, -0.01077486, 0.03181752, 0, 0, 0.3709369, 0.301, 1.006, 1.207, 97394, 97419013, 97376
 97422496, 42.53003, 187.0087, 522.1143, -0.01077486, 0.03181752, 0, 0, 0.3709369, 0.301, 1.006, 1.207, 97394, 97421508, 97376
 97424560, 42.53003, 187.0087, 522.1143, -0.01077486, 0.03181752, 0, 0, 0.3709369, 0.301, 1.006, 1.207, 97394, 97424009, 97376
 97426925, 46.88252, 189.3231, 515.5241, -0.01077486, 0.03181752, 0, 0, 0.3709369, 0.301, 1.006, 1.207, 97394, 97426508, 97376
 97429561, 46.88252, 189.3231, 515.5241, -0.01077486, 0.03181752, 0, 0, 0.3709369, 0.301, 1.006, 1.207, 97394, 97429008, 97376
 97432296, 46.88252, 189.3231, 515.5241, -0.01077486, 0.03181752, 0, 0, 0.3709369, 0.301, 1.006, 1.207, 97394, 97431510, 97376
 97434598, 46.88252, 189.3231, 515.5241, -0.0107165, 0.03194181, 0, 0, 0.3709369, 0.301, 1.006, 1.207, 97394, 97434008, 97432
 97436909, 46.88252, 189.3231, 515.5241, -0.0107165, 0.03194181, 0, 0, 0.3709369, 0.301, 1.006, 1.207, 97394, 97436514, 97432
 97439615, 46.88252, 189.3231, 515.5241, -0.0107165, 0.03194181, 0, 0, 0.3709369, 0.301, 1.006, 1.207, 97394, 97439009, 97432
 97442230, 46.88252, 189.3231, 515.5241, -0.0107165, 0.03194181, 0, 0, 0.3709369, 0.301, 1.006, 1.207, 97394, 97441512, 97432
 97444587, 46.88252, 189.3231, 515.5241, -0.0107165, 0.03194181, 0, 0, 0.3709369, 0.301, 1.006, 1.207, 97394, 97444008, 97432
 97446922, 46.88252, 189.3231, 515.5241, -0.0107165, 0.03194181, 0, 0, 0.3709369, 0.301, 1.006, 1.207, 97394, 97446508, 97432
