TimeUS,aF,aR,aD,gyR,gyP,gyY,bAlt,gpLat,gpLng,gpAlt,gpN,gpE,gpD
 96250905, -1.055604, 0.1759363, -9.630986, -3.003035E-05, 0.0007000046, 4.818731E-05, -0.9334375, 389156431, -953179433, -94, 0.022, -0.008, 0.052
 96253776, -1.053508, 0.1760268, -9.626545, 0.0003551085, 0.0006881412, 0.0008132664, -0.9334375, 389156431, -953179433, -94, 0.022, -0.008, 0.052
 96255874, -1.049452, 0.1736237, -9.623106, 0.0001587862, 0.0004704304, 0.0009941004, -0.9334375, 389156431, -953179433, -94, 0.022, -0.008, 0.052
 96258526, -1.046751, 0.1686805, -9.62112, -0.0002661499, 0.0002663652, 0.0006863416, -0.9334375, 389156431, -953179433, -94, 0.022, -0.008, 0.052
 96260889, -1.043815, 0.1614292, -9.61827, -0.000235188, 0.0002914515, 7.43327E-05, -0.9334375, 389156431, -953179433, -94, 0.022, -0.008, 0.052
 96263918, -1.042972, 0.1577263, -9.616651, -0.0007169022, 0.0005666079, -0.0003435042, -0.9334375, 389156431, -953179433, -94, 0.022, -0.008, 0.052
 96265924, -1.042625, 0.1523464, -9.619312, -0.0005195747, 0.0007112805, 1.425663E-05, -0.9334375, 389156431, -953179433, -94, 0.022, -0.008, 0.052
 96268533, -1.043137, 0.1509559, -9.623027, -0.000192897, 0.000691418, 0.0002850649, -0.9334375, 389156431, -953179433, -94, 0.022, -0.008, 0.052
 96270903, -1.042616, 0.155533, -9.627785, -0.0001534858, 0.0003715459, 0.0002520898, -0.9334375, 389156431, -953179433, -94, 0.022, -0.008, 0.052
 96273764, -1.041199, 0.1606264, -9.630566, -0.0002957355, 8.78345E-05, -0.0001811632, -0.9334375, 389156431, -953179433, -94, 0.022, -0.008, 0.052
 96275907, -1.038354, 0.1671026, -9.633767, -0.0003259294, 5.922806E-05, -0.0005534187, -0.9334375, 389156431, -953179433, -94, 0.022, -0.008, 0.052
 96278537, -1.036777, 0.1705469, -9.636007, 2.974712E-05, 0.0001728126, -0.0005734029, -0.9334375, 389156431, -953179433, -94, 0.022, -0.008, 0.052
 96280892, -1.033809, 0.1717779, -9.639194, 0.0002733419, 0.0004508833, -0.0004284485, -0.9334375, 389156431, -953179433, -94, 0.022, -0.008, 0.052
 96283769, -1.033369, 0.1697454, -9.640038, 0.0003294076, 0.0008989341, -0.0001209197, -0.9334375, 389156431, -953179433, -94, 0.022, -0.008, 0.052
 96285906, -1.036049, 0.1639731, -9.63995, 0.0001468013, 0.001228357, 0.0002503519, -0.9334375, 389156431, -953179433, -94, 0.022, -0.008, 0.052
 96288491, -1.038607, 0.1587681, -9.637398, 0.000144894, 0.001379312, 0.0006674926, -0.9334375, 389156431, -953179433, -94, 0.022, -0.008, 0.052
 96290934, -1.040697, 0.1504924, -9.63045, 0.000263474, 0.001015939, 0.0007404854, -0.9334375, 389156431, -953179433, -94, 0.022, -0.008, 0.052
 96293754, -1.043245, 0.1468385, -9.625807, -0.0002242746, 0.000946979, 0.000286341, -0.9334375, 389156431, -953179433, -94, 0.022, -0.008, 0.052
 96295960, -1.049152, 0.1416995, -9.621904, -0.0005599537, 0.001076411, -6.931365E-05, -0.9334375, 389156431, -953179433, -94, 0.022, -0.008, 0.052
 96298533, -1.052697, 0.1385385, -9.621464, -0.0007995775, 0.001350926, -0.0001455478, -0.9334375, 389156431, -953179433, -94, 0.022, -0.008, 0.052
 96300909, -1.055856, 0.1343759, -9.618346, -0.0007467643, 0.001226986, 0.0002575951, -0.9334375, 389156431, -953179433, -94, 0.022, -0.008, 0.052
 96303856, -1.05753, 0.1327214, -9.613369, -0.0006691075, 0.0009074126, 0.0001384755, -0.9334375, 389156431, -953179433, -94, 0.022, -0.008, 0.052
 96305893, -1.054737, 0.1335927, -9.608518, -0.0009239917, 0.0006422143, 9.009523E-05, -0.9334375, 389156431, -953179433, -94, 0.022, -0.008, 0.052
 96308534, -1.050027, 0.1346647, -9.608189, -0.0005393517, 0.0006950214, -0.0001806137, -0.9334375, 389156431, -953179433, -94, 0.022, -0.008, 0.052
 96310899, -1.045053, 0.1367095, -9.609921, -0.0002968102, 0.0008354636, 7.278995E-05, -0.9334375, 389156431, -953179433, -94, 0.022, -0.008, 0.052
 96314039, -1.044068, 0.1404817, -9.610469, 0.0003597817, 0.000365941, -7.87863E-05, -0.9334375, 389156431, -953179433, -94, 0.022, -0.008, 0.052
 96315921, -1.042694, 0.1483138, -9.613082, 0.0004394022, 0.0002312931, -0.0003963965, -0.9334375, 389156431, -953179433, -94, 0.022, -0.008, 0.052
 96318517, -1.042132, 0.1542631, -9.614185, 0.0004463079, 0.0007089101, -0.0002225921, -0.9334375, 389156431, -953179433, -94, 0.022, -0.008, 0.052
 96320911, -1.045152, 0.1626759, -9.61685, 0.000743952, 0.001023057, 0.0002063111, -1.070708, 389156431, -953179433, -94, 0.022, -0.008, 0.052
 96323802, -1.047747, 0.1654816, -9.619454, 0.0001787447, 0.001404661, 0.000942142, -1.070708, 389156431, -953179433, -94, 0.022, -0.008, 0.052
 96325889, -1.052317, 0.1658249, -9.621939, -0.0002910595, 0.001394323, 0.0009893207, -1.070708, 389156431, -953179433, -94, 0.022, -0.008, 0.052
 96328527, -1.054557, 0.1652527, -9.6246, -8.299293E-05, 0.001389085, 0.0009508225, -1.070708, 389156431, -953179433, -94, 0.022, -0.008, 0.052
 96330891, -1.056138, 0.1637552, -9.630207, -0.0001704202, 0.001041954, 0.0007748005, -1.070708, 389156431, -953179433, -94, 0.022, -0.008, 0.052
 96334249, -1.05568, 0.1629991, -9.632544, -0.0005494083, 0.0007946058, -0.0001441041, -1.070708, 389156431, -953179433, -94, 0.022, -0.008, 0.052
 96335923, -1.054575, 0.1620709, -9.63552, -0.0004662569, 0.0008960248, -0.0006590097, -1.070708, 389156431, -953179433, -94, 0.022, -0.008, 0.052
 96338507, -1.051916, 0.1623495, -9.637167, -0.0005492592, 0.000943887, -0.0005843048, -1.070708, 389156431, -953179433, -94, 0.022, -0.008, 0.052
 96340869, -1.046864, 0.1607189, -9.634806, -0.0004519986, 0.0008440729, -0.0002096562, -1.070708, 389156431, -953179433, -94, 0.022, -0.008, 0.052
 96343786, -1.0416, 0.159153, -9.630117, -0.0005284833, 0.0007995004, 0.0004881119, -1.070708, 389156431, -953179433, -94, 0.022, -0.008, 0.052
 96345915, -1.035668, 0.1580117, -9.626172, -0.0008054457, 0.0007547304, 0.0006614568, -1.070708, 389156431, -953179433, -94, 0.022, -0.008, 0.052
 96348560, -1.027205, 0.1579728, -9.626358, -0.0003858649, 0.0003475432, 0.0008526642, -1.070708, 389156431, -953179433, -94, 0.022, -0.008, 0.052
 96350912, -1.022903, 0.157254, -9.630951, 1.490342E-05, 0.0001459919, 0.0008090761, -1.070708, 389156431, -953179433, -94, 0.022, -0.008, 0.052
 96353776, -1.023816, 0.1587682, -9.63555, 0.0001743171, 0.000371249, 0.0002772324, -1.070708, 389156431, -953179433, -94, 0.022, -0.008, 0.052
 96355893, -1.026257, 0.1612903, -9.638277, 0.000338104, 0.0005750937, 0.0003747498, -1.070708, 389156431, -953179433, -94, 0.022, -0.008, 0.052
 96358538, -1.026969, 0.1612717, -9.636784, 0.0004509462, 0.0007281539, 0.0002246103, -1.070708, 389156431, -953179433, -94, 0.022, -0.008, 0.052
 96360926, -1.027135, 0.1621554, -9.631615, 0.0002054866, 0.0005184863, 0.000361642, -1.070708, 389156431, -953179433, -94, 0.022, -0.008, 0.052
 96363772, -1.027038, 0.1621487, -9.627385, 0.000501672, 0.0005326599, 0.0006134723, -1.070708, 389156431, -953179433, -94, 0.022, -0.008, 0.052
 96365904, -1.028387, 0.158971, -9.624352, 0.0002605334, 0.0005805162, 0.0005497388, -1.070708, 389156431, -953179433, -94, 0.022, -0.008, 0.052
 96368532, -1.030437, 0.1563887, -9.625839, -0.0004912335, 0.0007030188, -0.0002928857, -1.070708, 389156431, -953179433, -94, 0.022, -0.008, 0.052
 96370884, -1.033496, 0.1538471, -9.628937, -0.0009277902, 0.0009355048, -0.0007894929, -1.070708, 389156431, -953179433, -94, 0.022, -0.008, 0.052
 96373780, -1.035956, 0.1524102, -9.629418, -0.0009083238, 0.0005318263, -0.001019587, -1.070708, 389156431, -953179433, -94, 0.022, -0.008, 0.052
 96375920, -1.040555, 0.1516701, -9.627812, -0.0005109506, 0.0001424889, -0.0009862954, -1.070708, 389156431, -953179433, -94, 0.022, -0.008, 0.052
 96378489, -1.044107, 0.1522987, -9.627034, -3.595399E-05, -2.208228E-05, -0.0007244018, -1.070708, 389156431, -953179433, -94, 0.022, -0.008, 0.052
 96380950, -1.049263, 0.1539886, -9.625128, 3.902054E-05, 0.0001020062, -0.0004794185, -1.070708, 389156431, -953179433, -94, 0.022, -0.008, 0.052
 96383761, -1.052503, 0.1544345, -9.623793, -0.0002595875, 0.0003720179, 4.373566E-05, -1.070708, 389156431, -953179433, -94, 0.022, -0.008, 0.052
 96385880, -1.055664, 0.1539448, -9.622972, -0.0002653343, 0.0002803814, 0.0004721901, -1.070708, 389156431, -953179433, -94, 0.022, -0.008, 0.052
 96388570, -1.055506, 0.1527163, -9.62263, -0.0006895871, -0.0002822835, 0.001163327, -1.070708, 389156431, -953179433, -94, 0.022, -0.008, 0.052
 96390917, -1.053787, 0.1495745, -9.621399, -0.0007748573, -0.0005488321, 0.001132814, -1.070708, 389156431, -953179433, -94, 0.022, -0.008, 0.052
 96393759, -1.052686, 0.1494504, -9.619617, -0.0006570348, -0.0002431445, 0.0007929279, -1.070708, 389156431, -953179433, -94, 0.022, -0.008, 0.052
 96395908, -1.050217, 0.1498736, -9.617314, -0.001025648, 0.0004029555, 2.066723E-05, -1.070708, 389156431, -953179433, -94, 0.022, -0.008, 0.052
 96398513, -1.049142, 0.1513474, -9.616396, -0.001012343, 0.0006390107, -0.0001497089, -1.070708, 389156431, -953179433, -94, 0.022, -0.008, 0.052
 96400939, -1.046035, 0.1556595, -9.614898, -0.0001826015, 0.0002225169, 0.0001092886, -1.070708, 389156431, -953179433, -94, 0.022, -0.008, 0.052
 96403895, -1.043835, 0.1580487, -9.613667, 0.0004076925, -0.0002179522, 0.0004779958, -1.070708, 389156431, -953179433, -94, 0.022, -0.008, 0.052
 96405903, -1.041794, 0.1622871, -9.610128, 0.0006279601, -0.0003309361, 0.000700185, -1.070708, 389156431, -953179433, -94, 0.022, -0.008, 0.052
 96408515, -1.040649, 0.1653068, -9.609483, 0.0007442345, -0.0002100059, 0.0007356709, -1.070708, 389156431, -953179433, -94, 0.022, -0.008, 0.052
 96410904, -1.04, 0.1664335, -9.61101, 0.000718142, 0.000446841, 0.0004942655, -1.070708, 389156431, -953179433, -94, 0.022, -0.008, 0.052
 96413778, -1.039121, 0.1653456, -9.612874, 0.001071069, 0.0007942978, 0.0005101692, -1.070708, 389156431, -953179433, -94, 0.022, -0.008, 0.052
 96415885, -1.039071, 0.1630869, -9.616262, 0.001653671, 0.000789534, 0.0006025354, -1.070708, 389156431, -953179433, -94, 0.022, -0.008, 0.052
 96418584, -1.038917, 0.1623898, -9.619531, 0.001439063, 0.000671633, 0.0002626831, -1.070708, 389156431, -953179432, -95, -0.012, -0.004, 0.017
 96420908, -1.039616, 0.1616804, -9.62111, 0.0009799504, 0.0005136071, 9.034498E-05, -1.526445, 389156431, -953179432, -95, -0.012, -0.004, 0.017
 96424021, -1.039952, 0.1618214, -9.622026, 0.0006379245, 0.0003864777, -4.491515E-05, -1.526445, 389156431, -953179432, -95, -0.012, -0.004, 0.017
 96425951, -1.042475, 0.1626768, -9.620591, 0.0004011049, -0.0002313917, 0.0001057096, -1.526445, 389156431, -953179432, -95, -0.012, -0.004, 0.017
 96428500, -1.045166, 0.1639816, -9.617134, 0.0002088923, -0.0004360756, 0.0005341342, -1.526445, 389156431, -953179432, -95, -0.012, -0.004, 0.017
 96430863, -1.048655, 0.1658194, -9.610391, 0.0005732044, -0.0002925734, 0.0006902298, -1.526445, 389156431, -953179432, -95, -0.012, -0.004, 0.017
 96433781, -1.049655, 0.1655171, -9.606911, 0.0007519216, -0.0002822406, 0.0004326033, -1.526445, 389156431, -953179432, -95, -0.012, -0.004, 0.017
 96435882, -1.047951, 0.1627886, -9.605331, 0.0007266364, 0.000489904, -0.0001175186, -1.526445, 389156431, -953179432, -95, -0.012, -0.004, 0.017
 96438531, -1.047082, 0.1623866, -9.606149, 0.0005262719, 0.0008192225, -0.0007357792, -1.526445, 389156431, -953179432, -95, -0.012, -0.004, 0.017
 96440899, -1.046573, 0.1625854, -9.610247, 0.000403241, 0.0008564043, -0.001159956, -1.526445, 389156431, -953179432, -95, -0.012, -0.004, 0.017
 96443788, -1.046975, 0.162332, -9.618696, 0.000484886, 0.001221955, -0.0006971658, -1.526445, 389156431, -953179432, -95, -0.012, -0.004, 0.017
 96445906, -1.045113, 0.1634932, -9.624716, 0.0002319562, 0.001654562, -0.0002134474, -1.526445, 389156431, -953179432, -95, -0.012, -0.004, 0.017
 96448533, -1.04375, 0.1640449, -9.62883, -0.0001093313, 0.001705222, -1.830224E-05, -1.526445, 389156431, -953179432, -95, -0.012, -0.004, 0.017
 96450898, -1.041444, 0.1656871, -9.636477, -0.0004129946, 0.001640977, 0.0006200327, -1.526445, 389156431, -953179432, -95, -0.012, -0.004, 0.017
 96453932, -1.040434, 0.1670331, -9.638467, -0.0004880652, 0.001398899, 0.0008225422, -1.526445, 389156431, -953179432, -95, -0.012, -0.004, 0.017
 96455902, -1.040018, 0.1692738, -9.637787, -0.000185894, 0.0008801197, 0.000970597, -1.526445, 389156431, -953179432, -95, -0.012, -0.004, 0.017
 96458528, -1.040389, 0.1722038, -9.635506, 6.551656E-05, 0.0005181191, 0.001058579, -1.526445, 389156431, -953179432, -95, -0.012, -0.004, 0.017
 96460906, -1.040923, 0.17332, -9.635139, 0.0005734531, 0.0003728533, 0.0009055123, -1.526445, 389156431, -953179432, -95, -0.012, -0.004, 0.017
 96463802, -1.041788, 0.1748903, -9.633825, 0.0006284131, 0.000468903, 0.001026728, -1.526445, 389156431, -953179432, -95, -0.012, -0.004, 0.017
 96465902, -1.042283, 0.1735508, -9.631725, 0.0005294154, 0.0005622066, 0.0008991987, -1.526445, 389156431, -953179432, -95, -0.012, -0.004, 0.017
 96468519, -1.042242, 0.1695992, -9.629967, -5.794442E-06, 0.0008433558, 0.0007989709, -1.526445, 389156431, -953179432, -95, -0.012, -0.004, 0.017
 96470934, -1.042326, 0.1624703, -9.627494, -0.001183512, 0.001117523, 0.0008615814, -1.526445, 389156431, -953179432, -95, -0.012, -0.004, 0.017
 96473765, -1.042716, 0.1584395, -9.62682, -0.001582307, 0.001138866, 0.000624731, -1.526445, 389156431, -953179432, -95, -0.012, -0.004, 0.017
 96475933, -1.043196, 0.1568969, -9.625927, -0.002258088, 0.0006307671, 0.0001775201, -1.526445, 389156431, -953179432, -95, -0.012, -0.004, 0.017
 96478494, -1.043775, 0.1570418, -9.624241, -0.001959498, 0.000213014, 0.0002832643, -1.526445, 389156431, -953179432, -95, -0.012, -0.004, 0.017
 96480909, -1.043954, 0.15763, -9.622623, -0.0006466642, -0.0001523747, 0.0006669718, -1.526445, 389156431, -953179432, -95, -0.012, -0.004, 0.017
 96483836, -1.044273, 0.1602308, -9.624023, -0.0005291917, -0.0002682161, 0.0006034944, -1.526445, 389156431, -953179432, -95, -0.012, -0.004, 0.017
 96485901, -1.043269, 0.1633462, -9.628665, -0.0008341704, -0.0002229176, 0.0004318783, -1.526445, 389156431, -953179432, -95, -0.012, -0.004, 0.017
 96488519, -1.041803, 0.1650364, -9.631872, -0.001079027, 0.0001499987, 0.0003135898, -1.526445, 389156431, -953179432, -95, -0.012, -0.004, 0.017
 96490895, -1.040905, 0.1658652, -9.634287, -0.0009584803, 0.0008624792, 0.0003789142, -1.526445, 389156431, -953179432, -95, -0.012, -0.004, 0.017
 96493926, -1.040457, 0.1671015, -9.633559, -0.001060104, 0.001172528, 6.466566E-05, -1.526445, 389156431, -953179432, -95, -0.012, -0.004, 0.017
 96495902, -1.039829, 0.1670167, -9.629414, -0.0009999168, 0.001157477, -0.0004760807, -1.526445, 389156431, -953179432, -95, -0.012, -0.004, 0.017
 96498525, -1.038998, 0.1663864, -9.625053, -0.0007158266, 0.001022552, -0.0007724118, -1.526445, 389156431, -953179432, -95, -0.012, -0.004, 0.017
 96500906, -1.035198, 0.1664778, -9.619528, -0.0004972165, 0.0009392927, -0.0008153581, -1.526445, 389156431, -953179432, -95, -0.012, -0.004, 0.017
 96503848, -1.034025, 0.1683097, -9.617532, -6.127065E-05, 0.001204074, -0.000597017, -1.526445, 389156431, -953179432, -95, -0.012, -0.004, 0.017
 96505962, -1.033209, 0.1706361, -9.616417, 0.0005763408, 0.001340091, -1.698926E-05, -1.526445, 389156431, -953179432, -95, -0.012, -0.004, 0.017
 96508516, -1.033447, 0.170772, -9.617095, 0.0004008492, 0.001187144, 0.0003174806, -1.526445, 389156431, -953179432, -95, -0.012, -0.004, 0.017
 96510897, -1.034278, 0.1692568, -9.621719, -6.851261E-05, 0.0009594588, 0.0008450441, -1.526445, 389156431, -953179432, -95, -0.012, -0.004, 0.017
 96513887, -1.034912, 0.1677882, -9.626914, -0.0004446976, 0.001048869, 0.0008740614, -1.526445, 389156431, -953179432, -95, -0.012, -0.004, 0.017
 96515943, -1.033446, 0.1673869, -9.632588, -0.0007788417, 0.0009214242, 0.0005873216, -1.526445, 389156431, -953179432, -95, -0.012, -0.004, 0.017
 96518534, -1.02999, 0.1688011, -9.639581, -0.0009871363, 0.0006991519, 0.0002872724, -1.526445, 389156431, -953179432, -95, -0.012, -0.004, 0.017
 96520889, -1.027811, 0.1716632, -9.643674, -0.0009038842, 0.0007890837, 1.225798E-05, -1.389175, 389156431, -953179432, -95, -0.012, -0.004, 0.017
 96524117, -1.027377, 0.1726479, -9.645847, -0.0006900362, 0.0007568754, 3.528601E-05, -1.389175, 389156431, -953179432, -95, -0.012, -0.004, 0.017
 96525897, -1.029177, 0.1726238, -9.64888, -0.0003181924, 0.0002229763, -4.685427E-05, -1.389175, 389156431, -953179432, -95, -0.012, -0.004, 0.017
 96528514, -1.03485, 0.169763, -9.651464, 7.157627E-05, 9.227503E-05, 6.955839E-06, -1.389175, 389156431, -953179432, -95, -0.012, -0.004, 0.017
 96530912, -1.039723, 0.1686583, -9.649586, 0.0001350918, 0.0003097827, 0.000621453, -1.389175, 389156431, -953179432, -95, -0.012, -0.004, 0.017
 96533750, -1.042208, 0.1700856, -9.645539, 0.0001295137, 0.000579377, 0.0007504921, -1.389175, 389156431, -953179432, -95, -0.012, -0.004, 0.017
 96535895, -1.045125, 0.1704818, -9.638787, 0.0004845384, 0.001286766, 0.0008830994, -1.389175, 389156431, -953179432, -95, -0.012, -0.004, 0.017
 96538569, -1.04677, 0.16818, -9.635225, 0.001256835, 0.001119422, 0.001080767, -1.389175, 389156431, -953179432, -95, -0.012, -0.004, 0.017
 96540887, -1.047489, 0.1665841, -9.632443, 0.001321816, 0.0005926235, 0.001117401, -1.389175, 389156431, -953179432, -95, -0.012, -0.004, 0.017
 96543751, -1.047328, 0.1668138, -9.633131, 0.0006833343, -6.462631E-05, 0.001009794, -1.389175, 389156431, -953179432, -95, -0.012, -0.004, 0.017
 96546344, -1.046523, 0.1652713, -9.636194, 7.599712E-05, -0.0006103113, 0.0002787656, -1.389175, 389156431, -953179432, -95, -0.012, -0.004, 0.017
 96549356, -1.043815, 0.1619801, -9.63801, -0.0002642507, -0.0007336833, -0.0002253974, -1.389175, 389156431, -953179432, -95, -0.012, -0.004, 0.017
 96552787, -1.040663, 0.1608997, -9.633741, -0.000309423, -0.0006474173, -0.0002242947, -1.389175, 389156431, -953179432, -95, -0.012, -0.004, 0.017
 96555368, -1.039999, 0.1609512, -9.630501, 1.617938E-05, -0.0003271537, 0.0001775727, -1.389175, 389156431, -953179432, -95, -0.012, -0.004, 0.017
 96557744, -1.042111, 0.1603935, -9.627716, 0.000180163, 7.221399E-06, 0.0003723731, -1.389175, 389156431, -953179432, -95, -0.012, -0.004, 0.017
 96560085, -1.046432, 0.1604246, -9.622171, -5.743302E-05, 9.864671E-05, 0.0006810106, -1.389175, 389156431, -953179432, -95, -0.012, -0.004, 0.017
 96562699, -1.048392, 0.1620913, -9.619725, 0.0001971783, -8.121173E-06, 0.000712311, -1.389175, 389156431, -953179432, -95, -0.012, -0.004, 0.017
 96565366, -1.049681, 0.1657688, -9.613429, 0.0007582437, -0.0001715522, 0.0004917675, -1.389175, 389156431, -953179432, -95, -0.012, -0.004, 0.017
 96567736, -1.050968, 0.1682093, -9.607576, 0.0007096748, -0.0003503978, 0.0002080168, -1.389175, 389156431, -953179432, -95, -0.012, -0.004, 0.017
 96570032, -1.051016, 0.1717087, -9.603135, 0.0009993854, -0.0002730377, -0.0004135389, -1.389175, 389156431, -953179432, -95, -0.012, -0.004, 0.017
 96572813, -1.049758, 0.171974, -9.603955, 0.001023576, -0.0004815079, -0.0005405121, -1.389175, 389156431, -953179432, -95, -0.012, -0.004, 0.017
 96575331, -1.048356, 0.1705577, -9.607064, 0.0004338166, -0.00035016, -9.537946E-05, -1.389175, 389156431, -953179432, -95, -0.012, -0.004, 0.017
 96577717, -1.04773, 0.1683901, -9.608923, 0.0001841084, 0.0002209763, 8.505456E-05, -1.389175, 389156431, -953179432, -95, -0.012, -0.004, 0.017
 96580072, -1.046345, 0.1657404, -9.609802, 0.0005569129, 0.001159048, 0.0005745382, -1.389175, 389156431, -953179432, -95, -0.012, -0.004, 0.017
 96582820, -1.045564, 0.163575, -9.611156, 0.0007827342, 0.001621123, 0.0008112177, -1.389175, 389156431, -953179432, -95, -0.012, -0.004, 0.017
 96585444, -1.044272, 0.1625768, -9.614023, 0.00146685, 0.001750259, 0.0006652881, -1.389175, 389156431, -953179432, -95, -0.012, -0.004, 0.017
 96587691, -1.043856, 0.1632193, -9.61643, 0.001905496, 0.00175106, 0.0003638685, -1.389175, 389156431, -953179432, -95, -0.012, -0.004, 0.017
 96590026, -1.04326, 0.1632615, -9.621953, 0.001273518, 0.00166755, 0.0007842897, -1.389175, 389156431, -953179432, -95, -0.012, -0.004, 0.017
 96592715, -1.042189, 0.1631574, -9.628492, 0.000650891, 0.001708105, 0.001243424, -1.389175, 389156431, -953179432, -95, -0.012, -0.004, 0.017
 96595333, -1.039148, 0.1629972, -9.637581, -6.576889E-05, 0.001568912, 0.001217059, -1.389175, 389156431, -953179432, -95, -0.012, -0.004, 0.017
 96597717, -1.03733, 0.1629263, -9.640406, -0.0002666439, 0.001511434, 0.0009473902, -1.389175, 389156431, -953179432, -95, -0.012, -0.004, 0.017
 96600022, -1.035975, 0.1593633, -9.642319, -0.0006313349, 0.0009332541, 0.0001989958, -1.389175, 389156431, -953179432, -95, -0.012, -0.004, 0.017
 96602718, -1.037519, 0.1549573, -9.641605, -0.0009451011, 0.0007047789, -0.0001918126, -1.389175, 389156431, -953179432, -95, -0.012, -0.004, 0.017
 96605698, -1.044135, 0.1498441, -9.634944, -0.0008708674, 0.0001237986, -0.0002822051, -1.389175, 389156431, -953179432, -95, -0.012, -0.004, 0.017
 96607710, -1.05042, 0.1480594, -9.62975, -0.000680759, -3.849609E-06, -0.0005909326, -1.389175, 389156431, -953179432, -95, -0.012, -0.004, 0.017
 96610073, -1.058, 0.1451123, -9.624043, -0.0003902844, -0.0005159858, -0.000619001, -1.389175, 389156431, -953179432, -95, -0.012, -0.004, 0.017
 96612699, -1.060812, 0.1445955, -9.62077, -0.0002660236, -0.000476498, -0.0003561418, -1.389175, 389156431, -953179432, -95, -0.012, -0.004, 0.017
 96615579, -1.06093, 0.1473553, -9.614721, -4.633414E-05, 0.0003111322, 1.555104E-05, -1.389175, 389156431, -953179432, -95, -0.012, -0.004, 0.017
 96617723, -1.057428, 0.1485995, -9.608588, 7.10752E-05, 0.0007498664, 0.0005088, -1.389175, 389156431, -953179432, -95, -0.012, -0.004, 0.017
 96620068, -1.049347, 0.1484331, -9.60358, 0.0001712196, 0.001534616, 0.001805997, -1.389175, 389156432, -953179432, -96, 0.027, 0.07, 0.064
 96622727, -1.045333, 0.1477531, -9.604034, 0.0004746131, 0.001716409, 0.001789987, -0.5984982, 389156432, -953179432, -96, 0.027, 0.07, 0.064
 96625365, -1.041121, 0.1489135, -9.604506, 0.0006354236, 0.001792748, 0.001208997, -0.5984982, 389156432, -953179432, -96, 0.027, 0.07, 0.064
 96627772, -1.038815, 0.1496162, -9.603065, 0.0002641229, 0.001820644, 0.0007880908, -0.5984982, 389156432, -953179432, -96, 0.027, 0.07, 0.064
 96630043, -1.037013, 0.1499628, -9.603209, -0.0002911559, 0.001217356, 6.660206E-05, -0.5984982, 389156432, -953179432, -96, 0.027, 0.07, 0.064
 96632704, -1.035988, 0.1503695, -9.606164, -0.000504936, 0.0007182749, -0.0003863373, -0.5984982, 389156432, -953179432, -96, 0.027, 0.07, 0.064
 96635344, -1.035658, 0.1509258, -9.613276, -0.0008160428, 0.0005255797, 1.558331E-05, -0.5984982, 389156432, -953179432, -96, 0.027, 0.07, 0.064
 96637697, -1.036163, 0.1503089, -9.616365, -0.001148289, 0.0007513924, 0.0001094323, -0.5984982, 389156432, -953179432, -96, 0.027, 0.07, 0.064
 96640015, -1.035922, 0.1493897, -9.617686, -0.001142142, 0.0003961858, -0.0005767546, -0.5984982, 389156432, -953179432, -96, 0.027, 0.07, 0.064
 96642709, -1.035444, 0.1483126, -9.616586, -0.000827937, 8.903648E-05, -0.0007157773, -0.5984982, 389156432, -953179432, -96, 0.027, 0.07, 0.064
 96645344, -1.035968, 0.1466174, -9.614817, -0.0005943439, 0.0003718003, -0.0001994849, -0.5984982, 389156432, -953179432, -96, 0.027, 0.07, 0.064
 96647733, -1.036386, 0.1455405, -9.614758, -0.0001741552, 0.001052782, 0.0001275187, -0.5984982, 389156432, -953179432, -96, 0.027, 0.07, 0.064
 96650048, -1.038042, 0.1431994, -9.612925, 0.0006373271, 0.001830483, -3.79235E-05, -0.5984982, 389156432, -953179432, -96, 0.027, 0.07, 0.064
 96652848, -1.039803, 0.1424695, -9.613485, 0.0006150783, 0.001872086, 7.906868E-05, -0.5984982, 389156432, -953179432, -96, 0.027, 0.07, 0.064
 96655429, -1.041693, 0.1406995, -9.617714, 0.0003666232, 0.001259642, -0.0001199022, -0.5984982, 389156432, -953179432, -96, 0.027, 0.07, 0.064
 96657704, -1.041353, 0.1383556, -9.620032, 0.0003628535, 0.0008171631, -0.0001908713, -0.5984982, 389156432, -953179432, -96, 0.027, 0.07, 0.064
 96660053, -1.039666, 0.1364509, -9.619107, 0.0002445034, 0.0006325597, 0.0002877913, -0.5984982, 389156432, -953179432, -96, 0.027, 0.07, 0.064
 96662734, -1.03842, 0.1354946, -9.616894, 0.0001033073, 0.0006102356, 0.0002313635, -0.5984982, 389156432, -953179432, -96, 0.027, 0.07, 0.064
 96665462, -1.035977, 0.1346682, -9.613286, -8.1353E-05, 0.0007224925, 0.0006551315, -0.5984982, 389156432, -953179432, -96, 0.027, 0.07, 0.064
 96667724, -1.034405, 0.1354676, -9.613347, -8.302862E-05, 0.0005300213, 0.001086251, -0.5984982, 389156432, -953179432, -96, 0.027, 0.07, 0.064
 96670051, -1.034469, 0.1398326, -9.616299, 0.0005828884, 0.0005579256, 0.001332341, -0.5984982, 389156432, -953179432, -96, 0.027, 0.07, 0.064
 96672789, -1.036852, 0.1427117, -9.616151, 0.0007301394, 0.0005871331, 0.001509261, -0.5984982, 389156432, -953179432, -96, 0.027, 0.07, 0.064
 96675340, -1.040996, 0.1470754, -9.611802, -0.0004053442, 0.0005901299, 0.001400418, -0.5984982, 389156432, -953179432, -96, 0.027, 0.07, 0.064
 96677723, -1.043205, 0.1503994, -9.610098, -0.00126319, 0.0007933208, 0.0008541128, -0.5984982, 389156432, -953179432, -96, 0.027, 0.07, 0.064
 96680028, -1.045149, 0.1541234, -9.613002, -0.000967851, 0.001086891, 0.0003125094, -0.5984982, 389156432, -953179432, -96, 0.027, 0.07, 0.064
 96682721, -1.045912, 0.154721, -9.616065, -0.0005959008, 0.0006782694, 0.0002089893, -0.5984982, 389156432, -953179432, -96, 0.027, 0.07, 0.064
 96685581, -1.044805, 0.1557955, -9.618338, -0.0003129168, -0.0003586755, -0.0003480234, -0.5984982, 389156432, -953179432, -96, 0.027, 0.07, 0.064
 96688290, -1.042368, 0.1569281, -9.620318, -0.000548007, -0.0006558226, -0.0004448144, -0.5984982, 389156432, -953179432, -96, 0.027, 0.07, 0.064
 96690777, -1.040162, 0.1576846, -9.622157, -0.001154482, -0.0003433329, -0.0003103162, -0.5984982, 389156432, -953179432, -96, 0.027, 0.07, 0.064
 96693335, -1.03778, 0.1585843, -9.623688, -0.00137784, 0.0006476803, -0.0001372071, -0.5984982, 389156432, -953179432, -96, 0.027, 0.07, 0.064
 96696004, -1.039178, 0.1584885, -9.624323, -0.001066831, 0.001021145, 0.0002069636, -0.5984982, 389156432, -953179432, -96, 0.027, 0.07, 0.064
 96698310, -1.045221, 0.1578933, -9.627748, -0.0008241415, 0.0007982663, 0.0001557885, -0.5984982, 389156432, -953179432, -96, 0.027, 0.07, 0.064
 96700773, -1.049719, 0.1551621, -9.628841, -0.0008542582, 0.0006557506, 7.340933E-05, -0.5984982, 389156432, -953179432, -96, 0.027, 0.07, 0.064
 96703309, -1.053597, 0.1521582, -9.627781, -0.0008632918, 0.0005931599, 0.0001846209, -0.5984982, 389156432, -953179432, -96, 0.027, 0.07, 0.064
 96706203, -1.054522, 0.1529243, -9.626848, -0.0006212895, 0.0005169296, 0.0003495473, -0.5984982, 389156432, -953179432, -96, 0.027, 0.07, 0.064
 96708303, -1.055968, 0.1550721, -9.624523, -0.0002345128, -1.976957E-05, 0.0002887828, -0.5984982, 389156432, -953179432, -96, 0.027, 0.07, 0.064
 96710793, -1.056585, 0.1568595, -9.625375, -5.361292E-05, -0.0001551034, 0.000470804, -0.5984982, 389156432, -953179432, -96, 0.027, 0.07, 0.064
 96713329, -1.055613, 0.1602837, -9.625761, -8.020337E-06, 0.0001186641, 0.0002794031, -0.5984982, 389156432, -953179432, -96, 0.027, 0.07, 0.064
 96716460, -1.053504, 0.162597, -9.6234, -0.0002962294, 0.0002179471, -0.000181791, -0.5984982, 389156432, -953179432, -96, 0.027, 0.07, 0.064
 96718303, -1.047304, 0.1653513, -9.618886, -0.001423881, 0.0006933017, -0.0005124103, -0.5984982, 389156432, -953179432, -96, 0.027, 0.07, 0.064
 96720794, -1.043362, 0.1659722, -9.615616, -0.002036224, 0.00106467, -0.0006486654, -0.5984982, 389156432, -953179432, -96, 0.027, 0.07, 0.064
 96723321, -1.036452, 0.1654774, -9.611524, -0.001663753, 0.001022567, -3.883188E-05, -0.8455846, 389156432, -953179432, -96, 0.027, 0.07, 0.064
 96726572, -1.031607, 0.1654645, -9.612123, -0.0009237797, 0.000925422, 5.202182E-05, -0.8455846, 389156432, -953179432, -96, 0.027, 0.07, 0.064
 96728296, -1.026808, 0.1664884, -9.615224, 3.287973E-06, 0.0005795083, 0.000118673, -0.8455846, 389156432, -953179432, -96, 0.027, 0.07, 0.064
 96730800, -1.026236, 0.1679662, -9.616933, 0.0002686597, 0.0007602997, 0.0002359263, -0.8455846, 389156432, -953179432, -96, 0.027, 0.07, 0.064
 96733267, -1.029279, 0.1689112, -9.620237, 0.0009471074, 0.0009633569, 0.0006682553, -0.8455846, 389156432, -953179432, -96, 0.027, 0.07, 0.064
 96736068, -1.032297, 0.1684638, -9.622765, 0.001106802, 0.001021974, 0.0006142154, -0.8455846, 389156432, -953179432, -96, 0.027, 0.07, 0.064
 96738326, -1.036917, 0.1658179, -9.625864, 0.0008977168, 0.0012617, 0.000552121, -0.8455846, 389156432, -953179432, -96, 0.027, 0.07, 0.064
 96740818, -1.041291, 0.1639772, -9.629305, 0.0005328883, 0.001444245, 0.0003422742, -0.8455846, 389156432, -953179432, -96, 0.027, 0.07, 0.064
 96743294, -1.045827, 0.1612887, -9.63501, -6.890876E-05, 0.001963384, 0.0003966493, -0.8455846, 389156432, -953179432, -96, 0.027, 0.07, 0.064
 96746048, -1.047529, 0.1595974, -9.636433, 0.0001522423, 0.001965261, 0.0006543054, -0.8455846, 389156432, -953179432, -96, 0.027, 0.07, 0.064
 96748306, -1.049724, 0.1580334, -9.638, 0.0006380178, 0.001484093, 0.001034935, -0.8455846, 389156432, -953179432, -96, 0.027, 0.07, 0.064
 96750782, -1.053122, 0.158623, -9.639664, 0.0007019716, 0.001228679, 0.0004625916, -0.8455846, 389156432, -953179432, -96, 0.027, 0.07, 0.064
 96753287, -1.058366, 0.1597891, -9.643461, 0.0004129985, 0.00125741, 0.0002867175, -0.8455846, 389156432, -953179432, -96, 0.027, 0.07, 0.064
 96756037, -1.059762, 0.1583471, -9.647234, 0.0001475453, 0.001227898, 0.0003938029, -0.8455846, 389156432, -953179432, -96, 0.027, 0.07, 0.064
 96758279, -1.059739, 0.1546711, -9.649613, 0.0003405412, 0.001112927, 0.0008740684, -0.8455846, 389156432, -953179432, -96, 0.027, 0.07, 0.064
 96760835, -1.059933, 0.1533588, -9.649741, 0.0005206103, 0.0008694676, 0.0006065494, -0.8455846, 389156432, -953179432, -96, 0.027, 0.07, 0.064
 96763289, -1.059678, 0.1544315, -9.650143, 0.0002867295, 0.0005541213, -0.0003028777, -0.8455846, 389156432, -953179432, -96, 0.027, 0.07, 0.064
 96766254, -1.05637, 0.1571441, -9.650069, 7.317498E-05, 0.0004757592, -0.0007163022, -0.8455846, 389156432, -953179432, -96, 0.027, 0.07, 0.064
 96768332, -1.049374, 0.1594422, -9.649055, -0.0004451809, 0.0006669346, -0.001110129, -0.8455846, 389156432, -953179432, -96, 0.027, 0.07, 0.064
 96770789, -1.045168, 0.1586713, -9.648097, -0.0002696571, 0.00120506, -0.001111681, -0.8455846, 389156432, -953179432, -96, 0.027, 0.07, 0.064
 96773304, -1.038505, 0.1580174, -9.645375, -0.0003480747, 0.001177449, -0.0007519772, -0.8455846, 389156432, -953179432, -96, 0.027, 0.07, 0.064
 96776022, -1.035985, 0.1574945, -9.642853, -0.0004557164, 0.001210704, -0.0005027796, -0.8455846, 389156432, -953179432, -96, 0.027, 0.07, 0.064
 96778324, -1.035888, 0.1567001, -9.640429, -0.0008609392, 0.00128844, -0.0005924407, -0.8455846, 389156432, -953179432, -96, 0.027, 0.07, 0.064
 96780771, -1.036852, 0.1558292, -9.641325, -0.0006419884, 0.0009870528, -0.000569392, -0.8455846, 389156432, -953179432, -96, 0.027, 0.07, 0.064
 96783348, -1.039268, 0.1558215, -9.64266, -8.398553E-05, 0.0007875953, -0.0005995148, -0.8455846, 389156432, -953179432, -96, 0.027, 0.07, 0.064
 96786048, -1.041766, 0.1559433, -9.644524, -8.169738E-05, 0.0007590402, -0.0005304817, -0.8455846, 389156432, -953179432, -96, 0.027, 0.07, 0.064
 96788294, -1.045352, 0.1534397, -9.644444, -0.0004060112, 0.0005661688, -2.296811E-05, -0.8455846, 389156432, -953179432, -96, 0.027, 0.07, 0.064
 96790792, -1.047099, 0.150341, -9.642773, -0.0006031791, 0.0005781071, 0.0004177174, -0.8455846, 389156432, -953179432, -96, 0.027, 0.07, 0.064
 96793277, -1.048293, 0.1437937, -9.641993, -0.0003451065, 0.0003088764, 0.0009352454, -0.8455846, 389156432, -953179432, -96, 0.027, 0.07, 0.064
 96796019, -1.047704, 0.1402299, -9.642338, -5.111906E-05, 0.0004478357, 0.0009255937, -0.8455846, 389156432, -953179432, -96, 0.027, 0.07, 0.064
 96798316, -1.045091, 0.1392289, -9.642406, -0.0002286258, 0.0003656107, 0.0006511747, -0.8455846, 389156432, -953179432, -96, 0.027, 0.07, 0.064
 96800779, -1.042361, 0.1411922, -9.642213, -0.0005435422, 8.876798E-05, 0.0004138842, -0.8455846, 389156432, -953179432, -96, 0.027, 0.07, 0.064
 96803306, -1.039223, 0.1460452, -9.639754, -0.0009204013, 0.0003598275, -9.403923E-05, -0.8455846, 389156432, -953179432, -96, 0.027, 0.07, 0.064
 96806048, -1.038919, 0.148853, -9.639278, -0.001287457, 0.0006056396, 0.0001728381, -0.8455846, 389156432, -953179432, -96, 0.027, 0.07, 0.064
 96808338, -1.037547, 0.1524931, -9.638048, -0.0009311663, 0.0002958794, 0.0009860998, -0.8455846, 389156432, -953179432, -96, 0.027, 0.07, 0.064
 96810796, -1.034763, 0.1537733, -9.636002, -0.0004054364, 0.0001827654, 0.001343289, -0.8455846, 389156432, -953179432, -96, 0.027, 0.07, 0.064
 96813280, -1.029911, 0.1584338, -9.632833, -0.0001410061, 0.0006907035, 0.001255501, -0.8455846, 389156432, -953179432, -96, 0.027, 0.07, 0.064
 96816326, -1.027184, 0.1630523, -9.629269, 0.0001510972, 0.0008968311, 0.0009497748, -0.8455846, 389156432, -953179432, -96, 0.027, 0.07, 0.064
 96818335, -1.024406, 0.1682781, -9.620842, 0.0001809837, 0.001194867, 0.0008178537, -0.8455846, 389156432, -953179432, -96, 0.027, 0.07, 0.064
 96820880, -1.023681, 0.1713406, -9.616601, 7.594284E-05, 0.001108347, 0.000475922, -0.8455846, 389156433, -953179429, -99, 0.007, 0.059, 0.066
 96823288, -1.023481, 0.1749836, -9.614222, -0.0003744264, 0.00065933, -0.0002146674, -0.8950018, 389156433, -953179429, -99, 0.007, 0.059, 0.066
 96826118, -1.023089, 0.1760953, -9.615377, -0.0004029608, 0.000765126, -0.0002616626, -0.8950018, 389156433, -953179429, -99, 0.007, 0.059, 0.066
 96828347, -1.025544, 0.17395, -9.619348, 4.614251E-05, 0.001328799, 4.105817E-05, -0.8950018, 389156433, -953179429, -99, 0.007, 0.059, 0.066
 96830777, -1.028603, 0.1708095, -9.620842, 0.0003013573, 0.00155473, 2.437495E-05, -0.8950018, 389156433, -953179429, -99, 0.007, 0.059, 0.066
 96833290, -1.03218, 0.1660124, -9.620316, 0.0006209011, 0.001266856, -0.0001976109, -0.8950018, 389156433, -953179429, -99, 0.007, 0.059, 0.066
 96836013, -1.032601, 0.1639891, -9.620454, 0.0007465023, 0.001136934, -0.000304182, -0.8950018, 389156433, -953179429, -99, 0.007, 0.059, 0.066
 96838297, -1.031746, 0.1630014, -9.623245, 0.0004690918, 0.0008378529, 0.0001061019, -0.8950018, 389156433, -953179429, -99, 0.007, 0.059, 0.066
 96840823, -1.032621, 0.16399, -9.625011, 0.0003915113, 0.0005149152, 0.0003081749, -0.8950018, 389156433, -953179429, -99, 0.007, 0.059, 0.066
 96843267, -1.035448, 0.1653758, -9.624884, 8.401334E-05, 0.0007651417, 9.297995E-05, -0.8950018, 389156433, -953179429, -99, 0.007, 0.059, 0.066
 96846059, -1.035672, 0.16533, -9.623367, -0.0002650418, 0.001059833, 0.0002057076, -0.8950018, 389156433, -953179429, -99, 0.007, 0.059, 0.066
 96848284, -1.035126, 0.1626733, -9.619716, -0.0003740307, 0.001490071, -0.0002326454, -0.8950018, 389156433, -953179429, -99, 0.007, 0.059, 0.066
 96850840, -1.035447, 0.1604114, -9.61632, -0.0003480609, 0.001708713, -0.0001787295, -0.8950018, 389156433, -953179429, -99, 0.007, 0.059, 0.066
 96853283, -1.03478, 0.1589735, -9.612065, -0.0002654162, 0.001622649, -0.0002583308, -0.8950018, 389156433, -953179429, -99, 0.007, 0.059, 0.066
 96856060, -1.033054, 0.158825, -9.612003, 0.000233768, 0.001518441, -7.347964E-05, -0.8950018, 389156433, -953179429, -99, 0.007, 0.059, 0.066
 96858310, -1.030092, 0.1585861, -9.612645, 0.0004911128, 0.001801024, 0.0004237758, -0.8950018, 389156433, -953179429, -99, 0.007, 0.059, 0.066
 96860808, -1.029671, 0.1581589, -9.610346, 0.0003473035, 0.001622554, 0.0003954574, -0.8950018, 389156433, -953179429, -99, 0.007, 0.059, 0.066
 96863294, -1.031078, 0.1581408, -9.603331, 0.0001828647, 0.0009768518, 0.0001349541, -0.8950018, 389156433, -953179429, -99, 0.007, 0.059, 0.066
 96866033, -1.032861, 0.157942, -9.597984, 0.0001755836, 0.0008552825, 1.936777E-05, -0.8950018, 389156433, -953179429, -99, 0.007, 0.059, 0.066
 96868284, -1.035441, 0.1587282, -9.595496, 0.0004579607, 0.001264227, 0.0007274579, -0.8950018, 389156433, -953179429, -99, 0.007, 0.059, 0.066
 96870854, -1.037356, 0.1612114, -9.597338, 0.000705551, 0.001104153, 0.001124466, -0.8950018, 389156433, -953179429, -99, 0.007, 0.059, 0.066
 96873319, -1.039968, 0.163427, -9.603887, 0.0004991299, 0.001201352, 0.0008457614, -0.8950018, 389156433, -953179429, -99, 0.007, 0.059, 0.066
 96876044, -1.040976, 0.1624898, -9.607798, 0.0004430275, 0.00151998, 0.0004996455, -0.8950018, 389156433, -953179429, -99, 0.007, 0.059, 0.066
 96878317, -1.043105, 0.1600791, -9.616804, 0.0008205612, 0.001909899, 0.0002909433, -0.8950018, 389156433, -953179429, -99, 0.007, 0.059, 0.066
 96880816, -1.044979, 0.1597305, -9.623454, 0.0009087272, 0.002230323, 0.000349248, -0.8950018, 389156433, -953179429, -99, 0.007, 0.059, 0.066
 96883327, -1.050319, 0.1614054, -9.62966, 0.00047973, 0.001919783, 0.0003945155, -0.8950018, 389156433, -953179429, -99, 0.007, 0.059, 0.066
 96886024, -1.05541, 0.1625269, -9.631243, 7.143737E-05, 0.001292356, 1.753361E-05, -0.8950018, 389156433, -953179429, -99, 0.007, 0.059, 0.066
 96888320, -1.062153, 0.1643446, -9.628758, -0.0001205443, 0.0006386429, -4.896308E-05, -0.8950018, 389156433, -953179429, -99, 0.007, 0.059, 0.066
 96890801, -1.064199, 0.164664, -9.625232, -0.0003962558, 0.000316002, -2.228556E-05, -0.8950018, 389156433, -953179429, -99, 0.007, 0.059, 0.066
 96893276, -1.062869, 0.1635947, -9.622581, -0.0003398865, 8.778709E-05, 0.0003653455, -0.8950018, 389156433, -953179429, -99, 0.007, 0.059, 0.066
 96896274, -1.060838, 0.161899, -9.623034, 9.980628E-06, -4.341552E-05, 0.0005747354, -0.8950018, 389156433, -953179429, -99, 0.007, 0.059, 0.066
 96898306, -1.059295, 0.1596681, -9.62611, 0.0002037185, 0.0002027428, 0.0005588962, -0.8950018, 389156433, -953179429, -99, 0.007, 0.059, 0.066
 96900817, -1.058695, 0.1595983, -9.630863, 0.0002684692, 0.0001891246, 0.0004176237, -0.8950018, 389156433, -953179429, -99, 0.007, 0.059, 0.066
 96903298, -1.057281, 0.1611177, -9.634766, 0.0001224512, 3.146538E-06, 0.000395904, -0.8950018, 389156433, -953179429, -99, 0.007, 0.059, 0.066
 96905996, -1.055221, 0.1649261, -9.63561, 0.0001110484, -6.071715E-05, 0.0001859829, -0.8950018, 389156433, -953179429, -99, 0.007, 0.059, 0.066
 96908306, -1.049932, 0.1697747, -9.638077, -0.0005663213, -9.258719E-05, 0.0001678537, -0.8950018, 389156433, -953179429, -99, 0.007, 0.059, 0.066
 96910795, -1.046881, 0.1716417, -9.639645, -0.0007416048, 9.951859E-05, 0.0001586587, -0.8950018, 389156433, -953179429, -99, 0.007, 0.059, 0.066
 96913292, -1.044253, 0.1735256, -9.642736, -0.0007271001, 0.0006686035, 0.0003075599, -0.8950018, 389156433, -953179429, -99, 0.007, 0.059, 0.066
 96916299, -1.043412, 0.173381, -9.64249, -0.0005112353, 0.001057658, 0.0002962445, -0.8950018, 389156433, -953179429, -99, 0.007, 0.059, 0.066
 96918324, -1.043531, 0.1696687, -9.639426, 1.442595E-05, 0.001070383, 0.0002635739, -0.8950018, 389156433, -953179429, -99, 0.007, 0.059, 0.066
 96920818, -1.044667, 0.1661481, -9.636963, 0.0005077168, 0.001013645, 0.0004793235, -0.8950018, 389156433, -953179429, -99, 0.007, 0.059, 0.066
 96923320, -1.047354, 0.1585537, -9.632324, 0.0007521899, 0.001085999, 0.0002681453, -1.22445, 389156433, -953179429, -99, 0.007, 0.059, 0.066
 96926698, -1.048801, 0.1546304, -9.629456, -2.586047E-05, 0.001130783, 0.0001010789, -1.22445, 389156433, -953179429, -99, 0.007, 0.059, 0.066
 96928286, -1.052142, 0.1518357, -9.625725, -0.0005524169, 0.001379133, -0.0003891243, -1.22445, 389156433, -953179429, -99, 0.007, 0.059, 0.066
 96930772, -1.053646, 0.1489226, -9.623823, -0.0006340045, 0.001364608, -0.0004040995, -1.22445, 389156433, -953179429, -99, 0.007, 0.059, 0.066
 96933273, -1.055006, 0.1438003, -9.625363, -0.0005683965, 0.001216349, -0.0005680558, -1.22445, 389156433, -953179429, -99, 0.007, 0.059, 0.066
 96936072, -1.055075, 0.1429172, -9.628298, -0.0002580336, 0.001029591, -0.0009254365, -1.22445, 389156433, -953179429, -99, 0.007, 0.059, 0.066
 96938304, -1.053707, 0.146087, -9.631469, 0.0003445827, 0.0007110465, -0.0009440482, -1.22445, 389156433, -953179429, -99, 0.007, 0.059, 0.066
 96940833, -1.050906, 0.1502394, -9.633143, 0.0003570361, 0.0005975892, -0.0008870566, -1.22445, 389156433, -953179429, -99, 0.007, 0.059, 0.066
 96943275, -1.046037, 0.1539951, -9.636241, -0.0001059787, 0.0006270195, -0.0003671548, -1.22445, 389156433, -953179429, -99, 0.007, 0.059, 0.066
 96946038, -1.044238, 0.1573951, -9.638986, -0.0003269864, 0.000550565, 0.0001170113, -1.22445, 389156433, -953179429, -99, 0.007, 0.059, 0.066
 96948320, -1.043527, 0.1632013, -9.646121, 3.95132E-05, 0.0006890135, 0.0006995504, -1.22445, 389156433, -953179429, -99, 0.007, 0.059, 0.066
 96950786, -1.044693, 0.1646492, -9.651819, 0.0002966089, 0.0009329348, 0.0005117922, -1.22445, 389156433, -953179429, -99, 0.007, 0.059, 0.066
 96953293, -1.046235, 0.1638859, -9.65489, 0.0004563991, 0.001213232, 0.000111206, -1.22445, 389156433, -953179429, -99, 0.007, 0.059, 0.066
 96956010, -1.04808, 0.1628167, -9.653885, 0.0003600871, 0.001263268, -0.0001994358, -1.22445, 389156433, -953179429, -99, 0.007, 0.059, 0.066
 96958311, -1.053212, 0.1594391, -9.650961, -0.0003919552, 0.0009868538, -0.0005710927, -1.22445, 389156433, -953179429, -99, 0.007, 0.059, 0.066
 96960790, -1.057785, 0.15823, -9.647787, -0.0005575744, 0.0009501865, -0.0005752641, -1.22445, 389156433, -953179429, -99, 0.007, 0.059, 0.066
 96963320, -1.060668, 0.1595362, -9.641679, 0.0003989204, 0.0006234086, -0.0004101472, -1.22445, 389156433, -953179429, -99, 0.007, 0.059, 0.066
 96966032, -1.06091, 0.16115, -9.637711, 0.00101705, 0.0008364667, -0.0002622571, -1.22445, 389156433, -953179429, -99, 0.007, 0.059, 0.066
 96968292, -1.060354, 0.1615627, -9.630172, 0.00117888, 0.0008760773, 3.580065E-05, -1.22445, 389156433, -953179429, -99, 0.007, 0.059, 0.066
 96970792, -1.059484, 0.1606812, -9.623088, 0.0008894306, 0.0005231762, 0.0005967449, -1.22445, 389156433, -953179429, -99, 0.007, 0.059, 0.066
 96973285, -1.057686, 0.1594423, -9.612988, 0.0005250147, 0.0006084084, 0.001454523, -1.22445, 389156433, -953179429, -99, 0.007, 0.059, 0.066
 96976248, -1.05715, 0.1596141, -9.608004, 0.0007297342, 0.0005984218, 0.001969526, -1.22445, 389156433, -953179429, -99, 0.007, 0.059, 0.066
 96978360, -1.056483, 0.1616501, -9.606289, 0.0009497699, 0.0001748449, 0.001984139, -1.22445, 389156433, -953179429, -99, 0.007, 0.059, 0.066
 96980775, -1.056221, 0.1631839, -9.605517, 0.001029713, -9.902631E-06, 0.001944389, -1.22445, 389156433, -953179429, -99, 0.007, 0.059, 0.066
 96983302, -1.052754, 0.1635701, -9.606058, 0.0003928408, -0.000178232, 0.001647509, -1.22445, 389156433, -953179429, -99, 0.007, 0.059, 0.066
 96986039, -1.050455, 0.1630623, -9.607035, -0.0002393461, 7.547935E-05, 0.001528359, -1.22445, 389156433, -953179429, -99, 0.007, 0.059, 0.066
 96988327, -1.046563, 0.1629745, -9.609613, -0.0004414485, 0.0003341674, 0.0009377406, -1.22445, 389156433, -953179429, -99, 0.007, 0.059, 0.066
 96990802, -1.044036, 0.162999, -9.611252, -0.0008069132, 0.000246817, 0.0005915175, -1.22445, 389156433, -953179429, -99, 0.007, 0.059, 0.066
 96993308, -1.042962, 0.1630607, -9.61368, -0.001468987, 6.907704E-05, 0.0002251518, -1.22445, 389156433, -953179429, -99, 0.007, 0.059, 0.066
 96996061, -1.044499, 0.1624357, -9.61557, -0.001784514, 8.852631E-05, -0.0002904155, -1.22445, 389156433, -953179429, -99, 0.007, 0.059, 0.066
 96998293, -1.048178, 0.1594891, -9.618034, -0.002099987, 0.0002907685, -0.0007103769, -1.22445, 389156433, -953179429, -99, 0.007, 0.059, 0.066
 97000807, -1.048763, 0.156844, -9.621349, -0.002008366, 0.0008826219, -0.0005152975, -1.22445, 389156433, -953179429, -99, 0.007, 0.059, 0.066
 97003266, -1.048293, 0.1530794, -9.629416, -0.001382243, 0.001869524, 0.0003110369, -1.22445, 389156433, -953179429, -99, 0.007, 0.059, 0.066
 97006215, -1.049435, 0.1510592, -9.634275, -0.0007924112, 0.001958219, 0.0005935293, -1.22445, 389156433, -953179429, -99, 0.007, 0.059, 0.066
 97008361, -1.051364, 0.1491493, -9.63834, -0.0006778962, 0.001123355, 0.0005730078, -1.22445, 389156433, -953179429, -99, 0.007, 0.059, 0.066
 97010792, -1.051491, 0.1484471, -9.639606, -0.0006144792, 0.0004622953, 8.141577E-05, -1.22445, 389156433, -953179429, -99, 0.007, 0.059, 0.066
 97013310, -1.051284, 0.1479282, -9.641515, -0.0003870752, 0.0004566598, -0.0001954204, -1.22445, 389156433, -953179429, -99, 0.007, 0.059, 0.066
 97016121, -1.049596, 0.1474663, -9.642, 0.0001525282, 0.0005271086, -6.483549E-05, -1.22445, 389156433, -953179429, -99, 0.007, 0.059, 0.066
 97018311, -1.04155, 0.1461232, -9.63851, 0.0008655784, 0.0009797541, 7.531818E-05, -1.22445, 389156433, -953179429, -99, 0.007, 0.059, 0.066
 97020819, -1.037709, 0.1449861, -9.636774, 0.0007599018, 0.001251396, -0.0001151865, -1.22445, 389156433, -953179428, -99, -0.006, -0.017, -0.043
 97023292, -1.038754, 0.1455642, -9.635972, 0.000383571, 0.001847893, -4.155676E-05, -0.7632224, 389156433, -953179428, -99, -0.006, -0.017, -0.043
 97026080, -1.041221, 0.1485374, -9.636582, 0.0001080672, 0.001608605, 2.94072E-05, -0.7632224, 389156433, -953179428, -99, -0.006, -0.017, -0.043
 97028318, -1.045982, 0.1538059, -9.632214, -0.0003358849, 0.0009570548, 0.0003051512, -0.7632224, 389156433, -953179428, -99, -0.006, -0.017, -0.043
 97030854, -1.050102, 0.1579272, -9.628653, -0.0003451075, 0.0006020827, 0.0003129249, -0.7632224, 389156433, -953179428, -99, -0.006, -0.017, -0.043
 97033287, -1.054605, 0.1634583, -9.629186, -0.0001544808, 0.0003091532, 0.0001408374, -0.7632224, 389156433, -953179428, -99, -0.006, -0.017, -0.043
 97036062, -1.055256, 0.1664529, -9.632051, 0.00027094, 0.0006339474, 3.33801E-06, -0.7632224, 389156433, -953179428, -99, -0.006, -0.017, -0.043
 97038318, -1.052977, 0.1679414, -9.636264, 0.001081448, 0.001575991, 0.0001035159, -0.7632224, 389156433, -953179428, -99, -0.006, -0.017, -0.043
 97040803, -1.049639, 0.1677163, -9.635824, 0.001427727, 0.001952262, 0.000225347, -0.7632224, 389156433, -953179428, -99, -0.006, -0.017, -0.043
 97043307, -1.045446, 0.1663338, -9.633748, 0.001465132, 0.001919308, 2.389227E-05, -0.7632224, 389156433, -953179428, -99, -0.006, -0.017, -0.043
 97046006, -1.043394, 0.164565, -9.628572, 0.001191615, 0.00145234, -0.0002568583, -0.7632224, 389156433, -953179428, -99, -0.006, -0.017, -0.043
 97048324, -1.03985, 0.1601729, -9.621426, 0.0003479843, 0.0008076369, 0.0003207781, -0.7632224, 389156433, -953179428, -99, -0.006, -0.017, -0.043
 97050805, -1.038469, 0.1570051, -9.617412, -1.013885E-05, 0.0005900927, 0.0008355411, -0.7632224, 389156433, -953179428, -99, -0.006, -0.017, -0.043
 97053309, -1.0394, 0.1535369, -9.613852, -0.0001119715, 0.000598878, 0.001000098, -0.7632224, 389156433, -953179428, -99, -0.006, -0.017, -0.043
 97056036, -1.040055, 0.1528881, -9.615294, 0.0003502263, 0.0007757115, 0.0008431706, -0.7632224, 389156433, -953179428, -99, -0.006, -0.017, -0.043
 97058302, -1.042293, 0.1547556, -9.620834, 0.000327726, 0.0006583801, 0.0006613082, -0.7632224, 389156433, -953179428, -99, -0.006, -0.017, -0.043
 97060804, -1.044668, 0.1554161, -9.62391, -0.0001125197, 0.0001914186, 0.0005205997, -0.7632224, 389156433, -953179428, -99, -0.006, -0.017, -0.043
 97063279, -1.048623, 0.155545, -9.625582, -0.0005104132, -0.0001481448, -9.563877E-05, -0.7632224, 389156433, -953179428, -99, -0.006, -0.017, -0.043
 97066040, -1.049665, 0.1547949, -9.625634, -0.0003265684, 0.0003023787, -0.0006029527, -0.7632224, 389156433, -953179428, -99, -0.006, -0.017, -0.043
 97068343, -1.051805, 0.1534911, -9.627523, -9.73385E-05, 0.0009723381, -0.0006357151, -0.7632224, 389156433, -953179428, -99, -0.006, -0.017, -0.043
 97070762, -1.053604, 0.1531352, -9.627756, 0.0001234826, 0.001025186, -0.0006383249, -0.7632224, 389156433, -953179428, -99, -0.006, -0.017, -0.043
 97073295, -1.054149, 0.1526205, -9.626426, 0.0006136324, 0.0007144971, -0.0003073671, -0.7632224, 389156433, -953179428, -99, -0.006, -0.017, -0.043
 97076045, -1.052271, 0.1521118, -9.624984, 0.0009205432, 0.0008929933, -9.67303E-05, -0.7632224, 389156433, -953179428, -99, -0.006, -0.017, -0.043
 97078342, -1.048536, 0.1530589, -9.622744, 0.001139293, 0.0005850975, 0.0004308901, -0.7632224, 389156433, -953179428, -99, -0.006, -0.017, -0.043
 97080843, -1.046821, 0.1541426, -9.62054, 0.0007972253, 0.0002443992, 0.0004282847, -0.7632224, 389156433, -953179428, -99, -0.006, -0.017, -0.043
 97083332, -1.045632, 0.154368, -9.618303, 0.0003661903, 7.916091E-05, 0.0001420979, -0.7632224, 389156433, -953179428, -99, -0.006, -0.017, -0.043
 97086038, -1.045417, 0.1536554, -9.615058, -6.616461E-05, 0.000126576, -9.654993E-05, -0.7632224, 389156433, -953179428, -99, -0.006, -0.017, -0.043
 97088292, -1.044208, 0.1503216, -9.609571, -0.0005772687, -0.0001178108, -0.0003124022, -0.7632224, 389156433, -953179428, -99, -0.006, -0.017, -0.043
 97090785, -1.043315, 0.1469761, -9.607111, -0.0002042182, -0.0003498931, -0.0002094285, -0.7632224, 389156433, -953179428, -99, -0.006, -0.017, -0.043
 97093287, -1.041666, 0.1424114, -9.60586, 0.000123231, -0.0003359235, -0.0003141766, -0.7632224, 389156433, -953179428, -99, -0.006, -0.017, -0.043
 97096051, -1.039352, 0.141398, -9.608547, 0.000104971, -0.0001840144, -0.0002748212, -0.7632224, 389156433, -953179428, -99, -0.006, -0.017, -0.043
 97098351, -1.03636, 0.1430497, -9.617031, -0.0002527944, -0.0001491819, -8.180442E-05, -0.7632224, 389156433, -953179428, -99, -0.006, -0.017, -0.043
 97100804, -1.035218, 0.1445849, -9.621109, -0.0004969568, -0.0003598115, -9.558874E-05, -0.7632224, 389156433, -953179428, -99, -0.006, -0.017, -0.043
 97103295, -1.035232, 0.146047, -9.62079, -0.0005288747, -9.004981E-05, -7.526932E-05, -0.7632224, 389156433, -953179428, -99, -0.006, -0.017, -0.043
 97106105, -1.035566, 0.1468266, -9.618254, -0.0004146034, 0.0001840773, -4.686905E-06, -0.7632224, 389156433, -953179428, -99, -0.006, -0.017, -0.043
 97108284, -1.035004, 0.1485937, -9.614519, -0.0001436097, 0.0002133989, 0.0003627113, -0.7632224, 389156433, -953179428, -99, -0.006, -0.017, -0.043
 97110808, -1.034241, 0.1500675, -9.612362, 0.0001326401, 0.0002050077, 0.0007505057, -0.7632224, 389156433, -953179428, -99, -0.006, -0.017, -0.043
 97113294, -1.035622, 0.1531048, -9.610733, 9.09964E-05, -0.0001553176, 0.001257795, -0.7632224, 389156433, -953179428, -99, -0.006, -0.017, -0.043
 97116230, -1.038813, 0.1545113, -9.614174, -0.0002691169, -0.0002643686, 0.001394915, -0.7632224, 389156433, -953179428, -99, -0.006, -0.017, -0.043
 97118294, -1.042658, 0.1549156, -9.624081, -0.0006399136, 0.00049197, 0.001240806, -0.7632224, 389156433, -953179428, -99, -0.006, -0.017, -0.043
 97120863, -1.045573, 0.1559295, -9.631792, -0.000572123, 0.001027356, 0.0008271268, -0.7632224, 389156433, -953179428, -99, -0.006, -0.017, -0.043
 97123317, -1.047944, 0.1587947, -9.641376, -0.0004433155, 0.001564116, 0.0002440838, -1.125616, 389156433, -953179428, -99, -0.006, -0.017, -0.043
 97126552, -1.047433, 0.1612791, -9.644934, -0.000585012, 0.001624563, 0.0003159329, -1.125616, 389156433, -953179428, -99, -0.006, -0.017, -0.043
 97128297, -1.045948, 0.1649118, -9.648493, -0.0008485313, 0.001723496, 0.0002172706, -1.125616, 389156433, -953179428, -99, -0.006, -0.017, -0.043
 97132362, -1.046376, 0.1662824, -9.653511, 0.0001664449, 0.0009459491, 0.0003603155, -1.125616, 389156433, -953179428, -99, -0.006, -0.017, -0.043
 97134889, -1.04756, 0.1665065, -9.655006, 0.0005675097, 0.000628732, 0.0001308885, -1.125616, 389156433, -953179428, -99, -0.006, -0.017, -0.043
 97137663, -1.050893, 0.1653065, -9.654083, 0.001122537, -0.0001479601, -0.0003548715, -1.125616, 389156433, -953179428, -99, -0.006, -0.017, -0.043
 97139881, -1.053749, 0.1633841, -9.652388, 0.001280655, -0.0005306416, -0.0003201432, -1.125616, 389156433, -953179428, -99, -0.006, -0.017, -0.043
 97143371, -1.056618, 0.1584744, -9.640963, 0.0007408765, -1.70559E-05, 6.618173E-05, -1.125616, 389156433, -953179428, -99, -0.006, -0.017, -0.043
 97145905, -1.056189, 0.1553588, -9.632895, 0.0004216078, 0.0005911869, -3.172615E-07, -1.125616, 389156433, -953179428, -99, -0.006, -0.017, -0.043
 97148657, -1.053794, 0.1524359, -9.622597, 0.0002174321, 0.0009697461, 0.0003963943, -1.125616, 389156433, -953179428, -99, -0.006, -0.017, -0.043
 97152608, -1.048064, 0.1523953, -9.613609, 0.0004842285, 0.0006970852, 0.0002732431, -1.125616, 389156433, -953179428, -99, -0.006, -0.017, -0.043
 97156061, -1.041213, 0.1529845, -9.61096, 0.0002024575, 0.0002675775, -0.0004616885, -1.125616, 389156433, -953179428, -99, -0.006, -0.017, -0.043
 97158712, -1.036541, 0.1535398, -9.611224, -0.0003213826, 0.0003306513, -0.0001756712, -1.125616, 389156433, -953179428, -99, -0.006, -0.017, -0.043
 97161481, -1.031564, 0.1542704, -9.613939, -0.0008210358, 0.0009641077, 0.0003817458, -1.125616, 389156433, -953179428, -99, -0.006, -0.017, -0.043
 97164604, -1.031187, 0.1526431, -9.620313, -0.00085731, 0.001397318, 0.0005786112, -1.125616, 389156433, -953179428, -99, -0.006, -0.017, -0.043
 97166904, -1.032739, 0.1521207, -9.623659, -0.001298523, 0.001760338, 0.0008547085, -1.125616, 389156433, -953179428, -99, -0.006, -0.017, -0.043
 97169581, -1.032593, 0.1518876, -9.622826, -0.001344486, 0.001783783, 0.0005545969, -1.125616, 389156433, -953179428, -99, -0.006, -0.017, -0.043
 97172269, -1.036301, 0.1508051, -9.61682, -0.0004667302, 0.001311361, -0.0003143094, -1.125616, 389156433, -953179428, -99, -0.006, -0.017, -0.043
 97174570, -1.041368, 0.1502844, -9.613029, 0.0004290816, 0.0009822204, -0.0003465587, -1.125616, 389156433, -953179428, -99, -0.006, -0.017, -0.043
 97176948, -1.05012, 0.1483676, -9.606473, 0.0009592082, 0.0006588979, 0.0004519005, -1.125616, 389156433, -953179428, -99, -0.006, -0.017, -0.043
 97179566, -1.053016, 0.1474624, -9.601732, 0.0008682564, 0.0001325427, 0.0004091884, -1.125616, 389156433, -953179428, -99, -0.006, -0.017, -0.043
 97182256, -1.053078, 0.1473478, -9.599465, 0.0005586534, -6.385802E-05, 0.000348177, -1.125616, 389156433, -953179428, -99, -0.006, -0.017, -0.043
 97184617, -1.052184, 0.1484495, -9.600426, 0.0002638011, 0.000136831, 0.0002028826, -1.125616, 389156433, -953179428, -99, -0.006, -0.017, -0.043
 97186941, -1.049653, 0.1510292, -9.603622, -0.0004217893, 0.0005180587, 0.000299169, -1.125616, 389156433, -953179428, -99, -0.006, -0.017, -0.043
 97189588, -1.04669, 0.1532365, -9.605197, -0.0007662351, 0.0005322484, 0.0005830246, -1.125616, 389156433, -953179428, -99, -0.006, -0.017, -0.043
 97192214, -1.040497, 0.1572391, -9.60294, -0.001388709, 0.0005640708, 0.0003262011, -1.125616, 389156433, -953179428, -99, -0.006, -0.017, -0.043
 97194603, -1.037701, 0.1606661, -9.598442, -0.001946742, 0.0007466462, 0.0002227747, -1.125616, 389156433, -953179428, -99, -0.006, -0.017, -0.043
 97196941, -1.034949, 0.1632489, -9.593902, -0.001495115, 0.001228326, -6.109852E-05, -1.125616, 389156433, -953179428, -99, -0.006, -0.017, -0.043
 97199582, -1.033615, 0.1629254, -9.591952, -0.0007513866, 0.001030753, -0.0002537578, -1.125616, 389156433, -953179428, -99, -0.006, -0.017, -0.043
 97202259, -1.031753, 0.161467, -9.5899, -0.0001657614, 0.000631717, -0.001082135, -1.125616, 389156433, -953179428, -99, -0.006, -0.017, -0.043
 97204563, -1.031143, 0.1607516, -9.590719, -0.0001363511, 0.0005006211, -0.00115893, -1.125616, 389156433, -953179428, -99, -0.006, -0.017, -0.043
 97206931, -1.031169, 0.1618665, -9.595078, -0.0003782958, 7.045901E-05, -9.122979E-05, -1.125616, 389156433, -953179428, -99, -0.006, -0.017, -0.043
 97209615, -1.031536, 0.1643115, -9.598099, -0.000171591, -0.0001660651, 0.0006069744, -1.125616, 389156433, -953179428, -99, -0.006, -0.017, -0.043
 97212320, -1.033802, 0.1647409, -9.60537, 0.0002117812, -0.0002603953, 0.0009451639, -1.125616, 389156433, -953179428, -99, -0.006, -0.017, -0.043
 97214573, -1.036149, 0.1636216, -9.610592, 1.459012E-05, -0.0003593863, 0.00108574, -1.125616, 389156433, -953179428, -99, -0.006, -0.017, -0.043
 97216913, -1.038677, 0.1632983, -9.61622, -0.0006218929, -0.0003614496, 0.00118519, -1.125616, 389156433, -953179428, -99, -0.006, -0.017, -0.043
 97219595, -1.039173, 0.1633169, -9.619448, -0.000656044, -0.0001626952, 0.0009838832, -1.125616, 389156433, -953179428, -99, -0.006, -0.017, -0.043
 97222451, -1.040112, 0.1612359, -9.624518, -0.0003761937, -0.0001725665, 0.0007954946, -1.125616, 389156433, -953179428, -99, -0.006, -0.017, -0.043
 97224570, -1.041269, 0.1595895, -9.626139, 8.619761E-05, 0.000118293, 0.0006423669, -1.125616, 389156433, -953179428, -99, -0.006, -0.017, -0.043
 97226957, -1.045013, 0.159548, -9.624023, 0.0008924354, -0.0001021092, 3.598176E-06, -1.125616, 389156433, -953179430, -98, 0.025, -0.03, 0.083
 97229547, -1.047749, 0.1594398, -9.618608, 0.0008923713, -0.0004909841, 6.931903E-05, -1.339757, 389156433, -953179430, -98, 0.025, -0.03, 0.083
 97232516, -1.051105, 0.1607162, -9.61492, 0.0003988308, -0.000356375, 0.0004061219, -1.339757, 389156433, -953179430, -98, 0.025, -0.03, 0.083
 97234568, -1.053707, 0.1613519, -9.615967, -7.79214E-06, 0.0002131614, 0.0006233329, -1.339757, 389156433, -953179430, -98, 0.025, -0.03, 0.083
 97236992, -1.057904, 0.1599904, -9.619912, -9.118234E-05, 0.0007525834, 7.038457E-05, -1.339757, 389156433, -953179430, -98, 0.025, -0.03, 0.083
 97239618, -1.059431, 0.1580972, -9.620978, -8.898076E-05, 0.0008704091, -0.0003247647, -1.339757, 389156433, -953179430, -98, 0.025, -0.03, 0.083
 97242221, -1.062263, 0.1535972, -9.620333, 0.0001714484, 0.0008120125, -0.00077554, -1.339757, 389156433, -953179430, -98, 0.025, -0.03, 0.083
 97244603, -1.063695, 0.1502626, -9.620278, 0.0008307241, 0.0005312533, -0.0009192625, -1.339757, 389156433, -953179430, -98, 0.025, -0.03, 0.083
 97246895, -1.062207, 0.1479129, -9.620733, 0.001577968, 0.0006274048, -0.0006406796, -1.339757, 389156433, -953179430, -98, 0.025, -0.03, 0.083
 97249612, -1.05967, 0.1483725, -9.619392, 0.001389742, 0.0008344022, -0.0004843905, -1.339757, 389156433, -953179430, -98, 0.025, -0.03, 0.083
 97252270, -1.055831, 0.1516113, -9.617363, 0.0008102276, 0.001320713, 8.600543E-05, -1.339757, 389156433, -953179430, -98, 0.025, -0.03, 0.083
 97254589, -1.053386, 0.1542277, -9.616005, 0.0006467312, 0.001336628, 0.0004652771, -1.339757, 389156433, -953179430, -98, 0.025, -0.03, 0.083
 97256963, -1.050215, 0.1584901, -9.614376, 0.001007372, 0.001156928, 0.0006230363, -1.339757, 389156433, -953179430, -98, 0.025, -0.03, 0.083
 97259573, -1.048708, 0.1615046, -9.614459, 0.001137806, 0.001252159, 0.000620187, -1.339757, 389156433, -953179430, -98, 0.025, -0.03, 0.083
 97262263, -1.044783, 0.1646337, -9.612385, 0.001141296, 0.00154367, 0.00044842, -1.339757, 389156433, -953179430, -98, 0.025, -0.03, 0.083
 97264588, -1.042413, 0.1655621, -9.612232, 0.0008772289, 0.001337475, 0.0001473172, -1.339757, 389156433, -953179430, -98, 0.025, -0.03, 0.083
 97266889, -1.037766, 0.1651937, -9.615561, 0.0001519765, 0.0006900865, -0.0003980785, -1.339757, 389156433, -953179430, -98, 0.025, -0.03, 0.083
 97269617, -1.034746, 0.1637984, -9.61949, -0.0001090549, 0.0007774238, -0.0006023681, -1.339757, 389156433, -953179430, -98, 0.025, -0.03, 0.083
 97272246, -1.033977, 0.1600681, -9.626849, -0.0007686376, 0.001219978, -0.0008353292, -1.339757, 389156433, -953179430, -98, 0.025, -0.03, 0.083
 97274582, -1.035532, 0.1574992, -9.630855, -0.00134381, 0.001553062, -0.0005701612, -1.339757, 389156433, -953179430, -98, 0.025, -0.03, 0.083
 97276969, -1.040548, 0.153777, -9.634743, -0.00185165, 0.001641219, -0.0002080315, -1.339757, 389156433, -953179430, -98, 0.025, -0.03, 0.083
 97279564, -1.043001, 0.152955, -9.636268, -0.001473505, 0.001749897, 0.0003876957, -1.339757, 389156433, -953179430, -98, 0.025, -0.03, 0.083
 97282236, -1.045037, 0.1527973, -9.636734, -0.0005964658, 0.001718725, 0.0007912663, -1.339757, 389156433, -953179430, -98, 0.025, -0.03, 0.083
