TimeUS,TPN,PN,DVN,TVN,VN,DAN,TAN,AN
PSCN, 319737846, -0.7160006, -0.7160006, -0.005472546, -0.005472546, -0.005472546, 0, 2.892105E-15, 2.892106E-15
PSCN, 319837892, -0.7148367, -0.7148367, 0.003283876, 0.003283876, 0.003283876, 0, 2.892413E-15, 2.892413E-15
PSCN, 319937917, -0.7134092, -0.7134092, -0.00827383, -0.00827383, -0.00827383, 0, 2.896186E-15, 2.896186E-15
PSCN, 320037848, -0.7117851, -0.7117851, 0.008997866, 0.008997866, 0.008997866, 0, 2.894015E-15, 2.894015E-15
PSCN, 320137850, -0.7121782, -0.7121782, 0.0005286193, 0.0005286193, 0.0005286193, 0, 2.894215E-15, 2.894215E-15
PSCN, 320237936, -0.7128206, -0.7128206, 0.004516883, 0.004516883, 0.004516883, 0, 2.894617E-15, 2.894617E-15
PSCN, 320337906, -0.7146268, -0.7146268, 2.149865E-05, 2.149865E-05, 2.149865E-05, 0, 2.895955E-15, 2.895955E-15
PSCN, 320438099, -0.7163743, -0.7163743, -0.006445887, -0.006445887, -0.006445887, 0, 2.895103E-15, 2.895103E-15
PSCN, 320537893, -0.7171188, -0.7171188, 0.003620543, 0.003620543, 0.003620543, 0, 2.894591E-15, 2.894591E-15
PSCN, 320637871, -0.7173231, -0.7173231, 0.009360565, 0.009360565, 0.009360565, 0, 2.894996E-15, 2.894996E-15
PSCN, 320737883, -0.716606, -0.716606, 0.005350019, 0.005350019, 0.005350019, 0, 2.894277E-15, 2.894277E-15
PSCN, 320837877, -0.7154711, -0.7154711, 0.005773013, 0.005773013, 0.005773013, 0, 2.893038E-15, 2.893038E-15
PSCN, 320937936, -0.7150412, -0.7150412, 0.0114313, 0.0114313, 0.0114313, 0, 2.893348E-15, 2.893347E-15
PSCN, 321037883, -0.7145624, -0.7145624, 0.01020726, 0.01020726, 0.01020726, 0, 2.893188E-15, 2.893188E-15
PSCN, 321137986, -0.7144849, -0.7144849, 0.006527414, 0.006527414, 0.006527414, 0, 2.894844E-15, 2.894844E-15
PSCN, 321237989, -0.714236, -0.714236, 0.00686397, 0.00686397, 0.00686397, 0, 2.894022E-15, 2.894022E-15
PSCN, 321338037, -0.7149436, -0.7149436, 0.01017959, 0.01017959, 0.01017959, 0, 2.894475E-15, 2.894475E-15
PSCN, 321438011, -0.7155349, -0.7155349, 0.008946074, 0.008946074, 0.008946074, 0, 2.893836E-15, 2.893837E-15
PSCN, 321537823, -0.7171346, -0.7171346, 0.009624057, 0.009624057, 0.009624057, 0, 2.893772E-15, 2.893772E-15
PSCN, 321637851, -0.7185896, -0.7185896, 0.01013647, 0.01013647, 0.01013647, 0, 2.892527E-15, 2.892527E-15
PSCN, 321737888, -0.7189668, -0.7189668, 0.004472633, 0.004472633, 0.004472633, 0, 2.893108E-15, 2.893108E-15
PSCN, 321837915, -0.7186774, -0.7186774, 0.009609742, 0.009609742, 0.009609742, 0, 2.893862E-15, 2.893862E-15
PSCN, 321937889, -0.7183329, -0.7183329, 0.01069057, 0.01069057, 0.01069057, 0, 2.891856E-15, 2.891857E-15
PSCN, 322037959, -0.7175757, -0.7175757, 0.01758721, 0.01758721, 0.01758721, 0, 2.893038E-15, 2.893038E-15
PSCN, 322137888, -0.7182754, -0.7182754, 0.01545516, 0.01545516, 0.01545516, 0, 2.89215E-15, 2.89215E-15
PSCN, 322237892, -0.7188621, -0.7188621, 0.01197874, 0.01197874, 0.01197874, 0, 2.891927E-15, 2.891927E-15
PSCN, 322337894, -0.7190549, -0.7190549, 0.01864542, 0.01864542, 0.01864542, 0, 2.891222E-15, 2.891221E-15
PSCN, 322437953, -0.718707, -0.718707, 0.01816386, 0.01816386, 0.01816386, 0, 2.891001E-15, 2.891001E-15
PSCN, 322537932, -0.7191432, -0.7191432, 0.01410857, 0.01410857, 0.01410857, 0, 2.892026E-15, 2.892026E-15
PSCN, 322637832, -0.7192035, -0.7192035, 0.01445202, 0.01445202, 0.01445202, 0, 2.892164E-15, 2.892164E-15
PSCN, 322737863, -0.7203923, -0.7203923, 0.02163558, 0.02163558, 0.02163558, 0, 2.891689E-15, 2.891689E-15
PSCN, 322837866, -0.7211584, -0.7211584, 0.02194321, 0.02194321, 0.02194321, 0, 2.892834E-15, 2.892834E-15
PSCN, 322937918, -0.7226812, -0.7226812, 0.02292847, 0.02292847, 0.02292847, 0, 2.893354E-15, 2.893354E-15
PSCN, 323037853, -0.7236318, -0.7236318, 0.01762623, 0.01762623, 0.01762623, 0, 2.892165E-15, 2.892165E-15
PSCN, 323137976, -0.7249574, -0.7249574, 0.01844635, 0.01844635, 0.01844635, 0, 2.892433E-15, 2.892433E-15
PSCN, 323237890, -0.7257171, -0.7257171, 0.01064342, 0.01064342, 0.01064342, 0, 2.893071E-15, 2.893071E-15
PSCN, 323337922, -0.7259933, -0.7259933, 0.01384359, 0.01384359, 0.01384359, 0, 2.893505E-15, 2.893505E-15
PSCN, 323438059, -0.7256423, -0.7256423, 0.01824344, 0.01824344, 0.01824344, 0, 2.892816E-15, 2.892816E-15
PSCN, 323537892, -0.7261906, -0.7261906, 0.02810874, 0.02810874, 0.02810874, 0, 2.892771E-15, 2.892771E-15
PSCN, 323637874, -0.7264861, -0.7264861, 0.02300216, 0.02300216, 0.02300216, 0, 2.89221E-15, 2.89221E-15
PSCN, 323737881, -0.7277769, -0.7277769, 0.01397861, 0.01397861, 0.01397861, 0, 2.892843E-15, 2.892843E-15
PSCN, 323837969, -0.7286755, -0.7286755, 0.01239078, 0.01239078, 0.01239078, 0, 2.892729E-15, 2.892729E-15
PSCN, 323937922, -0.7299603, -0.7299603, 0.01987449, 0.01987449, 0.01987449, 0, 2.893247E-15, 2.893247E-15
PSCN, 324037954, -0.7305977, -0.7305977, 0.02461903, 0.02461903, 0.02461903, 0, 2.893459E-15, 2.893459E-15
PSCN, 324137773, -0.7330703, -0.7330703, 0.01453823, 0.01453823, 0.01453823, 0, 2.892965E-15, 2.892965E-15
PSCN, 324237853, -0.7351596, -0.7351596, 0.03038958, 0.03038958, 0.03038958, 0, 2.892956E-15, 2.892956E-15
PSCN, 324337964, -0.7365034, -0.7365034, 0.0217531, 0.0217531, 0.0217531, 0, 2.892227E-15, 2.892227E-15
PSCN, 324437989, -0.7369045, -0.7369045, 0.01377074, 0.01377074, 0.01377074, 0, 2.892845E-15, 2.892845E-15
PSCN, 324537908, -0.7381594, -0.7381594, 0.01910939, 0.01910939, 0.01910939, 0, 2.892957E-15, 2.892957E-15
PSCN, 324637842, -0.739853, -0.739853, 0.01052717, 0.01052717, 0.01052717, 0, 2.892936E-15, 2.892936E-15
PSCN, 324737878, -0.7429653, -0.7429653, 0.01487544, 0.01487544, 0.01487544, 0, 2.892299E-15, 2.892299E-15
PSCN, 324837843, -0.7454763, -0.7454763, 0.01751271, 0.01751271, 0.01751271, 0, 2.89282E-15, 2.89282E-15
PSCN, 324937976, -0.7493674, -0.7493674, 0.01194862, 0.01194862, 0.01194862, 0, 2.892508E-15, 2.892508E-15
PSCN, 325037892, -0.7526091, -0.7526091, 0.02269192, 0.02269192, 0.02269192, 0, 2.892467E-15, 2.892467E-15
PSCN, 325137900, -0.7562221, -0.7562221, 0.006334273, 0.006334273, 0.006334273, 0, 2.891289E-15, 2.891289E-15
PSCN, 325237939, -0.7561346, -0.7589291, 0.01799306, 0.02078752, 0.01861525, -0.01805346, -0.01888198, -0.004732672
PSCN, 325338212, -0.7544535, -0.7611943, 0.01573551, 0.0224763, 0.008027314, -0.01578834, 0.008433597, -0.003079722
PSCN, 325438307, -0.7529833, -0.7619864, 0.01376122, 0.02276434, 0.02637042, -0.01380742, -0.007052731, 0.0009408934
PSCN, 325538383, -0.7516976, -0.7644659, 0.01203463, 0.02480294, 0.02920838, -0.01207504, 0.004521793, 0.006409025
PSCN, 325638259, -0.7505733, -0.7658495, 0.01052468, 0.02580097, 0.006208165, -0.01056002, 0.01105714, 0.008510316
PSCN, 325738212, -0.7495899, -0.7682899, 0.009204169, 0.02790419, 0.01174558, -0.00923507, 0.0239263, 0.0127104
PSCN, 325838235, -0.74873, -0.7696195, 0.008049346, 0.02893888, 0.02323909, -0.008076369, 0.01481521, 0.01705953
PSCN, 325938226, -0.7479779, -0.7714134, 0.007039412, 0.0304749, 0.05041853, -0.007063045, -0.05756226, -0.008377817
PSCN, 326038239, -0.7473202, -0.7710177, 0.006156197, 0.02985371, 0.07081817, -0.006176865, -0.1316244, -0.03683585
PSCN, 326138216, -0.746745, -0.7689744, 0.005383794, 0.0276131, 0.07258014, -0.005401869, -0.1691553, -0.07927932
PSCN, 326238242, -0.746242, -0.7630742, 0.0047083, 0.0215405, 0.07247584, -0.004724107, -0.2797495, -0.1494845
PSCN, 326338236, -0.7458022, -0.7535821, 0.004117561, 0.01189754, 0.0992975, -0.004131384, -0.336688, -0.232182
PSCN, 326438361, -0.7453682, -0.7419021, 0.005303685, 0.001837524, 0.145097, 0.1243952, -0.2628839, -0.2574949
PSCN, 326538297, -0.7445068, -0.7331811, 0.01357404, 0.002248374, 0.1462032, 0.393769, 0.06384708, -0.1579105
PSCN, 326638288, -0.7418694, -0.7217587, 0.04389388, 0.02378316, 0.1763894, 1.403387, 1.023555, 0.1584567
PSCN, 326738325, -0.7340266, -0.6992599, 0.119575, 0.08480828, 0.2482812, 1.706077, 1.293666, 0.6690111
PSCN, 326838318, -0.7162899, -0.6671991, 0.2376724, 0.1885816, 0.3735344, 1.824541, 1.373858, 1.020871
PSCN, 326938213, -0.6853643, -0.6229369, 0.3803771, 0.3179498, 0.512754, 1.935777, 1.423401, 1.22347
PSCN, 327038229, -0.63934, -0.5641448, 0.5379086, 0.4627133, 0.6644538, 1.974641, 1.474747, 1.361381
PSCN, 327138191, -0.577146, -0.4887047, 0.7025083, 0.6140671, 0.8222689, 1.935556, 1.37853, 1.449451
PSCN, 327238212, -0.4985435, -0.3981169, 0.8636428, 0.7632163, 0.9365214, 1.724491, 1.212005, 1.389401
PSCN, 327338178, -0.4045087, -0.2955085, 1.010397, 0.9013963, 1.070722, 1.531866, 1.00736, 1.263559
PSCN, 327438356, -0.2966883, -0.1796507, 1.14045, 1.023413, 1.2269, 1.530663, 0.9557777, 1.143048
PSCN, 327538252, -0.1764819, -0.04497638, 1.259173, 1.127667, 1.323604, 1.517074, 0.8518838, 1.045012
PSCN, 327638459, -0.0448337, 0.09976099, 1.369873, 1.225278, 1.423274, 1.50288, 0.8893198, 0.9684326
PSCN, 327738202, 0.09754627, 0.2508954, 1.474157, 1.320808, 1.533498, 1.49254, 0.8767251, 0.9301288
PSCN, 327838261, 0.2500714, 0.4084763, 1.572704, 1.414299, 1.62157, 1.366423, 0.739776, 0.8898872
PSCN, 327938246, 0.4119397, 0.5667444, 1.660154, 1.505349, 1.673192, 1.131282, 0.6020357, 0.8072059
PSCN, 328038299, 0.5817267, 0.7315648, 1.730644, 1.580806, 1.715041, 1.005263, 0.5074356, 0.6906286
PSCN, 328138327, 0.7577117, 0.8959231, 1.785794, 1.647582, 1.757298, 1.009157, 0.5393181, 0.6157766
PSCN, 328238208, 0.9387078, 1.065395, 1.83139, 1.704703, 1.828067, 0.8149269, 0.3390889, 0.5595419
PSCN, 328338311, 1.123554, 1.236461, 1.861515, 1.748609, 1.849445, 0.6322626, 0.1912794, 0.4027529
PSCN, 328438331, 1.310533, 1.41167, 1.875695, 1.774558, 1.836626, 0.6051387, 0.1421036, 0.2826367
PSCN, 328538253, 1.498425, 1.584906, 1.881004, 1.794523, 1.843321, 0.6099029, 0.1790375, 0.2147012
PSCN, 328638287, 1.686606, 1.757694, 1.88218, 1.811093, 1.888513, 0.6123409, 0.1767827, 0.2083612
PSCN, 328738179, 1.874803, 1.932265, 1.881573, 1.824111, 1.886976, 0.6139866, 0.1990617, 0.2103595
PSCN, 328838317, 2.062883, 2.1074, 1.879892, 1.835375, 1.891319, 0.6100916, 0.1575013, 0.2034073
PSCN, 328938244, 2.250754, 2.290852, 1.877549, 1.837451, 1.902127, 0.606949, 0.06403202, 0.1725231
PSCN, 329038212, 2.438384, 2.47581, 1.875104, 1.837678, 1.903162, 0.6030586, 0.03235584, 0.122746
PSCN, 329138214, 2.625759, 2.66033, 1.872377, 1.837806, 1.913668, 0.5963334, 0.04632267, 0.08557488
PSCN, 329238254, 2.812819, 2.846298, 1.868682, 1.835203, 1.929935, 0.5725468, -0.04201443, 0.04886564
PSCN, 329338248, 2.999441, 3.033086, 1.863706, 1.830062, 1.928897, 0.5633515, -0.04154701, 0.009921689
PSCN, 329438382, 3.185511, 3.223147, 1.857648, 1.820011, 1.930397, 0.5508382, -0.1381367, -0.03736726
PSCN, 329538276, 3.370898, 3.402908, 1.849921, 1.817911, 1.88808, 0.5057501, -0.05149742, -0.07768861
PSCN, 329638260, 3.555399, 3.582767, 1.839987, 1.812619, 1.899023, 0.4836361, -0.09821636, -0.08859824
PSCN, 329738364, 3.738812, 3.759007, 1.828354, 1.808159, 1.89029, 0.4802664, -0.1093538, -0.09641724
PSCN, 329838539, 3.921012, 3.935889, 1.815887, 1.801011, 1.886305, 0.4779132, -0.1510554, -0.1039905
PSCN, 329938323, 4.101956, 4.107405, 1.803215, 1.797765, 1.858121, 0.4532128, -0.1292396, -0.1229967
PSCN, 330038217, 4.281595, 4.280438, 1.789792, 1.79095, 1.887344, 0.4562272, -0.17484, -0.1197539
PSCN, 330138395, 4.459871, 4.461003, 1.77605, 1.774918, 1.864796, 0.4530441, -0.2183, -0.1359983
PSCN, 330238226, 4.636756, 4.645197, 1.761898, 1.753456, 1.855891, 0.4372264, -0.3082581, -0.2025836
PSCN, 330338606, 4.812193, 4.822157, 1.74712, 1.737157, 1.824263, 0.4274413, -0.2551919, -0.2406313
PSCN, 330438513, 4.986121, 4.999276, 1.73171, 1.718556, 1.829729, 0.4173788, -0.3137425, -0.2702987
PSCN, 330538169, 5.158473, 5.17578, 1.715615, 1.698308, 1.815193, 0.4067199, -0.3411309, -0.3082009
PSCN, 330638205, 5.329195, 5.353008, 1.699255, 1.675442, 1.808672, 0.4045061, -0.4066451, -0.3400413
PSCN, 330738231, 5.49829, 5.523327, 1.68303, 1.657993, 1.792991, 0.384776, -0.4295123, -0.3662534
PSCN, 330838236, 5.665653, 5.69362, 1.662994, 1.635027, 1.751098, 0.03735123, -0.7552148, -0.4646437
PSCN, 330938264, 5.830318, 5.857944, 1.628202, 1.600577, 1.728895, -0.1323547, -0.9396533, -0.6508166
PSCN, 331038215, 5.99063, 6.020308, 1.576636, 1.546957, 1.677502, -0.2880341, -1.160658, -0.8496428
PSCN, 331138282, 6.14495, 6.178082, 1.508882, 1.475751, 1.582045, -0.5794725, -1.410109, -1.061655
PSCN, 331238288, 6.291629, 6.330986, 1.42394, 1.384583, 1.520919, -0.6634707, -1.552955, -1.294091
PSCN, 331338302, 6.429058, 6.470845, 1.325374, 1.283588, 1.444044, -0.7827279, -1.696521, -1.476157
PSCN, 331438344, 6.556159, 6.600683, 1.21827, 1.173746, 1.311639, -0.8071985, -1.698643, -1.582054
PSCN, 331538291, 6.67228, 6.715112, 1.106203, 1.063372, 1.173355, -0.8801733, -1.643265, -1.620072
PSCN, 331638218, 6.776976, 6.81805, 0.9897846, 0.9487104, 1.058623, -0.9896814, -1.757398, -1.660509
PSCN, 331738261, 6.869759, 6.897758, 0.8678622, 0.8398623, 0.9003409, -1.100762, -1.735928, -1.697322
PSCN, 331838428, 6.950031, 6.966849, 0.7397524, 0.7229341, 0.763321, -1.19111, -1.760982, -1.725982
PSCN, 331938205, 7.01729, 7.017939, 0.6090903, 0.6084408, 0.5999449, -1.029186, -1.525168, -1.679028
PSCN, 332038245, 7.071856, 7.058072, 0.4878125, 0.5015962, 0.4478554, -0.6504025, -1.140976, -1.507083
PSCN, 332138247, 7.115297, 7.077657, 0.3876477, 0.4252878, 0.3422462, -0.4608696, -0.7996444, -1.173711
PSCN, 332238186, 7.149968, 7.090719, 0.3115746, 0.3708229, 0.2106476, -0.1521682, -0.3629002, -0.8948815
PSCN, 332338203, 7.178348, 7.099832, 0.261874, 0.3403909, 0.2033282, 0, -0.2317223, -0.5862504
PSCN, 332438230, 7.202961, 7.107531, 0.2347683, 0.3301987, 0.1782886, 0.4583225, 0.2797356, -0.3182918
PSCN, 332538195, 7.226287, 7.115193, 0.23606, 0.3471537, 0.1885849, 0.290915, 0.04293255, -0.05352574
PSCN, 332638199, 7.250479, 7.126779, 0.2473481, 0.371049, 0.1556561, 0.2143562, 0.08340701, -0.01532401
PSCN, 332738265, 7.275753, 7.152447, 0.2570131, 0.3803202, 0.2095298, 0, -0.3615349, -0.1002076
PSCN, 332838304, 7.30161, 7.183434, 0.2588872, 0.3770642, 0.2653617, 0, -0.4432514, -0.2562404
PSCN, 332938217, 7.32736, 7.218125, 0.2556017, 0.3648364, 0.2758979, 0, -0.5206046, -0.3720252
PSCN, 333038311, 7.352638, 7.255212, 0.249816, 0.3472419, 0.2971186, 0, -0.5205467, -0.4484917
PSCN, 333138188, 7.377272, 7.28585, 0.2430655, 0.3344879, 0.266955, 0, -0.4492191, -0.4510949
PSCN, 333238132, 7.401256, 7.3148, 0.2366278, 0.3230832, 0.2492057, 0, -0.3903685, -0.4321723
PSCN, 333338168, 7.424562, 7.340596, 0.2296129, 0.3135785, 0.252939, 0, -0.3792295, -0.4017812
PSCN, 333438582, 7.447155, 7.366061, 0.2224152, 0.3035092, 0.2521481, 0, -0.4338314, -0.4050569
PSCN, 333538152, 7.469028, 7.403126, 0.2152385, 0.28114, 0.2756771, 0, -0.6100026, -0.4588347
PSCN, 333638141, 7.490189, 7.441522, 0.2081878, 0.2568552, 0.2861909, 0, -0.6575894, -0.5535563
PSCN, 333738228, 7.510653, 7.486407, 0.2013147, 0.2255611, 0.2788609, 0, -0.7675758, -0.6379552
PSCN, 333938301, 7.549572, 7.569217, 0.1881769, 0.1685327, 0.2836009, 0, -0.7897427, -0.7551989
PSCN, 334238201, 7.603094, 7.644799, 0.1663161, 0.1246112, 0.1724317, -0.06805818, -0.6135652, -0.6780557
PSCN, 334338125, 7.618983, 7.650506, 0.1508767, 0.1193531, 0.1587383, -0.1313689, -0.5888206, -0.6528519
PSCN, 334438283, 7.633099, 7.652137, 0.1321407, 0.1131019, 0.1048577, -0.1325843, -0.5448012, -0.6148672
PSCN, 334538178, 7.645444, 7.655908, 0.1155617, 0.1050986, 0.08725958, -0.1159496, -0.5670169, -0.5940619
PSCN, 334638298, 7.656241, 7.659104, 0.1010624, 0.09819989, 0.07479075, -0.1014017, -0.5415716, -0.5809247
PSCN, 334738105, 7.665683, 7.65931, 0.0883824, 0.09475579, 0.07777799, -0.08867913, -0.5119117, -0.5448978
PSCN, 334838285, 7.673941, 7.658362, 0.0772933, 0.09287211, 0.02361664, -0.07755279, -0.4301175, -0.487246
PSCN, 334938150, 7.681162, 7.650502, 0.0675955, 0.09825591, -0.01680942, -0.06782245, -0.3288991, -0.4358803
PSCN, 335038131, 7.687478, 7.643019, 0.05911445, 0.1035732, -0.001818002, -0.05931291, -0.317881, -0.3826549
PSCN, 335138113, 7.693001, 7.635901, 0.05169751, 0.1087972, -0.001749018, -0.05187107, -0.3339516, -0.3462368
PSCN, 335238151, 7.697831, 7.630071, 0.04521115, 0.112971, 0.009007659, -0.04536293, -0.275301, -0.3179933
PSCN, 335338166, 7.702055, 7.620693, 0.03953864, 0.1209006, -0.009659095, -0.03967138, -0.2316561, -0.288135
PSCN, 335438251, 7.70575, 7.612704, 0.03457781, 0.1276228, 0.008597666, -0.0346939, -0.2219373, -0.2523925
PSCN, 335538212, 7.70898, 7.605642, 0.03023942, 0.1335768, 0.004617793, -0.03034095, -0.2052326, -0.2185377
PSCN, 335638226, 7.711805, 7.600562, 0.02644536, 0.1376885, -0.004415651, -0.02653414, -0.2201688, -0.2040765
PSCN, 335738231, 7.714276, 7.595799, 0.02312733, 0.1416039, 0.004275295, -0.02320498, -0.1730276, -0.1972015
PSCN, 335838213, 7.716436, 7.592857, 0.0202256, 0.1438048, 0.01780379, -0.02029351, -0.2014395, -0.1823875
PSCN, 335938202, 7.718326, 7.588803, 0.01768794, 0.1472114, 0.01534702, -0.01774733, -0.1987834, -0.1827456
PSCN, 336038370, 7.719979, 7.586951, 0.01546868, 0.1484965, 0.04102377, -0.01552061, -0.2105773, -0.1852093
PSCN, 336138179, 7.721425, 7.584798, 0.01352787, 0.1501542, 0.02696582, -0.01357328, -0.2561705, -0.1977454
PSCN, 336238093, 7.722688, 7.585134, 0.01183056, 0.1493851, 0.04815684, -0.01187028, -0.2360471, -0.2221633
PSCN, 336338194, 7.723793, 7.585092, 0.01034621, 0.1490476, 0.07114303, -0.01038095, -0.3042123, -0.2453359
PSCN, 336438258, 7.72476, 7.587814, 0.009048094, 0.145994, 0.06851637, -0.009078471, -0.2737426, -0.2725296
PSCN, 336538174, 7.725605, 7.588073, 0.007912851, 0.1454453, 0.09740102, -0.007939417, -0.2821038, -0.2805155
PSCN, 336638227, 7.726327, 7.590391, 0.006943276, 0.1428796, 0.1055848, -0.006966587, -0.2838192, -0.2818524
PSCN, 336738199, 7.726976, 7.591243, 0.006072121, 0.1418051, 0.1084876, -0.006092506, -0.3238227, -0.2736278
PSCN, 336838186, 7.727543, 7.594267, 0.005310266, 0.1385863, 0.1016483, -0.005328094, -0.266479, -0.2759515
PSCN, 336938177, 7.728039, 7.595734, 0.004644001, 0.1369501, 0.09320831, -0.004659592, -0.2960389, -0.2742537
PSCN, 337038173, 7.728473, 7.598448, 0.004061331, 0.1340871, 0.0706887, -0.004074966, -0.240366, -0.256
PSCN, 337138175, 7.728853, 7.600885, 0.003551767, 0.1315192, 0.07947475, -0.003563691, -0.3012334, -0.2512917
PSCN, 337238202, 7.729185, 7.605549, 0.003106135, 0.1267417, 0.07666226, -0.003116563, -0.2432939, -0.2729636
PSCN, 337338278, 7.729475, 7.609182, 0.002716416, 0.1230094, 0.07795535, -0.002725536, -0.2863704, -0.2838044
PSCN, 337438269, 7.729729, 7.614223, 0.002375595, 0.1178815, 0.08959545, -0.00238357, -0.2576825, -0.2892257
PSCN, 337538241, 7.729951, 7.617526, 0.002077534, 0.1145028, 0.09348509, -0.002084509, -0.2516586, -0.2872428
PSCN, 337638288, 7.730145, 7.619203, 0.001816871, 0.112759, 0.1058878, -0.001822971, -0.243453, -0.2648556
PSCN, 337738283, 7.730315, 7.617517, 0.001588913, 0.1143859, 0.09988008, -0.001594248, -0.2102729, -0.243908
PSCN, 337838221, 7.730463, 7.617305, 0.001389556, 0.1145474, 0.09800851, -0.001394222, -0.2283136, -0.2261592
PSCN, 337938216, 7.730593, 7.618782, 0.001215213, 0.1130265, 0.1036359, -0.001219292, -0.2584069, -0.2303262
PSCN, 338038169, 7.730707, 7.62276, 0.001062743, 0.1090087, 0.1087954, -0.001066311, -0.3092267, -0.2516063
PSCN, 338138230, 7.730805, 7.628096, 0.0009294031, 0.1036389, 0.1163983, -0.0009325235, -0.3567556, -0.2779283
PSCN, 338238170, 7.730893, 7.635355, 0.0008127935, 0.09635024, 0.1003892, -0.0008155222, -0.3535805, -0.3020889
PSCN, 338338234, 7.730968, 7.641544, 0.0007108143, 0.09013523, 0.08903861, -0.0007132008, -0.3485059, -0.3270876
PSCN, 338438365, 7.731035, 7.649181, 0.0006216302, 0.08247513, 0.1304577, -0.0006237172, -0.3883169, -0.3426639
PSCN, 338538167, 7.731093, 7.656615, 0.0005436359, 0.07502174, 0.1114179, -0.000545461, -0.38376, -0.3512737
PSCN, 338638186, 7.731143, 7.665049, 0.0004754272, 0.06657048, 0.08530962, -0.0004770233, -0.393225, -0.367134
PSCN, 338738134, 7.731188, 7.671764, 0.0004157765, 0.05983956, 0.086271, -0.0004171724, -0.3753289, -0.3714355
PSCN, 338838243, 7.731227, 7.679106, 0.0003636101, 0.05248431, 0.06186806, -0.0003648308, -0.3642296, -0.3787852
PSCN, 338938239, 7.731261, 7.685972, 0.0003179889, 0.04560743, 0.05522911, -0.0003190565, -0.3740188, -0.3794229
PSCN, 339038211, 7.731291, 7.692926, 0.0002780916, 0.03864229, 0.05665222, -0.0002790252, -0.3642789, -0.3747485
PSCN, 339138260, 7.731317, 7.69602, 0.0002432, 0.03554012, 0.0368201, -0.0002440165, -0.3300911, -0.3700285
PSCN, 339238265, 7.731339, 7.699152, 0.0002126863, 0.03239939, 0.04161288, -0.0002134003, -0.3312446, -0.3545544
PSCN, 339338298, 7.731359, 7.701096, 0.0001860011, 0.03044983, 0.08362, -0.0001866255, -0.3984452, -0.3546073
PSCN, 339438255, 7.731377, 7.703769, 0.000162664, 0.02776992, 0.04529618, -0.0001632101, -0.3708815, -0.3586185
PSCN, 339538208, 7.731392, 7.702943, 0.000142255, 0.02859112, 0.0398595, -0.0001427325, -0.3527623, -0.3648355
PSCN, 339638120, 7.731405, 7.703006, 0.0001244066, 0.0285237, 0.05655605, -0.0001248242, -0.3540756, -0.3543146
PSCN, 339738080, 7.731416, 7.702662, 0.0001087976, 0.02886395, 0.07297464, -0.0001091629, -0.3803068, -0.3534892
PSCN, 339838168, 7.731427, 7.703432, 9.514706E-05, 0.02809021, 0.03995294, -9.546649E-05, -0.3581158, -0.3535385
PSCN, 339938131, 7.731436, 7.703918, 8.320916E-05, 0.02760131, 0.01998865, -8.348852E-05, -0.3344335, -0.3559284
PSCN, 340038165, 7.731443, 7.705844, 7.276912E-05, 0.02567177, 0.0543029, -7.301342E-05, -0.4203847, -0.3677701
PSCN, 340138176, 7.731451, 7.707716, 6.363897E-05, 0.0237981, 0.04101475, -6.385263E-05, -0.4271876, -0.3905418
PSCN, 340238357, 7.731456, 7.710921, 5.565435E-05, 0.02059111, 0.03376985, -5.584119E-05, -0.4224342, -0.4153241
PSCN, 340338203, 7.731462, 7.715823, 4.867154E-05, 0.01568698, 0.07095264, -4.883494E-05, -0.4807464, -0.4352475
PSCN, 340438259, 7.731466, 7.721229, 4.256484E-05, 0.01027954, 0.06743758, -4.270774E-05, -0.4720179, -0.4497148
PSCN, 340538260, 7.73147, 7.724737, 3.722434E-05, 0.006770482, 0.03741859, -3.734931E-05, -0.4192585, -0.4406299
PSCN, 340638207, 7.731473, 7.728334, 3.255389E-05, 0.003171877, 0.0482149, -3.266319E-05, -0.3993559, -0.4367608
PSCN, 340738211, 7.731476, 7.729534, 2.846944E-05, 0.001970883, 0.05945408, -2.856502E-05, -0.4145022, -0.4151935
PSCN, 340838199, 7.731479, 7.730262, 2.489746E-05, 0.001241821, 0.01755588, -2.498104E-05, -0.3807849, -0.396497
PSCN, 340938307, 7.731482, 7.72967, 2.177364E-05, 0.001833675, 0.004336673, -2.184674E-05, -0.33939, -0.3729182
PSCN, 341038115, 7.731483, 7.728958, 1.904175E-05, 0.002544648, -0.001075023, -1.910568E-05, -0.3354258, -0.3453944
PSCN, 341138234, 7.731485, 7.727928, 1.665263E-05, 0.0035737, -0.02603738, -1.670854E-05, -0.3101716, -0.3248804
PSCN, 341238139, 7.731487, 7.726565, 1.456327E-05, 0.004936082, -0.01085143, -1.461216E-05, -0.3046065, -0.3034315
PSCN, 341338109, 7.731489, 7.725373, 1.273605E-05, 0.006128243, 0.001092203, -1.277881E-05, -0.3440559, -0.3135868
PSCN, 341438232, 7.73149, 7.725135, 1.113809E-05, 0.006365262, -0.02203675, -1.117548E-05, -0.371196, -0.3324509
PSCN, 341538143, 7.73149, 7.723117, 9.740622E-06, 0.008383336, 0.01300782, -9.773324E-06, -0.3733909, -0.3501715
PSCN, 341638183, 7.731492, 7.721855, 8.518487E-06, 0.009644621, 0.005173045, -8.547086E-06, -0.367449, -0.3503609
PSCN, 341738194, 7.731492, 7.719672, 7.449693E-06, 0.01182758, 0.001724671, -7.474704E-06, -0.359479, -0.362765
PSCN, 341838236, 7.731493, 7.718714, 6.514999E-06, 0.01278559, 0.01981893, -6.536873E-06, -0.3938861, -0.3639151
PSCN, 341938203, 7.731493, 7.717405, 5.697578E-06, 0.01409458, 0.02176692, -5.716706E-06, -0.3853491, -0.373933
PSCN, 342038264, 7.731494, 7.717223, 4.982717E-06, 0.01427629, 0.02521974, -4.999444E-06, -0.396302, -0.3798346
PSCN, 342138185, 7.731494, 7.718385, 4.357548E-06, 0.01311402, 0.01324799, -4.372178E-06, -0.4265877, -0.3949497
PSCN, 342238133, 7.731495, 7.720787, 3.810818E-06, 0.01071153, 0.05376549, -3.823612E-06, -0.4619772, -0.4199697
PSCN, 342338389, 7.731495, 7.723553, 3.332685E-06, 0.007945909, 0.0532094, -3.343874E-06, -0.4887685, -0.4438979
PSCN, 342438302, 7.731496, 7.727475, 2.914542E-06, 0.004023684, 0.04661577, -2.924327E-06, -0.5097602, -0.4650858
PSCN, 342538176, 7.731496, 7.729071, 2.548862E-06, 0.002427521, 0.03481926, -2.55742E-06, -0.4824981, -0.4853422
PSCN, 342638218, 7.731496, 7.731767, 2.229062E-06, -0.0002684834, 0.07058445, -2.236546E-06, -0.5418738, -0.4974485
PSCN, 342738167, 7.731496, 7.733788, 1.949388E-06, -0.002289429, 0.04915919, -1.955932E-06, -0.5024545, -0.5107128
PSCN, 342838137, 7.731496, 7.736551, 1.704803E-06, -0.005053163, 0.08087683, -1.710527E-06, -0.5615975, -0.5243029
PSCN, 342938209, 7.731496, 7.738173, 1.490906E-06, -0.006675532, 0.05393489, -1.495912E-06, -0.5111266, -0.5328528
PSCN, 343038221, 7.731497, 7.740767, 1.303846E-06, -0.009269574, 0.06163872, -1.308224E-06, -0.5376751, -0.5345847
PSCN, 343138137, 7.731497, 7.743351, 1.140256E-06, -0.01185323, 0.07722896, -1.144084E-06, -0.561677, -0.541687
PSCN, 343238175, 7.731497, 7.746984, 9.97191E-07, -0.01548669, 0.04853815, -1.000539E-06, -0.5815479, -0.5493814
PSCN, 343338170, 7.731497, 7.74896, 8.720764E-07, -0.01746243, 0.04613283, -8.750042E-07, -0.554961, -0.5589752
PSCN, 343438327, 7.731497, 7.752014, 7.626589E-07, -0.02051605, 0.04088911, -7.652193E-07, -0.6102957, -0.563258
PSCN, 343538221, 7.731497, 7.750788, 6.669699E-07, -0.01928988, 0.04433217, -6.692091E-07, -0.5325595, -0.5621393
PSCN, 343638301, 7.731497, 7.750044, 5.832868E-07, -0.01854649, 0.0370707, -5.852451E-07, -0.5494379, -0.545567
PSCN, 343738153, 7.731498, 7.749687, 5.101032E-07, -0.01818945, 0.01614342, -5.118158E-07, -0.5220149, -0.5488565
PSCN, 343838299, 7.731498, 7.749887, 4.46102E-07, -0.01838967, 0.05053073, -4.475996E-07, -0.5563969, -0.5440488
PSCN, 344238273, 7.731498, 7.741453, 2.609384E-07, -0.009954655, -0.005583209, -2.618144E-07, -0.4638504, -0.5003633
PSCN, 344338136, 7.731498, 7.738781, 2.281991E-07, -0.007283764, 0.04316955, -2.289652E-07, -0.5209709, -0.4967466
PSCN, 344438584, 7.731498, 7.736913, 1.995675E-07, -0.005415486, 0.007068654, -2.002376E-07, -0.5132739, -0.4933105
PSCN, 344538152, 7.731498, 7.732736, 1.745283E-07, -0.001238246, -0.004348104, -1.751142E-07, -0.472924, -0.489484
PSCN, 344638240, 7.731498, 7.730265, 1.526306E-07, 0.001233062, 0.01272825, -1.531431E-07, -0.4587423, -0.4841606
PSCN, 344738230, 7.731498, 7.725968, 1.334805E-07, 0.005529321, 0.02367114, -1.339286E-07, -0.5088313, -0.4803685
PSCN, 344838199, 7.731498, 7.722929, 1.16733E-07, 0.008568257, -0.004505961, -1.171249E-07, -0.4891722, -0.4804839
PSCN, 344938194, 7.731498, 7.717919, 1.020869E-07, 0.01357863, 0.01441146, -1.024296E-07, -0.4452837, -0.4657483
PSCN, 345038199, 7.731498, 7.714027, 8.927825E-08, 0.01747084, 0.008408501, -8.957799E-08, -0.4120403, -0.4435253
PSCN, 345138191, 7.731498, 7.708667, 7.807675E-08, 0.02283094, -0.01422763, -7.833887E-08, -0.3620379, -0.4121311
PSCN, 345238221, 7.731498, 7.70378, 6.828063E-08, 0.02771803, -0.02384531, -6.850986E-08, -0.3131114, -0.3775391
PSCN, 345338142, 7.731498, 7.697737, 5.971362E-08, 0.0337605, -0.02461495, -5.99141E-08, -0.3390167, -0.358945
PSCN, 345438362, 7.731498, 7.692846, 5.222149E-08, 0.03865186, -0.02329885, -5.239682E-08, -0.3271638, -0.3513897
PSCN, 345538158, 7.731498, 7.685754, 4.56694E-08, 0.04574414, -0.01459928, -4.582272E-08, -0.295507, -0.3282367
PSCN, 345638243, 7.731498, 7.680158, 3.993937E-08, 0.05133984, -0.006429048, -4.007346E-08, -0.3243284, -0.327022
PSCN, 345738137, 7.731498, 7.671535, 3.492828E-08, 0.05996228, -0.01951114, -3.504554E-08, -0.2820691, -0.3174908
PSCN, 345838133, 7.731498, 7.66529, 3.054589E-08, 0.066208, 0.01698595, -3.064844E-08, -0.3349084, -0.3105726
PSCN, 345938100, 7.731498, 7.657228, 2.671338E-08, 0.07427014, -0.003372231, -2.680306E-08, -0.2904318, -0.3098493
PSCN, 346038143, 7.731498, 7.651237, 2.336172E-08, 0.08026012, 0.01689327, -2.344016E-08, -0.2879305, -0.2950469
PSCN, 346138161, 7.731498, 7.644116, 2.043059E-08, 0.08738171, 0.02258001, -2.049918E-08, -0.2450953, -0.2718136
PSCN, 346238139, 7.731498, 7.639466, 1.786722E-08, 0.09203136, 0.02628499, -1.79272E-08, -0.2511467, -0.2649795
PSCN, 346338246, 7.731498, 7.634596, 1.562546E-08, 0.09690136, 0.02368194, -1.567792E-08, -0.2214229, -0.2545888
PSCN, 346438220, 7.731498, 7.632054, 1.366497E-08, 0.09944347, 0.02778391, -1.371085E-08, -0.2718026, -0.2607325
PSCN, 346538342, 7.731498, 7.629834, 1.195046E-08, 0.1016639, 0.06398837, -1.199058E-08, -0.321677, -0.2727633
PSCN, 346638222, 7.731498, 7.629055, 1.045107E-08, 0.1024434, 0.03503677, -1.048615E-08, -0.3335626, -0.2931471
PSCN, 346738216, 7.731498, 7.629235, 9.139795E-09, 0.1022627, 0.077287, -9.170479E-09, -0.3860178, -0.3144216
PSCN, 346838254, 7.731498, 7.633738, 7.993047E-09, 0.09776012, 0.1088008, -8.019883E-09, -0.5086111, -0.3743666
PSCN, 346938280, 7.731498, 7.640935, 6.990183E-09, 0.09056225, 0.1110308, -7.01365E-09, -0.5627205, -0.4478358
PSCN, 347038197, 7.731498, 7.651516, 6.113142E-09, 0.07998119, 0.1406968, -6.133666E-09, -0.6144389, -0.5093837
PSCN, 347138192, 7.731498, 7.663882, 5.346144E-09, 0.06761547, 0.1404297, -5.364093E-09, -0.6877913, -0.5705618
PSCN, 347238210, 7.731498, 7.67853, 4.675377E-09, 0.05296764, 0.1802658, -4.691073E-09, -0.7446664, -0.6323162
PSCN, 347338223, 7.731498, 7.690871, 4.088768E-09, 0.04062694, 0.1841526, -4.102495E-09, -0.7478442, -0.6716151
PSCN, 347438365, 7.731498, 7.704475, 3.575761E-09, 0.02702282, 0.1633454, -3.587765E-09, -0.8101797, -0.7174653
PSCN, 347538174, 7.731498, 7.71836, 3.127118E-09, 0.01313732, 0.1707791, -3.137617E-09, -0.8009347, -0.7517769
PSCN, 347638190, 7.731498, 7.733221, 2.734766E-09, -0.001722909, 0.1658486, -2.743948E-09, -0.8416306, -0.786109
PSCN, 347738089, 7.731498, 7.747346, 2.391642E-09, -0.01584828, 0.1627823, -2.399671E-09, -0.8498882, -0.8072178
PSCN, 347838144, 7.731498, 7.761415, 2.09859E-09, -0.02991688, 0.1648715, -2.105636E-09, -0.8832369, -0.8334217
PSCN, 347938224, 7.731498, 7.772754, 1.835285E-09, -0.0412566, 0.159674, -1.841447E-09, -0.8814553, -0.8451506
PSCN, 348038193, 7.731498, 7.783968, 1.605017E-09, -0.05247059, 0.1151926, -1.610405E-09, -0.8780757, -0.8620702
PSCN, 348138227, 7.731498, 7.794289, 1.40364E-09, -0.06279103, 0.1175803, -1.408352E-09, -0.8982201, -0.8775824
PSCN, 348238099, 7.731498, 7.804242, 1.227528E-09, -0.07274403, 0.1113946, -1.231649E-09, -0.9107122, -0.8874688
PSCN, 348338293, 7.731498, 7.81205, 1.073513E-09, -0.08055225, 0.09825942, -1.077118E-09, -0.9076324, -0.8921528
PSCN, 348438310, 7.731498, 7.81882, 9.388222E-10, -0.08732288, 0.06148075, -9.419742E-10, -0.8764034, -0.8803142
PSCN, 348538279, 7.731498, 7.822157, 8.210307E-10, -0.09065967, 0.07730702, -8.237871E-10, -0.8843099, -0.8708218
PSCN, 348638369, 7.731498, 7.824627, 7.180181E-10, -0.09312916, 0.02821404, -7.204287E-10, -0.8284538, -0.8580217
PSCN, 348738199, 7.731498, 7.824281, 6.279303E-10, -0.09278309, 0.008148679, -6.300384E-10, -0.7795561, -0.8349247
PSCN, 348838135, 7.731498, 7.822973, 5.491456E-10, -0.09147571, 0.01031267, -5.509892E-10, -0.7719343, -0.8007129
PSCN, 348938164, 7.731498, 7.821004, 4.802457E-10, -0.08950611, -0.02196443, -4.81858E-10, -0.7625715, -0.7820792
PSCN, 349038114, 7.731498, 7.818647, 4.199905E-10, -0.08714954, -0.0320399, -4.214006E-10, -0.7257136, -0.7709626
PSCN, 349138111, 7.731498, 7.816197, 3.672954E-10, -0.08469959, -0.0003638385, -3.685285E-10, -0.7993224, -0.7757441
PSCN, 349238239, 7.731498, 7.813704, 3.212117E-10, -0.08220691, -0.03044496, -3.222901E-10, -0.7662768, -0.782044
PSCN, 349338196, 7.731498, 7.809967, 2.809103E-10, -0.07846912, -0.008830995, -2.818534E-10, -0.7427127, -0.773977
PSCN, 349438264, 7.731498, 7.806593, 2.464905E-10, -0.07509571, -0.02718444, -2.47318E-10, -0.7717909, -0.7709475
PSCN, 349538185, 7.731498, 7.801655, 2.155646E-10, -0.07015736, -0.0478276, -2.162883E-10, -0.7029904, -0.7589892
PSCN, 349638167, 7.731498, 7.797148, 1.88519E-10, -0.06564991, -0.03529912, -1.891519E-10, -0.7430047, -0.7484553
PSCN, 349738211, 7.731498, 7.792296, 1.648667E-10, -0.06079822, -0.03712339, -1.654202E-10, -0.6952677, -0.7297051
PSCN, 349838265, 7.731498, 7.787603, 1.50603E-10, -0.05610523, -0.04575102, 0, -0.7010359, -0.7098195
PSCN, 349938212, 7.731498, 7.783753, 1.506038E-10, -0.05225574, -0.02005369, 0, -0.7342188, -0.7057558
PSCN, 350038152, 7.731498, 7.780978, 1.506045E-10, -0.04947986, 0.004746226, 0, -0.8291927, -0.7248185
PSCN, 350138239, 7.731498, 7.77773, 1.506052E-10, -0.04623218, -0.008603574, 0, -0.7976742, -0.7492826
PSCN, 350238154, 7.731498, 7.775702, 1.506059E-10, -0.04420399, -0.03355526, 0, -0.74893, -0.7685528
PSCN, 350338113, 7.731498, 7.771601, 1.506066E-10, -0.04010364, -0.01799267, 0, -0.7299443, -0.7546403
PSCN, 350438309, 7.731498, 7.767623, 1.506073E-10, -0.03612538, -0.0388595, 0, -0.7153162, -0.7396803
PSCN, 350538262, 7.731498, 7.761654, 1.50608E-10, -0.03015675, -0.04286184, 0, -0.6484932, -0.7139422
PSCN, 350638383, 7.731498, 7.755363, 1.506087E-10, -0.02386524, -0.02231663, 0, -0.6225734, -0.6685713
PSCN, 350738232, 7.731498, 7.747932, 1.506094E-10, -0.01643421, -0.06837332, 0, -0.5355246, -0.6256527
PSCN, 350838196, 7.731498, 7.73996, 1.506101E-10, -0.008462411, -0.06220112, 0, -0.5142532, -0.5752312
PSCN, 350938192, 7.731498, 7.730105, 1.506109E-10, 0.001392325, -0.08389594, 0, -0.4707384, -0.526741
PSCN, 351038185, 7.731498, 7.720107, 1.506116E-10, 0.01139049, -0.06543476, 0, -0.4585514, -0.4881131
PSCN, 351138197, 7.731498, 7.708694, 1.506123E-10, 0.02280407, -0.08343412, 0, -0.4346346, -0.4582306
PSCN, 351238152, 7.731498, 7.69805, 1.50613E-10, 0.03344738, -0.07795765, 0, -0.3637335, -0.4280572
PSCN, 351338176, 7.731498, 7.686543, 1.506137E-10, 0.04495434, -0.1057254, 0, -0.2953761, -0.3878919
PSCN, 351438235, 7.731498, 7.675488, 1.506144E-10, 0.05600964, -0.0766698, 0, -0.2881782, -0.3519095
PSCN, 351538229, 7.731498, 7.663343, 1.506151E-10, 0.06815502, -0.1058197, 0, -0.2669082, -0.3205918
PSCN, 351638159, 7.731498, 7.651862, 1.506158E-10, 0.07963573, -0.1030335, 0, -0.2202597, -0.2994874
PSCN, 351738565, 7.731498, 7.638433, 1.506165E-10, 0.09306469, -0.1177846, 0, -0.1388337, -0.2746917
PSCN, 351838210, 7.731498, 7.625414, 1.506172E-10, 0.1060835, -0.1157593, 0, -0.1349047, -0.2182917
PSCN, 351938221, 7.731498, 7.611882, 1.506179E-10, 0.1196156, -0.09197032, 0, -0.1142081, -0.1856524
PSCN, 352038116, 7.731498, 7.600169, 1.506187E-10, 0.1313289, -0.07679053, 0, -0.1100371, -0.1534481
PSCN, 352138166, 7.731498, 7.588805, 1.506194E-10, 0.142693, -0.07237581, 0, -0.1226192, -0.147425
PSCN, 352238130, 7.731498, 7.58073, 1.506201E-10, 0.1507673, -0.02737551, 0, -0.2167949, -0.1624468
PSCN, 352338175, 7.731498, 7.576231, 1.506208E-10, 0.1552662, -0.003140312, 0, -0.2640343, -0.1985345
PSCN, 352438264, 7.731498, 7.574328, 1.506215E-10, 0.1571693, -0.005066404, 0, -0.2424156, -0.2243508
PSCN, 352538160, 7.731498, 7.57324, 1.506222E-10, 0.1582576, 0.03361305, 0, -0.2346781, -0.2341683
PSCN, 352638181, 7.731498, 7.573878, 1.506229E-10, 0.1576197, 0.04224763, 0, -0.2672083, -0.2428826
PSCN, 352738247, 7.731498, 7.575459, 1.506236E-10, 0.1560389, 0.04791688, 0, -0.2788225, -0.2554404
PSCN, 352838369, 7.731498, 7.578871, 1.506243E-10, 0.1526265, 0.04454676, 0, -0.2649004, -0.2662158
PSCN, 352938221, 7.731498, 7.585381, 1.506251E-10, 0.1461171, 0.08451442, 0, -0.3929272, -0.2999255
PSCN, 353038175, 7.731498, 7.594178, 1.506258E-10, 0.1373194, 0.09109147, 0, -0.4423552, -0.3652759
PSCN, 353138267, 7.731498, 7.605905, 1.506265E-10, 0.1255928, 0.1050676, 0, -0.5059953, -0.426806
PSCN, 353238125, 7.731498, 7.620353, 1.506272E-10, 0.1111451, 0.1499611, 0, -0.6179284, -0.5008364
PSCN, 353338188, 7.731498, 7.634782, 1.506279E-10, 0.0967152, 0.1654932, 0, -0.6162031, -0.5595146
PSCN, 353438310, 7.731498, 7.648397, 1.506286E-10, 0.0831007, 0.1329971, 0, -0.5409414, -0.5543284
PSCN, 353538210, 7.731498, 7.662498, 1.506293E-10, 0.06899913, 0.1302495, 0, -0.5531953, -0.5516641
PSCN, 353638193, 7.731498, 7.676137, 1.5063E-10, 0.05536022, 0.1130816, 0, -0.581203, -0.5563051
PSCN, 353737954, 7.731498, 7.688504, 1.506307E-10, 0.04299389, 0.1284367, 0, -0.6380756, -0.589834
PSCN, 353837835, 7.731498, 7.700364, 1.506315E-10, 0.03113415, 0.1455759, 0, -0.6836219, -0.6207803
PSCN, 353937870, 7.731498, 7.712364, 1.506322E-10, 0.01913341, 0.1105927, 0, -0.7039564, -0.6541865
PSCN, 354037858, 7.731498, 7.723843, 1.506329E-10, 0.007654532, 0.1166875, 0, -0.6748647, -0.6699953
PSCN, 354137873, 7.731498, 7.733091, 1.506336E-10, -0.001592904, 0.07341977, 0, -0.5982414, -0.6529993
PSCN, 354237829, 7.731498, 7.739812, 1.506343E-10, -0.008314705, 0.06840566, 0, -0.5388095, -0.5984849
PSCN, 354337950, 7.731498, 7.744068, 1.50635E-10, -0.01257008, 0.06193771, 0, -0.5922858, -0.5976823
PSCN, 354437903, 7.731498, 7.746971, 1.506357E-10, -0.01547291, 0.06082483, 0, -0.5715485, -0.5765849
PSCN, 354537869, 7.731498, 7.750082, 1.506364E-10, -0.01858387, 0.03473298, 0, -0.655704, -0.598798
PSCN, 354637922, 7.731498, 7.75323, 1.506371E-10, -0.02173207, 0.02182745, 0, -0.6310648, -0.6222305
PSCN, 354737884, 7.731498, 7.756224, 1.506378E-10, -0.02472645, 0.05646165, 0, -0.6717352, -0.640696
PSCN, 354837995, 7.731498, 7.758761, 1.506386E-10, -0.02726368, 0.04732237, 0, -0.6364369, -0.638216
PSCN, 354937987, 7.731498, 7.759861, 1.506393E-10, -0.02836354, 0.03078165, 0, -0.5656062, -0.6202121
PSCN, 355037863, 7.731498, 7.760185, 1.5064E-10, -0.02868763, -0.0166724, 0, -0.5110588, -0.5863442
PSCN, 355137884, 7.731498, 7.757203, 1.506407E-10, -0.02570545, 0.005238246, 0, -0.4547122, -0.5504356
PSCN, 355237881, 7.731498, 7.753061, 1.506414E-10, -0.02156361, -0.02315256, 0, -0.4648857, -0.5087631
PSCN, 355337954, 7.731498, 7.748747, 1.506421E-10, -0.01724903, -0.01017081, 0, -0.5778569, -0.5052964
PSCN, 355437963, 7.731498, 7.745944, 1.506428E-10, -0.01444569, -0.004645808, 0, -0.6082623, -0.5238351
PSCN, 355538021, 7.731498, 7.744424, 1.506435E-10, -0.01292652, 0.01324779, 0, -0.6384099, -0.5615666
PSCN, 355637876, 7.731498, 7.74381, 1.506442E-10, -0.0123119, 0.01498703, 0, -0.6203367, -0.5828666
PSCN, 355737797, 7.731498, 7.744018, 1.50645E-10, -0.01252003, 0.01507665, 0, -0.6425925, -0.6115398
PSCN, 355837821, 7.731498, 7.744889, 1.506457E-10, -0.013391, 0.02921669, 0, -0.6540087, -0.630859
PSCN, 355937859, 7.731498, 7.745205, 1.506464E-10, -0.01370716, 0.04053466, 0, -0.5997961, -0.6242888
PSCN, 356137934, 7.731498, 7.742353, 1.506478E-10, -0.0108556, 0.01328372, 0, -0.491238, -0.5610218
PSCN, 356738118, 7.731498, 7.705887, 1.506521E-10, 0.02561108, -0.04088549, 0, -0.3565954, -0.3403788
PSCN, 356838202, 7.731498, 7.700865, 1.506528E-10, 0.03063305, -0.0591296, 0, -0.3572654, -0.3633248
PSCN, 356938088, 7.731498, 7.694899, 1.506535E-10, 0.03659862, -0.07200759, 0, -0.28828, -0.3494029
PSCN, 357138163, 7.731498, 7.683595, 1.506549E-10, 0.04790295, -0.04387195, 0, -0.3009281, -0.3298554
PSCN, 357438215, 7.731498, 7.66822, 1.50657E-10, 0.06327831, -0.02192463, 0, -0.2302295, -0.2915452
PSCN, 357538185, 7.731498, 7.663054, 1.506577E-10, 0.0684431, -0.03003684, 0, -0.2417477, -0.2794927
PSCN, 357638198, 7.731498, 7.659342, 1.506585E-10, 0.07215588, 0.001197581, 0, -0.3277978, -0.2930382
PSCN, 357738209, 7.731498, 7.655901, 1.506592E-10, 0.07559643, 0.01021382, 0, -0.3808089, -0.3138224
PSCN, 357838168, 7.731498, 7.656379, 1.506599E-10, 0.07511852, 0.07981611, 0, -0.5734926, -0.3932728
PSCN, 357938287, 7.731498, 7.66116, 1.506606E-10, 0.07033825, 0.1038295, 0, -0.696008, -0.4978625
PSCN, 358038309, 7.731498, 7.671372, 1.506613E-10, 0.06012585, 0.1498596, 0, -0.8477913, -0.6267571
PSCN, 358138109, 7.731498, 7.685406, 1.50662E-10, 0.04609142, 0.1755408, 0, -0.8834409, -0.7260423
PSCN, 358238262, 7.731498, 7.702525, 1.506627E-10, 0.02897289, 0.2101823, 0, -0.9773139, -0.8213857
PSCN, 358338222, 7.731498, 7.720807, 1.506634E-10, 0.01069103, 0.2076637, 0, -1.032828, -0.9015278
PSCN, 358438202, 7.731498, 7.741212, 1.506641E-10, -0.009714241, 0.2251474, 0, -1.08223, -0.9749369
PSCN, 358538161, 7.731498, 7.759413, 1.506648E-10, -0.02791553, 0.2351139, 0, -1.112183, -1.026072
PSCN, 358638127, 7.731498, 7.777698, 1.506656E-10, -0.04619984, 0.191844, 0, -1.112794, -1.066086
PSCN, 358738188, 7.731498, 7.794471, 1.506663E-10, -0.06297351, 0.2312431, 0, -1.142365, -1.088969
PSCN, 358838178, 7.731498, 7.809704, 1.50667E-10, -0.07820667, 0.1684338, 0, -1.056495, -1.079068
PSCN, 358938230, 7.731498, 7.822456, 1.506677E-10, -0.09095813, 0.1610927, 0, -1.064066, -1.076972
PSCN, 359038233, 7.731498, 7.832096, 1.506684E-10, -0.100598, 0.09900776, 0, -0.9681727, -1.038893
PSCN, 359138367, 7.731498, 7.837179, 1.506691E-10, -0.105681, 0.1102037, 0, -0.9632177, -1.007194
PSCN, 359238234, 7.731498, 7.840971, 1.506698E-10, -0.1094738, 0.08420468, 0, -0.9748247, -0.9675627
PSCN, 359338144, 7.731498, 7.842332, 1.506705E-10, -0.1108342, 0.02629743, 0, -0.895176, -0.9458739
PSCN, 359438304, 7.731498, 7.841955, 1.506712E-10, -0.110457, 0.04802378, 0, -0.9168285, -0.9141237
PSCN, 359538180, 7.731498, 7.839401, 1.506719E-10, -0.1079033, 0.01812643, 0, -0.9284843, -0.9100528
PSCN, 359638206, 7.731498, 7.837161, 1.506727E-10, -0.1056633, 0.01139383, 0, -0.9532124, -0.9234155
PSCN, 359738223, 7.731498, 7.833127, 1.506734E-10, -0.1016289, 0.04075596, 0, -0.9919391, -0.9337066
PSCN, 359838254, 7.731498, 7.829763, 1.506741E-10, -0.09826527, 0.01612477, 0, -0.9476821, -0.9386044
PSCN, 359938266, 7.731498, 7.824945, 1.506748E-10, -0.09344715, 0.0181073, 0, -0.9363579, -0.9421162
PSCN, 360038171, 7.731498, 7.820413, 1.506755E-10, -0.08891468, -0.003597849, 0, -0.9148424, -0.9358137
PSCN, 360138177, 7.731498, 7.813821, 1.506762E-10, -0.08232349, -0.02340166, 0, -0.8668242, -0.9235734
PSCN, 360238172, 7.731498, 7.806859, 1.506769E-10, -0.07536183, -0.00379551, 0, -0.8581189, -0.886252
PSCN, 360338199, 7.731498, 7.799398, 1.506776E-10, -0.06790089, -0.04399347, 0, -0.8108528, -0.8552027
PSCN, 360438224, 7.731498, 7.792884, 1.506783E-10, -0.0613866, -0.02508338, 0, -0.8476697, -0.8399531
PSCN, 360538214, 7.731498, 7.786897, 1.506791E-10, -0.05539966, -0.01199463, 0, -0.8826427, -0.8521991
PSCN, 360638176, 7.731498, 7.781492, 1.506798E-10, -0.04999378, -0.02026618, 0, -0.8619944, -0.8620965
PSCN, 360738187, 7.731498, 7.776148, 1.506805E-10, -0.04465076, -0.01628617, 0, -0.8478379, -0.8639467
PSCN, 360838217, 7.731498, 7.771398, 1.506812E-10, -0.0399004, -0.01315918, 0, -0.8252635, -0.8517593
PSCN, 360938299, 7.731498, 7.766207, 1.506819E-10, -0.03470936, -0.0009755303, 0, -0.8532435, -0.8399599
PSCN, 361038189, 7.731498, 7.761715, 1.506826E-10, -0.03021778, -0.0320329, 0, -0.8256848, -0.8369513
PSCN, 361138166, 7.731498, 7.756715, 1.506833E-10, -0.02521717, -0.001190145, 0, -0.8407078, -0.8266776
PSCN, 361238373, 7.731498, 7.752584, 1.50684E-10, -0.0210857, -0.03278258, 0, -0.8070938, -0.820648
PSCN, 361338271, 7.731498, 7.747317, 1.506847E-10, -0.01581959, -0.007607556, 0, -0.8336111, -0.8126908
PSCN, 361438225, 7.731498, 7.74222, 1.506855E-10, -0.01072254, -0.01871802, 0, -0.7551669, -0.7945597
PSCN, 361538165, 7.731498, 7.735832, 1.506862E-10, -0.004333992, -0.04863238, 0, -0.7473577, -0.7734671
PSCN, 361638140, 7.731498, 7.730363, 1.506869E-10, 0.001134758, -0.02442554, 0, -0.7751343, -0.7672463
PSCN, 361738145, 7.731498, 7.723773, 1.506876E-10, 0.007724723, -0.01046607, 0, -0.7906432, -0.7775467
PSCN, 361838332, 7.731498, 7.718648, 1.506883E-10, 0.01284923, -0.01265734, 0, -0.7726307, -0.7792697
PSCN, 361938199, 7.731498, 7.714681, 1.50689E-10, 0.01681652, -0.01129824, 0, -0.7789004, -0.7835448
PSCN, 362038199, 7.731498, 7.712272, 1.506897E-10, 0.01922619, 0.01493027, 0, -0.8388617, -0.7896731
PSCN, 362138177, 7.731498, 7.711244, 1.506904E-10, 0.02025341, -0.003453487, 0, -0.8033884, -0.8164729
PSCN, 362238116, 7.731498, 7.711579, 1.506911E-10, 0.01991833, 0.02405278, 0, -0.8696265, -0.8336406
PSCN, 362338277, 7.731498, 7.712442, 1.506918E-10, 0.01905529, 0.03043176, 0, -0.8332615, -0.8425711
PSCN, 362438318, 7.731498, 7.713243, 1.506926E-10, 0.01825451, 0.04718745, 0, -0.8366835, -0.8196999
PSCN, 362538266, 7.731498, 7.713783, 1.506933E-10, 0.01771496, 0.002441359, 0, -0.8036025, -0.8038375
PSCN, 362638165, 7.731498, 7.714114, 1.50694E-10, 0.01738415, 0.01416407, 0, -0.7885833, -0.7952465
PSCN, 362738203, 7.731498, 7.71237, 1.506947E-10, 0.01912731, 0.001711797, 0, -0.7278559, -0.7799438
PSCN, 362838228, 7.731498, 7.710519, 1.506954E-10, 0.02097851, -0.006554839, 0, -0.7337792, -0.7554562
PSCN, 362938246, 7.731498, 7.707738, 1.506961E-10, 0.02375988, -0.01343739, 0, -0.7174143, -0.7341081
PSCN, 363038139, 7.731498, 7.70598, 1.506968E-10, 0.02551769, -0.006241854, 0, -0.8051271, -0.7567329
PSCN, 363138167, 7.731498, 7.704177, 1.506975E-10, 0.02732067, 0.05994472, 0, -0.8764805, -0.786243
PSCN, 363238128, 7.731498, 7.705221, 1.506982E-10, 0.02627636, 0.05142544, 0, -0.9704509, -0.8456411
PSCN, 363338244, 7.731498, 7.709249, 1.50699E-10, 0.02224926, 0.05910177, 0, -1.004335, -0.9116395
PSCN, 363438262, 7.731498, 7.715178, 1.506997E-10, 0.01631969, 0.0838634, 0, -1.011207, -0.9607542
PSCN, 363538156, 7.731498, 7.722226, 1.507004E-10, 0.009271964, 0.07549898, 0, -1.007097, -0.9878709
PSCN, 363638229, 7.731498, 7.729223, 1.507011E-10, 0.002274284, 0.06426302, 0, -0.9683439, -0.988221
PSCN, 363738224, 7.731498, 7.73671, 1.507018E-10, -0.005212288, 0.08977886, 0, -1.054608, -0.9997266
PSCN, 363838188, 7.731498, 7.74415, 1.507025E-10, -0.01265247, 0.06140199, 0, -1.01538, -1.011889
PSCN, 363938217, 7.731498, 7.750353, 1.507032E-10, -0.01885548, 0.04610392, 0, -0.9470607, -1.001538
PSCN, 364038198, 7.731498, 7.755077, 1.507039E-10, -0.0235796, 0.0226903, 0, -0.926437, -0.9804488
PSCN, 364138225, 7.731498, 7.758079, 1.507046E-10, -0.0265807, 0.0459047, 0, -0.963698, -0.9637207
PSCN, 364238134, 7.731498, 7.760194, 1.507054E-10, -0.02869617, 0.01000573, 0, -0.9634991, -0.9573452
PSCN, 364338202, 7.731498, 7.761828, 1.507061E-10, -0.03033008, 0.000987605, 0, -0.9401497, -0.9464382
PSCN, 364438235, 7.731498, 7.763347, 1.507068E-10, -0.03184925, -0.01468033, 0, -0.9397594, -0.9423849
PSCN, 364538285, 7.731498, 7.76325, 1.507075E-10, -0.0317522, 0.01341384, 0, -0.9355358, -0.9334428
PSCN, 364638122, 7.731498, 7.761726, 1.507082E-10, -0.03022816, -0.03233638, 0, -0.8440667, -0.9158354
PSCN, 364738160, 7.731498, 7.759472, 1.507089E-10, -0.02797413, -0.02893466, 0, -0.8380564, -0.8872334
PSCN, 364838159, 7.731498, 7.755503, 1.507096E-10, -0.02400562, -0.04101359, 0, -0.7548213, -0.8373425
PSCN, 364938160, 7.731498, 7.748958, 1.507103E-10, -0.01746021, -0.08249863, 0, -0.6695538, -0.7690541
PSCN, 365038143, 7.731498, 7.740963, 1.50711E-10, -0.009464607, -0.0822552, 0, -0.6547932, -0.7193642
PSCN, 365138193, 7.731498, 7.731987, 1.507117E-10, -0.0004893871, -0.07557742, 0, -0.6603143, -0.6827407
PSCN, 365238208, 7.731498, 7.72294, 1.507125E-10, 0.008557243, -0.1056601, 0, -0.5743447, -0.6626072
PSCN, 365338247, 7.731498, 7.714393, 1.507132E-10, 0.01710461, -0.07556446, 0, -0.6557274, -0.6270782
PSCN, 365438418, 7.731498, 7.706442, 1.507139E-10, 0.02505566, -0.08274353, 0, -0.5863974, -0.6210368
PSCN, 365538119, 7.731498, 7.697777, 1.507146E-10, 0.03372082, -0.0838212, 0, -0.5272793, -0.5740963
PSCN, 365638201, 7.731498, 7.688713, 1.507153E-10, 0.04278454, -0.08541693, 0, -0.5265202, -0.5386119
PSCN, 365738258, 7.731498, 7.678918, 1.50716E-10, 0.05257946, -0.08497471, 0, -0.4611336, -0.5129882
PSCN, 365838287, 7.731498, 7.668039, 1.507167E-10, 0.06345837, -0.09932619, 0, -0.4094158, -0.4529911
PSCN, 365938190, 7.731498, 7.657506, 1.507174E-10, 0.07399242, -0.1212487, 0, -0.3766904, -0.4302398
PSCN, 366038225, 7.731498, 7.646963, 1.507181E-10, 0.08453503, -0.1022934, 0, -0.3320658, -0.3925649
PSCN, 366138263, 7.731498, 7.639692, 1.507189E-10, 0.09180553, -0.07301322, 0, -0.5287117, -0.4127052
PSCN, 366238076, 7.731498, 7.635194, 1.507196E-10, 0.09630321, -0.03455184, 0, -0.5080315, -0.4699685
PSCN, 366338196, 7.731498, 7.635174, 1.507203E-10, 0.09632336, 0.007092522, 0, -0.6340845, -0.5169631
PSCN, 366438142, 7.731498, 7.637306, 1.50721E-10, 0.09419201, 0.002482853, 0, -0.6189819, -0.5647111
PSCN, 366538139, 7.731498, 7.640695, 1.507217E-10, 0.09080333, 0.03647764, 0, -0.6988964, -0.6034976
PSCN, 366638208, 7.731498, 7.645816, 1.507224E-10, 0.08568188, 0.0603791, 0, -0.7405394, -0.6471106
PSCN, 366738122, 7.731498, 7.653926, 1.507231E-10, 0.07757153, 0.08406739, 0, -0.85771, -0.70899
PSCN, 366838194, 7.731498, 7.665153, 1.507238E-10, 0.06634472, 0.1175503, 0, -0.9786226, -0.7897067
PSCN, 366938172, 7.731498, 7.678581, 1.507245E-10, 0.05291637, 0.1253835, 0, -1.010004, -0.874886
PSCN, 367038226, 7.731498, 7.693628, 1.507252E-10, 0.03786938, 0.1327201, 0, -1.07163, -0.9574043
PSCN, 367138221, 7.731498, 7.709279, 1.50726E-10, 0.02221935, 0.1647256, 0, -1.112861, -1.029236
PSCN, 367238275, 7.731498, 7.725937, 1.507267E-10, 0.005561028, 0.1494386, 0, -1.129814, -1.087405
PSCN, 367338276, 7.731498, 7.741229, 1.507274E-10, -0.00973133, 0.1495845, 0, -1.032855, -1.087039
PSCN, 367438194, 7.731498, 7.75448, 1.507281E-10, -0.02298267, 0.1441471, 0, -1.085133, -1.070617
PSCN, 367538325, 7.731498, 7.764135, 1.507288E-10, -0.03263721, 0.08280831, 0, -0.992403, -1.059639
PSCN, 367638232, 7.731498, 7.771776, 1.507295E-10, -0.0402782, 0.09611175, 0, -1.025749, -1.042726
PSCN, 367738152, 7.731498, 7.77823, 1.507302E-10, -0.04673206, 0.09525599, 0, -1.064122, -1.039091
PSCN, 367838155, 7.731498, 7.783985, 1.507309E-10, -0.05248707, 0.06307493, 0, -1.024406, -1.029068
PSCN, 367938246, 7.731498, 7.788803, 1.507316E-10, -0.05730518, 0.05136307, 0, -0.9528589, -0.9997922
PSCN, 368038161, 7.731498, 7.791424, 1.507323E-10, -0.05992664, 0.03072094, 0, -0.8994449, -0.9560818
PSCN, 368138213, 7.731498, 7.793223, 1.507331E-10, -0.06172535, 0.02864853, 0, -0.9992255, -0.9448259
PSCN, 368238186, 7.731498, 7.79532, 1.507338E-10, -0.06382252, 0.03461819, 0, -1.060336, -0.9786336
PSCN, 368338175, 7.731498, 7.799093, 1.507345E-10, -0.06759571, 0.05305015, 0, -1.164777, -1.039984
PSCN, 368438189, 7.731498, 7.803481, 1.507352E-10, -0.07198291, 0.05223679, 0, -1.114328, -1.084261
PSCN, 368538244, 7.731498, 7.806543, 1.507359E-10, -0.07504566, 0.02345264, 0, -0.9771357, -1.062688
PSCN, 368638265, 7.731498, 7.806654, 1.507366E-10, -0.07515674, -0.04908731, 0, -0.831066, -0.9898726
PSCN, 368738218, 7.731498, 7.801407, 1.507373E-10, -0.06990955, -0.07230293, 0, -0.7128525, -0.8948528
PSCN, 368838213, 7.731498, 7.792109, 1.50738E-10, -0.06061085, -0.0838649, 0, -0.6596113, -0.7931564
PSCN, 368938202, 7.731498, 7.780218, 1.507387E-10, -0.04871998, -0.1186443, 0, -0.6460416, -0.7204077
PSCN, 369038294, 7.731498, 7.766908, 1.507394E-10, -0.03541004, -0.1304211, 0, -0.5645821, -0.6600024
PSCN, 369138233, 7.731498, 7.751494, 1.507402E-10, -0.01999622, -0.1503113, 0, -0.5235916, -0.5969537
PSCN, 369238166, 7.731498, 7.736064, 1.507409E-10, -0.004566535, -0.1296451, 0, -0.5342435, -0.5551428
PSCN, 369338118, 7.731498, 7.720484, 1.507416E-10, 0.01101391, -0.1203797, 0, -0.5371253, -0.5397158
PSCN, 369438182, 7.731498, 7.70597, 1.507423E-10, 0.02552807, -0.1082662, 0, -0.5485188, -0.5341355
PSCN, 369538127, 7.731498, 7.694097, 1.50743E-10, 0.03740063, -0.08047926, 0, -0.6555577, -0.5647504
PSCN, 369638316, 7.731498, 7.684919, 1.507437E-10, 0.04657848, -0.08158457, 0, -0.5943931, -0.5940996
PSCN, 369738237, 7.731498, 7.679631, 1.507444E-10, 0.05186657, -0.064022, 0, -0.6571274, -0.6042271
PSCN, 369838169, 7.731498, 7.6775, 1.507451E-10, 0.05399792, -0.01559485, 0, -0.7902234, -0.6512948
PSCN, 369938208, 7.731498, 7.680196, 1.507458E-10, 0.05130138, 0.02702825, 0, -0.9611391, -0.7663512
PSCN, 370038144, 7.731498, 7.686508, 1.507466E-10, 0.04498974, 0.06420188, 0, -1.001157, -0.8709385
PSCN, 370138208, 7.731498, 7.696414, 1.507473E-10, 0.03508373, 0.08885441, 0, -1.0316, -0.9365996
PSCN, 370238231, 7.731498, 7.707551, 1.50748E-10, 0.02394726, 0.08532049, 0, -0.9901503, -0.9774042
PSCN, 370338218, 7.731498, 7.719468, 1.507487E-10, 0.01202953, 0.07932406, 0, -1.022345, -0.9988328
PSCN, 370438288, 7.731498, 7.730614, 1.507494E-10, 0.0008839046, 0.09245422, 0, -0.9861179, -1.004554
PSCN, 370537915, 7.731498, 7.739943, 1.507501E-10, -0.008444709, 0.07322698, 0, -1.081115, -1.01733
PSCN, 370637946, 7.731498, 7.748904, 1.507508E-10, -0.0174065, 0.08455428, 0, -1.042689, -1.040625
PSCN, 370737919, 7.731498, 7.756037, 1.507515E-10, -0.02453907, 0.06577044, 0, -0.9782809, -1.019038
PSCN, 370838028, 7.731498, 7.760817, 1.507522E-10, -0.02931934, 0.04055949, 0, -0.8840135, -0.9794944
PSCN, 370937897, 7.731498, 7.761394, 1.50753E-10, -0.02989613, 0.02968651, 0, -0.8639023, -0.9226404
PSCN, 371037805, 7.731498, 7.75985, 1.507537E-10, -0.02835194, -0.0109072, 0, -0.8281949, -0.8834137
PSCN, 371137844, 7.731498, 7.754851, 1.507544E-10, -0.02335377, -0.04213656, 0, -0.6821504, -0.8204063
PSCN, 371237837, 7.731498, 7.748087, 1.507551E-10, -0.01658924, -0.04337543, 0, -0.7379358, -0.7881009
PSCN, 371337863, 7.731498, 7.739767, 1.507558E-10, -0.008268927, -0.05002795, 0, -0.7087629, -0.7740628
PSCN, 371437957, 7.731498, 7.732588, 1.507565E-10, -0.001090582, -0.03587746, 0, -0.7629033, -0.7764997
PSCN, 371537894, 7.731498, 7.726385, 1.507572E-10, 0.00511242, -0.02482589, 0, -0.8258089, -0.7841412
PSCN, 371637870, 7.731498, 7.721495, 1.507579E-10, 0.01000256, -0.03781571, 0, -0.7342216, -0.782104
PSCN, 371738070, 7.731498, 7.715786, 1.507586E-10, 0.01571118, -0.02400766, 0, -0.6413602, -0.7402499
PSCN, 371837894, 7.731498, 7.708957, 1.507593E-10, 0.02254101, -0.0463515, 0, -0.596614, -0.6621772
PSCN, 371937885, 7.731498, 7.701454, 1.507601E-10, 0.03004406, -0.06310586, 0, -0.4847678, -0.5789143
PSCN, 372037921, 7.731498, 7.692257, 1.507608E-10, 0.03924023, -0.0956082, 0, -0.4255479, -0.507699
PSCN, 372137886, 7.731498, 7.682318, 1.507615E-10, 0.0491798, -0.1057497, 0, -0.3361526, -0.4486478
PSCN, 372237869, 7.731498, 7.67062, 1.507622E-10, 0.06087719, -0.137375, 0, -0.2986934, -0.3870114
PSCN, 372337898, 7.731498, 7.659338, 1.507629E-10, 0.07216015, -0.1371044, 0, -0.2582253, -0.3534415
PSCN, 372437995, 7.731498, 7.649014, 1.507636E-10, 0.08248363, -0.1253128, 0, -0.3699236, -0.3505929
PSCN, 372537880, 7.731498, 7.640809, 1.507643E-10, 0.0906892, -0.1154329, 0, -0.3909899, -0.3858931
PSCN, 372637917, 7.731498, 7.63479, 1.50765E-10, 0.09670787, -0.07930814, 0, -0.4848368, -0.4137343
PSCN, 372737808, 7.731498, 7.632463, 1.507657E-10, 0.09903514, -0.03479014, 0, -0.5676434, -0.4822715
PSCN, 372837851, 7.731498, 7.632497, 1.507665E-10, 0.09900036, 0.01466012, 0, -0.6208478, -0.5219005
PSCN, 372937858, 7.731498, 7.637887, 1.507672E-10, 0.09361095, 0.01393953, 0, -0.6912135, -0.5860886
PSCN, 373037827, 7.731498, 7.645866, 1.507679E-10, 0.08563121, 0.06166771, 0, -0.7556979, -0.6520291
PSCN, 373137825, 7.731498, 7.657055, 1.507686E-10, 0.07444225, 0.08448504, 0, -0.8143063, -0.7198937
PSCN, 373237874, 7.731498, 7.669403, 1.507693E-10, 0.06209484, 0.1073455, 0, -0.8464959, -0.7735518
PSCN, 373337919, 7.731498, 7.681753, 1.5077E-10, 0.04974499, 0.1008436, 0, -0.8377725, -0.8087007
PSCN, 373437949, 7.731498, 7.693577, 1.507707E-10, 0.03792065, 0.1109662, 0, -0.8606599, -0.8337005
PSCN, 373537940, 7.731498, 7.704933, 1.507714E-10, 0.02656445, 0.1016751, 0, -0.8797992, -0.8544112
PSCN, 373637930, 7.731498, 7.715762, 1.507721E-10, 0.01573559, 0.08443701, 0, -0.8750592, -0.8612179
PSCN, 373737906, 7.731498, 7.725434, 1.507729E-10, 0.006063349, 0.0824199, 0, -0.835031, -0.8507639
PSCN, 373838009, 7.791037, 7.733841, -3.218303E-09, 0.05719604, 0.06586688, -1.734296E-06, -0.8626038, -0.8418168
PSCN, 373937898, 7.791034, 7.740695, -0.0001279937, 0.05021014, 0.06930438, -0.004697013, -0.8336402, -0.8289542
PSCN, 374137841, 7.790666, 7.751925, -0.005724331, 0.03301651, 0.03730395, -0.06548651, -0.9524072, -0.8928018
PSCN, 374537823, 7.78187, 7.748688, -0.05447046, -0.02128809, -0.00842419, -0.2194429, -1.127604, -1.019447
PSCN, 374637769, 7.776673, 7.745065, -0.07380784, -0.04219956, 0.007700684, -0.256041, -1.232928, -1.094851
PSCN, 374837892, 7.76105, 7.736108, -0.1211576, -0.09621623, -0.01642654, -0.3288878, -1.41908, -1.260373
PSCN, 375037877, 7.736779, 7.719633, -0.1803609, -0.1632149, -0.06302691, -0.4018014, -1.489762, -1.386866
PSCN, 375137932, 7.720721, 7.705044, -0.2145702, -0.1988933, -0.1262288, -0.4384398, -1.467965, -1.422629
PSCN, 375237907, 7.701631, 7.686794, -0.2519966, -0.2371596, -0.1620644, -0.4752994, -1.50082, -1.459965
PSCN, 375337943, 7.679198, 7.66562, -0.2927103, -0.2791318, -0.212001, -0.5123943, -1.562488, -1.509858
PSCN, 375438004, 7.653111, 7.641119, -0.3367624, -0.3247708, -0.2406341, -0.5495549, -1.625409, -1.543542
PSCN, 375537863, 7.62305, 7.60504, -0.3840233, -0.3660125, -0.3056293, -0.5810509, -1.565527, -1.533435
PSCN, 375637977, 7.588708, 7.563705, -0.4336738, -0.4086713, -0.3669074, -0.5980846, -1.530887, -1.485431
PSCN, 375737898, 7.549859, 7.517237, -0.484508, -0.4518859, -0.4076079, -0.6017691, -1.527299, -1.427474
PSCN, 375837845, 7.506379, 7.466841, -0.5357704, -0.4962324, -0.4824834, -0.6003098, -1.475503, -1.377163
PSCN, 376137805, 7.34799, 7.286653, -0.6833959, -0.6220592, -0.640334, -0.5204684, -1.335585, -1.341444
PSCN, 376237879, 7.286313, 7.217513, -0.7271729, -0.6583735, -0.6796488, -0.4811366, -1.31183, -1.33999
PSCN, 376337899, 7.220581, 7.146747, -0.7677298, -0.6938956, -0.7162791, -0.4415826, -1.284091, -1.336236
PSCN, 376437950, 7.151054, 7.073467, -0.8050004, -0.7274131, -0.7817238, -0.4018149, -1.217793, -1.357185
PSCN, 376537891, 7.078007, 7.001902, -0.838921, -0.7628163, -0.779002, -0.3618423, -1.249813, -1.382412
PSCN, 376637959, 7.001723, 6.928241, -0.8694316, -0.7959489, -0.8010906, -0.3216728, -1.272266, -1.417921
PSCN, 376737900, 6.922499, 6.844637, -0.8964744, -0.8186131, -0.8405119, -0.2813138, -1.197012, -1.426603
PSCN, 376837877, 6.840638, 6.758218, -0.9199947, -0.8375747, -0.8311454, -0.2407728, -1.196437, -1.399797
PSCN, 376937887, 6.756459, 6.666346, -0.9399399, -0.8498275, -0.8379406, -0.200057, -1.137564, -1.338541
PSCN, 377037880, 6.670284, 6.573459, -0.95626, -0.8594345, -0.8454453, -0.1591735, -1.098914, -1.258291
PSCN, 377137945, 6.582448, 6.476568, -0.968908, -0.8630273, -0.847348, -0.1181287, -1.054465, -1.185505
PSCN, 377237898, 6.493293, 6.381802, -0.977838, -0.866347, -0.8409089, -0.07692929, -1.064143, -1.123736
PSCN, 377337910, 6.403176, 6.284822, -0.9830328, -0.8646783, -0.8437988, -0.03701117, -0.9744253, -1.078915
PSCN, 377438015, 6.312439, 6.19016, -0.9850361, -0.8627576, -0.8458745, -0.009516611, -0.99392, -1.039098
PSCN, 377537856, 6.221351, 6.100585, -0.9853693, -0.8646026, -0.8233508, -0.0003571415, -1.107152, -1.048294
PSCN, 377637840, 6.130047, 6.016188, -0.9853805, -0.8715207, -0.7848597, -0.0005849233, -1.288564, -1.130928
PSCN, 377737845, 6.038585, 5.941142, -0.985846, -0.8884028, -0.756584, -0.01284449, -1.414523, -1.271237
PSCN, 377837879, 5.946896, 5.869943, -0.9884987, -0.9115462, -0.7266544, -0.04798372, -1.552572, -1.398456
PSCN, 377937892, 5.854746, 5.803472, -0.9952295, -0.9439557, -0.6990563, -0.0977413, -1.704014, -1.527164
PSCN, 378037950, 5.761805, 5.737414, -1.006682, -0.9822909, -0.7291115, -0.1488353, -1.78882, -1.631773
PSCN, 378137865, 5.667686, 5.671133, -1.022859, -1.026305, -0.7560295, -0.1998714, -1.875533, -1.730365
PSCN, 378237885, 5.571994, 5.60198, -1.043736, -1.073722, -0.7979406, -0.25083, -1.902202, -1.810446
PSCN, 378337922, 5.474297, 5.523663, -1.069294, -1.11866, -0.8505594, -0.3017134, -1.863536, -1.851007
PSCN, 378438049, 5.374134, 5.438004, -1.09952, -1.163391, -0.9243944, -0.3525373, -1.852703, -1.862721
PSCN, 378537871, 5.271032, 5.339869, -1.134417, -1.203254, -0.9724948, -0.4033274, -1.892367, -1.874861
PSCN, 378637968, 5.164531, 5.237041, -1.173991, -1.2465, -1.038434, -0.4541013, -1.932768, -1.902169
PSCN, 378737886, 5.054134, 5.129423, -1.218259, -1.293548, -1.083674, -0.5048839, -2.050616, -1.946418
PSCN, 378837919, 4.939375, 5.017694, -1.267242, -1.345561, -1.157424, -0.5556924, -2.108631, -2.02392
PSCN, 378937942, 4.819787, 4.900638, -1.32096, -1.401811, -1.217389, -0.6065381, -2.196204, -2.090575
