TimeUS,DesRoll,Roll,DesPitch,Pitch,DesYaw,Yaw,ErrRP,ErrYaw,AEKF
 152650936, -0.28, -0.52, 2.6, 2.37, 275.21, 274.51, 0, 0.01, 3
 152653745, -0.28, -0.48, 2.59, 2.53, 275.21, 274.58, 0, 0.01, 3
 152656134, -0.29, -0.4, 2.59, 2.25, 275.21, 274.52, 0, 0.01, 3
 152658224, -0.29, -0.5, 2.6, 2.43, 275.21, 274.51, 0, 0.01, 3
 152660711, -0.3, -0.47, 2.6, 2.28, 275.21, 274.6, 0, 0.01, 3
 152663302, -0.3, -0.49, 2.6, 2.48, 275.21, 274.56, 0, 0.01, 3
 152666104, -0.3, -0.45, 2.59, 2.41, 275.21, 274.66, 0, 0.01, 3
 152668566, -0.31, -0.4, 2.6, 2.36, 275.21, 274.58, 0, 0.01, 3
 152670690, -0.31, -0.51, 2.6, 2.34, 275.21, 274.56, 0, 0.01, 3
 152675805, -0.32, -0.45, 2.6, 2.54, 275.21, 274.65, 0, 0.01, 3
 152678799, -0.32, -0.4, 2.59, 2.33, 275.21, 274.73, 0, 0.01, 3
 152683328, -0.33, -0.49, 2.6, 2.21, 275.21, 274.64, 0, 0.01, 3
 152685890, -0.34, -0.37, 2.6, 2.42, 275.21, 274.72, 0, 0.01, 3
 152688158, -0.34, -0.41, 2.6, 2.56, 275.21, 274.74, 0, 0.01, 3
 152691185, -0.34, -0.33, 2.59, 2.32, 275.21, 274.78, 0, 0.01, 3
 152693632, -0.35, -0.38, 2.59, 2.44, 275.21, 274.72, 0, 0.01, 3
 152695947, -0.35, -0.43, 2.6, 2.16, 275.21, 274.72, 0, 0.01, 3
 152698167, -0.36, -0.34, 2.6, 2.54, 275.21, 274.77, 0, 0.01, 3
 152700854, -0.36, -0.37, 2.6, 2.45, 275.21, 274.81, 0, 0.01, 3
 152703715, -0.37, -0.27, 2.59, 2.42, 275.21, 274.81, 0, 0.01, 3
 152708235, -0.37, -0.37, 2.6, 2.19, 275.21, 274.77, 0, 0.01, 3
 152710664, -0.38, -0.32, 2.6, 2.55, 275.21, 274.83, 0, 0.01, 3
 152713296, -0.38, -0.29, 2.6, 2.37, 275.21, 274.87, 0, 0.01, 3
 152716226, -0.39, -0.24, 2.6, 2.47, 275.21, 274.83, 0, 0.01, 3
 152723383, -0.4, -0.27, 2.6, 2.5, 275.21, 274.88, 0, 0.01, 3
 152725828, -0.4, -0.2, 2.6, 2.38, 275.21, 274.87, 0, 0.01, 3
 152735844, -0.42, -0.21, 2.59, 2.45, 275.21, 274.9, 0, 0.01, 3
 152738236, -0.43, -0.17, 2.59, 2.47, 275.21, 274.89, 0, 0.01, 3
 152741403, -0.43, -0.22, 2.59, 2.39, 275.21, 274.89, 0, 0.01, 3
 152743662, -0.44, -0.23, 2.59, 2.45, 275.21, 274.9, 0, 0.01, 3
 152748273, -0.44, -0.12, 2.59, 2.55, 275.21, 274.91, 0, 0.01, 3
 152750881, -0.45, -0.16, 2.59, 2.57, 275.21, 274.93, 0, 0.01, 3
 152753735, -0.45, -0.2, 2.58, 2.44, 275.21, 274.98, 0, 0.01, 3
 152756193, -0.45, -0.24, 2.58, 2.51, 275.21, 274.97, 0, 0.01, 3
 152758225, -0.45, -0.16, 2.58, 2.35, 275.21, 274.98, 0, 0.01, 3
 152760687, -0.46, -0.1, 2.58, 2.64, 275.21, 274.96, 0, 0.01, 3
 152763504, -0.46, -0.2, 2.58, 2.52, 275.21, 274.99, 0, 0.01, 3
 152766163, -0.46, -0.19, 2.58, 2.49, 275.21, 275.05, 0, 0.01, 3
 152768528, -0.46, -0.26, 2.58, 2.44, 275.21, 275, 0, 0.01, 3
 152770682, -0.46, -0.14, 2.58, 2.38, 275.21, 275, 0, 0.01, 3
 152773380, -0.46, -0.15, 2.58, 2.75, 275.21, 275, 0, 0.01, 3
 152775822, -0.46, -0.23, 2.58, 2.47, 275.21, 275.06, 0, 0.01, 3
 152778804, -0.46, -0.22, 2.58, 2.59, 275.21, 275.09, 0, 0.01, 3
 152781246, -0.46, -0.28, 2.58, 2.44, 275.21, 275.03, 0, 0.01, 3
 152791359, -0.46, -0.22, 2.58, 2.62, 275.21, 275.11, 0, 0.01, 3
 152793707, -0.46, -0.3, 2.58, 2.45, 275.21, 275.06, 0, 0.01, 3
 152798322, -0.46, -0.31, 2.58, 2.67, 275.21, 275.09, 0, 0.01, 3
 152800697, -0.46, -0.25, 2.58, 2.49, 275.21, 275.14, 0, 0.01, 3
 152804454, -0.46, -0.29, 2.58, 2.61, 275.21, 275.09, 0, 0.01, 3
 152807079, -0.46, -0.26, 2.58, 2.4, 275.21, 275.05, 0, 0.01, 3
 152808324, -0.46, -0.25, 2.58, 2.68, 275.21, 275.08, 0, 0.01, 3
 152810735, -0.46, -0.35, 2.58, 2.6, 275.21, 275.11, 0, 0.01, 3
 152813333, -0.45, -0.28, 2.58, 2.47, 275.21, 275.15, 0, 0.01, 3
 152816256, -0.46, -0.3, 2.59, 2.57, 275.21, 275.07, 0, 0.01, 3
 152820847, -0.46, -0.31, 2.59, 2.7, 275.21, 275.1, 0, 0.01, 3
 152825944, -0.46, -0.3, 2.59, 2.47, 275.21, 275.17, 0, 0.01, 3
 152835871, -0.46, -0.34, 2.59, 2.55, 275.21, 275.11, 0, 0.01, 3
 152838253, -0.46, -0.26, 2.59, 2.55, 275.21, 275.15, 0, 0.01, 3
 152843707, -0.47, -0.35, 2.59, 2.42, 275.21, 275.09, 0, 0.01, 3
 152845778, -0.47, -0.28, 2.59, 2.69, 275.21, 275.12, 0, 0.01, 3
 152856272, -0.48, -0.31, 2.6, 2.57, 275.21, 275.12, 0, 0.01, 3
 152858308, -0.49, -0.27, 2.6, 2.59, 275.21, 275.12, 0, 0.01, 3
 152863337, -0.49, -0.2, 2.6, 2.53, 275.21, 275.13, 0, 0.01, 3
 152868620, -0.5, -0.31, 2.6, 2.59, 275.21, 275.12, 0, 0.01, 3
 152870724, -0.5, -0.27, 2.6, 2.51, 275.21, 275.11, 0, 0.01, 3
 152873319, -0.51, -0.3, 2.6, 2.54, 275.21, 275.12, 0, 0.01, 3
 152875914, -0.51, -0.21, 2.6, 2.4, 275.21, 275.1, 0, 0.01, 3
 152878853, -0.51, -0.34, 2.6, 2.44, 275.21, 275.03, 0, 0.01, 3
 152881166, -0.51, -0.28, 2.6, 2.56, 275.21, 275.13, 0, 0.01, 3
 152883196, -0.52, -0.27, 2.6, 2.5, 275.21, 275.11, 0, 0.01, 3
 152885916, -0.52, -0.29, 2.6, 2.5, 275.21, 275.11, 0, 0.01, 3
 152888164, -0.52, -0.21, 2.61, 2.34, 275.21, 275.11, 0, 0.01, 3
 152891104, -0.52, -0.33, 2.61, 2.55, 275.21, 275.04, 0, 0.01, 3
 152893727, -0.53, -0.3, 2.61, 2.51, 275.21, 275.12, 0, 0.01, 3
 152895908, -0.53, -0.29, 2.61, 2.53, 275.21, 275.09, 0, 0.01, 3
 152898353, -0.53, -0.32, 2.61, 2.49, 275.21, 275.11, 0, 0.01, 3
 152900718, -0.53, -0.22, 2.61, 2.33, 275.21, 275.1, 0, 0.01, 3
 152908280, -0.53, -0.32, 2.61, 2.57, 275.21, 275.09, 0, 0.01, 3
 152910720, -0.54, -0.35, 2.6, 2.4, 275.21, 275.12, 0, 0.01, 3
 152913389, -0.54, -0.22, 2.61, 2.35, 275.21, 275.1, 0, 0.01, 3
 152916301, -0.54, -0.36, 2.61, 2.46, 275.21, 275.03, 0, 0.01, 3
 152923180, -0.54, -0.35, 2.6, 2.36, 275.21, 275.12, 0, 0.01, 3
 152925769, -0.55, -0.24, 2.61, 2.43, 275.21, 275.07, 0, 0.01, 3
 152931388, -0.55, -0.32, 2.6, 2.46, 275.21, 275.12, 0, 0.01, 3
 152933263, -0.55, -0.46, 2.6, 2.48, 275.21, 275.13, 0, 0.01, 3
 152938195, -0.55, -0.31, 2.6, 2.4, 275.21, 275.06, 0, 0.01, 3
 152941254, -0.56, -0.36, 2.6, 2.41, 275.21, 275.02, 0, 0.01, 3
 152943776, -0.56, -0.4, 2.6, 2.44, 275.21, 275.14, 0, 0.01, 3
 152945945, -0.56, -0.48, 2.6, 2.44, 275.21, 275.15, 0, 0.01, 3
 152948258, -0.56, -0.32, 2.6, 2.4, 275.21, 275.12, 0, 0.01, 3
 152950880, -0.56, -0.36, 2.6, 2.37, 275.21, 275.06, 0, 0.01, 3
 152953640, -0.56, -0.37, 2.6, 2.42, 275.21, 275.03, 0, 0.01, 3
 152956153, -0.56, -0.48, 2.6, 2.41, 275.21, 275.16, 0, 0.01, 3
 152958329, -0.56, -0.45, 2.6, 2.44, 275.21, 275.14, 0, 0.01, 3
 152966306, -0.57, -0.42, 2.6, 2.41, 275.21, 275.06, 0, 0.01, 3
 152968668, -0.57, -0.5, 2.6, 2.4, 275.21, 275.15, 0, 0.01, 3
 152973303, -0.57, -0.42, 2.6, 2.41, 275.21, 275.13, 0, 0.01, 3
 152975809, -0.58, -0.35, 2.6, 2.33, 275.21, 275.06, 0, 0.01, 3
 152978729, -0.58, -0.45, 2.6, 2.39, 275.21, 275.07, 0, 0.01, 3
 152981137, -0.58, -0.47, 2.6, 2.4, 275.21, 275.16, 0, 0.01, 3
 152983198, -0.58, -0.4, 2.6, 2.39, 275.21, 275.15, 0, 0.01, 3
 152985895, -0.58, -0.4, 2.6, 2.43, 275.21, 275.12, 0, 0.01, 3
 152988191, -0.59, -0.35, 2.6, 2.27, 275.21, 275.06, 0, 0.01, 3
 152991120, -0.59, -0.46, 2.6, 2.42, 275.21, 275.09, 0, 0.01, 3
 152995827, -0.59, -0.39, 2.6, 2.4, 275.21, 275.14, 0, 0.01, 3
 152998236, -0.6, -0.34, 2.6, 2.41, 275.21, 275.1, 0, 0.01, 3
 153000683, -0.6, -0.36, 2.6, 2.21, 275.21, 275.08, 0, 0.01, 3
 153004615, -0.61, -0.39, 2.6, 2.48, 275.21, 275.12, 0, 0.01, 3
 153010778, -0.62, -0.31, 2.6, 2.31, 275.21, 275.13, 0, 0.01, 3
 153013350, -0.62, -0.32, 2.6, 2.24, 275.21, 275.12, 0, 0.01, 3
 153023436, -0.64, -0.29, 2.6, 2.2, 275.21, 275.16, 0, 0.01, 3
 153025914, -0.64, -0.24, 2.6, 2.32, 275.21, 275.13, 0, 0.01, 3
 153033378, -0.66, -0.22, 2.61, 2.42, 275.21, 275.15, 0, 0.01, 3
 153035978, -0.66, -0.24, 2.61, 2.18, 275.21, 275.15, 0, 0.01, 3
 153038154, -0.67, -0.14, 2.61, 2.36, 275.21, 275.15, 0, 0.01, 3
 153041718, -0.67, -0.18, 2.61, 2.31, 275.21, 275.16, 0, 0.01, 3
 153043706, -0.68, -0.19, 2.61, 2.34, 275.21, 275.16, 0, 0.01, 3
 153045816, -0.68, -0.2, 2.61, 2.3, 275.21, 275.16, 0, 0.01, 3
 153048242, -0.69, -0.13, 2.61, 2.22, 275.21, 275.12, 0, 0.01, 3
 153050727, -0.7, -0.06, 2.61, 2.33, 275.21, 275.18, 0, 0.01, 3
 153053707, -0.7, -0.11, 2.61, 2.3, 275.21, 275.14, 0, 0.01, 3
 153056331, -0.71, -0.18, 2.61, 2.32, 275.21, 275.18, 0, 0.01, 3
 153058324, -0.71, -0.11, 2.61, 2.24, 275.21, 275.14, 0, 0.01, 3
 153060744, -0.72, -0.06, 2.61, 2.28, 275.21, 275.12, 0, 0.01, 3
 153063396, -0.73, -0.02, 2.61, 2.29, 275.21, 275.19, 0, 0.01, 3
 153066238, -0.73, -0.06, 2.61, 2.34, 275.21, 275.13, 0, 0.01, 3
 153068644, -0.74, -0.16, 2.6, 2.25, 275.21, 275.2, 0, 0.01, 3
 153070728, -0.74, -0.02, 2.6, 2.24, 275.21, 275.16, 0, 0.01, 3
 153073210, -0.75, -0.07, 2.6, 2.3, 275.21, 275.15, 0, 0.01, 3
 153083273, -0.77, -0.02, 2.6, 2.26, 275.21, 275.15, 0, 0.02, 3
 153085948, -0.77, -0.09, 2.6, 2.27, 275.21, 275.19, 0, 0.02, 3
 153091097, -0.78, -0.1, 2.59, 2.34, 275.21, 275.18, 0, 0.02, 3
 153093612, -0.78, -0.11, 2.59, 2.19, 275.21, 275.19, 0, 0.02, 3
 153095647, -0.78, -0.07, 2.59, 2.25, 275.21, 275.16, 0, 0.02, 3
 153098289, -0.79, -0.11, 2.59, 2.27, 275.21, 275.18, 0, 0.02, 3
 153100773, -0.79, 0, 2.58, 2.37, 275.21, 275.2, 0, 0.02, 3
 153103715, -0.8, -0.16, 2.58, 2.27, 275.21, 275.18, 0, 0.02, 3
 153106113, -0.8, -0.12, 2.58, 2.22, 275.21, 275.16, 0, 0.02, 3
 153108432, -0.8, -0.18, 2.58, 2.21, 275.21, 275.16, 0, 0.02, 3
 153110801, -0.8, -0.13, 2.58, 2.26, 275.21, 275.15, 0, 0.02, 3
 153113291, -0.81, -0.12, 2.58, 2.36, 275.21, 275.17, 0, 0.02, 3
 153116290, -0.81, -0.22, 2.57, 2.24, 275.21, 275.19, 0, 0.02, 3
 153120829, -0.81, -0.26, 2.58, 2.19, 275.21, 275.14, 0, 0.02, 3
 153123403, -0.81, -0.19, 2.57, 2.31, 275.21, 275.14, 0, 0.02, 3
 153125894, -0.81, -0.35, 2.57, 2.29, 275.21, 275.17, 0, 0.02, 3
 153131303, -0.81, -0.37, 2.57, 2.18, 275.21, 275.13, 0, 0.02, 3
 153138311, -0.81, -0.48, 2.57, 2.3, 275.21, 275.16, 0, 0.02, 3
 153141164, -0.81, -0.39, 2.57, 2.12, 275.21, 275.17, 0, 0.02, 3
 153145865, -0.81, -0.45, 2.58, 2.13, 275.21, 275.1, 0, 0.02, 3
 153148366, -0.81, -0.52, 2.58, 2.17, 275.21, 275.15, 0, 0.02, 3
 153150737, -0.81, -0.56, 2.58, 2.23, 275.21, 275.13, 0, 0.02, 3
 153153587, -0.81, -0.52, 2.58, 2.07, 275.21, 275.15, 0, 0.02, 3
 153156028, -0.81, -0.54, 2.58, 2.22, 275.21, 275.07, 0, 0.02, 3
 153158217, -0.81, -0.62, 2.59, 2.03, 275.21, 275.1, 0, 0.02, 3
 153160856, -0.81, -0.62, 2.59, 2.25, 275.21, 275.14, 0, 0.02, 3
 153163296, -0.81, -0.66, 2.59, 2.17, 275.21, 275.12, 0, 0.02, 3
 153166220, -0.81, -0.6, 2.59, 2.12, 275.21, 275.13, 0, 0.02, 3
 153168686, -0.81, -0.67, 2.59, 2.1, 275.21, 275.06, 0, 0.02, 3
 153170766, -0.81, -0.73, 2.59, 2.04, 275.21, 275.08, 0, 0.02, 3
 153173184, -0.81, -0.69, 2.6, 2.21, 275.21, 275.13, 0, 0.02, 3
 153175926, -0.81, -0.77, 2.6, 2.1, 275.21, 275.11, 0, 0.02, 3
 153178786, -0.82, -0.69, 2.6, 2.12, 275.21, 275.12, 0, 0.02, 3
 153181133, -0.82, -0.8, 2.6, 1.99, 275.21, 275.07, 0, 0.02, 3
 153183279, -0.82, -0.74, 2.6, 2.11, 275.21, 275.06, 0, 0.02, 3
 153193766, -0.83, -0.78, 2.61, 1.98, 275.21, 275.08, 0, 0.02, 3
 153195681, -0.84, -0.79, 2.61, 2.08, 275.21, 275.03, 0, 0.02, 3
 153198300, -0.84, -0.84, 2.61, 2.1, 275.21, 275.11, 0, 0.02, 3
 153200731, -0.84, -0.84, 2.61, 2.07, 275.21, 275.07, 0, 0.02, 3
 153204476, -0.85, -0.9, 2.61, 2.05, 275.21, 275.08, 0, 0.02, 3
 153206811, -0.85, -0.74, 2.61, 1.98, 275.21, 275.07, 0, 0.02, 3
 153208349, -0.86, -0.84, 2.61, 2.08, 275.21, 275.02, 0, 0.02, 3
 153210763, -0.86, -0.81, 2.61, 2.12, 275.21, 275.08, 0, 0.02, 3
 153213398, -0.86, -0.88, 2.61, 2, 275.21, 275.08, 0, 0.02, 3
 153216411, -0.87, -0.83, 2.61, 2.07, 275.21, 275.07, 0, 0.02, 3
 153220806, -0.88, -0.81, 2.61, 2.18, 275.21, 275.04, 0, 0.02, 3
 153223217, -0.89, -0.81, 2.61, 2.08, 275.21, 275.07, 0, 0.02, 3
 153226026, -0.89, -0.89, 2.61, 2.01, 275.21, 275.08, 0, 0.02, 3
 153233304, -0.91, -0.74, 2.62, 2.17, 275.21, 275.06, 0, 0.02, 3
 153235950, -0.91, -0.83, 2.62, 2.04, 275.21, 275.09, 0, 0.02, 3
 153241751, -0.92, -0.8, 2.62, 2.07, 275.21, 275.09, 0, 0.02, 3
 153243718, -0.93, -0.73, 2.62, 2.03, 275.21, 275.08, 0, 0.02, 3
 153250680, -0.94, -0.8, 2.62, 2.07, 275.21, 275.11, 0, 0.02, 3
 153253711, -0.94, -0.77, 2.63, 2.06, 275.21, 275.1, 0, 0.02, 3
 153260730, -0.96, -0.72, 2.63, 2.12, 275.21, 275.09, 0, 0.02, 3
 153263330, -0.96, -0.79, 2.63, 2.06, 275.21, 275.12, 0, 0.02, 3
 153266319, -0.96, -0.69, 2.63, 2.12, 275.21, 275.11, 0, 0.02, 3
 153268587, -0.97, -0.73, 2.63, 2.15, 275.21, 275.11, 0, 0.02, 3
 153270781, -0.97, -0.73, 2.63, 2.11, 275.21, 275.12, 0, 0.02, 3
 153273215, -0.98, -0.67, 2.64, 2.19, 275.21, 275.11, 0, 0.02, 3
 153275994, -0.98, -0.8, 2.64, 2.1, 275.21, 275.12, 0, 0.02, 3
 153278783, -0.98, -0.65, 2.64, 2.15, 275.21, 275.13, 0, 0.02, 3
 153283285, -0.98, -0.63, 2.64, 2.16, 275.21, 275.13, 0, 0.02, 3
 153285951, -0.99, -0.66, 2.64, 2.22, 275.21, 275.13, 0, 0.02, 3
 153291213, -0.99, -0.63, 2.65, 2.19, 275.21, 275.13, 0, 0.02, 3
 153293700, -0.99, -0.7, 2.65, 2.21, 275.21, 275.12, 0, 0.02, 3
 153295732, -0.99, -0.59, 2.65, 2.22, 275.21, 275.13, 0, 0.02, 3
 153298367, -0.99, -0.62, 2.65, 2.26, 275.21, 275.15, 0, 0.02, 3
 153300728, -0.99, -0.67, 2.65, 2.2, 275.21, 275.08, 0, 0.02, 3
 153308258, -1, -0.61, 2.66, 2.24, 275.21, 275.1, 0, 0.02, 3
 153310755, -1, -0.55, 2.66, 2.35, 275.21, 275.18, 0, 0.02, 3
 153313165, -1, -0.67, 2.66, 2.24, 275.21, 275.07, 0, 0.02, 3
 153316317, -1, -0.69, 2.66, 2.3, 275.21, 275.14, 0, 0.02, 3
 153323266, -1, -0.55, 2.66, 2.47, 275.21, 275.16, 0, 0.02, 3
 153326078, -1, -0.63, 2.67, 2.3, 275.21, 275.1, 0, 0.02, 3
 153331269, -0.99, -0.59, 2.67, 2.32, 275.21, 275.11, 0, 0.02, 3
 153333265, -0.99, -0.62, 2.67, 2.48, 275.21, 275.08, 0, 0.02, 3
 153338263, -0.99, -0.65, 2.67, 2.37, 275.21, 275.12, 0, 0.02, 3
 153341222, -0.99, -0.65, 2.67, 2.53, 275.21, 275.1, 0, 0.02, 3
 153343809, -0.98, -0.64, 2.68, 2.36, 275.21, 275.13, 0, 0.02, 3
 153345798, -0.98, -0.59, 2.68, 2.62, 275.21, 275.1, 0, 0.02, 3
 153348413, -0.98, -0.65, 2.68, 2.55, 275.21, 275.14, 0, 0.02, 3
 153350764, -0.98, -0.63, 2.68, 2.46, 275.21, 275.13, 0, 0.02, 3
 153353610, -0.98, -0.64, 2.68, 2.59, 275.21, 275.1, 0, 0.02, 3
 153356175, -0.98, -0.66, 2.69, 2.42, 275.21, 275.12, 0, 0.02, 3
 153358248, -0.97, -0.61, 2.69, 2.72, 275.21, 275.13, 0, 0.02, 3
 153363340, -0.97, -0.61, 2.69, 2.58, 275.21, 275.12, 0, 0.02, 3
 153366177, -0.97, -0.61, 2.69, 2.65, 275.21, 275.12, 0, 0.02, 3
 153370924, -0.97, -0.65, 2.7, 2.72, 275.21, 275.16, 0, 0.02, 3
 153373417, -0.96, -0.69, 2.7, 2.65, 275.21, 275.12, 0, 0.02, 3
 153375836, -0.96, -0.62, 2.7, 2.62, 275.21, 275.16, 0, 0.02, 3
 153378789, -0.96, -0.63, 2.7, 2.66, 275.21, 275.1, 0, 0.02, 3
 153383353, -0.96, -0.68, 2.7, 2.78, 275.21, 275.22, 0, 0.02, 3
 153385852, -0.96, -0.67, 2.7, 2.73, 275.21, 275.12, 0, 0.02, 3
 153391219, -0.96, -0.58, 2.71, 2.73, 275.21, 275.12, 0, 0.02, 3
 153393848, -0.96, -0.72, 2.71, 2.71, 275.21, 275.06, 0, 0.02, 3
 153395921, -0.96, -0.66, 2.71, 2.82, 275.21, 275.24, 0, 0.02, 3
 153398325, -0.96, -0.68, 2.71, 2.77, 275.21, 275.14, 0, 0.02, 3
 153400753, -0.96, -0.71, 2.71, 2.74, 275.21, 275.2, 0, 0.02, 3
 153404505, -0.96, -0.56, 2.71, 2.77, 275.21, 275.17, 0, 0.02, 3
 153406926, -0.96, -0.79, 2.72, 2.79, 275.21, 275.13, 0, 0.02, 3
 153410740, -0.96, -0.71, 2.72, 2.78, 275.21, 275.15, 0, 0.02, 3
 153413368, -0.96, -0.7, 2.72, 2.82, 275.21, 275.19, 0, 0.02, 3
 153423307, -0.96, -0.69, 2.72, 2.8, 275.21, 275.17, 0, 0.02, 3
 153432089, -0.97, -0.75, 2.73, 2.97, 275.21, 275.17, 0, 0.02, 3
 153438342, -0.97, -0.73, 2.73, 2.91, 275.21, 275.19, 0, 0.02, 3
 153441788, -0.97, -0.69, 2.73, 2.77, 275.21, 275.24, 0, 0.02, 3
 153443684, -0.97, -0.72, 2.73, 3.01, 275.21, 275.19, 0, 0.02, 3
 153445809, -0.97, -0.73, 2.73, 2.83, 275.21, 275.26, 0, 0.02, 3
 153448325, -0.97, -0.71, 2.73, 2.97, 275.21, 275.2, 0, 0.02, 3
 153450661, -0.97, -0.78, 2.73, 2.91, 275.21, 275.22, 0, 0.02, 3
 153453726, -0.97, -0.67, 2.74, 2.86, 275.21, 275.24, 0, 0.02, 3
 153456251, -0.97, -0.72, 2.74, 3.05, 275.21, 275.21, 0, 0.02, 3
 153458329, -0.97, -0.75, 2.74, 2.88, 275.21, 275.26, 0, 0.02, 3
 153460924, -0.97, -0.75, 2.74, 3.02, 275.21, 275.23, 0, 0.02, 3
 153463215, -0.97, -0.8, 2.74, 2.96, 275.21, 275.23, 0, 0.02, 3
 153466267, -0.97, -0.68, 2.74, 2.95, 275.21, 275.26, 0, 0.02, 3
 153468565, -0.97, -0.73, 2.74, 3.06, 275.21, 275.25, 0, 0.02, 3
 153470826, -0.97, -0.77, 2.74, 2.95, 275.21, 275.24, 0, 0.02, 3
 153475959, -0.97, -0.79, 2.74, 3, 275.21, 275.24, 0, 0.02, 3
 153478753, -0.97, -0.71, 2.73, 3, 275.21, 275.29, 0, 0.02, 3
 153483444, -0.97, -0.81, 2.73, 3.01, 275.21, 275.24, 0, 0.01, 3
 153485842, -0.97, -0.83, 2.73, 3.05, 275.21, 275.32, 0, 0.01, 3
 153488386, -0.97, -0.77, 2.73, 3.07, 275.21, 275.27, 0, 0.01, 3
 153491069, -0.97, -0.76, 2.73, 3.03, 275.21, 275.33, 0, 0.01, 3
 153493541, -0.97, -0.71, 2.73, 3.17, 275.21, 275.3, 0, 0.01, 3
 153495757, -0.97, -0.92, 2.72, 2.98, 275.21, 275.29, 0, 0.01, 3
 153498202, -0.97, -0.81, 2.72, 3.09, 275.21, 275.33, 0, 0.01, 3
 153500730, -0.97, -0.81, 2.72, 3.03, 275.21, 275.27, 0, 0.01, 3
 153503717, -0.97, -0.81, 2.72, 3.06, 275.21, 275.33, 0, 0.01, 3
 153506284, -0.98, -0.77, 2.72, 3.15, 275.21, 275.29, 0, 0.01, 3
 153508260, -0.97, -0.97, 2.71, 2.99, 275.21, 275.3, 0, 0.01, 3
 153510788, -0.97, -0.8, 2.72, 3.08, 275.21, 275.34, 0, 0.01, 3
 153513243, -0.97, -0.86, 2.71, 3.04, 275.21, 275.27, 0, 0.01, 3
 153516381, -0.98, -0.79, 2.71, 3.16, 275.21, 275.37, 0, 0.01, 3
 153520894, -0.98, -0.97, 2.71, 3.02, 275.21, 275.31, 0, 0.01, 3
 153523271, -0.98, -0.81, 2.71, 3.03, 275.21, 275.34, 0, 0.01, 3
 153531397, -0.98, -0.9, 2.71, 3.04, 275.21, 275.31, 0, 0.01, 3
 153533286, -0.98, -0.93, 2.7, 3.02, 275.21, 275.33, 0, 0.01, 3
 153535678, -0.98, -0.85, 2.71, 2.97, 275.21, 275.37, 0, 0.01, 3
 153538379, -0.98, -0.91, 2.7, 3.14, 275.21, 275.3, 0, 0.01, 3
 153543684, -0.99, -0.9, 2.7, 3.03, 275.21, 275.32, 0, 0.01, 3
 153545796, -0.99, -0.95, 2.7, 3.01, 275.21, 275.34, 0, 0.01, 3
 153548274, -0.99, -0.86, 2.7, 2.94, 275.21, 275.36, 0, 0.01, 3
 153550889, -0.99, -0.92, 2.7, 3.11, 275.21, 275.32, 0, 0.01, 3
 153553710, -0.99, -0.89, 2.7, 3.02, 275.21, 275.43, 0, 0.01, 3
 153556222, -0.99, -0.89, 2.7, 2.99, 275.21, 275.35, 0, 0.01, 3
 153558132, -0.99, -0.95, 2.7, 2.95, 275.21, 275.36, 0, 0.01, 3
 153560799, -0.99, -0.86, 2.7, 2.91, 275.21, 275.36, 0, 0.01, 3
 153563204, -0.99, -0.95, 2.7, 3.06, 275.21, 275.35, 0, 0.01, 3
 153566168, -0.99, -0.87, 2.7, 2.98, 275.21, 275.43, 0, 0.01, 3
 153568488, -0.99, -0.9, 2.7, 2.91, 275.21, 275.37, 0, 0.01, 3
 153570847, -1, -0.92, 2.7, 2.91, 275.21, 275.34, 0, 0.01, 3
 153573348, -1, -0.9, 2.7, 2.82, 275.21, 275.36, 0, 0.01, 3
 153575937, -1, -0.94, 2.7, 3, 275.21, 275.37, 0, 0.01, 3
 153578763, -1, -0.87, 2.7, 2.88, 275.21, 275.42, 0, 0.01, 3
 153581283, -1, -0.87, 2.7, 2.86, 275.21, 275.37, 0, 0.02, 3
 153588329, -1, -0.88, 2.7, 3.01, 275.21, 275.38, 0, 0.02, 3
 153591160, -1, -0.87, 2.7, 2.74, 275.21, 275.43, 0, 0.02, 3
 153593648, -1, -0.82, 2.7, 2.83, 275.21, 275.39, 0, 0.02, 3
 153595872, -1.01, -0.95, 2.7, 2.64, 275.21, 275.36, 0, 0.02, 3
 153598451, -1.01, -0.89, 2.7, 2.69, 275.21, 275.4, 0, 0.02, 3
 153600770, -1.01, -0.88, 2.7, 2.92, 275.21, 275.41, 0, 0.02, 3
 153604303, -1.01, -0.84, 2.7, 2.67, 275.21, 275.44, 0, 0.02, 3
 153606960, -1.01, -0.81, 2.7, 2.8, 275.21, 275.41, 0, 0.02, 3
 153608212, -1.01, -0.92, 2.7, 2.55, 275.21, 275.38, 0, 0.02, 3
 153610857, -1.01, -0.84, 2.7, 2.78, 275.21, 275.41, 0, 0.02, 3
 153613219, -1.01, -0.9, 2.7, 2.76, 275.21, 275.44, 0, 0.02, 3
 153616448, -1.01, -0.81, 2.7, 2.63, 275.21, 275.46, 0, 0.02, 3
 153620704, -1.02, -0.87, 2.7, 2.54, 275.21, 275.39, 0, 0.02, 3
 153623371, -1.02, -0.84, 2.7, 2.69, 275.21, 275.44, 0, 0.02, 3
 153632009, -1.03, -0.83, 2.69, 2.6, 275.21, 275.38, 0, 0.02, 3
 153641812, -1.03, -0.87, 2.68, 2.56, 275.21, 275.5, 0, 0.02, 3
 153643751, -1.03, -0.82, 2.68, 2.5, 275.21, 275.39, 0, 0.02, 3
 153648149, -1.03, -0.83, 2.68, 2.63, 275.21, 275.5, 0, 0.02, 3
 153650732, -1.03, -0.94, 2.68, 2.58, 275.21, 275.46, 0, 0.02, 3
 153653665, -1.03, -0.83, 2.67, 2.61, 275.21, 275.47, 0, 0.02, 3
 153656162, -1.03, -0.81, 2.68, 2.42, 275.21, 275.42, 0, 0.02, 3
 153658139, -1.03, -0.88, 2.68, 2.67, 275.21, 275.4, 0, 0.02, 3
 153660817, -1.03, -0.9, 2.67, 2.51, 275.21, 275.5, 0, 0.02, 3
 153663324, -1.03, -0.91, 2.67, 2.64, 275.21, 275.45, 0, 0.02, 3
 153666271, -1.03, -0.84, 2.67, 2.53, 275.21, 275.47, 0, 0.02, 3
 153668687, -1.03, -0.82, 2.67, 2.44, 275.21, 275.43, 0, 0.02, 3
 153670865, -1.03, -0.94, 2.67, 2.64, 275.21, 275.44, 0, 0.02, 3
 153673245, -1.03, -0.96, 2.67, 2.44, 275.21, 275.51, 0, 0.02, 3
 153675802, -1.03, -0.91, 2.67, 2.68, 275.21, 275.47, 0, 0.02, 3
 153678790, -1.03, -0.9, 2.67, 2.44, 275.21, 275.47, 0, 0.02, 3
 153681148, -1.03, -0.85, 2.67, 2.53, 275.21, 275.45, 0, 0.02, 3
 153683339, -1.02, -1, 2.67, 2.61, 275.21, 275.47, 0, 0.02, 3
 153685862, -1.02, -0.94, 2.67, 2.49, 275.21, 275.52, 0, 0.02, 3
 153695790, -1.01, -1.04, 2.67, 2.58, 275.21, 275.49, 0, 0.02, 3
 153698310, -1, -0.99, 2.67, 2.48, 275.21, 275.55, 0, 0.02, 3
 153700772, -1, -0.97, 2.66, 2.59, 275.21, 275.48, 0, 0.02, 3
 153703670, -1, -0.97, 2.66, 2.44, 275.21, 275.48, 0, 0.02, 3
 153708194, -0.99, -1.07, 2.66, 2.49, 275.21, 275.5, 0, 0.02, 3
 153710925, -0.99, -1.05, 2.66, 2.45, 275.21, 275.56, 0, 0.02, 3
 153713217, -0.99, -0.98, 2.66, 2.56, 275.21, 275.49, 0, 0.02, 3
 153716295, -0.99, -1.08, 2.66, 2.44, 275.21, 275.54, 0, 0.02, 3
 153720929, -0.98, -1.13, 2.66, 2.42, 275.21, 275.5, 0, 0.02, 3
 153723260, -0.98, -1, 2.66, 2.57, 275.21, 275.56, 0, 0.02, 3
 153725777, -0.98, -1.08, 2.66, 2.48, 275.21, 275.51, 0, 0.02, 3
 153731331, -0.98, -1.03, 2.66, 2.56, 275.21, 275.61, 0, 0.02, 3
 153735737, -0.97, -1.06, 2.66, 2.52, 275.21, 275.58, 0, 0.02, 3
 153738451, -0.97, -1.13, 2.67, 2.46, 275.21, 275.54, 0, 0.02, 3
 153741182, -0.97, -1.06, 2.67, 2.61, 275.21, 275.57, 0, 0.02, 3
 153743722, -0.97, -1.03, 2.67, 2.55, 275.21, 275.61, 0, 0.02, 3
 153756308, -0.96, -1.01, 2.67, 2.57, 275.21, 275.58, 0, 0.02, 3
 153758218, -0.96, -1.13, 2.67, 2.55, 275.21, 275.56, 0, 0.02, 3
 153763310, -0.95, -1.07, 2.67, 2.5, 275.21, 275.54, 0, 0.02, 3
 153766178, -0.95, -1.03, 2.67, 2.71, 275.21, 275.56, 0, 0.02, 3
 153768663, -0.95, -1.03, 2.67, 2.52, 275.21, 275.58, 0, 0.02, 3
 153770820, -0.95, -1.08, 2.67, 2.61, 275.21, 275.55, 0, 0.02, 3
 153773307, -0.95, -1.05, 2.67, 2.51, 275.21, 275.56, 0, 0.02, 3
 153775816, -0.95, -1.01, 2.67, 2.66, 275.21, 275.53, 0, 0.02, 3
 153778854, -0.95, -1.01, 2.67, 2.78, 275.21, 275.54, 0, 0.02, 3
 153781073, -0.95, -1.04, 2.67, 2.47, 275.21, 275.59, 0, 0.02, 3
 153783366, -0.95, -0.98, 2.67, 2.72, 275.21, 275.54, 0, 0.02, 3
 153785780, -0.95, -1.04, 2.67, 2.47, 275.21, 275.54, 0, 0.02, 3
 153788344, -0.95, -0.91, 2.67, 2.73, 275.21, 275.55, 0, 0.02, 3
 153791266, -0.95, -1.06, 2.67, 2.75, 275.21, 275.57, 0, 0.02, 3
 153793658, -0.94, -0.95, 2.67, 2.57, 275.21, 275.6, 0, 0.02, 3
 153795815, -0.95, -0.95, 2.67, 2.72, 275.21, 275.53, 0, 0.02, 3
 153800807, -0.94, -0.88, 2.67, 2.79, 275.21, 275.55, 0, 0.02, 3
 153804341, -0.94, -1.06, 2.67, 2.74, 275.21, 275.58, 0, 0.02, 3
 153810843, -0.94, -0.87, 2.67, 2.66, 275.21, 275.49, 0, 0.02, 3
 153813332, -0.94, -0.9, 2.67, 2.81, 275.21, 275.58, 0, 0.02, 3
 153816375, -0.94, -0.98, 2.67, 2.83, 275.21, 275.57, 0, 0.02, 3
 153820836, -0.94, -0.82, 2.67, 2.81, 275.21, 275.45, 0, 0.02, 3
 153825754, -0.94, -0.88, 2.67, 2.84, 275.21, 275.58, 0, 0.02, 3
 153835687, -0.93, -0.82, 2.67, 2.78, 275.21, 275.51, 0, 0.02, 3
 153838373, -0.92, -0.84, 2.67, 2.83, 275.21, 275.58, 0, 0.02, 3
 153841818, -0.92, -0.81, 2.67, 2.85, 275.21, 275.53, 0, 0.02, 3
 153844040, -0.92, -0.71, 2.67, 2.82, 275.21, 275.51, 0, 0.02, 3
 153845817, -0.92, -0.76, 2.67, 2.85, 275.21, 275.43, 0, 0.02, 3
 153848305, -0.91, -0.8, 2.67, 2.83, 275.21, 275.49, 0, 0.02, 3
 153850796, -0.91, -0.82, 2.67, 2.84, 275.21, 275.56, 0, 0.02, 3
 153853623, -0.91, -0.71, 2.67, 2.89, 275.21, 275.48, 0, 0.02, 3
 153856321, -0.91, -0.71, 2.67, 2.81, 275.21, 275.47, 0, 0.02, 3
 153858205, -0.91, -0.7, 2.67, 2.91, 275.21, 275.44, 0, 0.02, 3
 153860921, -0.9, -0.8, 2.67, 2.85, 275.21, 275.46, 0, 0.02, 3
 153863258, -0.9, -0.73, 2.67, 2.87, 275.21, 275.53, 0, 0.02, 3
 153870659, -0.89, -0.65, 2.67, 2.94, 275.21, 275.46, 0, 0.02, 3
 153873295, -0.89, -0.85, 2.68, 2.82, 275.21, 275.46, 0, 0.02, 3
 153875697, -0.88, -0.67, 2.68, 2.88, 275.21, 275.49, 0, 0.02, 3
 153878997, -0.88, -0.72, 2.68, 2.86, 275.21, 275.42, 0, 0.02, 3
 153883415, -0.88, -0.67, 2.68, 2.9, 275.21, 275.47, 0, 0.01, 3
 153885778, -0.88, -0.8, 2.68, 2.87, 275.21, 275.43, 0, 0.01, 3
 153888472, -0.87, -0.63, 2.69, 2.84, 275.21, 275.46, 0, 0.01, 3
 153891215, -0.87, -0.73, 2.69, 2.88, 275.21, 275.41, 0, 0.01, 3
 153893592, -0.87, -0.65, 2.69, 3, 275.21, 275.46, 0, 0.01, 3
 153895896, -0.87, -0.67, 2.69, 2.87, 275.21, 275.46, 0, 0.01, 3
 153898233, -0.87, -0.71, 2.69, 2.95, 275.21, 275.43, 0, 0.01, 3
 153900862, -0.87, -0.68, 2.7, 2.75, 275.21, 275.45, 0, 0.01, 3
 153903661, -0.86, -0.67, 2.7, 2.92, 275.21, 275.4, 0, 0.01, 3
 153906237, -0.86, -0.65, 2.7, 2.98, 275.21, 275.42, 0, 0.01, 3
 153908143, -0.86, -0.63, 2.7, 2.89, 275.21, 275.44, 0, 0.01, 3
 153910926, -0.86, -0.7, 2.7, 2.92, 275.21, 275.41, 0, 0.01, 3
 153913295, -0.86, -0.68, 2.7, 2.74, 275.21, 275.4, 0, 0.01, 3
 153916385, -0.86, -0.6, 2.7, 3.06, 275.21, 275.37, 0, 0.01, 3
 153923321, -0.85, -0.7, 2.71, 2.92, 275.21, 275.37, 0, 0.01, 3
 153925685, -0.85, -0.61, 2.71, 2.82, 275.21, 275.35, 0, 0.01, 3
 153931307, -0.85, -0.67, 2.71, 2.96, 275.21, 275.36, 0, 0.01, 3
 153933407, -0.85, -0.59, 2.71, 2.87, 275.21, 275.39, 0, 0.01, 3
 153938376, -0.85, -0.58, 2.72, 2.84, 275.21, 275.31, 0, 0.01, 3
 153941349, -0.84, -0.58, 2.72, 3.05, 275.21, 275.33, 0, 0.01, 3
 153943704, -0.84, -0.66, 2.72, 2.86, 275.21, 275.36, 0, 0.01, 3
 153945808, -0.84, -0.58, 2.72, 2.87, 275.21, 275.34, 0, 0.01, 3
 153948315, -0.84, -0.62, 2.72, 2.86, 275.21, 275.24, 0, 0.01, 3
 153950843, -0.84, -0.57, 2.72, 2.88, 275.21, 275.29, 0, 0.01, 3
 153953650, -0.84, -0.6, 2.72, 3.05, 275.21, 275.32, 0, 0.01, 3
 153956270, -0.84, -0.65, 2.72, 2.86, 275.21, 275.33, 0, 0.01, 3
 153958255, -0.84, -0.53, 2.73, 2.89, 275.21, 275.28, 0, 0.01, 3
 153960793, -0.84, -0.59, 2.73, 2.87, 275.21, 275.19, 0, 0.01, 3
 153963307, -0.84, -0.58, 2.73, 2.94, 275.21, 275.24, 0, 0.01, 3
 153966185, -0.83, -0.66, 2.73, 2.95, 275.21, 275.31, 0, 0.01, 3
 153968591, -0.83, -0.61, 2.73, 2.91, 275.21, 275.27, 0, 0.01, 3
 153970656, -0.83, -0.52, 2.73, 2.86, 275.21, 275.23, 0, 0.01, 3
 153975691, -0.83, -0.63, 2.73, 2.94, 275.21, 275.21, 0, 0.01, 3
 153978877, -0.83, -0.64, 2.73, 2.93, 275.21, 275.24, 0, 0.01, 3
 153983267, -0.83, -0.52, 2.73, 2.84, 275.21, 275.2, 0, 0.01, 3
 153985833, -0.83, -0.58, 2.73, 2.98, 275.21, 275.13, 0, 0.01, 3
 153988310, -0.83, -0.71, 2.73, 2.87, 275.21, 275.2, 0, 0.01, 3
 153991096, -0.83, -0.57, 2.73, 2.96, 275.21, 275.19, 0, 0.01, 3
 153995857, -0.83, -0.5, 2.73, 2.87, 275.21, 275.19, 0, 0.01, 3
 153998259, -0.83, -0.6, 2.73, 2.97, 275.21, 275.13, 0, 0.01, 3
 154000930, -0.83, -0.73, 2.74, 2.82, 275.21, 275.18, 0, 0.01, 3
 154004362, -0.83, -0.53, 2.74, 2.91, 275.21, 275.17, 0, 0.01, 3
 154006857, -0.83, -0.64, 2.74, 2.87, 275.21, 275.14, 0, 0.01, 3
 154008345, -0.83, -0.5, 2.74, 2.91, 275.21, 275.19, 0, 0.01, 3
 154010774, -0.83, -0.68, 2.74, 2.91, 275.21, 275.14, 0, 0.01, 3
 154016256, -0.83, -0.54, 2.74, 2.85, 275.21, 275.14, 0, 0.01, 3
 154023510, -0.83, -0.67, 2.74, 2.86, 275.21, 275.13, 0, 0.01, 3
 154035821, -0.83, -0.64, 2.75, 2.86, 275.21, 275.13, 0, 0.01, 3
 154038247, -0.84, -0.55, 2.75, 2.7, 275.21, 275.14, 0, 0.01, 3
 154045887, -0.84, -0.57, 2.75, 2.73, 275.21, 275.17, 0, 0.01, 3
 154048267, -0.84, -0.57, 2.75, 2.82, 275.21, 275.11, 0, 0.01, 3
 154050813, -0.84, -0.56, 2.76, 2.64, 275.21, 275.1, 0, 0.01, 3
 154053722, -0.84, -0.54, 2.76, 2.82, 275.21, 275.1, 0, 0.01, 3
 154056351, -0.84, -0.58, 2.76, 2.81, 275.21, 275.12, 0, 0.01, 3
 154058254, -0.84, -0.54, 2.76, 2.71, 275.21, 275.15, 0, 0.01, 3
 154060790, -0.84, -0.54, 2.76, 2.72, 275.21, 275.09, 0, 0.01, 3
 154063287, -0.84, -0.56, 2.76, 2.61, 275.21, 275.07, 0, 0.01, 3
 154066108, -0.84, -0.53, 2.76, 2.77, 275.21, 275.12, 0, 0.01, 3
 154070769, -0.84, -0.48, 2.76, 2.64, 275.21, 275.14, 0, 0.01, 3
 154073210, -0.85, -0.5, 2.77, 2.65, 275.21, 275.06, 0, 0.01, 3
 154075645, -0.85, -0.56, 2.77, 2.57, 275.21, 275.07, 0, 0.01, 3
 154078783, -0.84, -0.5, 2.77, 2.69, 275.21, 275.14, 0, 0.01, 3
 154083397, -0.85, -0.49, 2.77, 2.56, 275.21, 275.14, 0, 0.02, 3
 154085813, -0.85, -0.49, 2.77, 2.59, 275.21, 275.04, 0, 0.02, 3
 154095828, -0.85, -0.4, 2.78, 2.52, 275.21, 275.14, 0, 0.02, 3
 154098150, -0.85, -0.46, 2.78, 2.5, 275.21, 275.06, 0, 0.02, 3
 154100822, -0.85, -0.52, 2.79, 2.61, 275.21, 275.12, 0, 0.02, 3
 154103742, -0.85, -0.39, 2.79, 2.61, 275.21, 275.18, 0, 0.02, 3
 154108276, -0.85, -0.42, 2.79, 2.5, 275.21, 275.14, 0, 0.02, 3
 154110768, -0.85, -0.51, 2.79, 2.49, 275.21, 275.1, 0, 0.02, 3
 154113340, -0.84, -0.47, 2.8, 2.64, 275.21, 275.12, 0, 0.02, 3
 154116268, -0.84, -0.47, 2.8, 2.5, 275.21, 275.18, 0, 0.02, 3
 154120917, -0.84, -0.46, 2.8, 2.42, 275.21, 275.16, 0, 0.02, 3
 154123473, -0.84, -0.47, 2.8, 2.59, 275.21, 275.14, 0, 0.02, 3
 154125746, -0.84, -0.47, 2.8, 2.56, 275.21, 275.15, 0, 0.02, 3
 154131462, -0.84, -0.5, 2.8, 2.6, 275.21, 275.14, 0, 0.02, 3
 154135871, -0.84, -0.42, 2.81, 2.6, 275.21, 275.17, 0, 0.02, 3
 154138214, -0.84, -0.54, 2.81, 2.58, 275.21, 275.16, 0, 0.02, 3
 154141093, -0.83, -0.55, 2.81, 2.59, 275.21, 275.19, 0, 0.02, 3
 154143691, -0.83, -0.54, 2.81, 2.57, 275.21, 275.15, 0, 0.02, 3
 154150824, -0.83, -0.58, 2.81, 2.68, 275.21, 275.15, 0, 0.02, 3
 154153666, -0.83, -0.57, 2.81, 2.55, 275.21, 275.22, 0, 0.02, 3
 154158226, -0.82, -0.51, 2.81, 2.57, 275.21, 275.24, 0, 0.02, 3
 154160768, -0.82, -0.44, 2.81, 2.71, 275.21, 275.21, 0, 0.02, 3
 154163301, -0.82, -0.63, 2.81, 2.7, 275.21, 275.2, 0, 0.02, 3
 154166153, -0.82, -0.55, 2.82, 2.59, 275.21, 275.24, 0, 0.02, 3
 154168791, -0.82, -0.53, 2.82, 2.75, 275.21, 275.22, 0, 0.02, 3
 154170677, -0.82, -0.52, 2.82, 2.61, 275.21, 275.26, 0, 0.02, 3
 154173216, -0.81, -0.45, 2.82, 2.85, 275.21, 275.24, 0, 0.02, 3
 154175681, -0.81, -0.69, 2.82, 2.67, 275.21, 275.24, 0, 0.02, 3
 154178780, -0.81, -0.55, 2.82, 2.67, 275.21, 275.27, 0, 0.02, 3
 154181221, -0.81, -0.62, 2.82, 2.73, 275.21, 275.24, 0, 0.01, 3
 154183431, -0.81, -0.47, 2.82, 2.76, 275.21, 275.27, 0, 0.01, 3
 154188311, -0.8, -0.67, 2.82, 2.71, 275.21, 275.28, 0, 0.01, 3
 154191310, -0.8, -0.53, 2.82, 2.74, 275.21, 275.29, 0, 0.01, 3
 154193517, -0.8, -0.61, 2.82, 2.78, 275.21, 275.25, 0, 0.01, 3
 154195842, -0.8, -0.47, 2.82, 2.87, 275.21, 275.3, 0, 0.01, 3
 154198147, -0.8, -0.57, 2.82, 2.87, 275.21, 275.32, 0, 0.01, 3
 154204586, -0.8, -0.58, 2.82, 2.78, 275.21, 275.31, 0, 0.01, 3
 154206853, -0.8, -0.55, 2.83, 2.92, 275.21, 275.27, 0, 0.01, 3
 154213329, -0.79, -0.6, 2.83, 2.84, 275.21, 275.34, 0, 0.01, 3
 154216236, -0.79, -0.57, 2.83, 2.8, 275.21, 275.33, 0, 0.01, 3
 154223429, -0.79, -0.58, 2.83, 2.94, 275.21, 275.39, 0, 0.01, 3
 154225819, -0.79, -0.59, 2.83, 2.85, 275.21, 275.35, 0, 0.01, 3
 154232039, -0.79, -0.56, 2.84, 2.96, 275.21, 275.33, 0, 0.01, 3
 154235801, -0.78, -0.54, 2.84, 2.9, 275.21, 275.38, 0, 0.01, 3
 154238180, -0.78, -0.57, 2.84, 2.91, 275.21, 275.32, 0, 0.01, 3
 154241913, -0.78, -0.56, 2.84, 2.87, 275.21, 275.35, 0, 0.01, 3
 154243675, -0.78, -0.57, 2.85, 3.02, 275.21, 275.35, 0, 0.01, 3
 154245814, -0.78, -0.58, 2.85, 2.96, 275.21, 275.4, 0, 0.01, 3
 154248156, -0.78, -0.47, 2.85, 2.9, 275.21, 275.37, 0, 0.01, 3
 154250911, -0.78, -0.59, 2.85, 2.9, 275.21, 275.32, 0, 0.01, 3
 154253740, -0.78, -0.54, 2.86, 2.86, 275.21, 275.4, 0, 0.01, 3
 154256172, -0.78, -0.53, 2.86, 3.06, 275.21, 275.36, 0, 0.01, 3
 154258296, -0.78, -0.55, 2.86, 2.9, 275.21, 275.43, 0, 0.01, 3
 154268595, -0.78, -0.54, 2.87, 3.04, 275.21, 275.4, 0, 0.01, 3
 154270740, -0.78, -0.52, 2.87, 2.92, 275.21, 275.43, 0, 0.01, 3
 154275788, -0.78, -0.55, 2.88, 2.88, 275.21, 275.38, 0, 0.01, 3
 154278638, -0.78, -0.39, 2.88, 2.94, 275.21, 275.46, 0, 0.01, 3
 154281095, -0.78, -0.53, 2.88, 3, 275.21, 275.44, 0, 0.01, 3
 154283294, -0.78, -0.38, 2.88, 2.85, 275.21, 275.46, 0, 0.01, 3
 154285834, -0.78, -0.41, 2.88, 2.81, 275.21, 275.43, 0, 0.01, 3
 154288164, -0.78, -0.44, 2.89, 2.96, 275.21, 275.42, 0, 0.01, 3
 154291070, -0.78, -0.4, 2.89, 2.88, 275.21, 275.5, 0, 0.01, 3
 154293777, -0.78, -0.44, 2.89, 3.02, 275.21, 275.45, 0, 0.01, 3
 154295975, -0.78, -0.36, 2.89, 2.78, 275.21, 275.48, 0, 0.01, 3
 154298268, -0.78, -0.38, 2.89, 2.9, 275.21, 275.46, 0, 0.01, 3
 154300879, -0.78, -0.38, 2.89, 2.96, 275.21, 275.44, 0, 0.01, 3
 154303740, -0.78, -0.41, 2.89, 2.85, 275.21, 275.5, 0, 0.01, 3
 154306136, -0.78, -0.36, 2.89, 3, 275.21, 275.46, 0, 0.01, 3
 154308214, -0.78, -0.35, 2.9, 2.71, 275.21, 275.5, 0, 0.01, 3
 154310749, -0.78, -0.28, 2.9, 2.91, 275.21, 275.5, 0, 0.01, 3
 154313340, -0.78, -0.38, 2.9, 2.88, 275.21, 275.48, 0, 0.01, 3
 154323447, -0.78, -0.23, 2.9, 2.91, 275.21, 275.52, 0, 0.01, 3
 154325855, -0.79, -0.38, 2.9, 2.83, 275.21, 275.49, 0, 0.01, 3
 154331413, -0.79, -0.31, 2.91, 2.79, 275.21, 275.48, 0, 0.01, 3
 154333193, -0.79, -0.28, 2.91, 2.84, 275.21, 275.5, 0, 0.01, 3
 154338220, -0.79, -0.34, 2.91, 2.89, 275.21, 275.53, 0, 0.01, 3
 154341100, -0.79, -0.27, 2.91, 2.77, 275.21, 275.6, 0, 0.01, 3
 154343626, -0.79, -0.23, 2.91, 2.82, 275.21, 275.51, 0, 0.01, 3
 154345868, -0.79, -0.24, 2.91, 2.87, 275.21, 275.57, 0, 0.01, 3
 154350891, -0.79, -0.31, 2.9, 2.9, 275.21, 275.58, 0, 0.01, 3
 154353757, -0.79, -0.23, 2.91, 2.73, 275.21, 275.61, 0, 0.01, 3
 154356187, -0.79, -0.23, 2.91, 2.85, 275.21, 275.55, 0, 0.01, 3
 154358264, -0.79, -0.26, 2.9, 2.91, 275.21, 275.59, 0, 0.01, 3
 154360833, -0.79, -0.19, 2.9, 2.86, 275.21, 275.64, 0, 0.01, 3
 154363443, -0.79, -0.31, 2.9, 2.87, 275.21, 275.61, 0, 0.01, 3
 154366158, -0.79, -0.21, 2.9, 2.75, 275.21, 275.62, 0, 0.01, 3
 154368956, -0.79, -0.24, 2.9, 2.84, 275.21, 275.61, 0, 0.01, 3
 154370762, -0.79, -0.23, 2.9, 2.95, 275.21, 275.6, 0, 0.01, 3
 154373298, -0.79, -0.24, 2.89, 2.81, 275.21, 275.66, 0, 0.01, 3
 154381146, -0.79, -0.21, 2.89, 2.98, 275.21, 275.64, 0, 0.01, 3
 154383228, -0.79, -0.28, 2.89, 2.91, 275.21, 275.62, 0, 0.01, 3
 154388210, -0.79, -0.25, 2.89, 2.81, 275.21, 275.59, 0, 0.01, 3
 154391242, -0.79, -0.3, 2.89, 2.77, 275.21, 275.63, 0, 0.01, 3
 154395864, -0.79, -0.39, 2.89, 2.82, 275.21, 275.7, 0, 0.01, 3
 154398268, -0.79, -0.23, 2.88, 2.85, 275.21, 275.69, 0, 0.01, 3
 154400737, -0.8, -0.3, 2.89, 2.77, 275.21, 275.59, 0, 0.01, 3
 154404510, -0.8, -0.3, 2.89, 2.92, 275.21, 275.64, 0, 0.01, 3
 154406956, -0.8, -0.34, 2.88, 2.84, 275.21, 275.75, 0, 0.01, 3
 154408335, -0.8, -0.39, 2.88, 2.9, 275.21, 275.72, 0, 0.01, 3
 154410724, -0.8, -0.22, 2.88, 2.74, 275.21, 275.69, 0, 0.01, 3
 154413330, -0.8, -0.28, 2.88, 2.8, 275.21, 275.62, 0, 0.01, 3
 154416383, -0.8, -0.36, 2.88, 2.85, 275.21, 275.68, 0, 0.01, 3
 154423325, -0.8, -0.28, 2.88, 2.69, 275.21, 275.69, 0, 0.01, 3
 154425811, -0.8, -0.27, 2.88, 2.92, 275.21, 275.66, 0, 0.01, 3
 154433332, -0.8, -0.39, 2.88, 2.89, 275.21, 275.7, 0, 0.01, 3
 154435931, -0.8, -0.32, 2.88, 2.75, 275.21, 275.71, 0, 0.01, 3
 154445919, -0.81, -0.43, 2.88, 2.84, 275.21, 275.7, 0, 0.01, 3
 154448206, -0.81, -0.37, 2.88, 2.84, 275.21, 275.74, 0, 0.01, 3
 154450793, -0.81, -0.51, 2.88, 2.88, 275.21, 275.77, 0, 0.01, 3
 154453609, -0.81, -0.47, 2.88, 2.78, 275.21, 275.79, 0, 0.01, 3
 154456117, -0.81, -0.43, 2.88, 2.8, 275.21, 275.78, 0, 0.01, 3
 154458332, -0.81, -0.45, 2.88, 2.86, 275.21, 275.71, 0, 0.01, 3
 154460681, -0.82, -0.5, 2.88, 2.82, 275.21, 275.82, 0, 0.01, 3
 154463242, -0.82, -0.53, 2.88, 2.87, 275.21, 275.83, 0, 0.01, 3
 154466191, -0.82, -0.54, 2.88, 2.75, 275.21, 275.82, 0, 0.01, 3
 154470715, -0.82, -0.55, 2.88, 2.82, 275.21, 275.74, 0, 0.01, 3
 154473326, -0.83, -0.6, 2.88, 2.87, 275.21, 275.84, 0, 0.01, 3
 154475837, -0.83, -0.57, 2.88, 2.8, 275.21, 275.85, 0, 0.01, 3
 154478740, -0.83, -0.59, 2.88, 2.79, 275.21, 275.78, 0, 0.01, 3
 154481121, -0.83, -0.58, 2.88, 2.79, 275.21, 275.75, 0, 0.01, 3
 154483184, -0.83, -0.64, 2.88, 2.79, 275.21, 275.76, 0, 0.01, 3
 154488167, -0.84, -0.63, 2.88, 2.72, 275.21, 275.85, 0, 0.01, 3
 154491053, -0.84, -0.64, 2.88, 2.81, 275.21, 275.72, 0, 0.01, 3
 154500668, -0.84, -0.62, 2.89, 2.76, 275.21, 275.81, 0, 0.01, 3
 154503656, -0.85, -0.75, 2.89, 2.76, 275.21, 275.74, 0, 0.01, 3
 154508322, -0.85, -0.75, 2.89, 2.8, 275.21, 275.81, 0, 0.01, 3
 154510651, -0.85, -0.87, 2.89, 2.75, 275.21, 275.83, 0, 0.01, 3
 154553516, -0.86, -1, 2.89, 2.81, 275.21, 275.78, 0, 0.01, 3
 154556095, -0.86, -1.07, 2.89, 2.74, 275.21, 275.75, 0, 0.01, 3
 154563419, -0.86, -1.03, 2.89, 2.65, 275.21, 275.8, 0, 0.01, 3
 154566257, -0.86, -0.97, 2.89, 2.91, 275.21, 275.78, 0, 0.01, 3
 154568621, -0.86, -1.17, 2.89, 2.67, 275.21, 275.77, 0, 0.01, 3
 154570762, -0.86, -1.13, 2.89, 2.74, 275.21, 275.8, 0, 0.01, 3
 154573312, -0.86, -1.08, 2.89, 2.71, 275.21, 275.76, 0, 0.01, 3
 154575802, -0.86, -1.07, 2.89, 2.74, 275.21, 275.75, 0, 0.01, 3
 154578934, -0.86, -0.99, 2.89, 2.89, 275.21, 275.8, 0, 0.01, 3
 154585968, -0.86, -1.06, 2.89, 2.72, 275.21, 275.74, 0, 0.01, 3
 154588275, -0.86, -1.03, 2.89, 2.88, 275.21, 275.75, 0, 0.01, 3
 154593599, -0.86, -1.11, 2.88, 2.81, 275.21, 275.81, 0, 0.01, 3
 154595788, -0.86, -1.08, 2.88, 2.75, 275.21, 275.81, 0, 0.01, 3
 154604450, -0.87, -1.06, 2.88, 2.88, 275.21, 275.82, 0, 0.01, 3
 154606830, -0.86, -1.07, 2.88, 2.81, 275.21, 275.81, 0, 0.01, 3
 154613284, -0.87, -1.05, 2.88, 2.99, 275.21, 275.75, 0, 0.01, 3
 154616431, -0.86, -1.02, 2.87, 2.84, 275.21, 275.8, 0, 0.01, 3
 154620741, -0.86, -1.04, 2.87, 2.84, 275.21, 275.7, 0, 0.01, 3
 154623464, -0.86, -0.96, 2.87, 2.84, 275.21, 275.73, 0, 0.01, 3
 154625890, -0.86, -0.95, 2.87, 3.08, 275.21, 275.71, 0, 0.01, 3
 154638228, -0.86, -0.99, 2.86, 3.04, 275.21, 275.72, 0, 0.01, 3
 154641794, -0.86, -0.94, 2.86, 2.96, 275.21, 275.73, 0, 0.01, 3
 154643716, -0.86, -0.82, 2.86, 2.95, 275.21, 275.71, 0, 0.01, 3
 154645674, -0.86, -0.98, 2.86, 2.96, 275.21, 275.68, 0, 0.01, 3
 154648261, -0.86, -0.82, 2.86, 2.95, 275.21, 275.72, 0, 0.01, 3
 154650676, -0.86, -0.92, 2.86, 3.11, 275.21, 275.69, 0, 0.01, 3
 154653818, -0.86, -0.86, 2.86, 2.98, 275.21, 275.71, 0, 0.01, 3
 154656171, -0.86, -0.82, 2.86, 2.89, 275.21, 275.68, 0, 0.01, 3
 154658199, -0.86, -0.85, 2.86, 3.07, 275.21, 275.66, 0, 0.01, 3
 154660698, -0.86, -0.85, 2.86, 2.93, 275.21, 275.71, 0, 0.01, 3
 154663388, -0.86, -0.83, 2.86, 3.19, 275.21, 275.68, 0, 0.01, 3
 154666224, -0.86, -0.87, 2.86, 2.96, 275.21, 275.68, 0, 0.01, 3
 154670777, -0.85, -0.82, 2.87, 3.09, 275.21, 275.63, 0, 0.01, 3
 154673302, -0.85, -0.85, 2.87, 2.97, 275.21, 275.65, 0, 0.01, 3
 154675974, -0.85, -0.78, 2.87, 3.12, 275.21, 275.67, 0, 0.01, 3
 154678750, -0.84, -0.85, 2.87, 2.95, 275.21, 275.61, 0, 0.01, 3
 154683327, -0.84, -0.79, 2.87, 3.1, 275.21, 275.64, 0, 0.01, 3
 154685949, -0.83, -0.83, 2.87, 2.99, 275.21, 275.66, 0, 0.01, 3
 154688239, -0.83, -0.79, 2.88, 3.05, 275.21, 275.68, 0, 0.01, 3
 154691180, -0.83, -0.78, 2.88, 2.97, 275.21, 275.59, 0, 0.01, 3
 154693606, -0.82, -0.69, 2.88, 3.05, 275.21, 275.67, 0, 0.01, 3
 154695774, -0.82, -0.78, 2.88, 3.12, 275.21, 275.64, 0, 0.01, 3
 154698342, -0.81, -0.86, 2.88, 2.96, 275.21, 275.68, 0, 0.01, 3
 154700742, -0.81, -0.78, 2.88, 3.03, 275.21, 275.67, 0, 0.01, 3
 154703681, -0.8, -0.76, 2.89, 3, 275.21, 275.59, 0, 0.01, 3
 154708371, -0.79, -0.77, 2.89, 3.12, 275.21, 275.67, 0, 0.01, 3
 154710768, -0.79, -0.87, 2.89, 2.95, 275.21, 275.67, 0, 0.01, 3
 154720929, -0.76, -0.85, 2.9, 2.96, 275.21, 275.68, 0, 0.01, 3
 154731474, -0.73, -0.9, 2.91, 3.07, 275.21, 275.62, 0, 0.01, 3
 154735963, -0.72, -0.81, 2.92, 2.97, 275.21, 275.55, 0, 0.01, 3
 154738247, -0.71, -0.86, 2.92, 2.92, 275.21, 275.56, 0, 0.01, 3
 154741182, -0.71, -0.83, 2.93, 3.02, 275.21, 275.58, 0, 0.01, 3
 154743815, -0.7, -0.99, 2.93, 2.96, 275.21, 275.62, 0, 0.01, 3
 154745765, -0.69, -0.73, 2.93, 2.9, 275.21, 275.6, 0, 0.01, 3
 154748289, -0.69, -0.88, 2.94, 2.9, 275.21, 275.5, 0, 0.01, 3
 154750692, -0.68, -0.82, 2.94, 2.99, 275.21, 275.54, 0, 0.01, 3
 154753674, -0.68, -0.88, 2.94, 2.89, 275.21, 275.6, 0, 0.01, 3
 154756248, -0.67, -0.95, 2.94, 2.97, 275.21, 275.61, 0, 0.01, 3
 154758329, -0.66, -0.75, 2.95, 2.78, 275.21, 275.59, 0, 0.01, 3
 154760795, -0.66, -0.82, 2.95, 2.91, 275.21, 275.48, 0, 0.01, 3
 154763304, -0.66, -0.86, 2.95, 2.85, 275.21, 275.56, 0, 0.01, 3
 154766243, -0.65, -0.89, 2.96, 2.87, 275.21, 275.59, 0, 0.01, 3
 154768689, -0.64, -0.89, 2.96, 2.94, 275.21, 275.58, 0, 0.01, 3
 154775877, -0.63, -0.9, 2.97, 2.82, 275.21, 275.56, 0, 0.01, 3
 154778700, -0.63, -0.84, 2.97, 2.79, 275.21, 275.59, 0, 0.01, 3
 154783254, -0.62, -0.74, 2.97, 2.73, 275.21, 275.52, 0, 0.01, 3
 154785789, -0.62, -0.83, 2.97, 2.84, 275.21, 275.51, 0, 0.01, 3
 154788342, -0.61, -0.85, 2.98, 2.79, 275.21, 275.54, 0, 0.01, 3
 154791252, -0.61, -0.84, 2.98, 2.71, 275.21, 275.57, 0, 0.01, 3
 154795732, -0.6, -0.78, 2.98, 2.6, 275.21, 275.56, 0, 0.01, 3
 154798371, -0.6, -0.74, 2.98, 2.85, 275.21, 275.55, 0, 0.01, 3
 154804331, -0.59, -0.75, 2.98, 2.73, 275.21, 275.55, 0, 0.01, 3
 154806856, -0.59, -0.74, 2.99, 2.8, 275.21, 275.54, 0, 0.01, 3
 154808208, -0.59, -0.76, 2.99, 2.65, 275.21, 275.54, 0, 0.01, 3
 154810912, -0.59, -0.64, 2.99, 2.89, 275.21, 275.56, 0, 0.01, 3
 154813439, -0.58, -0.82, 2.99, 2.64, 275.21, 275.51, 0, 0.01, 3
 154816425, -0.58, -0.7, 2.99, 2.72, 275.21, 275.55, 0, 0.01, 3
 154823369, -0.58, -0.6, 2.99, 2.8, 275.21, 275.57, 0, 0.01, 3
 154826027, -0.58, -0.69, 2.99, 2.72, 275.21, 275.51, 0, 0.01, 3
 154841939, -0.57, -0.6, 2.99, 2.71, 275.21, 275.53, 0, 0.01, 3
 154843684, -0.57, -0.5, 2.99, 2.67, 275.21, 275.49, 0, 0.01, 3
 154848316, -0.57, -0.49, 2.99, 2.73, 275.21, 275.52, 0, 0.01, 3
 154850702, -0.57, -0.52, 2.99, 2.74, 275.21, 275.52, 0, 0.01, 3
 154853798, -0.57, -0.52, 2.99, 2.72, 275.21, 275.49, 0, 0.01, 3
 154856217, -0.57, -0.39, 2.99, 2.74, 275.21, 275.47, 0, 0.01, 3
 154858380, -0.58, -0.39, 2.99, 2.98, 275.21, 275.43, 0, 0.01, 3
 154860736, -0.58, -0.44, 2.99, 2.64, 275.21, 275.52, 0, 0.01, 3
 154863456, -0.58, -0.36, 3, 2.85, 275.21, 275.5, 0, 0.01, 3
 154866287, -0.58, -0.46, 3, 2.64, 275.21, 275.46, 0, 0.01, 3
 154868586, -0.58, -0.26, 3, 2.81, 275.21, 275.46, 0, 0.01, 3
 154870883, -0.58, -0.38, 3, 2.94, 275.21, 275.46, 0, 0.01, 3
 154873267, -0.58, -0.38, 3, 2.71, 275.21, 275.52, 0, 0.01, 3
 154875826, -0.58, -0.31, 3, 2.84, 275.21, 275.44, 0, 0.01, 3
 154878815, -0.58, -0.33, 3, 2.75, 275.21, 275.42, 0, 0.01, 3
 154881166, -0.58, -0.2, 3.01, 2.87, 275.21, 275.45, 0, 0.01, 3
 154883332, -0.58, -0.4, 3.01, 2.88, 275.21, 275.48, 0, 0.01, 3
 154885944, -0.58, -0.25, 3.01, 2.76, 275.21, 275.5, 0, 0.01, 3
 154893815, -0.59, -0.26, 3.02, 2.83, 275.21, 275.46, 0, 0.01, 3
 154895725, -0.59, -0.29, 3.02, 2.96, 275.21, 275.48, 0, 0.01, 3
 154898359, -0.59, -0.22, 3.02, 2.8, 275.21, 275.45, 0, 0.01, 3
 154900657, -0.59, -0.1, 3.02, 2.9, 275.21, 275.38, 0, 0.01, 3
 154903882, -0.59, -0.2, 3.03, 2.91, 275.21, 275.34, 0, 0.01, 3
 154906248, -0.59, -0.27, 3.03, 2.89, 275.21, 275.43, 0, 0.01, 3
 154908183, -0.59, -0.18, 3.03, 2.93, 275.21, 275.43, 0, 0.01, 3
 154910756, -0.59, -0.19, 3.03, 2.9, 275.21, 275.36, 0, 0.01, 3
 154913167, -0.59, -0.08, 3.03, 2.95, 275.21, 275.36, 0, 0.01, 3
 154916334, -0.6, -0.15, 3.04, 2.94, 275.21, 275.33, 0, 0.01, 3
 154920948, -0.59, -0.09, 3.04, 2.9, 275.21, 275.36, 0, 0.01, 3
 154923386, -0.6, -0.15, 3.05, 2.98, 275.21, 275.31, 0, 0.01, 3
 154925875, -0.6, -0.11, 3.05, 2.95, 275.21, 275.38, 0, 0.01, 3
 154931469, -0.6, -0.24, 3.05, 2.93, 275.21, 275.34, 0, 0.01, 3
 154933295, -0.6, -0.04, 3.06, 2.94, 275.21, 275.31, 0, 0.01, 3
 154935849, -0.6, -0.19, 3.06, 3.04, 275.21, 275.3, 0, 0.01, 3
 154938298, -0.6, -0.09, 3.06, 3.02, 275.21, 275.39, 0, 0.01, 3
 154941146, -0.6, -0.13, 3.07, 3, 275.21, 275.35, 0, 0.01, 3
 154948350, -0.6, -0.21, 3.08, 3.09, 275.21, 275.31, 0, 0.01, 3
 154950709, -0.6, -0.07, 3.08, 3.06, 275.21, 275.36, 0, 0.01, 3
 154953738, -0.6, -0.1, 3.08, 3, 275.21, 275.34, 0, 0.01, 3
 154956264, -0.6, -0.15, 3.09, 3.03, 275.21, 275.26, 0, 0.01, 3
 154958266, -0.6, -0.17, 3.09, 2.92, 275.21, 275.31, 0, 0.01, 3
 154960717, -0.6, -0.13, 3.1, 3.19, 275.21, 275.28, 0, 0.01, 3
 154963222, -0.6, -0.13, 3.1, 3.07, 275.21, 275.29, 0, 0.01, 3
 154966119, -0.6, -0.09, 3.1, 3.05, 275.21, 275.29, 0, 0.01, 3
 154968666, -0.61, -0.17, 3.11, 2.98, 275.21, 275.23, 0, 0.01, 3
 154970855, -0.61, -0.2, 3.11, 2.92, 275.21, 275.29, 0, 0.01, 3
 154973225, -0.61, -0.08, 3.11, 3.22, 275.21, 275.28, 0, 0.01, 3
 154975828, -0.61, -0.23, 3.12, 2.97, 275.21, 275.28, 0, 0.01, 3
 154978733, -0.61, -0.05, 3.12, 3.08, 275.21, 275.26, 0, 0.01, 3
 154981155, -0.61, -0.21, 3.13, 2.98, 275.21, 275.19, 0, 0.01, 3
 154983239, -0.61, -0.16, 3.13, 3.13, 275.21, 275.29, 0, 0.01, 3
 154985828, -0.61, -0.12, 3.13, 3.14, 275.21, 275.3, 0, 0.01, 3
 154991199, -0.61, -0.11, 3.14, 3, 275.21, 275.25, 0, 0.01, 3
 154993734, -0.62, -0.25, 3.14, 3.03, 275.21, 275.17, 0, 0.01, 3
 155000755, -0.62, -0.26, 3.15, 3.16, 275.21, 275.21, 0, 0.01, 3
 155004375, -0.62, -0.22, 3.15, 2.93, 275.21, 275.24, 0, 0.01, 3
 155008277, -0.62, -0.3, 3.16, 3.11, 275.21, 275.23, 0, 0.01, 3
 155010744, -0.62, -0.29, 3.16, 3.02, 275.21, 275.22, 0, 0.01, 3
 155013317, -0.62, -0.31, 3.17, 3.15, 275.21, 275.18, 0, 0.01, 3
 155016542, -0.62, -0.32, 3.17, 2.93, 275.21, 275.22, 0, 0.01, 3
 155026029, -0.62, -0.39, 3.18, 3.09, 275.21, 275.18, 0, 0.01, 3
 155033270, -0.63, -0.47, 3.19, 3.03, 275.21, 275.15, 0, 0.01, 3
 155035707, -0.63, -0.43, 3.2, 3.02, 275.21, 275.21, 0, 0.01, 3
 155038302, -0.63, -0.43, 3.2, 3.07, 275.21, 275.15, 0, 0.01, 3
 155041712, -0.63, -0.41, 3.2, 3.08, 275.21, 275.2, 0, 0.01, 3
 155043840, -0.63, -0.39, 3.2, 3.16, 275.21, 275.2, 0, 0.01, 3
 155045758, -0.63, -0.54, 3.2, 3, 275.21, 275.14, 0, 0.01, 3
 155048379, -0.63, -0.5, 3.21, 3.01, 275.21, 275.2, 0, 0.01, 3
 155050851, -0.63, -0.48, 3.21, 3.04, 275.21, 275.12, 0, 0.01, 3
 155053664, -0.63, -0.49, 3.21, 3.12, 275.21, 275.2, 0, 0.01, 3
 155056111, -0.64, -0.45, 3.21, 3.11, 275.21, 275.17, 0, 0.01, 3
 155066318, -0.64, -0.52, 3.22, 3.2, 275.21, 275.15, 0, 0.01, 3
 155068624, -0.64, -0.56, 3.22, 2.99, 275.21, 275.16, 0, 0.01, 3
 155070689, -0.64, -0.63, 3.23, 3.08, 275.21, 275.09, 0, 0.01, 3
 155073199, -0.64, -0.57, 3.23, 2.92, 275.21, 275.13, 0, 0.01, 3
 155075882, -0.65, -0.61, 3.23, 3.03, 275.21, 275.09, 0, 0.01, 3
 155078760, -0.65, -0.61, 3.24, 3.13, 275.21, 275.12, 0, 0.01, 3
 155081082, -0.65, -0.63, 3.24, 2.96, 275.21, 275.13, 0, 0.01, 3
 155083300, -0.65, -0.62, 3.24, 3.14, 275.21, 275.08, 0, 0.01, 3
 155085720, -0.65, -0.67, 3.24, 2.88, 275.21, 275.1, 0, 0.01, 3
 155088297, -0.65, -0.61, 3.25, 3.15, 275.21, 275.08, 0, 0.01, 3
 155091089, -0.65, -0.73, 3.25, 3.09, 275.21, 275.12, 0, 0.01, 3
 155093563, -0.65, -0.63, 3.25, 3, 275.21, 275.12, 0, 0.01, 3
 155095738, -0.66, -0.71, 3.25, 3.02, 275.21, 275.06, 0, 0.01, 3
 155098341, -0.66, -0.67, 3.25, 2.96, 275.21, 275.05, 0, 0.01, 3
 155100811, -0.66, -0.69, 3.25, 3.14, 275.21, 275.09, 0, 0.01, 3
 155103864, -0.66, -0.77, 3.25, 3.09, 275.21, 275.11, 0, 0.01, 3
 155106249, -0.66, -0.65, 3.25, 3.02, 275.21, 275.12, 0, 0.01, 3
 155108160, -0.67, -0.69, 3.26, 3.07, 275.21, 275.04, 0, 0.01, 3
 155110669, -0.67, -0.71, 3.26, 2.96, 275.21, 275.04, 0, 0.01, 3
 155113197, -0.67, -0.75, 3.26, 3.17, 275.21, 275.1, 0, 0.01, 3
 155116341, -0.67, -0.74, 3.26, 3.03, 275.21, 275.12, 0, 0.01, 3
 155123325, -0.68, -0.76, 3.26, 2.97, 275.21, 275.07, 0, 0.01, 3
 155125945, -0.69, -0.69, 3.26, 3.21, 275.21, 275.11, 0, 0.01, 3
 155131378, -0.69, -0.62, 3.26, 3.13, 275.21, 275.07, 0, 0.01, 3
 155133273, -0.69, -0.75, 3.26, 2.96, 275.21, 274.96, 0, 0.01, 3
 155135749, -0.7, -0.75, 3.26, 3.13, 275.21, 275.05, 0, 0.01, 3
 155138289, -0.7, -0.72, 3.26, 3.11, 275.21, 275.12, 0, 0.01, 3
 155141090, -0.7, -0.76, 3.26, 3.15, 275.21, 275.07, 0, 0.01, 3
 155143612, -0.7, -0.64, 3.26, 3.08, 275.21, 275.03, 0, 0.01, 3
 155145763, -0.71, -0.75, 3.26, 2.99, 275.21, 274.96, 0, 0.01, 3
 155148345, -0.71, -0.73, 3.26, 3.2, 275.21, 275.06, 0, 0.01, 3
 155150828, -0.71, -0.74, 3.26, 3.05, 275.21, 275.11, 0, 0.01, 3
 155153625, -0.71, -0.71, 3.26, 3.27, 275.21, 275.04, 0, 0.01, 3
 155156341, -0.71, -0.69, 3.26, 3.04, 275.21, 275.05, 0, 0.01, 3
 155158216, -0.72, -0.72, 3.26, 3.2, 275.21, 274.99, 0, 0.01, 3
 155160839, -0.72, -0.78, 3.26, 3.19, 275.21, 275.07, 0, 0.01, 3
 155163287, -0.72, -0.71, 3.26, 3.17, 275.21, 275.05, 0, 0.01, 3
 155170937, -0.72, -0.72, 3.26, 3.23, 275.21, 275.02, 0, 0.01, 3
 155173328, -0.72, -0.78, 3.25, 3.19, 275.21, 275.08, 0, 0.01, 3
 155175825, -0.72, -0.72, 3.25, 3.27, 275.21, 275.07, 0, 0.01, 3
 155178813, -0.72, -0.8, 3.25, 3.26, 275.21, 275.06, 0, 0.01, 3
 155183329, -0.73, -0.74, 3.25, 3.28, 275.21, 275.05, 0, 0.01, 3
 155185813, -0.73, -0.75, 3.25, 3.21, 275.21, 275.08, 0, 0.01, 3
 155191009, -0.73, -0.75, 3.24, 3.21, 275.21, 275.05, 0, 0.01, 3
 155193608, -0.73, -0.68, 3.24, 3.18, 275.21, 275.1, 0, 0.01, 3
 155198372, -0.73, -0.78, 3.24, 3.2, 275.21, 275.09, 0, 0.01, 3
 155200758, -0.73, -0.77, 3.24, 3.32, 275.21, 275.12, 0, 0.01, 3
 155204440, -0.73, -0.72, 3.23, 3.24, 275.21, 275.07, 0, 0.01, 3
 155206878, -0.74, -0.65, 3.23, 3.23, 275.21, 275.13, 0, 0.01, 3
 155208227, -0.74, -0.68, 3.23, 3.43, 275.21, 275.11, 0, 0.01, 3
 155210830, -0.74, -0.82, 3.23, 3.15, 275.21, 275.14, 0, 0.01, 3
 155213258, -0.74, -0.7, 3.23, 3.36, 275.21, 275.12, 0, 0.01, 3
 155216460, -0.74, -0.7, 3.23, 3.19, 275.21, 275.11, 0, 0.01, 3
 155221075, -0.74, -0.76, 3.22, 3.3, 275.21, 275.13, 0, 0.01, 3
 155233321, -0.75, -0.75, 3.22, 3.27, 275.21, 275.17, 0, 0.01, 3
 155235769, -0.75, -0.69, 3.22, 3.28, 275.21, 275.17, 0, 0.01, 3
 155238334, -0.75, -0.62, 3.22, 3.25, 275.21, 275.17, 0, 0.01, 3
 155241825, -0.75, -0.67, 3.22, 3.38, 275.21, 275.15, 0, 0.01, 3
 155243674, -0.75, -0.6, 3.22, 3.38, 275.21, 275.25, 0, 0.01, 3
 155248272, -0.75, -0.63, 3.22, 3.3, 275.21, 275.22, 0, 0.01, 3
 155250736, -0.75, -0.63, 3.22, 3.22, 275.21, 275.2, 0, 0.01, 3
 155253597, -0.75, -0.64, 3.22, 3.46, 275.21, 275.19, 0, 0.01, 3
 155256144, -0.75, -0.63, 3.22, 3.29, 275.21, 275.28, 0, 0.01, 3
 155258242, -0.75, -0.63, 3.22, 3.36, 275.21, 275.22, 0, 0.01, 3
 155260947, -0.75, -0.65, 3.22, 3.22, 275.21, 275.27, 0, 0.01, 3
 155263310, -0.75, -0.6, 3.22, 3.26, 275.21, 275.22, 0, 0.01, 3
 155266206, -0.75, -0.66, 3.22, 3.44, 275.21, 275.26, 0, 0.01, 3
 155268632, -0.75, -0.6, 3.22, 3.22, 275.21, 275.31, 0, 0.01, 3
 155273251, -0.75, -0.65, 3.22, 3.15, 275.21, 275.27, 0, 0.01, 3
 155275672, -0.75, -0.58, 3.22, 3.32, 275.21, 275.26, 0, 0.01, 3
 155278831, -0.74, -0.68, 3.22, 3.41, 275.21, 275.29, 0, 0.01, 3
 155281207, -0.74, -0.55, 3.22, 3.22, 275.21, 275.33, 0, 0.01, 3
 155288340, -0.74, -0.59, 3.22, 3.33, 275.21, 275.32, 0, 0.01, 3
 155291184, -0.74, -0.66, 3.22, 3.35, 275.21, 275.34, 0, 0.01, 3
 155295816, -0.74, -0.57, 3.22, 3.29, 275.21, 275.32, 0, 0.01, 3
 155298254, -0.74, -0.58, 3.23, 3.11, 275.21, 275.32, 0, 0.01, 3
 155300767, -0.74, -0.58, 3.23, 3.35, 275.21, 275.4, 0, 0.01, 3
 155303709, -0.74, -0.61, 3.23, 3.31, 275.21, 275.4, 0, 0.01, 3
 155308242, -0.74, -0.52, 3.23, 3.29, 275.21, 275.34, 0, 0.01, 3
 155310854, -0.74, -0.59, 3.23, 3.08, 275.21, 275.39, 0, 0.01, 3
 155313289, -0.74, -0.51, 3.23, 3.41, 275.21, 275.45, 0, 0.01, 3
 155316429, -0.74, -0.6, 3.23, 3.27, 275.21, 275.47, 0, 0.01, 3
 155323321, -0.74, -0.57, 3.23, 3.19, 275.21, 275.42, 0, 0.01, 3
 155325672, -0.74, -0.5, 3.23, 3.34, 275.21, 275.5, 0, 0.01, 3
 155331248, -0.74, -0.45, 3.23, 3.27, 275.21, 275.47, 0, 0.01, 3
 155333363, -0.74, -0.51, 3.23, 3.09, 275.21, 275.37, 0, 0.01, 3
 155335723, -0.74, -0.54, 3.23, 3.29, 275.21, 275.44, 0, 0.01, 3
 155338357, -0.73, -0.53, 3.23, 3.2, 275.21, 275.58, 0, 0.01, 3
 155345801, -0.73, -0.49, 3.23, 3.12, 275.21, 275.44, 0, 0.01, 3
 155348268, -0.73, -0.53, 3.23, 3.32, 275.21, 275.52, 0, 0.01, 3
 155353605, -0.73, -0.47, 3.23, 3.37, 275.21, 275.52, 0, 0.01, 3
 155356220, -0.73, -0.51, 3.23, 3.07, 275.21, 275.55, 0, 0.01, 3
 155358179, -0.72, -0.43, 3.23, 3.25, 275.21, 275.53, 0, 0.01, 3
 155360863, -0.72, -0.56, 3.23, 3.29, 275.21, 275.57, 0, 0.01, 3
 155363270, -0.72, -0.48, 3.23, 3.16, 275.21, 275.59, 0, 0.01, 3
 155366304, -0.72, -0.5, 3.23, 3.31, 275.21, 275.57, 0, 0.01, 3
 155368562, -0.72, -0.51, 3.23, 3.09, 275.21, 275.61, 0, 0.01, 3
 155370740, -0.72, -0.44, 3.23, 3.3, 275.21, 275.6, 0, 0.01, 3
 155373420, -0.72, -0.61, 3.23, 3.23, 275.21, 275.61, 0, 0.01, 3
 155375825, -0.72, -0.43, 3.23, 3.22, 275.21, 275.64, 0, 0.01, 3
 155378865, -0.72, -0.53, 3.23, 3.25, 275.21, 275.62, 0, 0.01, 3
 155381124, -0.72, -0.45, 3.23, 3.16, 275.21, 275.65, 0, 0.01, 3
 155383382, -0.71, -0.48, 3.23, 3.29, 275.21, 275.68, 0, 0.01, 3
 155385821, -0.71, -0.58, 3.23, 3.21, 275.21, 275.65, 0, 0.01, 3
 155388354, -0.71, -0.49, 3.23, 3.2, 275.21, 275.72, 0, 0.01, 3
 155391267, -0.71, -0.54, 3.23, 3.24, 275.21, 275.66, 0, 0.01, 3
 155398319, -0.71, -0.58, 3.23, 3.17, 275.21, 275.72, 0, 0.01, 3
 155400789, -0.71, -0.54, 3.23, 3.2, 275.21, 275.78, 0, 0.01, 3
 155404341, -0.71, -0.54, 3.23, 3.22, 275.21, 275.68, 0, 0.01, 3
 155406977, -0.71, -0.53, 3.23, 3.28, 275.21, 275.76, 0, 0.01, 3
 155408219, -0.71, -0.53, 3.23, 3.3, 275.21, 275.78, 0, 0.01, 3
 155410880, -0.71, -0.63, 3.23, 3.18, 275.21, 275.76, 0, 0.01, 3
 155413240, -0.7, -0.56, 3.23, 3.2, 275.21, 275.79, 0, 0.01, 3
 155420857, -0.7, -0.61, 3.23, 3.19, 275.21, 275.82, 0, 0.01, 3
 155431843, -0.7, -0.72, 3.24, 3.3, 275.21, 275.81, 0, 0.01, 3
 155435693, -0.7, -0.65, 3.24, 3.25, 275.21, 275.76, 0, 0.01, 3
 155438224, -0.69, -0.72, 3.24, 3.07, 275.21, 275.81, 0, 0.01, 3
 155441872, -0.69, -0.65, 3.25, 3.32, 275.21, 275.81, 0, 0.01, 3
 155443694, -0.69, -0.86, 3.25, 3.19, 275.21, 275.88, 0, 0.01, 3
 155445783, -0.69, -0.65, 3.25, 3.14, 275.21, 275.87, 0, 0.01, 3
 155448303, -0.69, -0.73, 3.25, 3.18, 275.21, 275.78, 0, 0.01, 3
 155450781, -0.68, -0.73, 3.25, 3.12, 275.21, 275.82, 0, 0.01, 3
 155453603, -0.68, -0.74, 3.26, 3.23, 275.21, 275.87, 0, 0.01, 3
 155458134, -0.67, -0.7, 3.26, 3.08, 275.21, 275.91, 0, 0.01, 3
 155460730, -0.67, -0.81, 3.26, 3.18, 275.21, 275.79, 0, 0.01, 3
 155463376, -0.67, -0.81, 3.26, 3.18, 275.21, 275.81, 0, 0.01, 3
 155466179, -0.66, -0.9, 3.26, 3.14, 275.21, 275.93, 0, 0.01, 3
 155470832, -0.66, -0.77, 3.27, 3, 275.21, 275.92, 0, 0.01, 3
 155473350, -0.65, -0.82, 3.27, 3.22, 275.21, 275.82, 0, 0.01, 3
 155478843, -0.65, -0.92, 3.27, 3.15, 275.21, 275.94, 0, 0.01, 3
 155483383, -0.64, -0.78, 3.27, 3.07, 275.21, 275.9, 0, 0.02, 3
 155485983, -0.64, -0.88, 3.27, 3.19, 275.21, 275.87, 0, 0.02, 3
 155488287, -0.63, -0.93, 3.27, 3.12, 275.21, 275.9, 0, 0.02, 3
 155491069, -0.63, -0.94, 3.27, 3.09, 275.21, 275.97, 0, 0.02, 3
 155493689, -0.63, -0.85, 3.27, 3.17, 275.21, 275.9, 0, 0.02, 3
 155495764, -0.62, -0.84, 3.27, 3.05, 275.21, 275.93, 0, 0.02, 3
 155498161, -0.62, -0.85, 3.27, 3.2, 275.21, 275.9, 0, 0.02, 3
 155500756, -0.62, -0.93, 3.27, 3.03, 275.21, 275.92, 0, 0.02, 3
 155503685, -0.61, -0.88, 3.27, 3.12, 275.21, 275.97, 0, 0.02, 3
 155513232, -0.6, -0.95, 3.27, 2.98, 275.21, 275.93, 0, 0.02, 3
 155516340, -0.6, -0.76, 3.27, 3.14, 275.21, 275.97, 0, 0.02, 3
 155523407, -0.59, -0.74, 3.27, 3.11, 275.21, 276, 0, 0.02, 3
 155525777, -0.59, -0.83, 3.27, 3.1, 275.21, 275.95, 0, 0.02, 3
 155531425, -0.58, -0.75, 3.28, 3.02, 275.21, 275.93, 0, 0.02, 3
 155533286, -0.58, -0.7, 3.27, 3.17, 275.21, 275.99, 0, 0.02, 3
 155535823, -0.58, -0.69, 3.27, 3.05, 275.21, 276, 0, 0.02, 3
 155538279, -0.58, -0.75, 3.27, 3.09, 275.21, 275.99, 0, 0.02, 3
 155541119, -0.58, -0.72, 3.27, 2.96, 275.21, 275.99, 0, 0.02, 3
 155543680, -0.57, -0.64, 3.28, 3.05, 275.21, 275.96, 0, 0.02, 3
 155545784, -0.57, -0.69, 3.27, 3.2, 275.21, 275.96, 0, 0.02, 3
 155548207, -0.57, -0.64, 3.27, 3.04, 275.21, 276, 0, 0.02, 3
 155550834, -0.57, -0.71, 3.27, 3.09, 275.21, 275.97, 0, 0.02, 3
 155553692, -0.56, -0.65, 3.28, 2.96, 275.21, 275.96, 0, 0.02, 3
 155556404, -0.56, -0.56, 3.28, 3.03, 275.21, 275.97, 0, 0.02, 3
 155558198, -0.56, -0.61, 3.28, 3.23, 275.21, 275.93, 0, 0.02, 3
 155560781, -0.56, -0.61, 3.28, 2.9, 275.21, 276, 0, 0.02, 3
 155563249, -0.56, -0.56, 3.28, 3.11, 275.21, 275.96, 0, 0.02, 3
 155566085, -0.55, -0.58, 3.28, 2.84, 275.21, 275.95, 0, 0.02, 3
 155568511, -0.55, -0.44, 3.29, 3.12, 275.21, 275.94, 0, 0.02, 3
 155570691, -0.55, -0.64, 3.29, 3.08, 275.21, 275.96, 0, 0.02, 3
 155573349, -0.55, -0.53, 3.29, 2.95, 275.21, 275.99, 0, 0.02, 3
 155575793, -0.54, -0.49, 3.29, 3.02, 275.21, 275.93, 0, 0.02, 3
 155578717, -0.54, -0.5, 3.29, 2.97, 275.21, 275.88, 0, 0.02, 3
 155581009, -0.54, -0.47, 3.29, 3.08, 275.21, 275.95, 0, 0.02, 3
 155583268, -0.53, -0.59, 3.29, 3.06, 275.21, 276, 0, 0.02, 3
 155585855, -0.53, -0.46, 3.29, 2.95, 275.21, 275.97, 0, 0.02, 3
 155588274, -0.53, -0.42, 3.3, 2.99, 275.21, 275.88, 0, 0.02, 3
 155591101, -0.53, -0.41, 3.3, 3.04, 275.21, 275.84, 0, 0.02, 3
 155593587, -0.52, -0.53, 3.3, 2.99, 275.21, 275.94, 0, 0.02, 3
 155595878, -0.52, -0.46, 3.3, 3.06, 275.21, 275.95, 0, 0.02, 3
 155598288, -0.51, -0.45, 3.3, 2.94, 275.21, 275.87, 0, 0.02, 3
 155600850, -0.51, -0.31, 3.3, 3.06, 275.21, 275.85, 0, 0.02, 3
 155604313, -0.51, -0.46, 3.3, 3.01, 275.21, 275.83, 0, 0.02, 3
 155607011, -0.5, -0.53, 3.3, 3.04, 275.21, 275.88, 0, 0.02, 3
 155608246, -0.5, -0.38, 3.3, 2.98, 275.21, 275.88, 0, 0.02, 3
 155610731, -0.5, -0.38, 3.31, 3.09, 275.21, 275.78, 0, 0.02, 3
 155616392, -0.49, -0.41, 3.3, 3.1, 275.21, 275.79, 0, 0.02, 3
 155620708, -0.48, -0.26, 3.3, 3.02, 275.21, 275.79, 0, 0.02, 3
 155631986, -0.47, -0.38, 3.3, 3.14, 275.21, 275.8, 0, 0.02, 3
 155635801, -0.46, -0.4, 3.29, 3.24, 275.21, 275.79, 0.01, 0.02, 3
 155638310, -0.45, -0.33, 3.29, 3.23, 275.21, 275.81, 0.01, 0.02, 3
 155643747, -0.45, -0.31, 3.28, 3.21, 275.21, 275.73, 0.01, 0.02, 3
 155645877, -0.44, -0.39, 3.28, 2.95, 275.21, 275.75, 0.01, 0.02, 3
 155648233, -0.44, -0.29, 3.28, 3.34, 275.21, 275.77, 0.01, 0.02, 3
 155650850, -0.44, -0.38, 3.28, 3.14, 275.21, 275.78, 0.01, 0.02, 3
 155653729, -0.43, -0.24, 3.28, 3.22, 275.21, 275.78, 0.01, 0.02, 3
 155656163, -0.43, -0.34, 3.28, 3.14, 275.21, 275.7, 0.01, 0.02, 3
 155658222, -0.43, -0.32, 3.28, 3.21, 275.21, 275.73, 0.01, 0.02, 3
 155660821, -0.42, -0.29, 3.27, 3.32, 275.21, 275.77, 0.01, 0.02, 3
 155663334, -0.42, -0.37, 3.27, 3.2, 275.21, 275.77, 0.01, 0.02, 3
 155666138, -0.42, -0.25, 3.27, 3.21, 275.21, 275.75, 0.01, 0.02, 3
 155668679, -0.42, -0.34, 3.27, 3.14, 275.21, 275.63, 0.01, 0.02, 3
 155670663, -0.41, -0.3, 3.27, 3.28, 275.21, 275.68, 0.01, 0.02, 3
 155675735, -0.4, -0.3, 3.27, 3.27, 275.21, 275.72, 0.01, 0.02, 3
 155678790, -0.4, -0.31, 3.28, 3.16, 275.21, 275.69, 0.01, 0.02, 3
 155683408, -0.4, -0.34, 3.28, 3.27, 275.21, 275.63, 0.01, 0.02, 3
 155685809, -0.39, -0.33, 3.28, 3.21, 275.21, 275.69, 0.01, 0.02, 3
 155688347, -0.39, -0.32, 3.28, 3.23, 275.21, 275.63, 0.01, 0.02, 3
 155691146, -0.39, -0.33, 3.28, 3.19, 275.21, 275.62, 0.01, 0.02, 3
 155693702, -0.39, -0.21, 3.29, 3.2, 275.21, 275.61, 0.01, 0.02, 3
 155695944, -0.38, -0.35, 3.29, 3.27, 275.21, 275.56, 0.01, 0.02, 3
 155698236, -0.38, -0.34, 3.29, 3.15, 275.21, 275.62, 0.01, 0.02, 3
 155700831, -0.38, -0.28, 3.29, 3.16, 275.21, 275.56, 0.01, 0.02, 3
 155703685, -0.38, -0.3, 3.29, 3.22, 275.21, 275.52, 0.01, 0.02, 3
 155708235, -0.38, -0.39, 3.3, 3.23, 275.21, 275.53, 0.01, 0.02, 3
 155710689, -0.37, -0.36, 3.3, 3.06, 275.21, 275.57, 0.01, 0.02, 3
 155713292, -0.37, -0.23, 3.3, 3.13, 275.21, 275.52, 0.01, 0.02, 3
 155716228, -0.37, -0.34, 3.31, 3.18, 275.21, 275.5, 0.01, 0.02, 3
 155720810, -0.37, -0.42, 3.31, 3.15, 275.21, 275.54, 0.01, 0.02, 3
 155723314, -0.37, -0.31, 3.31, 3.08, 275.21, 275.51, 0.01, 0.02, 3
 155725756, -0.37, -0.27, 3.31, 3.1, 275.21, 275.48, 0.01, 0.02, 3
 155735826, -0.37, -0.3, 3.32, 2.99, 275.21, 275.45, 0.01, 0.02, 3
 155738237, -0.37, -0.32, 3.33, 3.08, 275.21, 275.44, 0.01, 0.02, 3
 155741178, -0.36, -0.31, 3.33, 3.27, 275.21, 275.4, 0.01, 0.02, 3
 155743654, -0.36, -0.42, 3.33, 2.98, 275.21, 275.45, 0.01, 0.02, 3
 155748239, -0.36, -0.41, 3.33, 2.93, 275.21, 275.35, 0.01, 0.02, 3
 155750925, -0.36, -0.31, 3.33, 3.19, 275.21, 275.37, 0.01, 0.02, 3
