TimeUS,DesRoll,Roll,DesPitch,Pitch,DesYaw,Yaw,ErrRP,ErrYaw,AEKF
 151078030, 0.36, 0.37, 2.59, 2.63, 277.33, 277.41, 0.01, 0.01, 3
 151079818, 0.36, 0.52, 2.59, 2.78, 277.33, 277.36, 0.01, 0.01, 3
 151082508, 0.36, 0.31, 2.59, 2.74, 277.33, 277.39, 0.01, 0.01, 3
 151085173, 0.36, 0.41, 2.6, 2.76, 277.33, 277.51, 0.01, 0.01, 3
 151087299, 0.37, 0.35, 2.6, 2.7, 277.33, 277.44, 0.01, 0.01, 3
 151090128, 0.36, 0.45, 2.6, 2.71, 277.33, 277.36, 0.01, 0.01, 3
 151092273, 0.36, 0.43, 2.6, 2.7, 277.33, 277.36, 0.01, 0.01, 3
 151097776, 0.37, 0.41, 2.61, 2.71, 277.33, 277.5, 0.01, 0.01, 3
 151099845, 0.37, 0.38, 2.61, 2.68, 277.33, 277.36, 0.01, 0.01, 3
 151107386, 0.37, 0.35, 2.62, 2.85, 277.33, 277.46, 0.01, 0.01, 3
 151110939, 0.37, 0.41, 2.62, 2.61, 277.33, 277.49, 0.01, 0.01, 3
 151115880, 0.36, 0.41, 2.62, 2.65, 277.33, 277.32, 0.01, 0.01, 3
 151117404, 0.37, 0.36, 2.63, 2.67, 277.33, 277.41, 0.01, 0.01, 3
 151124822, 0.37, 0.5, 2.63, 2.79, 277.33, 277.3, 0.01, 0.01, 3
 151127750, 0.36, 0.36, 2.63, 2.59, 277.33, 277.35, 0.01, 0.01, 3
 151132255, 0.37, 0.37, 2.64, 2.69, 277.33, 277.47, 0.01, 0.01, 3
 151135140, 0.37, 0.57, 2.64, 2.64, 277.33, 277.4, 0.01, 0.01, 3
 151144985, 0.36, 0.48, 2.65, 2.65, 277.33, 277.42, 0.01, 0.01, 3
 151147771, 0.36, 0.58, 2.65, 2.6, 277.33, 277.37, 0.01, 0.01, 3
 151152696, 0.36, 0.41, 2.65, 2.56, 277.33, 277.48, 0.01, 0.01, 3
 151154869, 0.36, 0.45, 2.65, 2.81, 277.33, 277.47, 0.01, 0.01, 3
 151162501, 0.35, 0.42, 2.66, 2.78, 277.33, 277.38, 0.01, 0.01, 3
 151172956, 0.34, 0.56, 2.66, 2.82, 277.33, 277.38, 0.01, 0.01, 3
 151174908, 0.34, 0.44, 2.66, 2.79, 277.33, 277.43, 0.01, 0.01, 3
 151177931, 0.34, 0.46, 2.66, 2.69, 277.33, 277.5, 0.01, 0.01, 3
 151179903, 0.33, 0.5, 2.66, 2.7, 277.33, 277.39, 0.01, 0.01, 3
 151182253, 0.33, 0.55, 2.66, 2.76, 277.33, 277.4, 0.01, 0.01, 3
 151185169, 0.33, 0.54, 2.66, 2.85, 277.33, 277.43, 0.01, 0.01, 3
 151187363, 0.33, 0.44, 2.66, 2.79, 277.33, 277.5, 0.01, 0.01, 3
 151194916, 0.33, 0.55, 2.66, 2.85, 277.33, 277.37, 0.01, 0.01, 3
 151197760, 0.33, 0.5, 2.66, 2.84, 277.33, 277.45, 0.01, 0.01, 3
 151202655, 0.33, 0.45, 2.66, 2.6, 277.33, 277.42, 0.01, 0.01, 3
 151204796, 0.33, 0.57, 2.66, 2.8, 277.33, 277.37, 0.01, 0.01, 3
 151215300, 0.33, 0.47, 2.67, 2.63, 277.33, 277.4, 0.01, 0.01, 3
 151217452, 0.33, 0.52, 2.67, 2.81, 277.33, 277.36, 0.01, 0.01, 3
 151224863, 0.34, 0.41, 2.67, 2.67, 277.33, 277.39, 0.01, 0.01, 3
 151228507, 0.34, 0.52, 2.68, 2.73, 277.33, 277.39, 0.01, 0.01, 3
 151232438, 0.34, 0.46, 2.68, 2.9, 277.33, 277.44, 0.01, 0.01, 3
 151235197, 0.34, 0.48, 2.68, 2.74, 277.33, 277.43, 0.01, 0.01, 3
 151240261, 0.34, 0.47, 2.68, 2.69, 277.33, 277.4, 0.01, 0.01, 3
 151242259, 0.34, 0.42, 2.69, 2.77, 277.33, 277.38, 0.01, 0.01, 3
 151247689, 0.34, 0.46, 2.69, 2.67, 277.33, 277.39, 0.01, 0.01, 3
 151249836, 0.34, 0.48, 2.69, 2.8, 277.33, 277.35, 0.01, 0.01, 3
 151257409, 0.34, 0.41, 2.7, 2.7, 277.33, 277.42, 0.01, 0.01, 3
 151269876, 0.33, 0.4, 2.71, 2.67, 277.33, 277.4, 0.01, 0.01, 3
 151272883, 0.33, 0.51, 2.71, 2.81, 277.33, 277.37, 0.01, 0.01, 3
 151274883, 0.33, 0.37, 2.71, 2.76, 277.33, 277.35, 0.01, 0.01, 3
 151277994, 0.33, 0.44, 2.71, 2.69, 277.33, 277.4, 0.01, 0.01, 3
 151279949, 0.33, 0.41, 2.71, 2.81, 277.33, 277.38, 0.01, 0.01, 3
 151290780, 0.32, 0.41, 2.71, 2.68, 277.33, 277.42, 0.01, 0.01, 3
 151292301, 0.32, 0.43, 2.71, 2.82, 277.33, 277.35, 0.01, 0.01, 3
 151299952, 0.32, 0.37, 2.71, 2.77, 277.33, 277.36, 0.01, 0.01, 3
 151302702, 0.32, 0.4, 2.71, 2.74, 277.33, 277.41, 0.01, 0.01, 3
 151307473, 0.31, 0.5, 2.71, 2.8, 277.33, 277.4, 0.01, 0.01, 3
 151310242, 0.31, 0.45, 2.71, 2.9, 277.33, 277.37, 0.01, 0.01, 3
 151315175, 0.31, 0.41, 2.71, 2.78, 277.33, 277.4, 0.01, 0.01, 3
 151317491, 0.31, 0.46, 2.71, 2.85, 277.33, 277.33, 0.01, 0.01, 3
 151320119, 0.31, 0.48, 2.71, 2.91, 277.33, 277.36, 0.01, 0.01, 3
 151322874, 0.31, 0.41, 2.7, 2.92, 277.33, 277.41, 0.01, 0.01, 3
 151327735, 0.31, 0.39, 2.71, 2.77, 277.33, 277.38, 0.01, 0.01, 3
 151329888, 0.31, 0.49, 2.71, 2.94, 277.33, 277.31, 0.01, 0.01, 3
 151332356, 0.31, 0.41, 2.7, 2.92, 277.33, 277.33, 0.01, 0.01, 3
 151335318, 0.31, 0.39, 2.7, 2.93, 277.33, 277.46, 0.01, 0.01, 3
 151337249, 0.31, 0.32, 2.7, 2.81, 277.33, 277.42, 0.01, 0.01, 3
 151344990, 0.31, 0.32, 2.71, 2.88, 277.33, 277.37, 0.01, 0.01, 3
 151347697, 0.31, 0.38, 2.71, 2.94, 277.33, 277.46, 0.01, 0.01, 3
 151357426, 0.31, 0.34, 2.71, 2.92, 277.33, 277.42, 0.01, 0.01, 3
 151373003, 0.31, 0.35, 2.71, 2.79, 277.33, 277.34, 0.01, 0.01, 3
 151374867, 0.31, 0.42, 2.71, 2.95, 277.33, 277.25, 0.01, 0.01, 3
 151379874, 0.31, 0.29, 2.71, 2.91, 277.33, 277.33, 0.01, 0.01, 3
 151382277, 0.31, 0.32, 2.71, 2.86, 277.33, 277.46, 0.01, 0.01, 3
 151387209, 0.31, 0.39, 2.71, 2.94, 277.33, 277.22, 0.01, 0.01, 3
 151390342, 0.31, 0.29, 2.71, 2.76, 277.33, 277.31, 0.01, 0.01, 3
 151394859, 0.31, 0.34, 2.72, 2.77, 277.33, 277.41, 0.01, 0.01, 3
 151397786, 0.3, 0.48, 2.71, 2.92, 277.33, 277.28, 0.01, 0.01, 3
 151402709, 0.3, 0.32, 2.71, 2.81, 277.33, 277.35, 0.01, 0.01, 3
 151404782, 0.3, 0.29, 2.71, 2.99, 277.33, 277.42, 0.01, 0.01, 3
 151407453, 0.3, 0.38, 2.71, 2.78, 277.33, 277.37, 0.01, 0.01, 3
 151410267, 0.29, 0.42, 2.71, 2.99, 277.33, 277.25, 0.01, 0.01, 3
 151412470, 0.29, 0.26, 2.71, 2.86, 277.33, 277.31, 0.01, 0.01, 3
 151417378, 0.29, 0.28, 2.71, 2.98, 277.33, 277.38, 0.01, 0.01, 3
 151419961, 0.29, 0.48, 2.71, 2.82, 277.33, 277.33, 0.01, 0.01, 3
 151432223, 0.28, 0.46, 2.71, 2.83, 277.33, 277.33, 0.01, 0.01, 3
 151435259, 0.28, 0.33, 2.7, 3.03, 277.33, 277.28, 0.01, 0.01, 3
 151437268, 0.29, 0.28, 2.7, 2.9, 277.33, 277.4, 0.01, 0.01, 3
 151442383, 0.28, 0.41, 2.7, 2.97, 277.33, 277.3, 0.01, 0.01, 3
 151444709, 0.28, 0.41, 2.7, 2.89, 277.33, 277.34, 0.01, 0.01, 3
 151449770, 0.29, 0.26, 2.7, 2.86, 277.33, 277.44, 0.01, 0.01, 3
 151452627, 0.29, 0.36, 2.7, 2.91, 277.33, 277.35, 0.01, 0.01, 3
 151457459, 0.28, 0.37, 2.7, 2.93, 277.33, 277.36, 0.01, 0.01, 3
 151469836, 0.29, 0.32, 2.69, 2.95, 277.33, 277.41, 0.01, 0.01, 3
 151472834, 0.29, 0.27, 2.69, 3.01, 277.33, 277.47, 0.01, 0.01, 3
 151474881, 0.29, 0.31, 2.69, 2.77, 277.33, 277.41, 0.01, 0.01, 3
 151477793, 0.29, 0.37, 2.69, 2.92, 277.33, 277.33, 0.01, 0.01, 3
 151479959, 0.29, 0.31, 2.69, 2.93, 277.33, 277.34, 0.01, 0.01, 3
 151482356, 0.29, 0.28, 2.69, 2.95, 277.33, 277.46, 0.01, 0.01, 3
 151485206, 0.3, 0.3, 2.69, 2.98, 277.33, 277.44, 0.01, 0.01, 3
 151490218, 0.29, 0.34, 2.7, 2.96, 277.33, 277.33, 0.01, 0.01, 3
 151492314, 0.3, 0.25, 2.7, 2.9, 277.33, 277.36, 0.01, 0.01, 3
 151502812, 0.29, 0.3, 2.7, 2.93, 277.33, 277.35, 0.01, 0.01, 3
 151507384, 0.29, 0.36, 2.69, 3.01, 277.33, 277.48, 0.01, 0.01, 3
 151510868, 0.29, 0.32, 2.69, 2.8, 277.33, 277.37, 0.01, 0.01, 3
 151512404, 0.29, 0.31, 2.69, 2.82, 277.33, 277.36, 0.01, 0.01, 3
 151516000, 0.29, 0.22, 2.69, 2.83, 277.33, 277.39, 0.01, 0.01, 3
 151517416, 0.29, 0.32, 2.69, 2.94, 277.33, 277.46, 0.01, 0.01, 3
 151524997, 0.29, 0.27, 2.69, 2.86, 277.33, 277.39, 0.01, 0.01, 3
 151527751, 0.29, 0.22, 2.69, 2.77, 277.33, 277.43, 0.01, 0.01, 3
 151532293, 0.29, 0.32, 2.69, 2.77, 277.33, 277.38, 0.01, 0.01, 3
 151535214, 0.28, 0.32, 2.69, 2.83, 277.33, 277.34, 0.01, 0.01, 3
 151540286, 0.29, 0.28, 2.69, 2.83, 277.33, 277.46, 0.01, 0.01, 3
 151542339, 0.29, 0.28, 2.68, 2.85, 277.33, 277.43, 0.01, 0.01, 3
 151547892, 0.28, 0.26, 2.68, 2.86, 277.33, 277.4, 0.01, 0.01, 3
 151549792, 0.29, 0.2, 2.68, 2.74, 277.33, 277.45, 0.01, 0.01, 3
 151554774, 0.28, 0.23, 2.68, 2.75, 277.33, 277.41, 0.01, 0.01, 3
 151557518, 0.28, 0.38, 2.68, 2.82, 277.33, 277.4, 0.01, 0.01, 3
 151572786, 0.28, 0.17, 2.67, 2.83, 277.33, 277.43, 0.01, 0.01, 3
 151574864, 0.28, 0.28, 2.67, 2.71, 277.33, 277.49, 0.01, 0.01, 3
 151577839, 0.28, 0.26, 2.67, 2.84, 277.33, 277.4, 0.01, 0.01, 3
 151579940, 0.28, 0.34, 2.67, 2.76, 277.33, 277.42, 0.01, 0.01, 3
 151582347, 0.28, 0.3, 2.66, 2.81, 277.33, 277.43, 0.01, 0.01, 3
 151585172, 0.28, 0.21, 2.66, 2.8, 277.33, 277.47, 0.01, 0.01, 3
 151587341, 0.28, 0.27, 2.66, 2.69, 277.33, 277.48, 0.01, 0.01, 3
 151594880, 0.28, 0.3, 2.66, 2.84, 277.33, 277.44, 0.01, 0.01, 3
 151597651, 0.28, 0.2, 2.66, 2.74, 277.33, 277.48, 0.01, 0.01, 3
 151602956, 0.28, 0.31, 2.66, 2.85, 277.33, 277.43, 0.01, 0.01, 3
 151604789, 0.27, 0.35, 2.65, 2.79, 277.33, 277.47, 0.01, 0.01, 3
 151607420, 0.27, 0.27, 2.65, 2.84, 277.33, 277.49, 0.01, 0.01, 3
 151610263, 0.28, 0.21, 2.65, 2.75, 277.33, 277.5, 0.01, 0.01, 3
 151612373, 0.27, 0.31, 2.65, 2.67, 277.33, 277.46, 0.01, 0.01, 3
 151617245, 0.27, 0.33, 2.65, 2.76, 277.33, 277.46, 0.01, 0.01, 3
 151620060, 0.27, 0.26, 2.65, 2.82, 277.33, 277.53, 0.01, 0.01, 3
 151628410, 0.27, 0.37, 2.65, 2.91, 277.33, 277.4, 0.01, 0.01, 3
 151629942, 0.27, 0.29, 2.64, 2.73, 277.33, 277.43, 0.01, 0.01, 3
 151640421, 0.27, 0.35, 2.64, 2.88, 277.33, 277.37, 0.01, 0.01, 3
 151642384, 0.27, 0.24, 2.64, 2.69, 277.33, 277.49, 0.01, 0.01, 3
 151644786, 0.28, 0.24, 2.64, 2.84, 277.33, 277.58, 0.01, 0.01, 3
 151647633, 0.28, 0.23, 2.64, 2.63, 277.33, 277.49, 0.01, 0.01, 3
 151649814, 0.27, 0.41, 2.64, 2.78, 277.33, 277.43, 0.01, 0.01, 3
 151652686, 0.27, 0.22, 2.63, 2.77, 277.33, 277.38, 0.01, 0.01, 3
 151654718, 0.28, 0.28, 2.63, 2.76, 277.33, 277.54, 0.01, 0.01, 3
 151662489, 0.28, 0.33, 2.63, 2.77, 277.33, 277.4, 0.01, 0.01, 3
 151672843, 0.28, 0.35, 2.63, 2.76, 277.33, 277.38, 0.01, 0.01, 3
 151674910, 0.28, 0.2, 2.63, 2.72, 277.33, 277.4, 0.01, 0.01, 3
 151677812, 0.28, 0.23, 2.63, 2.81, 277.33, 277.52, 0.01, 0.01, 3
 151679921, 0.28, 0.21, 2.63, 2.7, 277.33, 277.57, 0.01, 0.01, 3
 151682435, 0.28, 0.37, 2.62, 2.76, 277.33, 277.4, 0.01, 0.01, 3
 151687392, 0.28, 0.18, 2.62, 2.75, 277.33, 277.48, 0.01, 0.01, 3
 151690292, 0.29, 0.2, 2.62, 2.76, 277.33, 277.56, 0.01, 0.01, 3
 151694732, 0.29, 0.37, 2.62, 2.76, 277.33, 277.37, 0.01, 0.01, 3
 151697810, 0.29, 0.14, 2.62, 2.71, 277.33, 277.42, 0.01, 0.01, 3
 151707316, 0.29, 0.27, 2.62, 2.69, 277.33, 277.36, 0.01, 0.01, 3
 151710959, 0.29, 0.14, 2.62, 2.72, 277.33, 277.45, 0.01, 0.01, 3
 151712381, 0.29, 0.2, 2.62, 2.71, 277.33, 277.58, 0.01, 0.01, 3
 151717373, 0.29, 0.36, 2.61, 2.7, 277.33, 277.39, 0.01, 0.01, 3
 151720033, 0.29, 0.25, 2.61, 2.7, 277.33, 277.38, 0.01, 0.01, 3
 151724964, 0.29, 0.27, 2.61, 2.71, 277.33, 277.54, 0.01, 0.01, 3
 151727788, 0.29, 0.28, 2.61, 2.71, 277.33, 277.42, 0.01, 0.01, 3
 151732310, 0.29, 0.2, 2.61, 2.71, 277.33, 277.45, 0.01, 0.01, 3
 151735180, 0.29, 0.22, 2.61, 2.68, 277.33, 277.57, 0.01, 0.01, 3
 151740260, 0.29, 0.28, 2.61, 2.73, 277.33, 277.42, 0.01, 0.01, 3
 151742387, 0.29, 0.32, 2.61, 2.7, 277.33, 277.46, 0.01, 0.01, 3
 151747831, 0.29, 0.25, 2.61, 2.69, 277.33, 277.55, 0.01, 0.01, 3
 151749862, 0.29, 0.29, 2.61, 2.58, 277.33, 277.46, 0.01, 0.01, 3
 151754805, 0.29, 0.28, 2.61, 2.64, 277.33, 277.52, 0.01, 0.01, 3
 151757455, 0.29, 0.25, 2.61, 2.81, 277.33, 277.55, 0.01, 0.01, 3
 151767240, 0.29, 0.29, 2.61, 2.62, 277.33, 277.55, 0.01, 0.01, 3
 151777951, 0.28, 0.24, 2.61, 2.71, 277.33, 277.47, 0.01, 0.01, 3
 151779825, 0.28, 0.37, 2.61, 2.7, 277.33, 277.57, 0.01, 0.01, 3
 151785214, 0.28, 0.36, 2.61, 2.54, 277.33, 277.49, 0.01, 0.01, 3
 151787322, 0.27, 0.33, 2.61, 2.75, 277.33, 277.46, 0.01, 0.01, 3
 151792448, 0.27, 0.42, 2.61, 2.73, 277.33, 277.56, 0.01, 0.01, 3
 151794920, 0.27, 0.3, 2.61, 2.61, 277.33, 277.45, 0.01, 0.01, 3
 151799863, 0.27, 0.27, 2.61, 2.71, 277.33, 277.5, 0.01, 0.01, 3
 151802741, 0.27, 0.36, 2.61, 2.7, 277.33, 277.54, 0.01, 0.01, 3
 151807392, 0.27, 0.38, 2.61, 2.65, 277.33, 277.44, 0.01, 0.01, 3
 151810204, 0.27, 0.36, 2.61, 2.6, 277.33, 277.54, 0.01, 0.01, 3
 151812227, 0.27, 0.3, 2.61, 2.75, 277.33, 277.5, 0.01, 0.01, 3
 151815148, 0.27, 0.37, 2.61, 2.62, 277.33, 277.55, 0.01, 0.01, 3
 151817355, 0.27, 0.41, 2.61, 2.64, 277.33, 277.48, 0.01, 0.01, 3
 151820184, 0.27, 0.43, 2.61, 2.68, 277.33, 277.44, 0.01, 0.01, 3
 151823525, 0.27, 0.31, 2.61, 2.57, 277.33, 277.51, 0.01, 0.01, 3
 151828545, 0.27, 0.34, 2.61, 2.59, 277.33, 277.54, 0.01, 0.01, 3
 151829884, 0.27, 0.47, 2.61, 2.71, 277.33, 277.45, 0.01, 0.01, 3
 151840288, 0.27, 0.4, 2.61, 2.58, 277.33, 277.5, 0.01, 0.01, 3
 151842412, 0.26, 0.5, 2.61, 2.7, 277.33, 277.45, 0.01, 0.01, 3
 151847691, 0.26, 0.34, 2.61, 2.66, 277.33, 277.54, 0.01, 0.01, 3
 151849839, 0.26, 0.37, 2.61, 2.69, 277.33, 277.51, 0.01, 0.01, 3
 151852693, 0.26, 0.46, 2.61, 2.63, 277.33, 277.46, 0.01, 0.01, 3
 151854895, 0.26, 0.49, 2.61, 2.7, 277.33, 277.43, 0.01, 0.01, 3
 151857396, 0.26, 0.35, 2.61, 2.65, 277.33, 277.42, 0.01, 0.01, 3
 151862450, 0.26, 0.41, 2.61, 2.69, 277.33, 277.48, 0.01, 0.01, 3
 151867505, 0.26, 0.46, 2.6, 2.71, 277.33, 277.41, 0.01, 0.01, 3
 151872938, 0.26, 0.36, 2.6, 2.66, 277.33, 277.55, 0.01, 0.01, 3
 151874854, 0.26, 0.42, 2.6, 2.67, 277.33, 277.45, 0.01, 0.01, 3
 151879906, 0.26, 0.46, 2.6, 2.72, 277.33, 277.45, 0.01, 0.01, 3
 151882495, 0.26, 0.3, 2.6, 2.73, 277.33, 277.5, 0.01, 0.01, 3
 151887452, 0.26, 0.42, 2.6, 2.67, 277.33, 277.43, 0.01, 0.01, 3
 151890283, 0.26, 0.47, 2.6, 2.87, 277.33, 277.41, 0.01, 0.01, 3
 151899793, 0.26, 0.46, 2.6, 2.76, 277.33, 277.42, 0.01, 0.01, 3
 151902785, 0.26, 0.42, 2.6, 2.87, 277.33, 277.37, 0.01, 0.01, 3
 151907417, 0.26, 0.25, 2.59, 2.79, 277.33, 277.56, 0.01, 0.01, 3
 151911003, 0.26, 0.33, 2.6, 2.58, 277.33, 277.46, 0.01, 0.01, 3
 151912352, 0.26, 0.47, 2.6, 2.87, 277.33, 277.37, 0.01, 0.01, 3
 151915981, 0.26, 0.31, 2.6, 2.8, 277.33, 277.39, 0.01, 0.01, 3
 151917240, 0.26, 0.33, 2.6, 2.82, 277.33, 277.56, 0.01, 0.01, 3
 151920092, 0.26, 0.21, 2.6, 2.7, 277.33, 277.5, 0.01, 0.01, 3
 151924865, 0.26, 0.34, 2.6, 2.85, 277.33, 277.34, 0.01, 0.01, 3
 151927842, 0.26, 0.26, 2.6, 2.79, 277.33, 277.43, 0.01, 0.01, 3
 151932352, 0.26, 0.24, 2.6, 2.69, 277.33, 277.4, 0.01, 0.01, 3
 151935228, 0.26, 0.39, 2.6, 2.74, 277.33, 277.39, 0.01, 0.01, 3
 151937368, 0.26, 0.23, 2.6, 2.79, 277.33, 277.36, 0.01, 0.01, 3
 151940179, 0.26, 0.27, 2.6, 2.78, 277.33, 277.5, 0.01, 0.01, 3
 151942502, 0.26, 0.22, 2.6, 2.7, 277.33, 277.44, 0.01, 0.01, 3
 151944794, 0.25, 0.32, 2.6, 2.76, 277.33, 277.34, 0.01, 0.01, 3
 151947674, 0.25, 0.25, 2.6, 2.64, 277.33, 277.36, 0.01, 0.01, 3
 151952770, 0.25, 0.19, 2.61, 2.65, 277.33, 277.52, 0.01, 0.01, 3
 151954825, 0.25, 0.28, 2.61, 2.7, 277.33, 277.41, 0.01, 0.01, 3
 151957369, 0.25, 0.31, 2.61, 2.69, 277.33, 277.28, 0.01, 0.01, 3
 151962422, 0.25, 0.19, 2.61, 2.87, 277.33, 277.48, 0.01, 0.01, 3
 151969832, 0.23, 0.19, 2.62, 2.58, 277.33, 277.3, 0.01, 0.01, 3
 151972821, 0.23, 0.22, 2.62, 2.73, 277.33, 277.41, 0.01, 0.01, 3
 151974900, 0.23, 0.16, 2.62, 2.79, 277.33, 277.46, 0.01, 0.01, 3
 151977968, 0.23, 0.3, 2.62, 2.63, 277.33, 277.42, 0.01, 0.01, 3
 151979777, 0.22, 0.36, 2.62, 2.79, 277.33, 277.29, 0.01, 0.01, 3
 151982379, 0.22, 0.17, 2.63, 2.61, 277.33, 277.31, 0.01, 0.01, 3
 151985258, 0.22, 0.21, 2.63, 2.7, 277.33, 277.43, 0.01, 0.01, 3
 151987456, 0.22, 0.21, 2.63, 2.73, 277.33, 277.4, 0.01, 0.01, 3
 151990197, 0.21, 0.38, 2.63, 2.67, 277.33, 277.35, 0.01, 0.01, 3
 151992417, 0.21, 0.28, 2.63, 2.76, 277.33, 277.28, 0.01, 0.01, 3
 151994779, 0.21, 0.18, 2.63, 2.64, 277.33, 277.36, 0.01, 0.01, 3
 151997745, 0.21, 0.21, 2.63, 2.71, 277.33, 277.44, 0.01, 0.01, 3
 151999892, 0.21, 0.29, 2.63, 2.71, 277.33, 277.33, 0.01, 0.01, 3
 152002751, 0.2, 0.35, 2.63, 2.7, 277.33, 277.32, 0.01, 0.01, 3
 152010131, 0.2, 0.28, 2.64, 2.72, 277.33, 277.39, 0.01, 0.01, 3
 152012319, 0.19, 0.32, 2.64, 2.71, 277.33, 277.3, 0.01, 0.01, 3
 152017281, 0.19, 0.23, 2.64, 2.77, 277.33, 277.4, 0.01, 0.01, 3
 152020175, 0.19, 0.19, 2.64, 2.69, 277.33, 277.43, 0.01, 0.01, 3
 152024904, 0.18, 0.3, 2.64, 2.75, 277.33, 277.28, 0.01, 0.01, 3
 152028531, 0.18, 0.25, 2.64, 2.8, 277.33, 277.35, 0.01, 0.01, 3
 152029897, 0.18, 0.21, 2.64, 2.76, 277.33, 277.46, 0.01, 0.01, 3
 152032374, 0.18, 0.21, 2.64, 2.72, 277.33, 277.4, 0.01, 0.01, 3
 152035271, 0.18, 0.32, 2.64, 2.68, 277.33, 277.28, 0.01, 0.01, 3
 152037424, 0.17, 0.27, 2.64, 2.82, 277.33, 277.28, 0.01, 0.01, 3
 152040295, 0.17, 0.21, 2.65, 2.77, 277.33, 277.42, 0.01, 0.01, 3
 152042483, 0.17, 0.25, 2.65, 2.78, 277.33, 277.45, 0.01, 0.01, 3
 152044820, 0.17, 0.23, 2.65, 2.67, 277.33, 277.33, 0.01, 0.01, 3
 152047677, 0.16, 0.31, 2.65, 2.72, 277.33, 277.27, 0.01, 0.01, 3
 152049883, 0.16, 0.23, 2.65, 2.81, 277.33, 277.3, 0.01, 0.01, 3
 152052705, 0.16, 0.23, 2.65, 2.76, 277.33, 277.47, 0.01, 0.01, 3
 152054891, 0.16, 0.29, 2.66, 2.78, 277.33, 277.39, 0.01, 0.01, 3
 152057236, 0.16, 0.26, 2.66, 2.63, 277.33, 277.27, 0.01, 0.01, 3
 152062321, 0.16, 0.15, 2.66, 2.78, 277.33, 277.37, 0.01, 0.01, 3
 152072953, 0.15, 0.24, 2.67, 2.71, 277.33, 277.33, 0.01, 0.01, 3
 152074882, 0.15, 0.16, 2.67, 2.8, 277.33, 277.38, 0.01, 0.01, 3
 152077699, 0.15, 0.31, 2.67, 2.74, 277.33, 277.44, 0.01, 0.01, 3
 152079772, 0.15, 0.26, 2.67, 2.66, 277.33, 277.25, 0.01, 0.01, 3
 152082385, 0.15, 0.3, 2.67, 2.75, 277.33, 277.29, 0.01, 0.01, 3
 152085198, 0.15, 0.18, 2.67, 2.65, 277.33, 277.37, 0.01, 0.01, 3
 152087442, 0.15, 0.22, 2.68, 2.85, 277.33, 277.4, 0.01, 0.01, 3
 152090286, 0.15, 0.29, 2.68, 2.59, 277.33, 277.37, 0.01, 0.01, 3
 152092522, 0.14, 0.3, 2.68, 2.76, 277.33, 277.27, 0.01, 0.01, 3
 152094808, 0.14, 0.24, 2.68, 2.68, 277.33, 277.32, 0.01, 0.01, 3
 152097713, 0.14, 0.2, 2.68, 2.68, 277.33, 277.37, 0.01, 0.01, 3
 152099886, 0.14, 0.25, 2.69, 2.82, 277.33, 277.39, 0.01, 0.01, 3
 152102730, 0.14, 0.29, 2.69, 2.56, 277.33, 277.36, 0.01, 0.01, 3
 152104974, 0.14, 0.33, 2.69, 2.85, 277.33, 277.29, 0.01, 0.01, 3
 152107295, 0.14, 0.17, 2.69, 2.6, 277.33, 277.34, 0.01, 0.01, 3
 152111064, 0.14, 0.26, 2.69, 2.8, 277.33, 277.4, 0.01, 0.01, 3
 152112380, 0.14, 0.22, 2.69, 2.69, 277.33, 277.39, 0.01, 0.01, 3
 152115933, 0.13, 0.34, 2.7, 2.67, 277.33, 277.35, 0.01, 0.01, 3
 152117324, 0.13, 0.26, 2.7, 2.8, 277.33, 277.3, 0.01, 0.01, 3
 152127880, 0.13, 0.39, 2.7, 2.77, 277.33, 277.36, 0.01, 0.01, 3
 152129786, 0.13, 0.2, 2.7, 2.76, 277.33, 277.3, 0.01, 0.01, 3
 152135194, 0.13, 0.2, 2.7, 2.8, 277.33, 277.36, 0.01, 0.01, 3
 152137409, 0.13, 0.31, 2.7, 2.71, 277.33, 277.33, 0.01, 0.01, 3
 152140397, 0.12, 0.39, 2.7, 2.77, 277.33, 277.37, 0.01, 0.01, 3
 152142435, 0.12, 0.22, 2.7, 2.78, 277.33, 277.31, 0.01, 0.01, 3
 152144931, 0.12, 0.2, 2.7, 2.73, 277.33, 277.39, 0.01, 0.01, 3
 152147787, 0.12, 0.24, 2.7, 2.8, 277.33, 277.35, 0.01, 0.01, 3
 152149857, 0.12, 0.34, 2.7, 2.79, 277.33, 277.33, 0.01, 0.01, 3
 152152773, 0.12, 0.33, 2.7, 2.82, 277.33, 277.35, 0.01, 0.01, 3
 152154922, 0.12, 0.21, 2.7, 2.82, 277.33, 277.36, 0.01, 0.01, 3
 152157283, 0.12, 0.16, 2.7, 2.73, 277.33, 277.43, 0.01, 0.01, 3
 152162518, 0.12, 0.31, 2.7, 2.84, 277.33, 277.35, 0.01, 0.01, 3
 152167477, 0.13, 0.16, 2.71, 2.82, 277.33, 277.42, 0.01, 0.01, 3
 152169869, 0.14, 0.17, 2.71, 2.75, 277.33, 277.42, 0.01, 0.01, 3
 152172858, 0.14, 0.28, 2.71, 2.8, 277.33, 277.35, 0.01, 0.01, 3
 152174732, 0.14, 0.26, 2.71, 2.91, 277.33, 277.34, 0.01, 0.01, 3
 152182454, 0.15, 0.15, 2.72, 2.75, 277.33, 277.42, 0.01, 0.01, 3
 152185202, 0.15, 0.27, 2.72, 2.85, 277.33, 277.34, 0.01, 0.01, 3
 152190212, 0.15, 0.19, 2.72, 2.89, 277.33, 277.44, 0.01, 0.01, 3
 152192434, 0.16, 0.1, 2.72, 2.8, 277.33, 277.45, 0.01, 0.01, 3
 152194802, 0.16, 0.17, 2.72, 2.73, 277.33, 277.38, 0.01, 0.01, 3
 152197970, 0.16, 0.26, 2.73, 2.88, 277.33, 277.33, 0.01, 0.01, 3
 152199916, 0.16, 0.16, 2.73, 2.93, 277.33, 277.35, 0.01, 0.01, 3
 152202765, 0.17, 0.16, 2.73, 2.85, 277.33, 277.48, 0.01, 0.01, 3
 152204879, 0.17, 0.09, 2.73, 2.78, 277.33, 277.42, 0.01, 0.01, 3
 152207279, 0.17, 0.22, 2.73, 2.75, 277.33, 277.36, 0.01, 0.01, 3
 152210199, 0.17, 0.19, 2.74, 2.9, 277.33, 277.3, 0.01, 0.01, 3
 152212337, 0.17, 0.11, 2.74, 2.85, 277.33, 277.42, 0.01, 0.01, 3
 152215167, 0.17, 0.16, 2.74, 2.84, 277.33, 277.47, 0.01, 0.01, 3
 152217359, 0.17, 0.1, 2.74, 2.75, 277.33, 277.36, 0.01, 0.01, 3
 152220107, 0.17, 0.24, 2.74, 2.79, 277.33, 277.34, 0.01, 0.01, 3
 152223546, 0.18, 0.08, 2.74, 2.83, 277.33, 277.33, 0.01, 0.01, 3
 152224953, 0.18, 0.14, 2.75, 2.88, 277.33, 277.44, 0.01, 0.01, 3
 152228517, 0.18, 0.14, 2.75, 2.74, 277.33, 277.4, 0.01, 0.01, 3
 152229752, 0.18, 0.18, 2.75, 2.81, 277.33, 277.3, 0.01, 0.01, 3
 152237321, 0.19, 0.13, 2.76, 2.81, 277.33, 277.46, 0.01, 0.01, 3
 152240313, 0.19, 0.18, 2.76, 2.71, 277.33, 277.36, 0.01, 0.01, 3
 152244975, 0.19, 0.09, 2.76, 2.61, 277.33, 277.34, 0.01, 0.01, 3
 152247747, 0.19, 0.14, 2.77, 2.94, 277.33, 277.41, 0.01, 0.01, 3
 152249875, 0.19, 0.14, 2.77, 2.67, 277.33, 277.47, 0.01, 0.01, 3
 152252766, 0.19, 0.28, 2.77, 2.84, 277.33, 277.33, 0.01, 0.01, 3
 152254906, 0.19, 0.15, 2.77, 2.71, 277.33, 277.29, 0.01, 0.01, 3
 152257303, 0.19, 0.15, 2.77, 2.7, 277.33, 277.39, 0.01, 0.01, 3
 152269930, 0.2, 0.2, 2.78, 2.78, 277.33, 277.43, 0.01, 0.01, 3
 152272926, 0.2, 0.15, 2.78, 2.82, 277.33, 277.41, 0.01, 0.01, 3
 152277913, 0.2, 0.27, 2.78, 2.85, 277.33, 277.32, 0.01, 0.01, 3
 152279790, 0.2, 0.17, 2.78, 2.7, 277.33, 277.39, 0.01, 0.01, 3
 152282534, 0.21, 0.2, 2.78, 2.8, 277.33, 277.45, 0.01, 0.01, 3
 152285091, 0.21, 0.23, 2.78, 2.81, 277.33, 277.37, 0.01, 0.01, 3
 152287515, 0.2, 0.34, 2.78, 2.76, 277.33, 277.36, 0.01, 0.01, 3
 152290186, 0.2, 0.21, 2.78, 2.85, 277.33, 277.34, 0.01, 0.01, 3
 152292564, 0.21, 0.19, 2.78, 2.71, 277.33, 277.45, 0.01, 0.01, 3
 152299921, 0.21, 0.3, 2.78, 2.81, 277.33, 277.37, 0.01, 0.01, 3
 152302833, 0.21, 0.24, 2.77, 2.89, 277.33, 277.41, 0.01, 0.01, 3
 152307427, 0.21, 0.31, 2.77, 2.81, 277.33, 277.39, 0.01, 0.01, 3
 152310973, 0.21, 0.32, 2.77, 2.83, 277.33, 277.35, 0.01, 0.01, 3
 152312440, 0.21, 0.26, 2.77, 2.9, 277.33, 277.42, 0.01, 0.01, 3
 152315873, 0.21, 0.23, 2.77, 2.87, 277.33, 277.5, 0.01, 0.01, 3
 152317438, 0.21, 0.23, 2.77, 2.8, 277.33, 277.46, 0.01, 0.01, 3
 152320106, 0.21, 0.34, 2.77, 2.8, 277.33, 277.36, 0.01, 0.01, 3
 152324733, 0.21, 0.24, 2.77, 2.91, 277.33, 277.46, 0.01, 0.01, 3
 152327825, 0.22, 0.24, 2.77, 2.88, 277.33, 277.54, 0.01, 0.01, 3
 152329811, 0.21, 0.26, 2.77, 2.78, 277.33, 277.41, 0.01, 0.01, 3
 152332453, 0.21, 0.32, 2.77, 2.82, 277.33, 277.35, 0.01, 0.01, 3
 152335341, 0.22, 0.24, 2.76, 2.91, 277.33, 277.39, 0.01, 0.01, 3
 152337453, 0.22, 0.22, 2.76, 2.88, 277.33, 277.55, 0.01, 0.01, 3
 152340196, 0.22, 0.27, 2.76, 2.87, 277.33, 277.48, 0.01, 0.01, 3
 152342540, 0.22, 0.26, 2.76, 2.74, 277.33, 277.36, 0.01, 0.01, 3
 152344863, 0.22, 0.31, 2.76, 2.86, 277.33, 277.37, 0.01, 0.01, 3
 152357419, 0.23, 0.24, 2.76, 2.84, 277.33, 277.42, 0.01, 0.01, 3
 152367384, 0.23, 0.31, 2.77, 2.82, 277.33, 277.4, 0.01, 0.01, 3
 152369968, 0.24, 0.19, 2.77, 2.78, 277.33, 277.46, 0.01, 0.01, 3
 152372909, 0.24, 0.24, 2.77, 2.94, 277.33, 277.53, 0.01, 0.01, 3
 152374723, 0.24, 0.31, 2.77, 2.72, 277.33, 277.47, 0.01, 0.01, 3
 152379875, 0.24, 0.27, 2.77, 2.82, 277.33, 277.43, 0.01, 0.01, 3
 152382476, 0.25, 0.21, 2.77, 2.81, 277.33, 277.49, 0.01, 0.01, 3
 152387398, 0.24, 0.31, 2.77, 2.67, 277.33, 277.45, 0.01, 0.01, 3
 152390277, 0.24, 0.33, 2.77, 2.91, 277.33, 277.4, 0.01, 0.01, 3
 152392243, 0.24, 0.19, 2.77, 2.66, 277.33, 277.47, 0.01, 0.01, 3
 152394917, 0.25, 0.27, 2.77, 2.85, 277.33, 277.51, 0.01, 0.01, 3
 152397731, 0.25, 0.25, 2.77, 2.8, 277.33, 277.52, 0.01, 0.01, 3
 152399993, 0.24, 0.34, 2.77, 2.7, 277.33, 277.48, 0.01, 0.01, 3
 152402828, 0.24, 0.29, 2.77, 2.89, 277.33, 277.43, 0.01, 0.01, 3
 152404999, 0.24, 0.21, 2.77, 2.66, 277.33, 277.49, 0.01, 0.01, 3
 152407388, 0.25, 0.28, 2.77, 2.9, 277.33, 277.53, 0.01, 0.01, 3
 152410269, 0.24, 0.25, 2.76, 2.69, 277.33, 277.5, 0.01, 0.01, 3
 152415303, 0.24, 0.22, 2.76, 2.81, 277.33, 277.43, 0.01, 0.01, 3
 152417286, 0.24, 0.29, 2.76, 2.74, 277.33, 277.52, 0.01, 0.01, 3
 152420067, 0.24, 0.22, 2.76, 2.84, 277.33, 277.48, 0.01, 0.01, 3
 152423610, 0.24, 0.35, 2.76, 2.72, 277.33, 277.48, 0.01, 0, 3
 152424823, 0.24, 0.39, 2.76, 2.84, 277.33, 277.5, 0.01, 0, 3
 152428542, 0.24, 0.25, 2.76, 2.81, 277.33, 277.45, 0.01, 0, 3
 152429843, 0.24, 0.25, 2.75, 2.74, 277.33, 277.55, 0.01, 0, 3
 152432322, 0.24, 0.26, 2.75, 2.86, 277.33, 277.49, 0.01, 0, 3
 152435177, 0.24, 0.42, 2.75, 2.76, 277.33, 277.5, 0.01, 0, 3
 152437355, 0.24, 0.38, 2.75, 2.87, 277.33, 277.48, 0.01, 0, 3
 152440135, 0.24, 0.26, 2.75, 2.84, 277.33, 277.49, 0.01, 0, 3
 152442395, 0.24, 0.22, 2.74, 2.75, 277.33, 277.57, 0.01, 0, 3
 152444854, 0.24, 0.33, 2.74, 2.86, 277.33, 277.47, 0.01, 0, 3
 152447742, 0.24, 0.39, 2.74, 2.8, 277.33, 277.52, 0.01, 0, 3
 152449970, 0.24, 0.37, 2.74, 2.92, 277.33, 277.49, 0.01, 0, 3
 152452797, 0.24, 0.21, 2.73, 2.8, 277.33, 277.55, 0.01, 0, 3
 152454924, 0.24, 0.25, 2.73, 2.77, 277.33, 277.55, 0.01, 0, 3
 152457272, 0.24, 0.35, 2.73, 2.85, 277.33, 277.47, 0.01, 0, 3
 152462418, 0.24, 0.32, 2.73, 2.95, 277.33, 277.55, 0.01, 0, 3
 152472982, 0.24, 0.32, 2.72, 2.92, 277.33, 277.47, 0.01, 0, 3
 152474780, 0.24, 0.26, 2.72, 2.89, 277.33, 277.6, 0.01, 0, 3
 152479821, 0.24, 0.27, 2.72, 2.74, 277.33, 277.52, 0.01, 0, 3
 152482369, 0.24, 0.34, 2.72, 2.9, 277.33, 277.43, 0.01, 0, 3
 152485343, 0.24, 0.24, 2.72, 2.87, 277.33, 277.5, 0.01, 0, 3
 152487266, 0.24, 0.24, 2.72, 2.86, 277.33, 277.63, 0.01, 0, 3
 152490170, 0.24, 0.17, 2.72, 2.72, 277.33, 277.57, 0.01, 0, 3
 152492510, 0.24, 0.36, 2.72, 2.81, 277.33, 277.46, 0.01, 0, 3
 152494949, 0.24, 0.26, 2.72, 2.85, 277.33, 277.42, 0.01, 0, 3
 152497687, 0.24, 0.23, 2.72, 2.84, 277.33, 277.59, 0.01, 0, 3
 152499917, 0.25, 0.21, 2.72, 2.78, 277.33, 277.59, 0.01, 0, 3
 152502744, 0.25, 0.23, 2.72, 2.74, 277.33, 277.49, 0.01, 0, 3
 152504981, 0.25, 0.31, 2.72, 2.77, 277.33, 277.44, 0.01, 0, 3
 152507361, 0.25, 0.18, 2.72, 2.8, 277.33, 277.46, 0.01, 0, 3
 152510937, 0.25, 0.25, 2.72, 2.83, 277.33, 277.61, 0.01, 0, 3
 152512494, 0.25, 0.23, 2.72, 2.7, 277.33, 277.53, 0.01, 0, 3
 152515886, 0.25, 0.31, 2.72, 2.8, 277.33, 277.43, 0.01, 0, 3
 152517392, 0.25, 0.23, 2.72, 2.64, 277.33, 277.46, 0.01, 0, 3
 152520001, 0.26, 0.21, 2.72, 2.87, 277.33, 277.5, 0.01, 0, 3
 152527910, 0.25, 0.27, 2.72, 2.77, 277.33, 277.4, 0.01, 0.01, 3
 152529789, 0.25, 0.21, 2.72, 2.63, 277.33, 277.47, 0.01, 0.01, 3
 152532338, 0.26, 0.23, 2.72, 2.87, 277.33, 277.55, 0.01, 0.01, 3
 152535207, 0.26, 0.31, 2.72, 2.63, 277.33, 277.52, 0.01, 0.01, 3
 152537395, 0.25, 0.38, 2.72, 2.83, 277.33, 277.42, 0.01, 0.01, 3
 152540253, 0.25, 0.19, 2.72, 2.64, 277.33, 277.43, 0.01, 0.01, 3
 152542352, 0.25, 0.28, 2.72, 2.73, 277.33, 277.51, 0.01, 0.01, 3
 152544892, 0.25, 0.19, 2.72, 2.74, 277.33, 277.54, 0.01, 0.01, 3
 152547577, 0.25, 0.4, 2.72, 2.66, 277.33, 277.48, 0.01, 0.01, 3
 152549903, 0.25, 0.3, 2.72, 2.8, 277.33, 277.39, 0.01, 0.01, 3
 152552674, 0.25, 0.21, 2.72, 2.65, 277.33, 277.48, 0.01, 0.01, 3
 152554829, 0.25, 0.25, 2.72, 2.7, 277.33, 277.56, 0.01, 0.01, 3
 152557417, 0.25, 0.26, 2.72, 2.7, 277.33, 277.48, 0.01, 0.01, 3
 152562506, 0.25, 0.22, 2.72, 2.75, 277.33, 277.41, 0.01, 0.01, 3
 152567408, 0.25, 0.23, 2.72, 2.67, 277.33, 277.52, 0.01, 0.01, 3
 152569798, 0.24, 0.38, 2.72, 2.73, 277.33, 277.43, 0.01, 0.01, 3
 152573021, 0.24, 0.33, 2.72, 2.62, 277.33, 277.43, 0.01, 0.01, 3
 152574810, 0.24, 0.25, 2.72, 2.79, 277.33, 277.48, 0.01, 0.01, 3
 152577860, 0.24, 0.19, 2.72, 2.55, 277.33, 277.55, 0.01, 0.01, 3
 152579953, 0.24, 0.31, 2.72, 2.68, 277.33, 277.45, 0.01, 0.01, 3
 152587283, 0.25, 0.22, 2.72, 2.75, 277.33, 277.55, 0.01, 0.01, 3
 152590180, 0.25, 0.21, 2.72, 2.51, 277.33, 277.51, 0.01, 0.01, 3
 152594912, 0.24, 0.27, 2.72, 2.65, 277.33, 277.39, 0.01, 0.01, 3
 152597546, 0.25, 0.25, 2.72, 2.68, 277.33, 277.53, 0.01, 0.01, 3
 152599821, 0.25, 0.2, 2.72, 2.65, 277.33, 277.56, 0.01, 0.01, 3
 152602790, 0.25, 0.27, 2.73, 2.52, 277.33, 277.46, 0.01, 0.01, 3
 152604963, 0.24, 0.34, 2.73, 2.67, 277.33, 277.38, 0.01, 0.01, 3
 152607339, 0.25, 0.23, 2.73, 2.65, 277.33, 277.4, 0.01, 0.01, 3
 152610233, 0.25, 0.22, 2.73, 2.64, 277.33, 277.6, 0.01, 0.01, 3
 152612340, 0.25, 0.26, 2.73, 2.65, 277.33, 277.53, 0.01, 0.01, 3
 152615180, 0.25, 0.32, 2.73, 2.55, 277.33, 277.39, 0.01, 0.01, 3
 152617408, 0.24, 0.31, 2.73, 2.65, 277.33, 277.37, 0.01, 0.01, 3
 152620061, 0.25, 0.19, 2.74, 2.63, 277.33, 277.5, 0.01, 0.01, 3
 152628714, 0.24, 0.31, 2.74, 2.6, 277.33, 277.38, 0.01, 0.01, 3
 152629837, 0.24, 0.26, 2.74, 2.62, 277.33, 277.43, 0.01, 0.01, 3
 152640210, 0.23, 0.3, 2.75, 2.68, 277.33, 277.38, 0.01, 0.01, 3
 152642290, 0.23, 0.22, 2.75, 2.55, 277.33, 277.49, 0.01, 0.01, 3
 152644864, 0.23, 0.26, 2.75, 2.74, 277.33, 277.54, 0.01, 0.01, 3
 152647721, 0.23, 0.32, 2.75, 2.52, 277.33, 277.49, 0.01, 0.01, 3
 152649850, 0.23, 0.35, 2.75, 2.64, 277.33, 277.38, 0.01, 0.01, 3
 152652688, 0.22, 0.24, 2.75, 2.67, 277.33, 277.42, 0.01, 0.01, 3
 152654857, 0.22, 0.26, 2.75, 2.56, 277.33, 277.54, 0.01, 0.01, 3
 152657303, 0.22, 0.27, 2.76, 2.75, 277.33, 277.53, 0.01, 0.01, 3
 152662551, 0.22, 0.36, 2.76, 2.77, 277.33, 277.39, 0.01, 0.01, 3
 152667523, 0.22, 0.33, 2.76, 2.69, 277.33, 277.55, 0.01, 0.01, 3
 152672993, 0.21, 0.4, 2.76, 2.58, 277.33, 277.48, 0.01, 0.01, 3
 152674849, 0.21, 0.28, 2.76, 2.77, 277.33, 277.42, 0.01, 0.01, 3
 152678022, 0.21, 0.25, 2.76, 2.61, 277.33, 277.5, 0.01, 0.01, 3
 152679917, 0.21, 0.28, 2.76, 2.71, 277.33, 277.52, 0.01, 0.01, 3
 152682419, 0.2, 0.26, 2.76, 2.65, 277.33, 277.45, 0.01, 0.01, 3
 152685221, 0.2, 0.44, 2.76, 2.69, 277.33, 277.51, 0.01, 0.01, 3
 152687244, 0.2, 0.25, 2.76, 2.77, 277.33, 277.44, 0.01, 0.01, 3
 152694959, 0.2, 0.36, 2.76, 2.74, 277.33, 277.46, 0.01, 0.01, 3
 152697612, 0.19, 0.37, 2.76, 2.68, 277.33, 277.51, 0.01, 0.01, 3
 152699821, 0.19, 0.29, 2.76, 2.84, 277.33, 277.47, 0.01, 0.01, 3
 152702833, 0.19, 0.2, 2.76, 2.62, 277.33, 277.54, 0.01, 0.01, 3
 152704886, 0.19, 0.26, 2.76, 2.73, 277.33, 277.47, 0.01, 0.01, 3
 152707353, 0.19, 0.38, 2.76, 2.81, 277.33, 277.45, 0.01, 0.01, 3
 152710863, 0.19, 0.3, 2.76, 2.75, 277.33, 277.5, 0.01, 0.01, 3
 152712406, 0.19, 0.29, 2.76, 2.92, 277.33, 277.52, 0.01, 0.01, 3
 152715824, 0.19, 0.16, 2.76, 2.59, 277.33, 277.55, 0.01, 0.01, 3
 152717512, 0.18, 0.32, 2.76, 2.8, 277.33, 277.46, 0.01, 0.01, 3
 152720066, 0.18, 0.3, 2.76, 2.77, 277.33, 277.48, 0.01, 0.01, 3
 152722817, 0.18, 0.27, 2.76, 2.86, 277.33, 277.53, 0.01, 0.01, 3
 152724808, 0.18, 0.2, 2.76, 2.81, 277.33, 277.55, 0.01, 0.01, 3
 152729864, 0.18, 0.31, 2.76, 2.81, 277.33, 277.49, 0.01, 0.01, 3
 152732241, 0.18, 0.23, 2.76, 2.81, 277.33, 277.46, 0.01, 0.01, 3
 152735220, 0.18, 0.23, 2.76, 2.88, 277.33, 277.54, 0.01, 0.01, 3
 152737443, 0.18, 0.17, 2.76, 2.75, 277.33, 277.52, 0.01, 0.01, 3
 152740275, 0.18, 0.21, 2.76, 2.71, 277.33, 277.5, 0.01, 0.01, 3
 152749962, 0.18, 0.21, 2.77, 2.77, 277.33, 277.48, 0.01, 0.01, 3
 152752775, 0.17, 0.22, 2.77, 2.77, 277.33, 277.46, 0.01, 0.01, 3
 152757370, 0.17, 0.14, 2.77, 2.87, 277.33, 277.5, 0.01, 0.01, 3
 152767510, 0.18, 0.16, 2.77, 2.77, 277.33, 277.47, 0.01, 0.01, 3
 152774881, 0.18, 0.23, 2.78, 2.82, 277.33, 277.42, 0.01, 0.01, 3
 152777837, 0.18, 0.17, 2.78, 2.89, 277.33, 277.44, 0.01, 0.01, 3
 152782463, 0.18, 0.18, 2.78, 2.96, 277.33, 277.52, 0.01, 0.01, 3
 152787288, 0.18, 0.25, 2.78, 2.92, 277.33, 277.43, 0.01, 0.01, 3
 152790324, 0.18, 0.09, 2.78, 2.81, 277.33, 277.47, 0.01, 0.01, 3
 152794964, 0.18, 0.16, 2.78, 2.92, 277.33, 277.51, 0.01, 0.01, 3
 152797779, 0.17, 0.27, 2.78, 2.75, 277.33, 277.48, 0.01, 0.01, 3
 152799904, 0.17, 0.22, 2.79, 2.96, 277.33, 277.43, 0.01, 0.01, 3
 152802782, 0.17, 0.1, 2.79, 2.77, 277.33, 277.51, 0.01, 0.01, 3
 152804876, 0.17, 0.2, 2.79, 2.89, 277.33, 277.54, 0.01, 0.01, 3
 152810262, 0.16, 0.34, 2.79, 2.85, 277.33, 277.49, 0.01, 0.01, 3
 152812394, 0.16, 0.13, 2.79, 2.89, 277.33, 277.45, 0.01, 0.01, 3
 152817434, 0.16, 0.15, 2.79, 2.84, 277.33, 277.51, 0.01, 0.01, 3
 152820124, 0.16, 0.22, 2.79, 2.9, 277.33, 277.45, 0.01, 0.01, 3
 152823509, 0.15, 0.3, 2.79, 2.85, 277.33, 277.48, 0.01, 0.01, 3
 152824888, 0.15, 0.16, 2.79, 2.91, 277.33, 277.49, 0.01, 0.01, 3
 152832306, 0.15, 0.35, 2.79, 2.95, 277.33, 277.43, 0.01, 0.01, 3
 152835105, 0.14, 0.23, 2.79, 2.78, 277.33, 277.46, 0.01, 0.01, 3
 152837338, 0.15, 0.17, 2.79, 2.98, 277.33, 277.59, 0.01, 0.01, 3
 152840342, 0.14, 0.1, 2.79, 2.74, 277.33, 277.59, 0.01, 0.01, 3
 152842381, 0.14, 0.31, 2.79, 2.92, 277.33, 277.46, 0.01, 0.01, 3
 152844805, 0.14, 0.25, 2.79, 2.88, 277.33, 277.42, 0.01, 0.01, 3
 152847841, 0.13, 0.17, 2.79, 2.8, 277.33, 277.51, 0.01, 0.01, 3
 152849934, 0.14, 0.12, 2.79, 2.91, 277.33, 277.63, 0.01, 0.01, 3
 152852817, 0.13, 0.18, 2.79, 2.71, 277.33, 277.54, 0.01, 0.01, 3
 152854776, 0.13, 0.32, 2.79, 2.9, 277.33, 277.46, 0.01, 0.01, 3
 152857360, 0.13, 0.15, 2.79, 2.82, 277.33, 277.44, 0.01, 0.01, 3
 152862559, 0.13, 0.11, 2.79, 2.82, 277.33, 277.62, 0.01, 0.01, 3
 152867510, 0.13, 0.23, 2.79, 2.85, 277.33, 277.43, 0.01, 0.01, 3
 152872931, 0.13, 0.13, 2.79, 2.82, 277.33, 277.67, 0.01, 0.01, 3
 152874952, 0.13, 0.17, 2.8, 2.78, 277.33, 277.55, 0.01, 0.01, 3
 152877951, 0.12, 0.23, 2.8, 2.76, 277.33, 277.44, 0.01, 0.01, 3
 152880000, 0.12, 0.11, 2.79, 2.78, 277.33, 277.47, 0.01, 0.01, 3
 152882472, 0.13, 0.1, 2.8, 2.8, 277.33, 277.59, 0.01, 0.01, 3
 152885285, 0.13, 0.12, 2.8, 2.76, 277.33, 277.64, 0.01, 0.01, 3
 152887418, 0.12, 0.23, 2.8, 2.76, 277.33, 277.47, 0.01, 0.01, 3
 152890234, 0.12, 0.12, 2.8, 2.74, 277.33, 277.45, 0.01, 0.01, 3
 152892396, 0.13, 0.07, 2.79, 2.77, 277.33, 277.55, 0.01, 0.01, 3
 152895013, 0.13, 0.07, 2.8, 2.77, 277.33, 277.64, 0.01, 0.01, 3
 152897839, 0.13, 0.17, 2.8, 2.73, 277.33, 277.56, 0.01, 0.01, 3
 152899911, 0.12, 0.19, 2.8, 2.73, 277.33, 277.44, 0.01, 0.01, 3
 152902922, 0.13, 0.04, 2.79, 2.77, 277.33, 277.51, 0.01, 0.01, 3
 152904890, 0.13, 0.05, 2.79, 2.72, 277.33, 277.64, 0.01, 0.01, 3
 152907256, 0.13, 0.08, 2.79, 2.79, 277.33, 277.61, 0.01, 0.01, 3
 152910831, 0.13, 0.2, 2.79, 2.66, 277.33, 277.49, 0.01, 0.01, 3
 152912428, 0.12, 0.13, 2.79, 2.75, 277.33, 277.45, 0.01, 0.01, 3
 152920116, 0.13, 0.1, 2.79, 2.75, 277.33, 277.56, 0.01, 0.01, 3
 152927711, 0.13, 0.01, 2.78, 2.69, 277.33, 277.66, 0.01, 0.01, 3
 152929809, 0.13, 0.11, 2.78, 2.75, 277.33, 277.62, 0.01, 0.01, 3
 152932463, 0.12, 0.09, 2.78, 2.69, 277.33, 277.54, 0.01, 0.01, 3
 152935192, 0.12, 0.19, 2.78, 2.74, 277.33, 277.55, 0.01, 0.01, 3
 152937397, 0.12, 0.03, 2.78, 2.77, 277.33, 277.56, 0.01, 0.01, 3
 152940374, 0.12, 0.08, 2.77, 2.7, 277.33, 277.66, 0.01, 0.01, 3
 152942458, 0.12, 0.09, 2.77, 2.68, 277.33, 277.6, 0.01, 0.01, 3
 152944871, 0.12, 0.13, 2.77, 2.76, 277.33, 277.57, 0.01, 0.01, 3
 152947845, 0.12, 0.17, 2.77, 2.73, 277.33, 277.6, 0.01, 0.01, 3
 152952724, 0.11, 0.07, 2.76, 2.7, 277.33, 277.65, 0.01, 0.01, 3
 152954774, 0.11, 0.08, 2.76, 2.69, 277.33, 277.57, 0.01, 0.01, 3
 152957377, 0.11, 0.17, 2.76, 2.84, 277.33, 277.57, 0.01, 0.01, 3
 152962498, 0.11, 0.09, 2.75, 2.89, 277.33, 277.65, 0.01, 0.01, 3
 152967524, 0.1, 0.13, 2.75, 2.72, 277.33, 277.59, 0.01, 0.01, 3
 152969845, 0.1, 0.14, 2.75, 2.8, 277.33, 277.57, 0.01, 0.01, 3
 152977780, 0.09, 0.05, 2.74, 2.56, 277.33, 277.63, 0.01, 0.01, 3
 152979884, 0.09, 0.16, 2.74, 2.8, 277.33, 277.59, 0.01, 0.01, 3
 152982304, 0.08, 0.05, 2.74, 2.73, 277.33, 277.59, 0.01, 0.01, 3
 152985344, 0.08, 0.15, 2.73, 2.81, 277.33, 277.67, 0.01, 0.01, 3
 152987374, 0.08, 0.05, 2.73, 2.76, 277.33, 277.64, 0.01, 0.01, 3
 152990270, 0.08, 0.13, 2.73, 2.65, 277.33, 277.62, 0.01, 0.01, 3
 152992305, 0.07, 0.1, 2.73, 2.79, 277.33, 277.61, 0.01, 0.01, 3
 152994713, 0.07, 0.06, 2.73, 2.76, 277.33, 277.61, 0.01, 0.01, 3
 152997704, 0.07, 0.12, 2.72, 2.8, 277.33, 277.69, 0.01, 0.01, 3
 153000061, 0.07, 0.07, 2.72, 2.72, 277.33, 277.59, 0.01, 0.01, 3
 153002717, 0.06, 0.13, 2.72, 2.72, 277.33, 277.64, 0.01, 0.01, 3
 153004745, 0.06, 0.04, 2.72, 2.79, 277.33, 277.62, 0.01, 0.01, 3
 153007421, 0.06, 0.07, 2.71, 2.78, 277.33, 277.66, 0.01, 0.01, 3
 153010342, 0.06, 0.08, 2.71, 2.74, 277.33, 277.68, 0.01, 0.01, 3
 153012464, 0.06, 0.15, 2.71, 2.78, 277.33, 277.59, 0.01, 0.01, 3
 153015237, 0.05, 0.05, 2.71, 2.72, 277.33, 277.64, 0.01, 0.01, 3
 153017327, 0.05, 0.03, 2.71, 2.84, 277.33, 277.64, 0.01, 0.01, 3
 153019984, 0.05, 0.02, 2.7, 2.73, 277.33, 277.69, 0.01, 0.01, 3
 153032388, 0.04, 0.03, 2.69, 2.75, 277.33, 277.65, 0.01, 0.01, 3
 153035223, 0.04, 0.16, 2.69, 2.8, 277.33, 277.59, 0.01, 0.01, 3
 153040257, 0.04, -0.04, 2.69, 2.78, 277.33, 277.66, 0.01, 0.01, 3
 153042378, 0.04, 0, 2.69, 2.78, 277.33, 277.7, 0.01, 0.01, 3
 153044748, 0.04, 0.06, 2.68, 2.78, 277.33, 277.62, 0.01, 0.01, 3
 153047713, 0.03, 0.13, 2.68, 2.78, 277.33, 277.58, 0.01, 0.01, 3
 153049786, 0.03, 0, 2.68, 2.79, 277.33, 277.56, 0.01, 0.01, 3
 153053039, 0.03, -0.06, 2.68, 2.75, 277.33, 277.69, 0.01, 0.01, 3
 153054743, 0.03, 0.02, 2.68, 2.78, 277.33, 277.66, 0.01, 0.01, 3
 153057529, 0.03, 0.06, 2.67, 2.79, 277.33, 277.6, 0.01, 0.01, 3
 153062548, 0.02, -0.05, 2.67, 2.79, 277.33, 277.6, 0.01, 0.01, 3
 153067397, 0.02, 0.02, 2.67, 2.73, 277.33, 277.61, 0.01, 0.01, 3
 153072902, 0.01, 0.07, 2.66, 2.79, 277.33, 277.61, 0.01, 0.01, 3
 153074904, 0.01, -0.04, 2.66, 2.8, 277.33, 277.67, 0.01, 0.01, 3
 153079887, 0.01, 0.02, 2.66, 2.64, 277.33, 277.62, 0.01, 0.01, 3
 153082341, 0.01, 0.09, 2.66, 2.91, 277.33, 277.55, 0.01, 0.01, 3
 153092300, 0, 0.08, 2.66, 2.68, 277.33, 277.59, 0.01, 0.01, 3
 153094885, 0, 0.06, 2.66, 2.87, 277.33, 277.51, 0.01, 0.01, 3
 153099922, 0, -0.06, 2.65, 2.78, 277.33, 277.75, 0.01, 0.01, 3
 153102888, 0, -0.06, 2.65, 2.59, 277.33, 277.63, 0.01, 0.01, 3
 153107309, 0, -0.05, 2.65, 2.78, 277.33, 277.54, 0.01, 0.01, 3
 153110890, 0, -0.01, 2.65, 2.71, 277.33, 277.71, 0.01, 0.01, 3
 153112373, 0, -0.11, 2.65, 2.67, 277.33, 277.67, 0.01, 0.01, 3
 153115930, 0, 0.03, 2.65, 2.63, 277.33, 277.57, 0.01, 0.01, 3
 153117285, 0, 0, 2.65, 2.66, 277.33, 277.55, 0.01, 0.01, 3
 153120015, 0, -0.07, 2.65, 2.76, 277.33, 277.59, 0.01, 0.01, 3
 153124932, -0.01, -0.03, 2.65, 2.65, 277.33, 277.56, 0.01, 0.01, 3
 153127708, -0.01, 0.04, 2.65, 2.59, 277.33, 277.53, 0.01, 0.01, 3
 153132370, -0.01, -0.09, 2.65, 2.74, 277.33, 277.66, 0.01, 0.01, 3
 153135170, -0.01, -0.06, 2.65, 2.49, 277.33, 277.66, 0.01, 0.01, 3
 153137368, -0.01, 0.08, 2.65, 2.7, 277.33, 277.5, 0.01, 0.01, 3
 153140199, -0.01, -0.07, 2.65, 2.48, 277.33, 277.49, 0.01, 0.01, 3
 153142473, -0.01, -0.08, 2.65, 2.58, 277.33, 277.57, 0.01, 0.01, 3
 153152774, -0.02, -0.11, 2.65, 2.48, 277.33, 277.54, 0.01, 0.01, 3
 153154740, -0.02, -0.08, 2.65, 2.61, 277.33, 277.65, 0.01, 0.01, 3
 153157479, -0.02, -0.07, 2.64, 2.57, 277.33, 277.6, 0.01, 0.01, 3
 153162581, -0.03, -0.03, 2.64, 2.58, 277.33, 277.47, 0.01, 0.01, 3
 153169917, -0.03, 0, 2.64, 2.59, 277.33, 277.55, 0.01, 0.01, 3
 153172897, -0.03, 0.02, 2.63, 2.58, 277.33, 277.52, 0.01, 0.01, 3
 153174920, -0.03, -0.05, 2.63, 2.6, 277.33, 277.53, 0.01, 0.01, 3
 153177781, -0.03, -0.12, 2.63, 2.54, 277.33, 277.62, 0.01, 0.01, 3
 153179946, -0.03, -0.03, 2.63, 2.56, 277.33, 277.6, 0.01, 0.01, 3
 153182343, -0.03, 0.02, 2.63, 2.57, 277.33, 277.5, 0.01, 0.01, 3
 153185209, -0.03, -0.02, 2.62, 2.65, 277.33, 277.55, 0.01, 0.01, 3
 153187396, -0.03, -0.05, 2.62, 2.62, 277.33, 277.63, 0.01, 0.01, 3
 153190271, -0.03, -0.09, 2.62, 2.58, 277.33, 277.62, 0.01, 0.01, 3
 153194829, -0.04, 0, 2.61, 2.62, 277.33, 277.49, 0.01, 0.01, 3
 153197699, -0.03, -0.07, 2.61, 2.68, 277.33, 277.54, 0.01, 0.01, 3
 153199764, -0.03, -0.05, 2.61, 2.6, 277.33, 277.69, 0.01, 0.01, 3
 153202853, -0.03, -0.06, 2.61, 2.6, 277.33, 277.59, 0.01, 0.01, 3
 153204833, -0.03, 0, 2.61, 2.49, 277.33, 277.49, 0.01, 0.01, 3
 153210365, -0.03, -0.11, 2.6, 2.65, 277.33, 277.62, 0.01, 0.01, 3
 153212521, -0.03, 0, 2.6, 2.63, 277.33, 277.67, 0.01, 0.01, 3
 153217236, -0.04, 0, 2.6, 2.55, 277.33, 277.5, 0.01, 0.01, 3
 153219988, -0.04, -0.07, 2.6, 2.65, 277.33, 277.54, 0.01, 0.01, 3
 153223477, -0.03, -0.08, 2.6, 2.65, 277.33, 277.65, 0.01, 0.01, 3
 153224957, -0.03, 0.01, 2.6, 2.59, 277.33, 277.58, 0.01, 0.01, 3
 153232347, -0.04, -0.11, 2.6, 2.62, 277.33, 277.57, 0.01, 0.01, 3
 153235287, -0.03, -0.03, 2.6, 2.66, 277.33, 277.65, 0.01, 0.01, 3
 153237450, -0.03, 0.01, 2.6, 2.48, 277.33, 277.54, 0.01, 0.01, 3
 153240286, -0.04, 0.01, 2.6, 2.64, 277.33, 277.47, 0.01, 0.01, 3
 153242395, -0.04, -0.04, 2.6, 2.49, 277.33, 277.56, 0.01, 0.01, 3
 153244734, -0.04, -0.04, 2.6, 2.66, 277.33, 277.59, 0.01, 0.01, 3
 153247862, -0.04, -0.02, 2.6, 2.55, 277.33, 277.6, 0.01, 0.01, 3
 153249887, -0.04, 0.04, 2.6, 2.5, 277.33, 277.53, 0.01, 0.01, 3
 153252811, -0.04, 0.01, 2.6, 2.66, 277.33, 277.49, 0.01, 0.01, 3
 153254844, -0.04, -0.08, 2.6, 2.44, 277.33, 277.55, 0.01, 0.01, 3
 153257373, -0.04, 0, 2.6, 2.71, 277.33, 277.61, 0.01, 0.01, 3
 153277884, -0.04, -0.03, 2.6, 2.59, 277.33, 277.5, 0.01, 0.01, 3
 153280003, -0.04, 0.02, 2.6, 2.52, 277.33, 277.59, 0.01, 0.01, 3
 153285252, -0.04, 0.13, 2.59, 2.54, 277.33, 277.54, 0.01, 0.01, 3
 153287389, -0.05, 0.14, 2.59, 2.56, 277.33, 277.57, 0.01, 0.01, 3
 153290295, -0.05, 0.01, 2.59, 2.61, 277.33, 277.52, 0.01, 0.01, 3
 153292353, -0.04, -0.04, 2.59, 2.48, 277.33, 277.6, 0.01, 0.01, 3
 153294769, -0.04, 0.02, 2.59, 2.56, 277.33, 277.53, 0.01, 0.01, 3
 153297763, -0.05, 0.14, 2.59, 2.58, 277.33, 277.53, 0.01, 0.01, 3
 153299801, -0.05, 0.09, 2.59, 2.56, 277.33, 277.56, 0.01, 0.01, 3
 153302979, -0.05, 0.03, 2.59, 2.66, 277.33, 277.57, 0.01, 0.01, 3
 153304873, -0.05, -0.07, 2.59, 2.44, 277.33, 277.61, 0.01, 0.01, 3
 153307399, -0.05, 0.1, 2.59, 2.59, 277.33, 277.53, 0.01, 0.01, 3
 153310992, -0.05, 0.09, 2.59, 2.59, 277.33, 277.53, 0.01, 0.01, 3
 153312416, -0.05, 0.06, 2.59, 2.64, 277.33, 277.58, 0.01, 0.01, 3
 153315998, -0.05, 0, 2.59, 2.6, 277.33, 277.63, 0.01, 0.01, 3
 153317254, -0.05, -0.03, 2.59, 2.45, 277.33, 277.59, 0.01, 0.01, 3
 153320125, -0.05, 0.12, 2.59, 2.58, 277.33, 277.55, 0.01, 0.01, 3
 153322770, -0.05, 0.03, 2.59, 2.61, 277.33, 277.51, 0.01, 0.01, 3
 153332340, -0.05, 0.08, 2.59, 2.55, 277.33, 277.54, 0.01, 0.01, 3
 153335236, -0.05, -0.01, 2.59, 2.62, 277.33, 277.52, 0.01, 0.01, 3
 153340211, -0.05, 0, 2.6, 2.51, 277.33, 277.56, 0.01, 0.01, 3
 153342497, -0.05, 0.03, 2.6, 2.51, 277.33, 277.52, 0.01, 0.01, 3
 153344731, -0.05, 0.02, 2.6, 2.51, 277.33, 277.52, 0.01, 0.01, 3
 153347785, -0.05, -0.07, 2.6, 2.61, 277.33, 277.56, 0.01, 0.01, 3
 153349827, -0.05, -0.01, 2.6, 2.5, 277.33, 277.63, 0.01, 0.01, 3
 153352850, -0.05, 0, 2.6, 2.48, 277.33, 277.51, 0.01, 0.01, 3
 153354819, -0.05, 0.01, 2.61, 2.52, 277.33, 277.49, 0.01, 0.01, 3
 153357402, -0.05, -0.04, 2.61, 2.45, 277.33, 277.53, 0.01, 0.01, 3
 153367504, -0.05, -0.05, 2.61, 2.5, 277.33, 277.47, 0.01, 0.01, 3
 153372847, -0.04, -0.07, 2.62, 2.61, 277.33, 277.58, 0.01, 0.01, 3
 153374810, -0.04, -0.02, 2.62, 2.33, 277.33, 277.56, 0.01, 0.01, 3
 153377950, -0.05, 0.04, 2.62, 2.57, 277.33, 277.47, 0.01, 0.01, 3
 153379882, -0.05, -0.14, 2.62, 2.41, 277.33, 277.48, 0.01, 0.01, 3
 153382351, -0.04, -0.07, 2.62, 2.4, 277.33, 277.57, 0.01, 0.01, 3
 153390247, -0.05, -0.01, 2.63, 2.56, 277.33, 277.45, 0.01, 0.01, 3
 153392443, -0.05, -0.16, 2.63, 2.43, 277.33, 277.49, 0, 0.01, 3
 153397771, -0.05, -0.12, 2.63, 2.52, 277.33, 277.49, 0, 0.01, 3
 153399916, -0.05, 0.05, 2.63, 2.44, 277.33, 277.51, 0, 0.01, 3
 153402748, -0.05, -0.1, 2.63, 2.51, 277.33, 277.46, 0, 0.01, 3
 153404899, -0.05, -0.14, 2.63, 2.48, 277.33, 277.52, 0, 0.01, 3
 153407378, -0.05, -0.14, 2.63, 2.41, 277.33, 277.56, 0, 0.01, 3
 153410219, -0.05, -0.03, 2.63, 2.55, 277.33, 277.44, 0, 0.01, 3
 153412390, -0.05, -0.02, 2.63, 2.45, 277.33, 277.48, 0, 0.01, 3
 153415275, -0.05, -0.11, 2.63, 2.53, 277.33, 277.51, 0, 0.01, 3
 153417371, -0.05, -0.16, 2.63, 2.5, 277.33, 277.57, 0, 0.01, 3
 153420178, -0.05, -0.12, 2.63, 2.39, 277.33, 277.52, 0, 0.01, 3
 153423451, -0.05, 0.02, 2.63, 2.59, 277.33, 277.43, 0, 0.01, 3
 153424894, -0.05, -0.11, 2.63, 2.45, 277.33, 277.46, 0, 0.01, 3
 153428451, -0.05, -0.12, 2.63, 2.59, 277.33, 277.58, 0, 0.01, 3
 153429835, -0.05, -0.18, 2.63, 2.46, 277.33, 277.57, 0, 0.01, 3
 153432344, -0.05, -0.04, 2.63, 2.45, 277.33, 277.48, 0, 0.01, 3
 153435262, -0.05, -0.05, 2.63, 2.56, 277.33, 277.42, 0, 0.01, 3
 153444765, -0.05, -0.03, 2.63, 2.49, 277.33, 277.43, 0, 0.01, 3
 153447684, -0.05, -0.12, 2.63, 2.54, 277.33, 277.43, 0, 0.01, 3
 153452680, -0.05, -0.1, 2.63, 2.56, 277.33, 277.58, 0, 0.01, 3
 153454870, -0.05, -0.08, 2.63, 2.47, 277.33, 277.42, 0, 0.01, 3
 153457546, -0.05, -0.07, 2.63, 2.52, 277.33, 277.41, 0, 0.01, 3
 153462439, -0.05, -0.16, 2.63, 2.58, 277.33, 277.6, 0, 0.01, 3
 153467333, -0.05, -0.08, 2.63, 2.49, 277.33, 277.38, 0, 0.01, 3
 153472959, -0.05, -0.17, 2.63, 2.55, 277.33, 277.51, 0, 0.01, 3
 153474884, -0.05, -0.1, 2.63, 2.61, 277.33, 277.57, 0, 0.01, 3
 153477915, -0.05, -0.03, 2.63, 2.47, 277.33, 277.43, 0, 0.01, 3
 153479899, -0.05, -0.06, 2.63, 2.6, 277.33, 277.4, 0, 0.01, 3
 153482480, -0.05, -0.14, 2.63, 2.51, 277.33, 277.49, 0, 0.01, 3
 153485269, -0.05, -0.11, 2.63, 2.61, 277.33, 277.55, 0, 0.01, 3
 153487412, -0.05, -0.07, 2.63, 2.55, 277.33, 277.52, 0, 0.01, 3
 153490222, -0.05, -0.01, 2.63, 2.46, 277.33, 277.42, 0, 0.01, 3
 153492393, -0.06, -0.08, 2.63, 2.67, 277.33, 277.41, 0, 0.01, 3
 153494808, -0.05, -0.15, 2.63, 2.47, 277.33, 277.5, 0, 0.01, 3
 153499811, -0.05, -0.09, 2.63, 2.51, 277.33, 277.49, 0, 0.01, 3
 153502893, -0.06, 0.03, 2.63, 2.58, 277.33, 277.43, 0, 0.01, 3
 153507410, -0.06, -0.05, 2.63, 2.5, 277.33, 277.53, 0, 0.01, 3
 153511004, -0.06, -0.05, 2.63, 2.67, 277.33, 277.52, 0, 0.01, 3
 153512275, -0.06, -0.09, 2.63, 2.47, 277.33, 277.47, 0, 0.01, 3
 153515972, -0.06, 0.05, 2.63, 2.61, 277.33, 277.47, 0, 0.01, 3
 153517370, -0.06, -0.14, 2.63, 2.58, 277.33, 277.45, 0, 0.01, 3
 153520095, -0.06, -0.03, 2.63, 2.53, 277.33, 277.51, 0, 0.01, 3
 153524895, -0.07, 0, 2.63, 2.55, 277.33, 277.47, 0, 0.01, 3
 153527849, -0.07, -0.02, 2.63, 2.59, 277.33, 277.46, 0, 0.01, 3
 153532359, -0.07, -0.08, 2.63, 2.48, 277.33, 277.5, 0, 0.01, 3
 153535203, -0.07, -0.09, 2.63, 2.6, 277.33, 277.43, 0, 0.01, 3
 153537360, -0.08, 0.05, 2.63, 2.58, 277.33, 277.46, 0, 0.01, 3
 153540252, -0.08, 0, 2.63, 2.57, 277.33, 277.46, 0, 0.01, 3
 153542423, -0.08, -0.06, 2.63, 2.67, 277.33, 277.46, 0, 0.01, 3
 153544764, -0.08, -0.13, 2.63, 2.42, 277.33, 277.5, 0, 0.01, 3
 153547894, -0.08, 0, 2.63, 2.65, 277.33, 277.42, 0, 0.01, 3
 153557257, -0.08, -0.11, 2.63, 2.43, 277.33, 277.47, 0, 0.01, 3
 153567353, -0.09, -0.15, 2.63, 2.54, 277.33, 277.48, 0, 0.01, 3
 153572940, -0.09, -0.01, 2.63, 2.63, 277.33, 277.41, 0, 0.01, 3
 153574874, -0.09, -0.11, 2.63, 2.59, 277.33, 277.41, 0, 0.01, 3
 153577974, -0.09, -0.11, 2.63, 2.62, 277.33, 277.51, 0, 0.01, 3
 153579863, -0.09, -0.14, 2.63, 2.52, 277.33, 277.44, 0, 0.01, 3
 153582387, -0.09, -0.06, 2.63, 2.54, 277.33, 277.43, 0, 0.01, 3
 153585244, -0.1, -0.09, 2.63, 2.6, 277.33, 277.38, 0, 0.01, 3
 153587413, -0.09, -0.17, 2.63, 2.61, 277.33, 277.42, 0, 0.01, 3
 153590227, -0.09, -0.12, 2.63, 2.59, 277.33, 277.49, 0, 0.01, 3
 153592326, -0.09, -0.13, 2.63, 2.54, 277.33, 277.38, 0, 0.01, 3
 153594799, -0.1, -0.11, 2.63, 2.57, 277.33, 277.38, 0, 0.01, 3
 153597793, -0.09, -0.17, 2.63, 2.58, 277.33, 277.38, 0, 0.01, 3
 153599836, -0.09, -0.22, 2.63, 2.63, 277.33, 277.42, 0, 0.01, 3
 153602894, -0.09, -0.11, 2.63, 2.56, 277.33, 277.44, 0, 0.01, 3
 153604819, -0.1, -0.12, 2.63, 2.54, 277.33, 277.34, 0, 0.01, 3
 153610150, -0.1, -0.21, 2.63, 2.52, 277.33, 277.4, 0, 0.01, 3
 153612234, -0.09, -0.21, 2.63, 2.7, 277.33, 277.43, 0, 0.01, 3
 153615354, -0.1, -0.14, 2.63, 2.49, 277.33, 277.39, 0, 0.01, 3
 153617382, -0.1, -0.12, 2.62, 2.61, 277.33, 277.32, 0, 0.01, 3
 153620137, -0.1, -0.26, 2.62, 2.58, 277.33, 277.35, 0, 0.01, 3
 153623497, -0.1, -0.24, 2.62, 2.51, 277.33, 277.43, 0, 0.01, 3
 153624870, -0.1, -0.23, 2.62, 2.7, 277.33, 277.41, 0, 0.01, 3
 153632373, -0.1, -0.32, 2.62, 2.57, 277.33, 277.34, 0, 0.01, 3
 153635164, -0.1, -0.2, 2.62, 2.57, 277.33, 277.43, 0, 0.01, 3
 153637425, -0.1, -0.26, 2.62, 2.69, 277.33, 277.37, 0, 0.01, 3
 153640263, -0.1, -0.13, 2.62, 2.51, 277.33, 277.35, 0, 0.01, 3
 153642543, -0.1, -0.18, 2.61, 2.67, 277.33, 277.31, 0, 0.01, 3
 153644835, -0.1, -0.32, 2.61, 2.55, 277.33, 277.37, 0, 0.01, 3
 153647883, -0.1, -0.22, 2.61, 2.6, 277.33, 277.4, 0, 0.01, 3
 153649837, -0.1, -0.25, 2.61, 2.63, 277.33, 277.32, 0, 0.01, 3
 153652724, -0.1, -0.08, 2.61, 2.58, 277.33, 277.34, 0, 0.01, 3
 153654863, -0.1, -0.26, 2.61, 2.62, 277.33, 277.31, 0, 0.01, 3
 153657271, -0.1, -0.27, 2.61, 2.59, 277.33, 277.38, 0, 0.01, 3
 153662471, -0.1, -0.17, 2.61, 2.65, 277.33, 277.28, 0, 0.01, 3
 153669967, -0.1, -0.28, 2.61, 2.56, 277.33, 277.41, 0, 0.01, 3
 153672830, -0.1, -0.22, 2.61, 2.51, 277.33, 277.34, 0, 0.01, 3
 153677804, -0.1, -0.21, 2.61, 2.5, 277.33, 277.32, 0, 0.01, 3
 153679781, -0.1, -0.24, 2.61, 2.68, 277.33, 277.41, 0, 0.01, 3
 153682470, -0.1, -0.28, 2.61, 2.49, 277.33, 277.39, 0, 0.01, 3
 153685227, -0.1, -0.14, 2.61, 2.53, 277.33, 277.31, 0, 0.01, 3
 153687494, -0.1, -0.15, 2.61, 2.64, 277.33, 277.28, 0, 0.01, 3
 153690273, -0.1, -0.23, 2.61, 2.5, 277.33, 277.36, 0, 0.01, 3
 153692344, -0.1, -0.24, 2.61, 2.65, 277.33, 277.45, 0, 0.01, 3
 153694885, -0.1, -0.23, 2.61, 2.49, 277.33, 277.38, 0, 0.01, 3
 153697680, -0.11, -0.11, 2.61, 2.55, 277.33, 277.28, 0, 0.01, 3
 153699871, -0.11, -0.2, 2.61, 2.6, 277.33, 277.29, 0, 0.01, 3
 153702767, -0.11, -0.22, 2.6, 2.53, 277.33, 277.41, 0, 0.01, 3
 153704847, -0.11, -0.19, 2.6, 2.64, 277.33, 277.45, 0, 0.01, 3
 153707363, -0.11, -0.14, 2.6, 2.43, 277.33, 277.3, 0, 0.01, 3
 153711027, -0.12, -0.12, 2.6, 2.55, 277.33, 277.27, 0, 0.01, 3
 153712378, -0.12, -0.18, 2.6, 2.58, 277.33, 277.3, 0, 0.01, 3
 153715932, -0.12, -0.19, 2.6, 2.54, 277.33, 277.46, 0, 0.01, 3
 153717373, -0.12, -0.11, 2.6, 2.61, 277.33, 277.39, 0, 0.01, 3
 153724734, -0.12, -0.19, 2.6, 2.54, 277.33, 277.36, 0, 0, 3
 153727739, -0.12, -0.14, 2.59, 2.57, 277.33, 277.44, 0, 0, 3
 153732402, -0.13, -0.1, 2.59, 2.43, 277.33, 277.26, 0, 0, 3
 153735229, -0.13, -0.14, 2.59, 2.55, 277.33, 277.34, 0, 0, 3
 153737429, -0.13, -0.15, 2.59, 2.54, 277.33, 277.39, 0, 0, 3
 153740280, -0.13, -0.08, 2.59, 2.6, 277.33, 277.41, 0, 0, 3
 153742349, -0.13, -0.05, 2.59, 2.41, 277.33, 277.26, 0, 0, 3
 153744823, -0.14, -0.07, 2.59, 2.55, 277.33, 277.28, 0, 0, 3
 153747703, -0.14, -0.14, 2.59, 2.47, 277.33, 277.38, 0, 0, 3
 153749898, -0.14, -0.1, 2.59, 2.55, 277.33, 277.41, 0, 0, 3
 153752832, -0.14, -0.06, 2.59, 2.48, 277.33, 277.35, 0, 0, 3
 153754917, -0.14, -0.04, 2.59, 2.4, 277.33, 277.29, 0, 0, 3
 153757257, -0.14, -0.09, 2.59, 2.63, 277.33, 277.3, 0, 0, 3
 153762444, -0.14, -0.05, 2.59, 2.63, 277.33, 277.4, 0, 0, 3
 153772920, -0.14, -0.07, 2.59, 2.44, 277.33, 277.39, 0, 0, 3
 153774748, -0.14, -0.09, 2.59, 2.61, 277.33, 277.38, 0, 0, 3
 153782468, -0.14, -0.18, 2.59, 2.51, 277.33, 277.34, 0, 0, 3
 153785175, -0.14, -0.03, 2.59, 2.49, 277.33, 277.39, 0, 0, 3
 153790322, -0.15, 0, 2.59, 2.48, 277.33, 277.38, 0, 0, 3
 153792321, -0.15, -0.04, 2.59, 2.56, 277.33, 277.36, 0, 0, 3
 153794822, -0.15, -0.12, 2.59, 2.53, 277.33, 277.35, 0, 0, 3
 153797779, -0.15, -0.11, 2.59, 2.47, 277.33, 277.41, 0, 0, 3
 153799955, -0.15, -0.13, 2.59, 2.56, 277.33, 277.34, 0, 0, 3
 153802707, -0.15, 0.04, 2.59, 2.48, 277.33, 277.4, 0, 0, 3
 153804901, -0.15, -0.05, 2.59, 2.57, 277.33, 277.36, 0, 0, 3
 153807314, -0.15, -0.12, 2.59, 2.54, 277.33, 277.38, 0, 0, 3
 153810306, -0.15, -0.16, 2.59, 2.45, 277.33, 277.42, 0, 0, 3
 153812328, -0.15, -0.04, 2.59, 2.6, 277.33, 277.33, 0, 0, 3
 153815332, -0.15, 0, 2.59, 2.47, 277.33, 277.41, 0, 0, 3
 153817387, -0.15, -0.04, 2.58, 2.6, 277.33, 277.38, 0, 0, 3
 153820173, -0.15, -0.19, 2.58, 2.48, 277.33, 277.43, 0, 0, 3
 153823579, -0.15, -0.18, 2.59, 2.43, 277.33, 277.43, 0, 0, 3
 153824834, -0.15, -0.02, 2.59, 2.59, 277.33, 277.36, 0, 0, 3
 153828529, -0.15, -0.05, 2.58, 2.52, 277.33, 277.41, 0, 0, 3
 153837304, -0.14, -0.03, 2.59, 2.58, 277.33, 277.39, 0, 0, 3
 153840354, -0.14, -0.1, 2.58, 2.58, 277.33, 277.4, 0, 0, 3
 153844871, -0.14, -0.2, 2.59, 2.46, 277.33, 277.48, 0, 0, 3
 153847758, -0.14, -0.13, 2.59, 2.46, 277.33, 277.43, 0, 0, 3
 153849922, -0.14, -0.04, 2.59, 2.58, 277.33, 277.37, 0, 0, 3
 153852783, -0.14, -0.16, 2.59, 2.56, 277.33, 277.4, 0, 0, 3
 153854941, -0.14, -0.15, 2.59, 2.57, 277.33, 277.52, 0, 0, 3
 153857251, -0.13, -0.19, 2.59, 2.45, 277.33, 277.48, 0, 0, 3
 153862445, -0.14, -0.09, 2.59, 2.56, 277.33, 277.36, 0, 0, 3
 153869949, -0.14, -0.18, 2.59, 2.41, 277.33, 277.43, 0, 0, 3
 153873036, -0.14, -0.07, 2.6, 2.51, 277.33, 277.4, 0, 0, 3
 153874739, -0.14, -0.18, 2.6, 2.45, 277.33, 277.4, 0, 0, 3
 153878017, -0.13, -0.19, 2.6, 2.57, 277.33, 277.49, 0, 0, 3
 153879796, -0.13, -0.12, 2.6, 2.43, 277.33, 277.49, 0, 0, 3
 153882519, -0.14, -0.13, 2.6, 2.45, 277.33, 277.38, 0, 0, 3
 153885289, -0.14, -0.1, 2.6, 2.46, 277.33, 277.42, 0, 0, 3
 153894866, -0.14, -0.08, 2.61, 2.52, 277.33, 277.38, 0, 0, 3
 153897678, -0.14, -0.18, 2.61, 2.32, 277.33, 277.43, 0, 0, 3
 153899921, -0.13, -0.14, 2.61, 2.48, 277.33, 277.46, 0, 0, 3
 153902821, -0.13, -0.16, 2.61, 2.49, 277.33, 277.53, 0, 0, 3
 153907324, -0.14, -0.1, 2.61, 2.5, 277.33, 277.4, 0, 0, 3
 153911111, -0.13, -0.19, 2.61, 2.28, 277.33, 277.47, 0, 0, 3
 153912316, -0.13, -0.1, 2.62, 2.51, 277.33, 277.5, 0, 0, 3
 153915982, -0.13, -0.13, 2.62, 2.38, 277.33, 277.5, 0, 0, 3
 153917423, -0.13, 0, 2.61, 2.37, 277.33, 277.47, 0, 0, 3
 153920093, -0.13, -0.15, 2.61, 2.45, 277.33, 277.44, 0, 0, 3
 153922886, -0.13, -0.14, 2.61, 2.32, 277.33, 277.52, 0, 0.01, 3
 153924692, -0.13, -0.08, 2.62, 2.49, 277.33, 277.52, 0, 0.01, 3
 153927801, -0.13, -0.06, 2.62, 2.36, 277.33, 277.45, 0, 0.01, 3
 153929888, -0.13, 0, 2.62, 2.43, 277.33, 277.46, 0, 0.01, 3
 153932318, -0.13, -0.15, 2.61, 2.47, 277.33, 277.47, 0, 0.01, 3
 153935263, -0.13, -0.09, 2.62, 2.33, 277.33, 277.57, 0, 0.01, 3
 153937382, -0.13, -0.03, 2.62, 2.5, 277.33, 277.5, 0, 0.01, 3
 153940181, -0.14, -0.01, 2.62, 2.39, 277.33, 277.45, 0, 0.01, 3
 153944890, -0.14, -0.09, 2.61, 2.5, 277.33, 277.51, 0, 0.01, 3
 153947653, -0.14, -0.07, 2.61, 2.35, 277.33, 277.58, 0, 0.01, 3
 153952680, -0.14, 0, 2.61, 2.4, 277.33, 277.49, 0, 0.01, 3
 153955029, -0.14, -0.02, 2.61, 2.49, 277.33, 277.56, 0, 0.01, 3
 153957369, -0.14, -0.06, 2.61, 2.47, 277.33, 277.59, 0, 0.01, 3
 153962418, -0.14, 0.02, 2.61, 2.44, 277.33, 277.49, 0, 0.01, 3
 153967444, -0.14, -0.04, 2.61, 2.51, 277.33, 277.58, 0, 0.01, 3
 153969798, -0.13, 0, 2.61, 2.49, 277.33, 277.62, 0, 0.01, 3
 153972914, -0.13, -0.02, 2.61, 2.4, 277.33, 277.54, 0, 0.01, 3
 153974840, -0.13, 0.02, 2.61, 2.43, 277.33, 277.5, 0, 0.01, 3
 153978058, -0.13, 0.02, 2.61, 2.54, 277.33, 277.52, 0, 0.01, 3
 153979868, -0.13, -0.07, 2.61, 2.52, 277.33, 277.61, 0, 0.01, 3
 153982578, -0.13, 0.05, 2.61, 2.53, 277.33, 277.62, 0, 0.01, 3
 153985281, -0.13, -0.03, 2.61, 2.37, 277.33, 277.5, 0, 0.01, 3
 153987372, -0.13, 0.03, 2.61, 2.46, 277.33, 277.54, 0, 0.01, 3
 153990200, -0.13, -0.02, 2.61, 2.54, 277.33, 277.55, 0, 0.01, 3
 153992229, -0.13, -0.04, 2.61, 2.55, 277.33, 277.63, 0, 0.01, 3
 154002730, -0.13, -0.06, 2.61, 2.53, 277.33, 277.56, 0.01, 0.01, 3
 154004890, -0.13, 0.01, 2.61, 2.57, 277.33, 277.65, 0.01, 0.01, 3
 154007397, -0.13, 0.02, 2.61, 2.4, 277.33, 277.54, 0.01, 0.01, 3
 154010358, -0.13, 0.02, 2.61, 2.55, 277.33, 277.5, 0.01, 0.01, 3
 154012334, -0.13, 0, 2.61, 2.43, 277.33, 277.59, 0.01, 0.01, 3
 154015282, -0.13, -0.03, 2.61, 2.61, 277.33, 277.58, 0.01, 0.01, 3
 154017332, -0.13, 0.01, 2.62, 2.5, 277.33, 277.61, 0.01, 0.01, 3
 154019992, -0.13, 0.03, 2.62, 2.44, 277.33, 277.55, 0.01, 0.01, 3
 154023660, -0.13, 0.03, 2.62, 2.6, 277.33, 277.53, 0.01, 0.01, 3
 154028694, -0.13, 0, 2.62, 2.67, 277.33, 277.6, 0.01, 0.01, 3
 154029844, -0.13, -0.01, 2.62, 2.43, 277.33, 277.61, 0.01, 0.01, 3
 154032485, -0.13, 0.09, 2.62, 2.57, 277.33, 277.56, 0.01, 0.01, 3
 154035272, -0.13, -0.01, 2.62, 2.56, 277.33, 277.54, 0.01, 0.01, 3
 154037277, -0.13, -0.02, 2.62, 2.49, 277.33, 277.6, 0.01, 0.01, 3
 154040131, -0.13, 0, 2.62, 2.67, 277.33, 277.63, 0.01, 0.01, 3
 154042396, -0.13, 0, 2.62, 2.46, 277.33, 277.59, 0.01, 0.01, 3
 154047709, -0.13, -0.03, 2.62, 2.56, 277.33, 277.53, 0.01, 0.01, 3
 154049925, -0.13, 0, 2.62, 2.56, 277.33, 277.62, 0.01, 0.01, 3
 154057308, -0.13, 0.12, 2.61, 2.65, 277.33, 277.59, 0.01, 0.01, 3
 154062641, -0.13, -0.04, 2.61, 2.6, 277.33, 277.64, 0.01, 0.01, 3
 154069963, -0.14, 0.09, 2.6, 2.7, 277.33, 277.58, 0.01, 0.01, 3
 154072883, -0.14, 0, 2.6, 2.7, 277.33, 277.59, 0.01, 0.01, 3
 154077857, -0.13, 0.05, 2.6, 2.68, 277.33, 277.57, 0.01, 0.01, 3
 154079853, -0.14, 0.07, 2.6, 2.74, 277.33, 277.57, 0.01, 0.01, 3
 154082378, -0.14, 0.05, 2.6, 2.78, 277.33, 277.59, 0.01, 0.01, 3
 154085317, -0.13, -0.03, 2.59, 2.74, 277.33, 277.66, 0.01, 0.01, 3
 154087502, -0.13, -0.1, 2.59, 2.65, 277.33, 277.65, 0.01, 0.01, 3
 154090403, -0.13, 0.05, 2.59, 2.67, 277.33, 277.59, 0.01, 0.01, 3
 154092316, -0.13, 0.05, 2.59, 2.83, 277.33, 277.54, 0.01, 0.01, 3
 154094858, -0.13, 0, 2.59, 2.8, 277.33, 277.61, 0.01, 0.01, 3
 154097562, -0.13, -0.06, 2.59, 2.74, 277.33, 277.71, 0.01, 0.01, 3
 154099772, -0.13, -0.09, 2.59, 2.65, 277.33, 277.63, 0.01, 0.01, 3
 154102769, -0.13, 0.06, 2.59, 2.72, 277.33, 277.58, 0.01, 0.01, 3
 154104939, -0.13, -0.01, 2.59, 2.85, 277.33, 277.53, 0.01, 0.01, 3
 154107330, -0.13, -0.06, 2.59, 2.78, 277.33, 277.67, 0.01, 0.01, 3
 154110882, -0.12, -0.08, 2.59, 2.72, 277.33, 277.68, 0.01, 0.01, 3
 154115881, -0.12, 0, 2.59, 2.73, 277.33, 277.54, 0.01, 0.01, 3
 154117478, -0.12, -0.11, 2.59, 2.82, 277.33, 277.57, 0.01, 0.01, 3
 154124738, -0.12, -0.01, 2.59, 2.74, 277.33, 277.52, 0.01, 0.01, 3
 154127760, -0.12, -0.09, 2.59, 2.66, 277.33, 277.54, 0.01, 0.01, 3
 154129832, -0.12, -0.12, 2.59, 2.86, 277.33, 277.6, 0.01, 0.01, 3
 154132326, -0.11, -0.1, 2.59, 2.65, 277.33, 277.67, 0.01, 0.01, 3
 154135371, -0.12, -0.04, 2.59, 2.72, 277.33, 277.52, 0.01, 0.01, 3
 154137292, -0.12, -0.05, 2.59, 2.71, 277.33, 277.49, 0.01, 0.01, 3
 154140273, -0.12, -0.12, 2.6, 2.62, 277.33, 277.55, 0.01, 0.01, 3
 154142411, -0.11, -0.13, 2.6, 2.83, 277.33, 277.64, 0.01, 0.01, 3
 154144834, -0.11, -0.08, 2.6, 2.57, 277.33, 277.62, 0.01, 0.01, 3
 154147727, -0.12, 0.01, 2.6, 2.78, 277.33, 277.48, 0.01, 0.01, 3
 154149807, -0.12, -0.15, 2.6, 2.59, 277.33, 277.49, 0.01, 0.01, 3
 154152636, -0.12, -0.08, 2.6, 2.68, 277.33, 277.59, 0.01, 0.01, 3
 154154914, -0.12, -0.16, 2.6, 2.7, 277.33, 277.64, 0.01, 0.01, 3
 154157408, -0.12, -0.03, 2.61, 2.58, 277.33, 277.58, 0.01, 0.01, 3
 154162399, -0.12, -0.17, 2.61, 2.6, 277.33, 277.51, 0.01, 0.01, 3
 154173043, -0.14, -0.12, 2.6, 2.69, 277.33, 277.48, 0.01, 0.01, 3
 154174775, -0.14, -0.12, 2.6, 2.62, 277.33, 277.57, 0.01, 0.01, 3
 154177960, -0.14, -0.13, 2.6, 2.62, 277.33, 277.59, 0.01, 0.01, 3
 154180000, -0.14, -0.01, 2.6, 2.69, 277.33, 277.5, 0.01, 0.01, 3
 154182410, -0.14, 0.01, 2.6, 2.59, 277.33, 277.5, 0.01, 0.01, 3
 154185208, -0.14, -0.09, 2.6, 2.71, 277.33, 277.52, 0.01, 0.01, 3
 154187277, -0.14, -0.16, 2.6, 2.52, 277.33, 277.62, 0.01, 0.01, 3
 154190286, -0.14, -0.07, 2.6, 2.57, 277.33, 277.54, 0.01, 0.01, 3
 154192314, -0.14, 0.04, 2.6, 2.7, 277.33, 277.45, 0.01, 0.01, 3
 154194875, -0.14, -0.07, 2.6, 2.56, 277.33, 277.49, 0.01, 0.01, 3
 154197699, -0.14, -0.09, 2.6, 2.71, 277.33, 277.6, 0.01, 0.01, 3
 154199821, -0.14, -0.16, 2.6, 2.51, 277.33, 277.59, 0.01, 0.01, 3
 154202814, -0.14, 0.01, 2.6, 2.6, 277.33, 277.49, 0.01, 0.01, 3
 154204879, -0.14, -0.02, 2.59, 2.66, 277.33, 277.43, 0.01, 0.01, 3
 154207366, -0.14, -0.1, 2.59, 2.6, 277.33, 277.54, 0.01, 0.01, 3
 154210214, -0.14, -0.12, 2.59, 2.65, 277.33, 277.64, 0.01, 0.01, 3
 154212350, -0.14, -0.08, 2.59, 2.51, 277.33, 277.51, 0.01, 0.01, 3
 154215264, -0.14, 0.02, 2.59, 2.61, 277.33, 277.44, 0.01, 0.01, 3
 154217354, -0.14, -0.1, 2.59, 2.63, 277.33, 277.44, 0.01, 0.01, 3
 154220008, -0.14, -0.12, 2.59, 2.61, 277.33, 277.61, 0.01, 0.01, 3
 154228516, -0.14, -0.02, 2.59, 2.6, 277.33, 277.41, 0.01, 0, 3
 154229861, -0.13, -0.12, 2.58, 2.61, 277.33, 277.49, 0.01, 0, 3
 154232367, -0.13, -0.1, 2.58, 2.63, 277.33, 277.62, 0.01, 0, 3
 154235227, -0.13, 0, 2.58, 2.55, 277.33, 277.48, 0.01, 0, 3
