TimeUS,DesRoll,Roll,DesPitch,Pitch,DesYaw,Yaw,ErrRP,ErrYaw,AEKF
 176506770, -0.37, -0.31, 1.72, 1.73, 275.21, 275.29, 0, 0.01, 3
 176508757, -0.37, -0.26, 1.72, 1.73, 275.21, 275.31, 0, 0.01, 3
 176511685, -0.37, -0.26, 1.72, 1.78, 275.21, 275.3, 0, 0.01, 3
 176513828, -0.38, -0.29, 1.72, 1.77, 275.21, 275.3, 0, 0.01, 3
 176516252, -0.38, -0.27, 1.72, 1.73, 275.21, 275.32, 0, 0.01, 3
 176519027, -0.38, -0.28, 1.72, 1.75, 275.21, 275.29, 0, 0.01, 3
 176528838, -0.38, -0.25, 1.72, 1.79, 275.21, 275.31, 0, 0.01, 3
 176531662, -0.38, -0.29, 1.72, 1.76, 275.21, 275.29, 0, 0.01, 3
 176536649, -0.38, -0.36, 1.72, 1.79, 275.21, 275.3, 0, 0.01, 3
 176538619, -0.38, -0.32, 1.72, 1.75, 275.21, 275.35, 0, 0.01, 3
 176541257, -0.38, -0.23, 1.72, 1.78, 275.21, 275.32, 0, 0.01, 3
 176544141, -0.38, -0.33, 1.72, 1.74, 275.21, 275.29, 0, 0.01, 3
 176546203, -0.38, -0.34, 1.72, 1.75, 275.21, 275.32, 0, 0.01, 3
 176549270, -0.38, -0.41, 1.72, 1.79, 275.21, 275.33, 0, 0.01, 3
 176551217, -0.38, -0.29, 1.72, 1.76, 275.21, 275.34, 0, 0.01, 3
 176553862, -0.38, -0.25, 1.72, 1.77, 275.21, 275.31, 0, 0.01, 3
 176556621, -0.38, -0.35, 1.72, 1.75, 275.21, 275.29, 0, 0.01, 3
 176558734, -0.38, -0.38, 1.72, 1.73, 275.21, 275.32, 0, 0.01, 3
 176561521, -0.38, -0.41, 1.72, 1.82, 275.21, 275.35, 0, 0.01, 3
 176563762, -0.38, -0.3, 1.72, 1.77, 275.21, 275.34, 0, 0.01, 3
 176566249, -0.39, -0.28, 1.72, 1.76, 275.21, 275.32, 0, 0.01, 3
 176569077, -0.39, -0.37, 1.72, 1.78, 275.21, 275.28, 0, 0.01, 3
 176571245, -0.39, -0.42, 1.72, 1.71, 275.21, 275.34, 0, 0.01, 3
 176574038, -0.39, -0.39, 1.72, 1.84, 275.21, 275.35, 0, 0.01, 3
 176581529, -0.39, -0.44, 1.71, 1.72, 275.21, 275.32, 0, 0.01, 3
 176583693, -0.39, -0.43, 1.71, 1.71, 275.21, 275.36, 0, 0.01, 3
 176587299, -0.39, -0.36, 1.71, 1.84, 275.21, 275.35, 0, 0.01, 3
 176588699, -0.39, -0.3, 1.71, 1.73, 275.21, 275.36, 0, 0.01, 3
 176591348, -0.4, -0.32, 1.71, 1.81, 275.21, 275.32, 0, 0.01, 3
 176596460, -0.39, -0.36, 1.71, 1.8, 275.21, 275.38, 0, 0.01, 3
 176601286, -0.39, -0.29, 1.71, 1.77, 275.21, 275.36, 0, 0.01, 3
 176607555, -0.39, -0.46, 1.71, 1.76, 275.21, 275.35, 0, 0.01, 3
 176608749, -0.39, -0.35, 1.71, 1.79, 275.21, 275.39, 0, 0.01, 3
 176611691, -0.39, -0.36, 1.71, 1.8, 275.21, 275.35, 0, 0.01, 3
 176613777, -0.39, -0.31, 1.71, 1.78, 275.21, 275.36, 0, 0.01, 3
 176616309, -0.39, -0.43, 1.71, 1.76, 275.21, 275.36, 0, 0.01, 3
 176619051, -0.39, -0.38, 1.71, 1.78, 275.21, 275.37, 0, 0.01, 3
 176621186, -0.39, -0.34, 1.71, 1.75, 275.21, 275.39, 0, 0.01, 3
 176626197, -0.39, -0.39, 1.71, 1.74, 275.21, 275.39, 0, 0.01, 3
 176628581, -0.39, -0.39, 1.71, 1.83, 275.21, 275.39, 0, 0.01, 3
 176636779, -0.39, -0.38, 1.71, 1.82, 275.21, 275.37, 0, 0.01, 3
 176644735, -0.39, -0.36, 1.7, 1.72, 275.21, 275.39, 0, 0.01, 3
 176646179, -0.39, -0.36, 1.71, 1.8, 275.21, 275.4, 0, 0.01, 3
 176649879, -0.39, -0.46, 1.71, 1.76, 275.21, 275.4, 0, 0.01, 3
 176651136, -0.39, -0.3, 1.7, 1.81, 275.21, 275.46, 0, 0.01, 3
 176653905, -0.4, -0.31, 1.7, 1.82, 275.21, 275.42, 0, 0.01, 3
 176656628, -0.4, -0.34, 1.7, 1.73, 275.21, 275.42, 0, 0.01, 3
 176661687, -0.4, -0.47, 1.7, 1.76, 275.21, 275.45, 0, 0.01, 3
 176663797, -0.4, -0.26, 1.7, 1.8, 275.21, 275.47, 0, 0.01, 3
 176666256, -0.4, -0.33, 1.7, 1.76, 275.21, 275.43, 0, 0.01, 3
 176669123, -0.41, -0.34, 1.7, 1.76, 275.21, 275.41, 0, 0.01, 3
 176671207, -0.41, -0.43, 1.7, 1.71, 275.21, 275.44, 0, 0.01, 3
 176674070, -0.4, -0.37, 1.7, 1.82, 275.21, 275.48, 0, 0.01, 3
 176676203, -0.41, -0.29, 1.7, 1.75, 275.21, 275.48, 0, 0.01, 3
 176678642, -0.41, -0.32, 1.69, 1.78, 275.21, 275.41, 0, 0.01, 3
 176681610, -0.41, -0.38, 1.69, 1.73, 275.21, 275.42, 0, 0.01, 3
 176691187, -0.42, -0.31, 1.69, 1.81, 275.21, 275.43, 0, 0.01, 3
 176701145, -0.42, -0.27, 1.68, 1.74, 275.21, 275.48, 0, 0.01, 3
 176703762, -0.42, -0.37, 1.68, 1.75, 275.21, 275.44, 0, 0.01, 3
 176706964, -0.42, -0.45, 1.68, 1.67, 275.21, 275.48, 0, 0.01, 3
 176708766, -0.41, -0.38, 1.67, 1.76, 275.21, 275.51, 0, 0.01, 3
 176711745, -0.42, -0.36, 1.67, 1.72, 275.21, 275.47, 0, 0.01, 3
 176713753, -0.42, -0.27, 1.67, 1.76, 275.21, 275.48, 0, 0.01, 3
 176716272, -0.42, -0.42, 1.67, 1.71, 275.21, 275.46, 0, 0.01, 3
 176719067, -0.42, -0.39, 1.66, 1.72, 275.21, 275.5, 0, 0.01, 3
 176721213, -0.42, -0.37, 1.66, 1.72, 275.21, 275.52, 0, 0.01, 3
 176723992, -0.42, -0.33, 1.66, 1.75, 275.21, 275.46, 0, 0.01, 3
 176726307, -0.42, -0.33, 1.66, 1.72, 275.21, 275.49, 0, 0.01, 3
 176728799, -0.42, -0.46, 1.65, 1.73, 275.21, 275.48, 0, 0.01, 3
 176731577, -0.42, -0.38, 1.65, 1.7, 275.21, 275.5, 0, 0.01, 3
 176733680, -0.42, -0.36, 1.65, 1.71, 275.21, 275.5, 0, 0.01, 3
 176736648, -0.42, -0.37, 1.65, 1.76, 275.21, 275.48, 0, 0.01, 3
 176738701, -0.42, -0.45, 1.64, 1.69, 275.21, 275.54, 0, 0.01, 3
 176741197, -0.42, -0.4, 1.64, 1.75, 275.21, 275.51, 0, 0.01, 3
 176749188, -0.43, -0.46, 1.64, 1.72, 275.21, 275.5, 0, 0.01, 3
 176751189, -0.43, -0.43, 1.63, 1.71, 275.21, 275.54, 0, 0.01, 3
 176756634, -0.44, -0.39, 1.63, 1.66, 275.21, 275.5, 0, 0.02, 3
 176758858, -0.44, -0.41, 1.63, 1.74, 275.21, 275.51, 0, 0.02, 3
 176763766, -0.44, -0.34, 1.62, 1.74, 275.21, 275.56, 0, 0.02, 3
 176766262, -0.44, -0.39, 1.62, 1.69, 275.21, 275.51, 0, 0.02, 3
 176769037, -0.45, -0.38, 1.62, 1.68, 275.21, 275.5, 0, 0.02, 3
 176771194, -0.45, -0.49, 1.61, 1.66, 275.21, 275.52, 0, 0.02, 3
 176774136, -0.45, -0.43, 1.61, 1.75, 275.21, 275.56, 0, 0.02, 3
 176776319, -0.45, -0.35, 1.61, 1.71, 275.21, 275.57, 0, 0.02, 3
 176778786, -0.45, -0.39, 1.61, 1.69, 275.21, 275.5, 0, 0.02, 3
 176781682, -0.46, -0.41, 1.6, 1.66, 275.21, 275.5, 0, 0.02, 3
 176783653, -0.46, -0.52, 1.6, 1.66, 275.21, 275.55, 0, 0.02, 3
 176787379, -0.46, -0.44, 1.6, 1.74, 275.21, 275.56, 0, 0.02, 3
 176788744, -0.46, -0.36, 1.6, 1.66, 275.21, 275.55, 0, 0.02, 3
 176791196, -0.47, -0.38, 1.6, 1.7, 275.21, 275.49, 0, 0.02, 3
 176796471, -0.47, -0.48, 1.59, 1.71, 275.21, 275.57, 0, 0.02, 3
 176811891, -0.48, -0.41, 1.58, 1.63, 275.21, 275.53, 0, 0.02, 3
 176813717, -0.49, -0.34, 1.58, 1.67, 275.21, 275.53, 0, 0.02, 3
 176819167, -0.49, -0.47, 1.58, 1.61, 275.21, 275.55, 0, 0.02, 3
 176821332, -0.49, -0.45, 1.57, 1.62, 275.21, 275.56, 0, 0.02, 3
 176824025, -0.49, -0.39, 1.57, 1.66, 275.21, 275.52, 0, 0.02, 3
 176826272, -0.5, -0.41, 1.57, 1.63, 275.21, 275.55, 0, 0.02, 3
 176828721, -0.5, -0.51, 1.57, 1.62, 275.21, 275.53, 0, 0.02, 3
 176831519, -0.5, -0.46, 1.57, 1.59, 275.21, 275.55, 0, 0.02, 3
 176833706, -0.5, -0.42, 1.57, 1.6, 275.21, 275.55, 0, 0.02, 3
 176836567, -0.5, -0.42, 1.56, 1.65, 275.21, 275.53, 0, 0.02, 3
 176838866, -0.5, -0.48, 1.56, 1.6, 275.21, 275.58, 0, 0.02, 3
 176841333, -0.5, -0.49, 1.56, 1.62, 275.21, 275.56, 0, 0.02, 3
 176844862, -0.5, -0.45, 1.56, 1.53, 275.21, 275.56, 0, 0.02, 3
 176846094, -0.5, -0.43, 1.56, 1.65, 275.21, 275.55, 0, 0.02, 3
 176849931, -0.5, -0.51, 1.56, 1.62, 275.21, 275.55, 0, 0.02, 3
 176851117, -0.5, -0.49, 1.56, 1.61, 275.21, 275.59, 0, 0.02, 3
 176856590, -0.5, -0.45, 1.56, 1.55, 275.21, 275.52, 0, 0.02, 3
 176858657, -0.5, -0.5, 1.56, 1.6, 275.21, 275.54, 0, 0.02, 3
 176869120, -0.51, -0.46, 1.55, 1.55, 275.21, 275.53, 0, 0.02, 3
 176871232, -0.5, -0.54, 1.55, 1.55, 275.21, 275.55, 0, 0.02, 3
 176876262, -0.5, -0.43, 1.55, 1.59, 275.21, 275.59, 0, 0.02, 3
 176878672, -0.51, -0.45, 1.55, 1.56, 275.21, 275.52, 0, 0.02, 3
 176881536, -0.51, -0.49, 1.55, 1.52, 275.21, 275.54, 0, 0.02, 3
 176883706, -0.51, -0.56, 1.55, 1.56, 275.21, 275.57, 0, 0.02, 3
 176886651, -0.5, -0.49, 1.55, 1.6, 275.21, 275.58, 0, 0.02, 3
 176888773, -0.51, -0.43, 1.55, 1.55, 275.21, 275.56, 0, 0.02, 3
 176891128, -0.51, -0.47, 1.55, 1.54, 275.21, 275.5, 0, 0.02, 3
 176896493, -0.51, -0.55, 1.55, 1.58, 275.21, 275.59, 0, 0.02, 3
 176901177, -0.51, -0.4, 1.55, 1.55, 275.21, 275.53, 0, 0.02, 3
 176903795, -0.51, -0.49, 1.55, 1.53, 275.21, 275.49, 0, 0.02, 3
 176906814, -0.5, -0.54, 1.55, 1.52, 275.21, 275.54, 0, 0.02, 3
 176908886, -0.5, -0.54, 1.55, 1.55, 275.21, 275.58, 0, 0.02, 3
 176911796, -0.5, -0.47, 1.55, 1.55, 275.21, 275.53, 0, 0.02, 3
 176913707, -0.5, -0.42, 1.55, 1.54, 275.21, 275.54, 0, 0.02, 3
 176916419, -0.5, -0.52, 1.55, 1.53, 275.21, 275.5, 0, 0.02, 3
 176924134, -0.5, -0.46, 1.55, 1.57, 275.21, 275.51, 0, 0.02, 3
 176926228, -0.5, -0.47, 1.55, 1.54, 275.21, 275.56, 0, 0.02, 3
 176928691, -0.5, -0.53, 1.55, 1.54, 275.21, 275.52, 0, 0.02, 3
 176931679, -0.5, -0.52, 1.55, 1.49, 275.21, 275.54, 0, 0.02, 3
 176933734, -0.5, -0.47, 1.55, 1.53, 275.21, 275.54, 0, 0.02, 3
 176936594, -0.5, -0.48, 1.55, 1.56, 275.21, 275.53, 0, 0.02, 3
 176938757, -0.5, -0.5, 1.55, 1.57, 275.21, 275.57, 0, 0.02, 3
 176941148, -0.5, -0.53, 1.55, 1.53, 275.21, 275.54, 0, 0.02, 3
 176944046, -0.5, -0.49, 1.55, 1.51, 275.21, 275.54, 0, 0.02, 3
 176946168, -0.5, -0.46, 1.55, 1.54, 275.21, 275.56, 0, 0.02, 3
 176949072, -0.5, -0.5, 1.55, 1.57, 275.21, 275.53, 0, 0.02, 3
 176951093, -0.5, -0.5, 1.54, 1.57, 275.21, 275.57, 0, 0.02, 3
 176953959, -0.5, -0.47, 1.54, 1.53, 275.21, 275.52, 0, 0.02, 3
 176956662, -0.51, -0.47, 1.54, 1.51, 275.21, 275.51, 0, 0.02, 3
 176958724, -0.51, -0.51, 1.55, 1.56, 275.21, 275.54, 0, 0.02, 3
 176961728, -0.51, -0.5, 1.54, 1.6, 275.21, 275.52, 0, 0.02, 3
 176966248, -0.51, -0.43, 1.54, 1.55, 275.21, 275.51, 0, 0.02, 3
 176969186, -0.51, -0.5, 1.54, 1.5, 275.21, 275.52, 0, 0.02, 3
 176976358, -0.51, -0.45, 1.54, 1.56, 275.21, 275.55, 0, 0.02, 3
 176978746, -0.52, -0.46, 1.54, 1.53, 275.21, 275.47, 0, 0.02, 3
 176981675, -0.52, -0.49, 1.55, 1.53, 275.21, 275.53, 0, 0.02, 3
 176983718, -0.52, -0.49, 1.55, 1.59, 275.21, 275.55, 0, 0.02, 3
 176987218, -0.52, -0.48, 1.55, 1.61, 275.21, 275.53, 0, 0.02, 3
 176988706, -0.52, -0.41, 1.54, 1.58, 275.21, 275.53, 0, 0.02, 3
 176991221, -0.52, -0.46, 1.55, 1.53, 275.21, 275.47, 0, 0.02, 3
 176996174, -0.52, -0.52, 1.55, 1.56, 275.21, 275.55, 0, 0.02, 3
 177007482, -0.52, -0.5, 1.55, 1.57, 275.21, 275.47, 0, 0.02, 3
 177008742, -0.52, -0.51, 1.55, 1.56, 275.21, 275.53, 0, 0.02, 3
 177011791, -0.52, -0.43, 1.55, 1.62, 275.21, 275.46, 0, 0.02, 3
 177013779, -0.52, -0.44, 1.55, 1.56, 275.21, 275.5, 0, 0.02, 3
 177016283, -0.52, -0.45, 1.56, 1.61, 275.21, 275.47, 0, 0.02, 3
 177018995, -0.52, -0.53, 1.56, 1.54, 275.21, 275.48, 0, 0.02, 3
 177021325, -0.52, -0.46, 1.56, 1.58, 275.21, 275.49, 0, 0.02, 3
 177028718, -0.52, -0.48, 1.56, 1.58, 275.21, 275.47, 0, 0.02, 3
 177031572, -0.52, -0.5, 1.56, 1.56, 275.21, 275.47, 0, 0.02, 3
 177038822, -0.52, -0.44, 1.57, 1.63, 275.21, 275.49, 0, 0.02, 3
 177041141, -0.52, -0.49, 1.57, 1.55, 275.21, 275.48, 0, 0.02, 3
 177046198, -0.52, -0.48, 1.57, 1.55, 275.21, 275.49, 0, 0.02, 3
 177049886, -0.52, -0.47, 1.57, 1.63, 275.21, 275.46, 0, 0.02, 3
 177053942, -0.52, -0.45, 1.57, 1.58, 275.21, 275.45, 0, 0.02, 3
 177058740, -0.52, -0.51, 1.58, 1.58, 275.21, 275.48, 0, 0.02, 3
 177061632, -0.52, -0.45, 1.58, 1.66, 275.21, 275.43, 0, 0.02, 3
 177063648, -0.52, -0.5, 1.57, 1.58, 275.21, 275.47, 0, 0.02, 3
 177066390, -0.52, -0.42, 1.58, 1.6, 275.21, 275.44, 0, 0.02, 3
 177069016, -0.52, -0.52, 1.58, 1.55, 275.21, 275.43, 0, 0.02, 3
 177071295, -0.52, -0.49, 1.58, 1.62, 275.21, 275.47, 0, 0.02, 3
 177074275, -0.52, -0.49, 1.58, 1.63, 275.21, 275.43, 0, 0.02, 3
 177076321, -0.52, -0.46, 1.58, 1.61, 275.21, 275.45, 0, 0.02, 3
 177078662, -0.52, -0.43, 1.58, 1.58, 275.21, 275.42, 0, 0.02, 3
 177083711, -0.52, -0.48, 1.58, 1.63, 275.21, 275.45, 0, 0.02, 3
 177086630, -0.52, -0.51, 1.58, 1.62, 275.21, 275.43, 0, 0.02, 3
 177096388, -0.52, -0.55, 1.58, 1.56, 275.21, 275.44, 0, 0.02, 3
 177103748, -0.52, -0.45, 1.58, 1.62, 275.21, 275.41, 0, 0.02, 3
 177106723, -0.52, -0.49, 1.58, 1.63, 275.21, 275.38, 0, 0.02, 3
 177108712, -0.51, -0.54, 1.59, 1.58, 275.21, 275.43, 0, 0.02, 3
 177111855, -0.51, -0.45, 1.59, 1.64, 275.21, 275.39, 0, 0.02, 3
 177113592, -0.52, -0.49, 1.59, 1.57, 275.21, 275.42, 0, 0.02, 3
 177116255, -0.52, -0.44, 1.59, 1.65, 275.21, 275.41, 0, 0.02, 3
 177119111, -0.51, -0.56, 1.59, 1.56, 275.21, 275.39, 0, 0.02, 3
 177121255, -0.51, -0.51, 1.59, 1.58, 275.21, 275.41, 0, 0.02, 3
 177124155, -0.51, -0.48, 1.59, 1.58, 275.21, 275.38, 0, 0.02, 3
 177126245, -0.52, -0.46, 1.59, 1.64, 275.21, 275.4, 0, 0.02, 3
 177128767, -0.52, -0.46, 1.59, 1.61, 275.21, 275.4, 0, 0.02, 3
 177131494, -0.52, -0.52, 1.59, 1.57, 275.21, 275.37, 0, 0.02, 3
 177133815, -0.52, -0.49, 1.59, 1.57, 275.21, 275.39, 0, 0.02, 3
 177136654, -0.52, -0.5, 1.59, 1.59, 275.21, 275.38, 0, 0.02, 3
 177138784, -0.52, -0.43, 1.59, 1.69, 275.21, 275.38, 0, 0.02, 3
 177141197, -0.52, -0.48, 1.59, 1.57, 275.21, 275.4, 0, 0.02, 3
 177144080, -0.52, -0.47, 1.59, 1.61, 275.21, 275.35, 0, 0.02, 3
 177151154, -0.52, -0.46, 1.59, 1.66, 275.21, 275.38, 0, 0.02, 3
 177153854, -0.52, -0.48, 1.59, 1.58, 275.21, 275.38, 0, 0.02, 3
 177158721, -0.53, -0.5, 1.6, 1.56, 275.21, 275.39, 0, 0.02, 3
 177161667, -0.53, -0.43, 1.59, 1.67, 275.21, 275.36, 0, 0.02, 3
 177166282, -0.53, -0.47, 1.59, 1.59, 275.21, 275.37, 0, 0.02, 3
 177169037, -0.53, -0.5, 1.59, 1.56, 275.21, 275.34, 0, 0.02, 3
 177171282, -0.53, -0.45, 1.59, 1.65, 275.21, 275.37, 0, 0.02, 3
 177174063, -0.53, -0.48, 1.59, 1.64, 275.21, 275.36, 0, 0.02, 3
 177176315, -0.53, -0.51, 1.59, 1.66, 275.21, 275.36, 0, 0.02, 3
 177178855, -0.53, -0.45, 1.59, 1.56, 275.21, 275.36, 0, 0.02, 3
 177181758, -0.53, -0.48, 1.59, 1.63, 275.21, 275.32, 0, 0.02, 3
 177183718, -0.53, -0.47, 1.59, 1.66, 275.21, 275.35, 0, 0.02, 3
 177187366, -0.53, -0.54, 1.59, 1.64, 275.21, 275.36, 0, 0.02, 3
 177188747, -0.53, -0.5, 1.59, 1.68, 275.21, 275.35, 0, 0.02, 3
 177191172, -0.53, -0.47, 1.59, 1.56, 275.21, 275.36, 0, 0.02, 3
 177196206, -0.53, -0.56, 1.59, 1.6, 275.21, 275.36, 0, 0.02, 3
 177211739, -0.54, -0.5, 1.6, 1.68, 275.21, 275.33, 0, 0.02, 3
 177213655, -0.54, -0.5, 1.6, 1.63, 275.21, 275.33, 0, 0.02, 3
 177216186, -0.54, -0.44, 1.6, 1.67, 275.21, 275.34, 0, 0.02, 3
 177219169, -0.54, -0.56, 1.6, 1.63, 275.21, 275.3, 0, 0.02, 3
 177221169, -0.54, -0.55, 1.6, 1.65, 275.21, 275.34, 0, 0.02, 3
 177223981, -0.54, -0.53, 1.6, 1.65, 275.21, 275.31, 0, 0.02, 3
 177226340, -0.54, -0.47, 1.6, 1.68, 275.21, 275.32, 0, 0.02, 3
 177228750, -0.55, -0.48, 1.6, 1.66, 275.21, 275.32, 0, 0.02, 3
 177231751, -0.54, -0.58, 1.6, 1.66, 275.21, 275.29, 0, 0.02, 3
 177233757, -0.54, -0.57, 1.6, 1.62, 275.21, 275.33, 0, 0.02, 3
 177236604, -0.54, -0.53, 1.6, 1.68, 275.21, 275.29, 0, 0.02, 3
 177238639, -0.55, -0.49, 1.6, 1.72, 275.21, 275.31, 0, 0.02, 3
 177244874, -0.54, -0.58, 1.6, 1.68, 275.21, 275.3, 0, 0.02, 3
 177246263, -0.54, -0.59, 1.6, 1.6, 275.21, 275.33, 0, 0.02, 3
 177249911, -0.54, -0.51, 1.6, 1.73, 275.21, 275.3, 0, 0.02, 3
 177251255, -0.54, -0.56, 1.6, 1.69, 275.21, 275.32, 0, 0.02, 3
 177253971, -0.54, -0.58, 1.6, 1.65, 275.21, 275.32, 0, 0.02, 3
 177256663, -0.54, -0.61, 1.6, 1.64, 275.21, 275.31, 0, 0.02, 3
 177258759, -0.54, -0.59, 1.6, 1.63, 275.21, 275.32, 0, 0.02, 3
 177269207, -0.54, -0.62, 1.6, 1.63, 275.21, 275.29, 0, 0.02, 3
 177271281, -0.54, -0.56, 1.6, 1.68, 275.21, 275.32, 0, 0.02, 3
 177276237, -0.53, -0.66, 1.6, 1.68, 275.21, 275.31, 0, 0.02, 3
 177278740, -0.53, -0.59, 1.6, 1.61, 275.21, 275.32, 0, 0.02, 3
 177283825, -0.53, -0.6, 1.61, 1.66, 275.21, 275.31, 0, 0.02, 3
 177286627, -0.53, -0.66, 1.6, 1.7, 275.21, 275.29, 0, 0.02, 3
 177288755, -0.53, -0.65, 1.6, 1.67, 275.21, 275.31, 0, 0.02, 3
 177291244, -0.53, -0.58, 1.61, 1.63, 275.21, 275.27, 0, 0.02, 3
 177296252, -0.53, -0.66, 1.61, 1.64, 275.21, 275.29, 0, 0.02, 3
 177303696, -0.53, -0.58, 1.61, 1.64, 275.21, 275.25, 0, 0.02, 3
 177306810, -0.53, -0.65, 1.61, 1.63, 275.21, 275.25, 0, 0.02, 3
 177308654, -0.53, -0.67, 1.61, 1.64, 275.21, 275.29, 0, 0.02, 3
 177311782, -0.53, -0.67, 1.61, 1.67, 275.21, 275.28, 0, 0.02, 3
 177313729, -0.53, -0.61, 1.61, 1.62, 275.21, 275.27, 0, 0.02, 3
 177316323, -0.53, -0.59, 1.61, 1.62, 275.21, 275.25, 0, 0.02, 3
 177319006, -0.53, -0.66, 1.61, 1.61, 275.21, 275.24, 0, 0.02, 3
 177326192, -0.53, -0.56, 1.61, 1.59, 275.21, 275.26, 0, 0.02, 3
 177328747, -0.53, -0.58, 1.62, 1.61, 275.21, 275.24, 0, 0.02, 3
 177333616, -0.53, -0.69, 1.62, 1.6, 275.21, 275.28, 0, 0.02, 3
 177336785, -0.53, -0.59, 1.62, 1.68, 275.21, 275.24, 0, 0.02, 3
 177338801, -0.53, -0.56, 1.62, 1.58, 275.21, 275.25, 0, 0.02, 3
 177341249, -0.53, -0.59, 1.62, 1.61, 275.21, 275.21, 0, 0.02, 3
 177344157, -0.53, -0.69, 1.62, 1.58, 275.21, 275.23, 0, 0.02, 3
 177349125, -0.53, -0.58, 1.62, 1.64, 275.21, 275.23, 0, 0.02, 3
 177351225, -0.53, -0.56, 1.62, 1.6, 275.21, 275.25, 0, 0.02, 3
 177353937, -0.53, -0.62, 1.62, 1.59, 275.21, 275.21, 0, 0.02, 3
 177356679, -0.53, -0.67, 1.62, 1.59, 275.21, 275.24, 0, 0.01, 3
 177358760, -0.53, -0.58, 1.62, 1.62, 275.21, 275.24, 0, 0.01, 3
 177361663, -0.53, -0.57, 1.62, 1.64, 275.21, 275.22, 0, 0.01, 3
 177366311, -0.53, -0.65, 1.62, 1.57, 275.21, 275.22, 0, 0.01, 3
 177369140, -0.53, -0.61, 1.62, 1.61, 275.21, 275.24, 0, 0.01, 3
 177371295, -0.53, -0.56, 1.62, 1.59, 275.21, 275.24, 0, 0.01, 3
 177374177, -0.53, -0.55, 1.62, 1.67, 275.21, 275.22, 0, 0.01, 3
 177376213, -0.53, -0.61, 1.62, 1.56, 275.21, 275.24, 0, 0.01, 3
 177381649, -0.53, -0.57, 1.62, 1.59, 275.21, 275.24, 0, 0.01, 3
 177383760, -0.53, -0.55, 1.62, 1.58, 275.21, 275.25, 0, 0.01, 3
 177387311, -0.53, -0.54, 1.62, 1.68, 275.21, 275.21, 0, 0.01, 3
 177388937, -0.52, -0.64, 1.62, 1.55, 275.21, 275.24, 0, 0.01, 3
 177391245, -0.52, -0.55, 1.62, 1.63, 275.21, 275.24, 0, 0.01, 3
 177396444, -0.52, -0.53, 1.62, 1.65, 275.21, 275.23, 0, 0.01, 3
 177403805, -0.52, -0.51, 1.62, 1.63, 275.21, 275.2, 0, 0.01, 3
 177407494, -0.52, -0.55, 1.62, 1.58, 275.21, 275.22, 0, 0.01, 3
 177408665, -0.52, -0.56, 1.61, 1.65, 275.21, 275.22, 0, 0.01, 3
 177411890, -0.52, -0.64, 1.61, 1.61, 275.21, 275.22, 0, 0.01, 3
 177413570, -0.51, -0.48, 1.61, 1.61, 275.21, 275.24, 0, 0.01, 3
 177416285, -0.51, -0.53, 1.61, 1.61, 275.21, 275.19, 0, 0.01, 3
 177419143, -0.51, -0.53, 1.61, 1.62, 275.21, 275.2, 0, 0.01, 3
 177421249, -0.51, -0.61, 1.61, 1.6, 275.21, 275.21, 0, 0.01, 3
 177424117, -0.51, -0.59, 1.61, 1.66, 275.21, 275.22, 0, 0.01, 3
 177426236, -0.51, -0.47, 1.61, 1.58, 275.21, 275.22, 0, 0.01, 3
 177428782, -0.51, -0.51, 1.61, 1.62, 275.21, 275.18, 0, 0.01, 3
 177431528, -0.51, -0.54, 1.61, 1.62, 275.21, 275.19, 0, 0.01, 3
 177436608, -0.5, -0.51, 1.61, 1.68, 275.21, 275.21, 0, 0.01, 3
 177438812, -0.5, -0.48, 1.61, 1.57, 275.21, 275.2, 0, 0.01, 3
 177444695, -0.5, -0.6, 1.62, 1.57, 275.21, 275.19, 0, 0.01, 3
 177446282, -0.5, -0.55, 1.62, 1.66, 275.21, 275.21, 0, 0.01, 3
 177449749, -0.5, -0.51, 1.62, 1.68, 275.21, 275.2, 0, 0.01, 3
 177451271, -0.5, -0.46, 1.62, 1.59, 275.21, 275.19, 0, 0.01, 3
 177453991, -0.5, -0.48, 1.62, 1.67, 275.21, 275.16, 0, 0.01, 3
 177456653, -0.5, -0.62, 1.62, 1.58, 275.21, 275.2, 0, 0.01, 3
 177461545, -0.5, -0.51, 1.62, 1.64, 275.21, 275.18, 0, 0.01, 3
 177463670, -0.5, -0.44, 1.61, 1.64, 275.21, 275.17, 0, 0.01, 3
 177466336, -0.5, -0.57, 1.62, 1.61, 275.21, 275.16, 0, 0.01, 3
 177469240, -0.49, -0.56, 1.62, 1.64, 275.21, 275.2, 0, 0.01, 3
 177471240, -0.49, -0.49, 1.61, 1.68, 275.21, 275.18, 0, 0.01, 3
 177474162, -0.49, -0.48, 1.61, 1.66, 275.21, 275.16, 0, 0.01, 3
 177476219, -0.49, -0.48, 1.61, 1.63, 275.21, 275.16, 0, 0.01, 3
 177478783, -0.49, -0.59, 1.61, 1.64, 275.21, 275.16, 0, 0.01, 3
 177481521, -0.49, -0.51, 1.61, 1.66, 275.21, 275.2, 0, 0.01, 3
 177488783, -0.49, -0.53, 1.61, 1.6, 275.21, 275.16, 0, 0.01, 3
 177491233, -0.49, -0.56, 1.61, 1.68, 275.21, 275.16, 0, 0.01, 3
 177496358, -0.49, -0.47, 1.61, 1.72, 275.21, 275.15, 0, 0.01, 3
 177506789, -0.49, -0.5, 1.61, 1.61, 275.21, 275.17, 0, 0.01, 3
 177508713, -0.49, -0.48, 1.6, 1.74, 275.21, 275.16, 0, 0.01, 3
 177511709, -0.49, -0.58, 1.6, 1.62, 275.21, 275.17, 0, 0.01, 3
 177513702, -0.49, -0.51, 1.6, 1.65, 275.21, 275.19, 0, 0.01, 3
 177516431, -0.49, -0.51, 1.6, 1.64, 275.21, 275.16, 0, 0.01, 3
 177519252, -0.49, -0.49, 1.6, 1.64, 275.21, 275.17, 0, 0.01, 3
 177521219, -0.49, -0.54, 1.6, 1.7, 275.21, 275.16, 0, 0.01, 3
 177524198, -0.49, -0.6, 1.6, 1.64, 275.21, 275.18, 0, 0.01, 3
 177526120, -0.49, -0.45, 1.6, 1.68, 275.21, 275.17, 0, 0.01, 3
 177528723, -0.49, -0.5, 1.6, 1.65, 275.21, 275.14, 0, 0.01, 3
 177531576, -0.49, -0.48, 1.6, 1.67, 275.21, 275.16, 0, 0.01, 3
 177533757, -0.49, -0.56, 1.6, 1.67, 275.21, 275.16, 0, 0.01, 3
 177536615, -0.49, -0.53, 1.59, 1.67, 275.21, 275.18, 0, 0.01, 3
 177538851, -0.49, -0.45, 1.59, 1.65, 275.21, 275.15, 0, 0.01, 3
 177544005, -0.49, -0.52, 1.59, 1.64, 275.21, 275.16, 0, 0.01, 3
 177546345, -0.49, -0.57, 1.59, 1.69, 275.21, 275.15, 0, 0.01, 3
 177551220, -0.49, -0.45, 1.59, 1.63, 275.21, 275.14, 0, 0.01, 3
 177553849, -0.49, -0.5, 1.59, 1.64, 275.21, 275.12, 0, 0.01, 3
 177558720, -0.49, -0.53, 1.59, 1.73, 275.21, 275.16, 0, 0.01, 3
 177561651, -0.49, -0.47, 1.58, 1.62, 275.21, 275.17, 0, 0.01, 3
 177566323, -0.49, -0.53, 1.58, 1.61, 275.21, 275.12, 0, 0.01, 3
 177569197, -0.49, -0.55, 1.58, 1.64, 275.21, 275.17, 0, 0.01, 3
 177574196, -0.49, -0.46, 1.58, 1.59, 275.21, 275.14, 0, 0.01, 3
 177576192, -0.49, -0.46, 1.58, 1.63, 275.21, 275.1, 0, 0.01, 3
 177578779, -0.49, -0.57, 1.58, 1.59, 275.21, 275.13, 0, 0.01, 3
 177581627, -0.49, -0.52, 1.57, 1.66, 275.21, 275.17, 0, 0.01, 3
 177583809, -0.49, -0.51, 1.57, 1.68, 275.21, 275.14, 0, 0.01, 3
 177587327, -0.49, -0.45, 1.57, 1.58, 275.21, 275.12, 0, 0.01, 3
 177588712, -0.49, -0.47, 1.57, 1.6, 275.21, 275.11, 0, 0.01, 3
 177591336, -0.49, -0.58, 1.57, 1.61, 275.21, 275.14, 0, 0.01, 3
 177596361, -0.49, -0.49, 1.57, 1.65, 275.21, 275.12, 0, 0.01, 3
 177603661, -0.49, -0.56, 1.57, 1.63, 275.21, 275.15, 0, 0.01, 3
 177607480, -0.5, -0.49, 1.56, 1.66, 275.21, 275.15, 0, 0.01, 3
 177611725, -0.5, -0.48, 1.56, 1.54, 275.21, 275.12, 0, 0.01, 3
 177613723, -0.5, -0.55, 1.56, 1.61, 275.21, 275.11, 0, 0.01, 3
 177616279, -0.5, -0.54, 1.56, 1.63, 275.21, 275.17, 0, 0.01, 3
 177619210, -0.5, -0.48, 1.56, 1.64, 275.21, 275.14, 0, 0.01, 3
 177621166, -0.51, -0.5, 1.56, 1.58, 275.21, 275.12, 0, 0.01, 3
 177624256, -0.51, -0.51, 1.56, 1.55, 275.21, 275.14, 0, 0.01, 3
 177626195, -0.5, -0.57, 1.56, 1.64, 275.21, 275.14, 0, 0.01, 3
 177628796, -0.5, -0.53, 1.55, 1.61, 275.21, 275.17, 0, 0.01, 3
 177631650, -0.51, -0.49, 1.55, 1.63, 275.21, 275.13, 0, 0.01, 3
 177633782, -0.51, -0.54, 1.55, 1.58, 275.21, 275.14, 0, 0.01, 3
 177636719, -0.5, -0.54, 1.55, 1.58, 275.21, 275.16, 0, 0.01, 3
 177638716, -0.5, -0.55, 1.55, 1.64, 275.21, 275.17, 0, 0.01, 3
 177641217, -0.5, -0.5, 1.55, 1.59, 275.21, 275.16, 0, 0.01, 3
 177644714, -0.5, -0.53, 1.55, 1.61, 275.21, 275.15, 0, 0.01, 3
 177646253, -0.5, -0.56, 1.55, 1.6, 275.21, 275.17, 0, 0.01, 3
 177649698, -0.5, -0.53, 1.55, 1.6, 275.21, 275.18, 0, 0.01, 3
 177651307, -0.5, -0.52, 1.55, 1.62, 275.21, 275.17, 0, 0.01, 3
 177658741, -0.5, -0.56, 1.54, 1.6, 275.21, 275.17, 0, 0.01, 3
 177661608, -0.5, -0.49, 1.54, 1.6, 275.21, 275.18, 0, 0.01, 3
 177666227, -0.5, -0.53, 1.54, 1.55, 275.21, 275.18, 0, 0.01, 3
 177669083, -0.5, -0.54, 1.54, 1.62, 275.21, 275.17, 0, 0.01, 3
 177671145, -0.5, -0.53, 1.54, 1.57, 275.21, 275.19, 0, 0.01, 3
 177674252, -0.51, -0.46, 1.54, 1.59, 275.21, 275.19, 0, 0.01, 3
 177676167, -0.51, -0.53, 1.54, 1.53, 275.21, 275.15, 0, 0.01, 3
 177678761, -0.51, -0.52, 1.54, 1.54, 275.21, 275.19, 0, 0.01, 3
 177681629, -0.51, -0.54, 1.54, 1.64, 275.21, 275.17, 0, 0.01, 3
 177683768, -0.51, -0.52, 1.53, 1.57, 275.21, 275.21, 0, 0.01, 3
 177686702, -0.51, -0.45, 1.53, 1.59, 275.21, 275.18, 0, 0.01, 3
 177688692, -0.51, -0.53, 1.53, 1.5, 275.21, 275.15, 0, 0.01, 3
 177691220, -0.51, -0.5, 1.53, 1.57, 275.21, 275.2, 0, 0.01, 3
 177696450, -0.51, -0.44, 1.53, 1.55, 275.21, 275.21, 0, 0.01, 3
 177701287, -0.52, -0.52, 1.53, 1.52, 275.21, 275.17, 0, 0.01, 3
 177706693, -0.52, -0.54, 1.53, 1.62, 275.21, 275.2, 0, 0.01, 3
 177708666, -0.52, -0.44, 1.52, 1.53, 275.21, 275.19, 0, 0.01, 3
 177716197, -0.52, -0.52, 1.52, 1.56, 275.21, 275.2, 0, 0.01, 3
 177721182, -0.53, -0.44, 1.52, 1.48, 275.21, 275.17, 0, 0.01, 3
 177724146, -0.53, -0.49, 1.52, 1.51, 275.21, 275.16, 0, 0.01, 3
 177728781, -0.53, -0.52, 1.52, 1.56, 275.21, 275.21, 0, 0.01, 3
 177731606, -0.53, -0.49, 1.52, 1.62, 275.21, 275.17, 0, 0.01, 3
 177733772, -0.53, -0.46, 1.52, 1.44, 275.21, 275.18, 0, 0.01, 3
 177736705, -0.53, -0.48, 1.52, 1.53, 275.21, 275.17, 0, 0.01, 3
 177738703, -0.53, -0.56, 1.52, 1.49, 275.21, 275.18, 0, 0.01, 3
 177741273, -0.53, -0.5, 1.52, 1.55, 275.21, 275.2, 0, 0.01, 3
 177744049, -0.53, -0.48, 1.51, 1.52, 275.21, 275.16, 0, 0.01, 3
 177746206, -0.53, -0.46, 1.51, 1.43, 275.21, 275.19, 0, 0.01, 3
 177749076, -0.53, -0.53, 1.51, 1.53, 275.21, 275.16, 0, 0.01, 3
 177751257, -0.53, -0.56, 1.51, 1.48, 275.21, 275.19, 0, 0.01, 3
 177753923, -0.53, -0.46, 1.51, 1.59, 275.21, 275.2, 0, 0.01, 3
 177758779, -0.53, -0.45, 1.51, 1.47, 275.21, 275.21, 0, 0.01, 3
 177761512, -0.53, -0.57, 1.51, 1.49, 275.21, 275.17, 0, 0.01, 3
 177769081, -0.53, -0.51, 1.51, 1.48, 275.21, 275.19, 0, 0.01, 3
 177771102, -0.53, -0.45, 1.51, 1.48, 275.21, 275.21, 0, 0.01, 3
 177776248, -0.53, -0.46, 1.51, 1.53, 275.21, 275.22, 0, 0.01, 3
 177778832, -0.53, -0.51, 1.51, 1.54, 275.21, 275.21, 0, 0.01, 3
 177783738, -0.53, -0.48, 1.51, 1.46, 275.21, 275.22, 0, 0.01, 3
 177787459, -0.53, -0.5, 1.51, 1.54, 275.21, 275.18, 0, 0.01, 3
 177788722, -0.53, -0.47, 1.51, 1.5, 275.21, 275.23, 0, 0.01, 3
 177791228, -0.53, -0.5, 1.51, 1.56, 275.21, 275.21, 0, 0.01, 3
 177796287, -0.53, -0.48, 1.51, 1.5, 275.21, 275.22, 0, 0.01, 3
 177807550, -0.54, -0.49, 1.5, 1.45, 275.21, 275.22, 0, 0.01, 3
 177808846, -0.54, -0.44, 1.5, 1.51, 275.21, 275.23, 0, 0.01, 3
 177811808, -0.54, -0.48, 1.5, 1.49, 275.21, 275.2, 0, 0.01, 3
 177813774, -0.54, -0.46, 1.5, 1.53, 275.21, 275.25, 0, 0.01, 3
 177816263, -0.54, -0.48, 1.5, 1.55, 275.21, 275.21, 0, 0.01, 3
 177819082, -0.54, -0.48, 1.5, 1.44, 275.21, 275.23, 0, 0.01, 3
 177821176, -0.54, -0.41, 1.5, 1.53, 275.21, 275.22, 0, 0.01, 3
 177831733, -0.54, -0.45, 1.5, 1.46, 275.21, 275.23, 0, 0.01, 3
 177833770, -0.55, -0.43, 1.51, 1.49, 275.21, 275.22, 0, 0.01, 3
 177836726, -0.55, -0.44, 1.51, 1.51, 275.21, 275.23, 0, 0.01, 3
 177838742, -0.55, -0.45, 1.51, 1.54, 275.21, 275.26, 0, 0.01, 3
 177841244, -0.55, -0.54, 1.51, 1.49, 275.21, 275.23, 0, 0.01, 3
 177844789, -0.55, -0.4, 1.51, 1.48, 275.21, 275.24, 0, 0.01, 3
 177846269, -0.55, -0.43, 1.51, 1.48, 275.21, 275.24, 0, 0.01, 3
 177849841, -0.56, -0.42, 1.51, 1.53, 275.21, 275.24, 0, 0.01, 3
 177851282, -0.56, -0.48, 1.51, 1.49, 275.21, 275.27, 0, 0.01, 3
 177853999, -0.55, -0.49, 1.51, 1.52, 275.21, 275.23, 0, 0.01, 3
 177856582, -0.56, -0.4, 1.51, 1.43, 275.21, 275.27, 0, 0.02, 3
 177858812, -0.56, -0.42, 1.51, 1.52, 275.21, 275.24, 0, 0.02, 3
 177861696, -0.56, -0.46, 1.51, 1.48, 275.21, 275.24, 0, 0.02, 3
 177866145, -0.56, -0.44, 1.51, 1.48, 275.21, 275.22, 0, 0.02, 3
 177869145, -0.56, -0.41, 1.51, 1.42, 275.21, 275.26, 0, 0.02, 3
 177871178, -0.56, -0.41, 1.52, 1.56, 275.21, 275.23, 0, 0.02, 3
 177874128, -0.57, -0.51, 1.52, 1.44, 275.21, 275.25, 0, 0.02, 3
 177876302, -0.57, -0.47, 1.52, 1.53, 275.21, 275.24, 0, 0.02, 3
 177881670, -0.57, -0.39, 1.52, 1.51, 275.21, 275.26, 0, 0.02, 3
 177883710, -0.57, -0.48, 1.52, 1.49, 275.21, 275.21, 0, 0.02, 3
 177886637, -0.57, -0.51, 1.52, 1.45, 275.21, 275.23, 0, 0.02, 3
 177888595, -0.57, -0.48, 1.52, 1.5, 275.21, 275.23, 0, 0.02, 3
 177891316, -0.57, -0.48, 1.52, 1.46, 275.21, 275.22, 0, 0.02, 3
 177896407, -0.58, -0.51, 1.52, 1.46, 275.21, 275.21, 0, 0.02, 3
 177903737, -0.58, -0.45, 1.52, 1.51, 275.21, 275.22, 0, 0.02, 3
 177906791, -0.59, -0.4, 1.52, 1.48, 275.21, 275.26, 0, 0.02, 3
 177908757, -0.59, -0.52, 1.52, 1.48, 275.21, 275.2, 0, 0.02, 3
 177911705, -0.59, -0.49, 1.52, 1.49, 275.21, 275.25, 0, 0.02, 3
 177913802, -0.59, -0.5, 1.52, 1.51, 275.21, 275.24, 0, 0.02, 3
 177916174, -0.59, -0.42, 1.52, 1.53, 275.21, 275.22, 0, 0.02, 3
 177919173, -0.6, -0.48, 1.52, 1.46, 275.21, 275.26, 0, 0.02, 3
 177924085, -0.6, -0.5, 1.52, 1.48, 275.21, 275.26, 0, 0.02, 3
 177926166, -0.6, -0.47, 1.52, 1.56, 275.21, 275.22, 0, 0.02, 3
 177928815, -0.6, -0.48, 1.52, 1.48, 275.21, 275.22, 0, 0.02, 3
 177931523, -0.6, -0.51, 1.52, 1.47, 275.21, 275.25, 0, 0.02, 3
 177933613, -0.61, -0.5, 1.52, 1.52, 275.21, 275.21, 0, 0.02, 3
 177938667, -0.61, -0.49, 1.52, 1.56, 275.21, 275.22, 0, 0.02, 3
 177941233, -0.61, -0.55, 1.52, 1.46, 275.21, 275.23, 0, 0.02, 3
 177944179, -0.61, -0.49, 1.52, 1.52, 275.21, 275.24, 0, 0.02, 3
 177946281, -0.61, -0.52, 1.52, 1.5, 275.21, 275.21, 0, 0.02, 3
 177949124, -0.62, -0.5, 1.52, 1.54, 275.21, 275.25, 0, 0.02, 3
 177951341, -0.62, -0.56, 1.52, 1.51, 275.21, 275.22, 0, 0.02, 3
 177953920, -0.62, -0.57, 1.52, 1.49, 275.21, 275.22, 0, 0.02, 3
 177956639, -0.62, -0.48, 1.52, 1.51, 275.21, 275.24, 0, 0.01, 3
 177961515, -0.62, -0.51, 1.52, 1.55, 275.21, 275.24, 0, 0.01, 3
 177963751, -0.62, -0.58, 1.52, 1.51, 275.21, 275.22, 0, 0.01, 3
 177966336, -0.62, -0.54, 1.52, 1.53, 275.21, 275.23, 0, 0.01, 3
 177969115, -0.63, -0.5, 1.52, 1.49, 275.21, 275.25, 0, 0.01, 3
 177971157, -0.63, -0.5, 1.52, 1.57, 275.21, 275.2, 0, 0.01, 3
 177974062, -0.63, -0.55, 1.52, 1.52, 275.21, 275.23, 0, 0.01, 3
 177976243, -0.63, -0.59, 1.52, 1.53, 275.21, 275.2, 0, 0.01, 3
 177978692, -0.64, -0.52, 1.52, 1.5, 275.21, 275.24, 0, 0.01, 3
 177981658, -0.64, -0.49, 1.52, 1.52, 275.21, 275.22, 0, 0.01, 3
 177983637, -0.64, -0.51, 1.52, 1.56, 275.21, 275.2, 0, 0.01, 3
 177991356, -0.65, -0.53, 1.52, 1.49, 275.21, 275.22, 0, 0.01, 3
 178003729, -0.66, -0.49, 1.52, 1.5, 275.21, 275.21, 0, 0.01, 3
 178007413, -0.67, -0.45, 1.52, 1.55, 275.21, 275.2, 0, 0.01, 3
 178008724, -0.67, -0.56, 1.52, 1.5, 275.21, 275.17, 0, 0.01, 3
 178011836, -0.67, -0.58, 1.52, 1.5, 275.21, 275.21, 0, 0.01, 3
 178013778, -0.67, -0.55, 1.53, 1.49, 275.21, 275.19, 0, 0.01, 3
 178016204, -0.68, -0.46, 1.53, 1.52, 275.21, 275.2, 0, 0.01, 3
 178019317, -0.68, -0.49, 1.53, 1.51, 275.21, 275.19, 0, 0.01, 3
 178021257, -0.69, -0.57, 1.53, 1.51, 275.21, 275.16, 0, 0.01, 3
 178024077, -0.69, -0.57, 1.53, 1.47, 275.21, 275.2, 0, 0.01, 3
 178026189, -0.69, -0.52, 1.53, 1.51, 275.21, 275.17, 0, 0.01, 3
 178028687, -0.69, -0.47, 1.53, 1.51, 275.21, 275.19, 0, 0.01, 3
 178031604, -0.7, -0.53, 1.53, 1.5, 275.21, 275.18, 0, 0.01, 3
 178033680, -0.7, -0.58, 1.53, 1.5, 275.21, 275.17, 0, 0.01, 3
 178036701, -0.7, -0.56, 1.53, 1.45, 275.21, 275.19, 0, 0.01, 3
 178038730, -0.7, -0.5, 1.53, 1.53, 275.21, 275.15, 0, 0.01, 3
 178041263, -0.7, -0.51, 1.53, 1.49, 275.21, 275.2, 0, 0.01, 3
 178044670, -0.71, -0.54, 1.53, 1.5, 275.21, 275.17, 0, 0.01, 3
 178049869, -0.71, -0.55, 1.53, 1.47, 275.21, 275.18, 0, 0.01, 3
 178051194, -0.71, -0.52, 1.53, 1.52, 275.21, 275.15, 0, 0.01, 3
 178053958, -0.71, -0.55, 1.53, 1.49, 275.21, 275.18, 0, 0.01, 3
 178056656, -0.71, -0.55, 1.54, 1.48, 275.21, 275.15, 0, 0.01, 3
 178061588, -0.72, -0.53, 1.54, 1.51, 275.21, 275.17, 0, 0.01, 3
 178063781, -0.72, -0.56, 1.54, 1.49, 275.21, 275.15, 0, 0.01, 3
 178066215, -0.72, -0.58, 1.54, 1.48, 275.21, 275.16, 0, 0.01, 3
 178069069, -0.72, -0.55, 1.54, 1.48, 275.21, 275.15, 0, 0.01, 3
 178071294, -0.72, -0.57, 1.54, 1.51, 275.21, 275.14, 0, 0.01, 3
 178074025, -0.72, -0.58, 1.54, 1.49, 275.21, 275.16, 0, 0.01, 3
 178076184, -0.72, -0.61, 1.54, 1.5, 275.21, 275.13, 0, 0.01, 3
 178081607, -0.72, -0.54, 1.54, 1.5, 275.21, 275.14, 0, 0.01, 3
 178083618, -0.72, -0.58, 1.54, 1.48, 275.21, 275.13, 0, 0.01, 3
 178086506, -0.72, -0.61, 1.54, 1.47, 275.21, 275.15, 0, 0.01, 3
 178088588, -0.72, -0.65, 1.54, 1.53, 275.21, 275.13, 0, 0.01, 3
 178091254, -0.72, -0.61, 1.54, 1.48, 275.21, 275.16, 0, 0.01, 3
 178096331, -0.73, -0.62, 1.54, 1.47, 275.21, 275.11, 0, 0.01, 3
 178106652, -0.73, -0.57, 1.55, 1.53, 275.21, 275.09, 0, 0.01, 3
 178108706, -0.73, -0.64, 1.55, 1.49, 275.21, 275.09, 0, 0.01, 3
 178113751, -0.73, -0.68, 1.55, 1.54, 275.21, 275.12, 0, 0.01, 3
 178116219, -0.73, -0.55, 1.55, 1.5, 275.21, 275.11, 0, 0.01, 3
 178119168, -0.74, -0.57, 1.55, 1.53, 275.21, 275.08, 0, 0.01, 3
 178121140, -0.74, -0.66, 1.55, 1.51, 275.21, 275.07, 0, 0.01, 3
 178124124, -0.74, -0.69, 1.55, 1.49, 275.21, 275.12, 0, 0.01, 3
 178126281, -0.74, -0.64, 1.55, 1.57, 275.21, 275.11, 0, 0.01, 3
 178128653, -0.74, -0.55, 1.55, 1.49, 275.21, 275.1, 0, 0.01, 3
 178131710, -0.74, -0.59, 1.55, 1.54, 275.21, 275.06, 0, 0.01, 3
 178133660, -0.74, -0.69, 1.55, 1.49, 275.21, 275.07, 0, 0.01, 3
 178136651, -0.74, -0.67, 1.55, 1.52, 275.21, 275.11, 0, 0.01, 3
 178138722, -0.74, -0.62, 1.56, 1.59, 275.21, 275.09, 0, 0.01, 3
 178141313, -0.75, -0.56, 1.56, 1.49, 275.21, 275.09, 0, 0.01, 3
 178143955, -0.75, -0.63, 1.56, 1.57, 275.21, 275.05, 0, 0.01, 3
 178146288, -0.75, -0.71, 1.56, 1.48, 275.21, 275.08, 0, 0.01, 3
 178149184, -0.75, -0.63, 1.56, 1.56, 275.21, 275.09, 0, 0.01, 3
 178151206, -0.75, -0.61, 1.56, 1.53, 275.21, 275.06, 0, 0.01, 3
 178153858, -0.75, -0.56, 1.56, 1.52, 275.21, 275.08, 0, 0.01, 3
 178158790, -0.75, -0.71, 1.56, 1.5, 275.21, 275.07, 0, 0.01, 3
 178161563, -0.75, -0.61, 1.56, 1.56, 275.21, 275.08, 0, 0.01, 3
 178166252, -0.76, -0.57, 1.57, 1.56, 275.21, 275.07, 0, 0.01, 3
 178169233, -0.76, -0.72, 1.57, 1.54, 275.21, 275.06, 0, 0.01, 3
 178171281, -0.76, -0.65, 1.57, 1.53, 275.21, 275.07, 0, 0.01, 3
 178174107, -0.76, -0.61, 1.57, 1.55, 275.21, 275.07, 0, 0.01, 3
 178176316, -0.76, -0.61, 1.57, 1.58, 275.21, 275.05, 0, 0.01, 3
 178178637, -0.76, -0.65, 1.57, 1.54, 275.21, 275.08, 0, 0.01, 3
 178181613, -0.77, -0.69, 1.57, 1.57, 275.21, 275.05, 0, 0.01, 3
 178187386, -0.77, -0.61, 1.57, 1.56, 275.21, 275.07, 0, 0.01, 3
 178188712, -0.77, -0.63, 1.58, 1.59, 275.21, 275.03, 0, 0.01, 3
 178191315, -0.77, -0.65, 1.58, 1.55, 275.21, 275.09, 0, 0.01, 3
 178196477, -0.77, -0.61, 1.58, 1.48, 275.21, 275.07, 0, 0.01, 3
 178203731, -0.77, -0.6, 1.58, 1.57, 275.21, 275.09, 0, 0.01, 3
 178207428, -0.77, -0.6, 1.58, 1.57, 275.21, 275.02, 0, 0.01, 3
 178208749, -0.77, -0.63, 1.59, 1.49, 275.21, 275.06, 0, 0.01, 3
 178211710, -0.77, -0.66, 1.59, 1.6, 275.21, 275.05, 0, 0.01, 3
 178213825, -0.77, -0.67, 1.59, 1.56, 275.21, 275.08, 0, 0.01, 3
 178219085, -0.78, -0.63, 1.59, 1.49, 275.21, 275.03, 0, 0.01, 3
 178221230, -0.78, -0.62, 1.59, 1.54, 275.21, 275.05, 0, 0.01, 3
 178228917, -0.78, -0.54, 1.59, 1.6, 275.21, 275.07, 0, 0.01, 3
 178231724, -0.79, -0.62, 1.6, 1.53, 275.21, 275.02, 0, 0.01, 3
 178233638, -0.79, -0.66, 1.6, 1.56, 275.21, 275.05, 0, 0.01, 3
 178236755, -0.78, -0.72, 1.6, 1.57, 275.21, 275.09, 0, 0.01, 3
 178238840, -0.79, -0.58, 1.6, 1.63, 275.21, 275.08, 0, 0.01, 3
 178241214, -0.79, -0.57, 1.6, 1.56, 275.21, 275.04, 0, 0.01, 3
 178246167, -0.79, -0.7, 1.6, 1.53, 275.21, 275.06, 0, 0.01, 3
 178249834, -0.79, -0.67, 1.6, 1.63, 275.21, 275.09, 0, 0.01, 3
 178251173, -0.79, -0.56, 1.6, 1.59, 275.21, 275.06, 0, 0.01, 3
 178253947, -0.8, -0.58, 1.6, 1.58, 275.21, 275.03, 0, 0.01, 3
 178258856, -0.8, -0.72, 1.61, 1.53, 275.21, 275.09, 0, 0.01, 3
 178261686, -0.8, -0.61, 1.61, 1.66, 275.21, 275.07, 0, 0.01, 3
 178266289, -0.8, -0.57, 1.61, 1.62, 275.21, 275.03, 0, 0.01, 3
 178269042, -0.8, -0.71, 1.61, 1.53, 275.21, 275.04, 0, 0.01, 3
 178276302, -0.8, -0.59, 1.62, 1.57, 275.21, 275.05, 0, 0.01, 3
 178278692, -0.8, -0.6, 1.62, 1.62, 275.21, 275.02, 0, 0.01, 3
 178281874, -0.8, -0.73, 1.62, 1.53, 275.21, 275.04, 0, 0.01, 3
 178283689, -0.8, -0.64, 1.62, 1.61, 275.21, 275.07, 0, 0.01, 3
 178288729, -0.8, -0.58, 1.63, 1.62, 275.21, 275.05, 0, 0.01, 3
 178291159, -0.8, -0.71, 1.63, 1.55, 275.21, 275.02, 0, 0.01, 3
 178296219, -0.8, -0.64, 1.63, 1.58, 275.21, 275.06, 0, 0.01, 3
 178303825, -0.8, -0.74, 1.63, 1.54, 275.21, 275.04, 0, 0.01, 3
 178306718, -0.8, -0.66, 1.63, 1.59, 275.21, 275.06, 0, 0.01, 3
 178308768, -0.8, -0.66, 1.64, 1.54, 275.21, 275.06, 0, 0.01, 3
 178311696, -0.8, -0.64, 1.64, 1.64, 275.21, 275.02, 0, 0.01, 3
 178313822, -0.8, -0.74, 1.64, 1.55, 275.21, 275.07, 0, 0.01, 3
 178316280, -0.8, -0.71, 1.64, 1.59, 275.21, 275.07, 0, 0.01, 3
 178319089, -0.8, -0.68, 1.65, 1.54, 275.21, 275.06, 0, 0.01, 3
 178324029, -0.8, -0.72, 1.65, 1.62, 275.21, 275.05, 0, 0.01, 3
 178326312, -0.8, -0.77, 1.65, 1.55, 275.21, 275.09, 0, 0.01, 3
 178336717, -0.8, -0.79, 1.66, 1.59, 275.21, 275.06, 0, 0.01, 3
 178338743, -0.8, -0.71, 1.66, 1.58, 275.21, 275.09, 0, 0.01, 3
 178344141, -0.8, -0.72, 1.66, 1.56, 275.21, 275.05, 0, 0.01, 3
 178346192, -0.8, -0.73, 1.67, 1.62, 275.21, 275.06, 0, 0.01, 3
 178349274, -0.8, -0.81, 1.67, 1.6, 275.21, 275.07, 0, 0.01, 3
 178351173, -0.8, -0.65, 1.67, 1.6, 275.21, 275.08, 0, 0.01, 3
 178353898, -0.8, -0.73, 1.67, 1.56, 275.21, 275.03, 0, 0.01, 3
 178356620, -0.8, -0.71, 1.67, 1.61, 275.21, 275.05, 0, 0.02, 3
 178358658, -0.8, -0.79, 1.67, 1.58, 275.21, 275.07, 0, 0.02, 3
 178361624, -0.8, -0.75, 1.67, 1.66, 275.21, 275.07, 0, 0.02, 3
 178363666, -0.8, -0.67, 1.68, 1.56, 275.21, 275.08, 0, 0.02, 3
 178366314, -0.8, -0.72, 1.68, 1.59, 275.21, 275.03, 0, 0.02, 3
 178369073, -0.8, -0.75, 1.68, 1.58, 275.21, 275.05, 0, 0.02, 3
 178371345, -0.8, -0.8, 1.68, 1.6, 275.21, 275.08, 0, 0.02, 3
 178374141, -0.8, -0.71, 1.68, 1.67, 275.21, 275.07, 0, 0.02, 3
 178376247, -0.8, -0.68, 1.68, 1.54, 275.21, 275.07, 0, 0.02, 3
 178378652, -0.81, -0.71, 1.69, 1.63, 275.21, 275.03, 0, 0.02, 3
 178381671, -0.81, -0.81, 1.69, 1.54, 275.21, 275.07, 0, 0.02, 3
 178388810, -0.81, -0.68, 1.69, 1.54, 275.21, 275.06, 0, 0.02, 3
 178391390, -0.81, -0.75, 1.7, 1.62, 275.21, 275.04, 0, 0.02, 3
 178401417, -0.81, -0.67, 1.7, 1.62, 275.21, 275.05, 0, 0.02, 3
 178407303, -0.81, -0.76, 1.7, 1.63, 275.21, 275.09, 0, 0.02, 3
 178408770, -0.81, -0.72, 1.7, 1.68, 275.21, 275.07, 0, 0.02, 3
 178411764, -0.81, -0.71, 1.71, 1.58, 275.21, 275.06, 0, 0.02, 3
 178413713, -0.81, -0.71, 1.71, 1.59, 275.21, 275.05, 0, 0.02, 3
 178416310, -0.81, -0.83, 1.71, 1.57, 275.21, 275.05, 0, 0.02, 3
 178419201, -0.81, -0.71, 1.71, 1.66, 275.21, 275.11, 0, 0.02, 3
 178421280, -0.81, -0.72, 1.71, 1.65, 275.21, 275.08, 0, 0.02, 3
 178426260, -0.81, -0.75, 1.72, 1.55, 275.21, 275.07, 0, 0.02, 3
 178428702, -0.81, -0.81, 1.72, 1.64, 275.21, 275.07, 0, 0.02, 3
 178431541, -0.81, -0.71, 1.72, 1.62, 275.21, 275.11, 0, 0.02, 3
 178433638, -0.81, -0.72, 1.72, 1.65, 275.21, 275.07, 0, 0.02, 3
 178436672, -0.81, -0.72, 1.72, 1.57, 275.21, 275.08, 0, 0.02, 3
 178438840, -0.81, -0.8, 1.73, 1.55, 275.21, 275.09, 0, 0.02, 3
 178441275, -0.81, -0.75, 1.73, 1.66, 275.21, 275.09, 0, 0.02, 3
 178449730, -0.81, -0.78, 1.73, 1.54, 275.21, 275.11, 0, 0.02, 3
 178451175, -0.81, -0.77, 1.74, 1.63, 275.21, 275.11, 0, 0.02, 3
 178453914, -0.81, -0.74, 1.74, 1.6, 275.21, 275.1, 0, 0.02, 3
 178456707, -0.81, -0.71, 1.74, 1.61, 275.21, 275.11, 0, 0.01, 3
 178461672, -0.81, -0.8, 1.74, 1.54, 275.21, 275.13, 0, 0.01, 3
 178463730, -0.81, -0.71, 1.74, 1.65, 275.21, 275.11, 0, 0.01, 3
 178466267, -0.82, -0.75, 1.75, 1.56, 275.21, 275.09, 0, 0.01, 3
 178469061, -0.82, -0.72, 1.75, 1.66, 275.21, 275.11, 0, 0.01, 3
 178471240, -0.82, -0.83, 1.75, 1.6, 275.21, 275.11, 0, 0.01, 3
 178474043, -0.81, -0.75, 1.75, 1.59, 275.21, 275.14, 0, 0.01, 3
 178476257, -0.82, -0.71, 1.75, 1.62, 275.21, 275.11, 0, 0.01, 3
 178478608, -0.82, -0.73, 1.75, 1.59, 275.21, 275.09, 0, 0.01, 3
 178481587, -0.82, -0.75, 1.75, 1.65, 275.21, 275.12, 0, 0.01, 3
 178483805, -0.82, -0.84, 1.75, 1.61, 275.21, 275.11, 0, 0.01, 3
 178486596, -0.82, -0.69, 1.76, 1.62, 275.21, 275.16, 0, 0.01, 3
 178488727, -0.82, -0.73, 1.76, 1.61, 275.21, 275.11, 0, 0.01, 3
 178491248, -0.82, -0.71, 1.76, 1.62, 275.21, 275.09, 0, 0.01, 3
 178506993, -0.82, -0.82, 1.76, 1.62, 275.21, 275.15, 0, 0.01, 3
 178508722, -0.82, -0.75, 1.76, 1.66, 275.21, 275.15, 0, 0.01, 3
 178513731, -0.82, -0.71, 1.77, 1.65, 275.21, 275.09, 0, 0.01, 3
 178516286, -0.82, -0.78, 1.77, 1.6, 275.21, 275.14, 0, 0.01, 3
 178521252, -0.82, -0.76, 1.77, 1.66, 275.21, 275.15, 0, 0.01, 3
 178524086, -0.82, -0.68, 1.77, 1.63, 275.21, 275.13, 0, 0.01, 3
 178526268, -0.83, -0.74, 1.77, 1.64, 275.21, 275.1, 0, 0.01, 3
 178528631, -0.83, -0.82, 1.77, 1.63, 275.21, 275.17, 0, 0.01, 3
 178531692, -0.83, -0.79, 1.77, 1.68, 275.21, 275.16, 0, 0.01, 3
 178533647, -0.83, -0.75, 1.78, 1.64, 275.21, 275.15, 0, 0.01, 3
 178536598, -0.83, -0.7, 1.78, 1.65, 275.21, 275.13, 0, 0.01, 3
 178538781, -0.83, -0.79, 1.78, 1.62, 275.21, 275.11, 0, 0.01, 3
 178541222, -0.83, -0.81, 1.78, 1.67, 275.21, 275.17, 0, 0.01, 3
 178544117, -0.83, -0.79, 1.78, 1.67, 275.21, 275.16, 0, 0.01, 3
 178546159, -0.84, -0.73, 1.78, 1.63, 275.21, 275.14, 0, 0.01, 3
 178549194, -0.84, -0.72, 1.78, 1.65, 275.21, 275.15, 0, 0.01, 3
 178551321, -0.84, -0.82, 1.78, 1.65, 275.21, 275.12, 0, 0.01, 3
 178553971, -0.84, -0.8, 1.78, 1.66, 275.21, 275.17, 0, 0.01, 3
 178558691, -0.84, -0.74, 1.79, 1.64, 275.21, 275.15, 0, 0.01, 3
 178561611, -0.85, -0.77, 1.79, 1.65, 275.21, 275.17, 0, 0.01, 3
 178566263, -0.85, -0.79, 1.79, 1.63, 275.21, 275.18, 0, 0.01, 3
 178569117, -0.85, -0.77, 1.79, 1.67, 275.21, 275.13, 0, 0.01, 3
 178571210, -0.85, -0.78, 1.79, 1.65, 275.21, 275.17, 0, 0.01, 3
 178574117, -0.85, -0.8, 1.79, 1.69, 275.21, 275.15, 0, 0.01, 3
 178576320, -0.85, -0.82, 1.79, 1.68, 275.21, 275.14, 0, 0.01, 3
 178578647, -0.85, -0.79, 1.8, 1.63, 275.21, 275.18, 0, 0.01, 3
 178581557, -0.85, -0.81, 1.8, 1.68, 275.21, 275.14, 0, 0.01, 3
 178583774, -0.86, -0.81, 1.8, 1.66, 275.21, 275.19, 0, 0.01, 3
 178587236, -0.86, -0.78, 1.8, 1.69, 275.21, 275.18, 0, 0.01, 3
 178588780, -0.86, -0.81, 1.8, 1.67, 275.21, 275.17, 0, 0.01, 3
 178591248, -0.86, -0.81, 1.8, 1.66, 275.21, 275.18, 0, 0.01, 3
 178596471, -0.86, -0.8, 1.8, 1.69, 275.21, 275.19, 0, 0.01, 3
 178603818, -0.86, -0.84, 1.81, 1.65, 275.21, 275.2, 0, 0.01, 3
 178607455, -0.86, -0.83, 1.81, 1.69, 275.21, 275.19, 0, 0.01, 3
 178616236, -0.87, -0.84, 1.81, 1.65, 275.21, 275.21, 0, 0.01, 3
 178619198, -0.86, -0.83, 1.81, 1.74, 275.21, 275.19, 0, 0.01, 3
 178624053, -0.87, -0.74, 1.81, 1.71, 275.21, 275.21, 0, 0.01, 3
 178626217, -0.87, -0.84, 1.81, 1.64, 275.21, 275.18, 0, 0.01, 3
 178628709, -0.87, -0.83, 1.81, 1.68, 275.21, 275.22, 0, 0.01, 3
 178631477, -0.87, -0.86, 1.81, 1.75, 275.21, 275.21, 0, 0.01, 3
 178633672, -0.87, -0.81, 1.81, 1.71, 275.21, 275.23, 0, 0.01, 3
 178636627, -0.87, -0.76, 1.82, 1.71, 275.21, 275.17, 0, 0.01, 3
 178638746, -0.88, -0.84, 1.82, 1.67, 275.21, 275.17, 0, 0.01, 3
 178641287, -0.88, -0.83, 1.82, 1.73, 275.21, 275.23, 0, 0.01, 3
 178644824, -0.87, -0.87, 1.82, 1.75, 275.21, 275.23, 0, 0.01, 3
 178650010, -0.88, -0.79, 1.82, 1.69, 275.21, 275.15, 0, 0.01, 3
 178651135, -0.88, -0.83, 1.82, 1.71, 275.21, 275.17, 0, 0.01, 3
 178653871, -0.88, -0.86, 1.82, 1.71, 275.21, 275.24, 0, 0.01, 3
 178656727, -0.88, -0.86, 1.82, 1.77, 275.21, 275.23, 0, 0.01, 3
 178661674, -0.88, -0.79, 1.82, 1.71, 275.21, 275.17, 0, 0.01, 3
 178663755, -0.88, -0.85, 1.82, 1.73, 275.21, 275.18, 0, 0.01, 3
 178671303, -0.88, -0.78, 1.82, 1.67, 275.21, 275.19, 0, 0.01, 3
 178674150, -0.88, -0.79, 1.82, 1.76, 275.21, 275.18, 0, 0.01, 3
 178678718, -0.88, -0.84, 1.83, 1.74, 275.21, 275.23, 0, 0.01, 3
 178681519, -0.88, -0.81, 1.83, 1.78, 275.21, 275.18, 0, 0.01, 3
 178683777, -0.88, -0.78, 1.83, 1.68, 275.21, 275.22, 0, 0.01, 3
 178686635, -0.88, -0.81, 1.83, 1.8, 275.21, 275.19, 0, 0.01, 3
 178688725, -0.88, -0.9, 1.83, 1.7, 275.21, 275.2, 0, 0.01, 3
 178691150, -0.88, -0.8, 1.83, 1.8, 275.21, 275.2, 0, 0.01, 3
 178696232, -0.88, -0.76, 1.83, 1.75, 275.21, 275.22, 0, 0.01, 3
 178701402, -0.88, -0.83, 1.83, 1.74, 275.21, 275.22, 0, 0.01, 3
 178703745, -0.88, -0.81, 1.83, 1.76, 275.21, 275.21, 0, 0.01, 3
 178706758, -0.88, -0.85, 1.83, 1.74, 275.21, 275.19, 0, 0.01, 3
 178711784, -0.88, -0.87, 1.83, 1.76, 275.21, 275.21, 0, 0.01, 3
 178713674, -0.88, -0.84, 1.83, 1.75, 275.21, 275.2, 0, 0.01, 3
 178716294, -0.88, -0.84, 1.84, 1.73, 275.21, 275.23, 0, 0.01, 3
 178719021, -0.88, -0.8, 1.84, 1.79, 275.21, 275.2, 0, 0.01, 3
 178728761, -0.87, -0.85, 1.84, 1.75, 275.21, 275.23, 0, 0.01, 3
 178731616, -0.87, -0.81, 1.84, 1.79, 275.21, 275.2, 0, 0.01, 3
 178736549, -0.87, -0.83, 1.84, 1.77, 275.21, 275.18, 0, 0.01, 3
 178738740, -0.87, -0.87, 1.85, 1.66, 275.21, 275.22, 0, 0.01, 3
 178741096, -0.87, -0.84, 1.85, 1.82, 275.21, 275.21, 0, 0.01, 3
 178744160, -0.86, -0.86, 1.85, 1.76, 275.21, 275.2, 0, 0.01, 3
 178746183, -0.86, -0.82, 1.85, 1.75, 275.21, 275.24, 0, 0.01, 3
 178749121, -0.86, -0.86, 1.85, 1.71, 275.21, 275.18, 0, 0.01, 3
 178751205, -0.86, -0.88, 1.85, 1.69, 275.21, 275.23, 0, 0.01, 3
 178754003, -0.86, -0.86, 1.85, 1.8, 275.21, 275.21, 0, 0.01, 3
 178756777, -0.86, -0.88, 1.85, 1.74, 275.21, 275.22, 0, 0.01, 3
 178761675, -0.86, -0.88, 1.86, 1.69, 275.21, 275.18, 0, 0.01, 3
 178763667, -0.86, -0.83, 1.86, 1.77, 275.21, 275.23, 0, 0.01, 3
 178766282, -0.85, -0.89, 1.86, 1.74, 275.21, 275.22, 0, 0.01, 3
 178769195, -0.85, -0.84, 1.86, 1.76, 275.21, 275.22, 0, 0.01, 3
 178771290, -0.85, -0.82, 1.86, 1.71, 275.21, 275.22, 0, 0.01, 3
 178774109, -0.85, -0.87, 1.86, 1.72, 275.21, 275.19, 0, 0.01, 3
 178776309, -0.85, -0.86, 1.86, 1.72, 275.21, 275.24, 0, 0.01, 3
 178787291, -0.85, -0.83, 1.87, 1.76, 275.21, 275.19, 0, 0.01, 3
 178788811, -0.85, -0.9, 1.87, 1.67, 275.21, 275.24, 0, 0.01, 3
 178791218, -0.85, -0.86, 1.87, 1.77, 275.21, 275.21, 0, 0.01, 3
 178796304, -0.85, -0.81, 1.87, 1.74, 275.21, 275.22, 0, 0.01, 3
 178803796, -0.84, -0.83, 1.87, 1.77, 275.21, 275.21, 0, 0.01, 3
 178807582, -0.85, -0.83, 1.87, 1.69, 275.21, 275.22, 0, 0.01, 3
 178811774, -0.85, -0.89, 1.87, 1.69, 275.21, 275.19, 0, 0.01, 3
 178813668, -0.84, -0.86, 1.87, 1.72, 275.21, 275.22, 0, 0.01, 3
 178816388, -0.84, -0.83, 1.87, 1.72, 275.21, 275.19, 0, 0.01, 3
 178819218, -0.85, -0.79, 1.87, 1.77, 275.21, 275.21, 0, 0.01, 3
 178821331, -0.85, -0.78, 1.87, 1.76, 275.21, 275.2, 0, 0.01, 3
 178826243, -0.84, -0.84, 1.88, 1.71, 275.21, 275.21, 0, 0.01, 3
 178828772, -0.84, -0.83, 1.88, 1.73, 275.21, 275.19, 0, 0.01, 3
 178831569, -0.84, -0.76, 1.87, 1.81, 275.21, 275.2, 0, 0.01, 3
 178833727, -0.84, -0.8, 1.87, 1.73, 275.21, 275.21, 0, 0.01, 3
 178836632, -0.84, -0.85, 1.88, 1.75, 275.21, 275.18, 0, 0.01, 3
 178838885, -0.84, -0.84, 1.88, 1.69, 275.21, 275.21, 0, 0.01, 3
 178841197, -0.84, -0.78, 1.88, 1.8, 275.21, 275.18, 0, 0.01, 3
 178851248, -0.84, -0.82, 1.88, 1.72, 275.21, 275.21, 0, 0.01, 3
 178853886, -0.84, -0.77, 1.88, 1.87, 275.21, 275.19, 0, 0.01, 3
 178858821, -0.83, -0.8, 1.88, 1.77, 275.21, 275.2, 0, 0.01, 3
 178861760, -0.83, -0.84, 1.88, 1.74, 275.21, 275.17, 0, 0.01, 3
 178866430, -0.83, -0.78, 1.88, 1.86, 275.21, 275.2, 0, 0.01, 3
 178869111, -0.82, -0.85, 1.88, 1.8, 275.21, 275.19, 0, 0.01, 3
 178871189, -0.82, -0.78, 1.88, 1.77, 275.21, 275.19, 0, 0.01, 3
 178874151, -0.82, -0.81, 1.88, 1.79, 275.21, 275.17, 0, 0.01, 3
 178876248, -0.82, -0.76, 1.88, 1.82, 275.21, 275.21, 0, 0.01, 3
 178878796, -0.82, -0.84, 1.88, 1.85, 275.21, 275.18, 0, 0.01, 3
 178881609, -0.81, -0.81, 1.88, 1.8, 275.21, 275.2, 0, 0.01, 3
 178886588, -0.81, -0.78, 1.88, 1.82, 275.21, 275.15, 0, 0.01, 3
 178888845, -0.81, -0.78, 1.88, 1.83, 275.21, 275.18, 0, 0.01, 3
 178891214, -0.8, -0.85, 1.88, 1.89, 275.21, 275.17, 0, 0.01, 3
 178896280, -0.8, -0.75, 1.88, 1.86, 275.21, 275.15, 0, 0.01, 3
 178901268, -0.8, -0.82, 1.88, 1.88, 275.21, 275.17, 0, 0.01, 3
 178911907, -0.79, -0.83, 1.88, 1.88, 275.21, 275.14, 0, 0.01, 3
 178913719, -0.78, -0.84, 1.88, 1.9, 275.21, 275.18, 0, 0.01, 3
 178916310, -0.78, -0.86, 1.88, 1.95, 275.21, 275.16, 0, 0.01, 3
 178918973, -0.78, -0.75, 1.88, 1.88, 275.21, 275.16, 0, 0.01, 3
 178924013, -0.77, -0.83, 1.88, 1.9, 275.21, 275.12, 0, 0.01, 3
 178926184, -0.77, -0.85, 1.88, 1.93, 275.21, 275.18, 0, 0.01, 3
 178928783, -0.77, -0.82, 1.87, 1.98, 275.21, 275.15, 0, 0.01, 3
 178931595, -0.76, -0.73, 1.87, 1.89, 275.21, 275.17, 0, 0.01, 3
 178933796, -0.76, -0.75, 1.87, 1.92, 275.21, 275.16, 0, 0.01, 3
 178936692, -0.76, -0.86, 1.87, 1.91, 275.21, 275.13, 0, 0.01, 3
 178938726, -0.76, -0.83, 1.87, 1.97, 275.21, 275.19, 0, 0.01, 3
 178941183, -0.75, -0.79, 1.87, 2.01, 275.21, 275.16, 0, 0.01, 3
 178944072, -0.75, -0.72, 1.87, 1.9, 275.21, 275.18, 0, 0.01, 3
 178946246, -0.75, -0.79, 1.87, 1.93, 275.21, 275.14, 0, 0.01, 3
 178949064, -0.75, -0.85, 1.87, 1.92, 275.21, 275.16, 0, 0.01, 3
 178951226, -0.74, -0.79, 1.87, 1.99, 275.21, 275.2, 0, 0.01, 3
 178953913, -0.74, -0.77, 1.87, 1.96, 275.21, 275.15, 0, 0.01, 3
 178956741, -0.74, -0.73, 1.87, 1.9, 275.21, 275.18, 0, 0.01, 3
 178961596, -0.73, -0.81, 1.87, 1.95, 275.21, 275.19, 0, 0.01, 3
 178963748, -0.73, -0.74, 1.87, 2.01, 275.21, 275.2, 0, 0.01, 3
 178971146, -0.72, -0.85, 1.87, 1.95, 275.21, 275.16, 0, 0.01, 3
 178974075, -0.72, -0.77, 1.87, 1.96, 275.21, 275.19, 0, 0.01, 3
 178978792, -0.72, -0.77, 1.87, 1.93, 275.21, 275.16, 0, 0.01, 3
 178981615, -0.72, -0.78, 1.87, 1.91, 275.21, 275.2, 0, 0.01, 3
 178983805, -0.71, -0.8, 1.87, 1.96, 275.21, 275.19, 0, 0.01, 3
 178987286, -0.71, -0.71, 1.87, 1.95, 275.21, 275.2, 0, 0.01, 3
 178988793, -0.71, -0.75, 1.87, 1.97, 275.21, 275.19, 0, 0.01, 3
 178991169, -0.71, -0.76, 1.87, 1.93, 275.21, 275.17, 0, 0.01, 3
 178996458, -0.71, -0.71, 1.88, 1.96, 275.21, 275.17, 0, 0.01, 3
 179007458, -0.7, -0.69, 1.88, 1.94, 275.21, 275.22, 0, 0.01, 3
 179008715, -0.7, -0.67, 1.88, 1.95, 275.21, 275.17, 0, 0.01, 3
 179011653, -0.7, -0.69, 1.88, 1.89, 275.21, 275.21, 0, 0.01, 3
 179013635, -0.69, -0.74, 1.88, 1.94, 275.21, 275.18, 0, 0.01, 3
 179016367, -0.69, -0.74, 1.88, 1.86, 275.21, 275.21, 0, 0.01, 3
 179024285, -0.69, -0.65, 1.88, 1.9, 275.21, 275.22, 0, 0.01, 3
 179026159, -0.69, -0.74, 1.88, 1.9, 275.21, 275.19, 0, 0.01, 3
 179031567, -0.69, -0.59, 1.88, 1.91, 275.21, 275.23, 0, 0.01, 3
 179033718, -0.69, -0.63, 1.88, 1.88, 275.21, 275.19, 0, 0.01, 3
 179036633, -0.69, -0.64, 1.88, 1.91, 275.21, 275.22, 0, 0.01, 3
 179038887, -0.69, -0.73, 1.88, 1.87, 275.21, 275.22, 0, 0.01, 3
 179041249, -0.68, -0.62, 1.88, 1.91, 275.21, 275.25, 0, 0.01, 3
 179044641, -0.68, -0.58, 1.88, 1.87, 275.21, 275.23, 0, 0.01, 3
 179046320, -0.68, -0.6, 1.88, 1.9, 275.21, 275.19, 0, 0.01, 3
 179049639, -0.68, -0.68, 1.88, 1.86, 275.21, 275.24, 0, 0.01, 3
 179051259, -0.68, -0.66, 1.88, 1.9, 275.21, 275.24, 0, 0.01, 3
 179053843, -0.68, -0.56, 1.88, 1.88, 275.21, 275.25, 0, 0.01, 3
 179056632, -0.68, -0.56, 1.88, 1.86, 275.21, 275.23, 0, 0.01, 3
 179058635, -0.68, -0.62, 1.88, 1.89, 275.21, 275.2, 0, 0.01, 3
 179061564, -0.68, -0.69, 1.87, 1.84, 275.21, 275.26, 0, 0.01, 3
 179066239, -0.68, -0.56, 1.87, 1.84, 275.21, 275.26, 0, 0.01, 3
 179069381, -0.68, -0.54, 1.87, 1.9, 275.21, 275.23, 0, 0.01, 3
 179106728, -0.67, -0.64, 1.86, 1.81, 275.21, 275.25, 0, 0.01, 3
 179108717, -0.67, -0.6, 1.85, 1.91, 275.21, 275.24, 0, 0.01, 3
 179124103, -0.66, -0.6, 1.85, 1.85, 275.21, 275.27, 0, 0.01, 3
 179126153, -0.66, -0.64, 1.85, 1.86, 275.21, 275.24, 0, 0.01, 3
 179133792, -0.66, -0.63, 1.84, 1.82, 275.21, 275.25, 0, 0.01, 3
 179136643, -0.66, -0.61, 1.84, 1.89, 275.21, 275.26, 0, 0.01, 3
 179144014, -0.66, -0.58, 1.84, 1.86, 275.21, 275.26, 0, 0.01, 3
 179146203, -0.66, -0.63, 1.84, 1.86, 275.21, 275.25, 0, 0.01, 3
 179153837, -0.66, -0.61, 1.83, 1.86, 275.21, 275.3, 0, 0.01, 3
 179156636, -0.66, -0.61, 1.83, 1.83, 275.21, 275.27, 0, 0.01, 3
 179166231, -0.66, -0.62, 1.83, 1.78, 275.21, 275.29, 0, 0.01, 3
 179169038, -0.66, -0.61, 1.83, 1.86, 275.21, 275.26, 0, 0.01, 3
 179178860, -0.66, -0.64, 1.83, 1.77, 275.21, 275.29, 0, 0.01, 3
 179181684, -0.66, -0.59, 1.83, 1.91, 275.21, 275.26, 0, 0.01, 3
 179188701, -0.66, -0.69, 1.83, 1.82, 275.21, 275.28, 0, 0.01, 3
 179191212, -0.66, -0.6, 1.83, 1.81, 275.21, 275.28, 0, 0.01, 3
 179211769, -0.66, -0.68, 1.82, 1.82, 275.21, 275.27, 0, 0.01, 3
 179213701, -0.66, -0.65, 1.82, 1.87, 275.21, 275.25, 0, 0.01, 3
 179223988, -0.66, -0.66, 1.82, 1.81, 275.21, 275.27, 0, 0.01, 3
 179226296, -0.66, -0.67, 1.82, 1.87, 275.21, 275.26, 0, 0.01, 3
 179233698, -0.66, -0.69, 1.82, 1.76, 275.21, 275.28, 0, 0.01, 3
 179236685, -0.66, -0.66, 1.82, 1.86, 275.21, 275.28, 0, 0.01, 3
 179244655, -0.66, -0.66, 1.81, 1.87, 275.21, 275.28, 0, 0.01, 3
 179246265, -0.66, -0.69, 1.81, 1.77, 275.21, 275.26, 0, 0.01, 3
 179253779, -0.66, -0.62, 1.81, 1.88, 275.21, 275.33, 0, 0.01, 3
 179256671, -0.66, -0.68, 1.81, 1.84, 275.21, 275.27, 0, 0.01, 3
 179266238, -0.66, -0.62, 1.81, 1.85, 275.21, 275.32, 0, 0.01, 3
 179269119, -0.66, -0.65, 1.8, 1.84, 275.21, 275.26, 0, 0.01, 3
 179276179, -0.66, -0.72, 1.8, 1.9, 275.21, 275.32, 0, 0.01, 3
 179278885, -0.66, -0.6, 1.8, 1.83, 275.21, 275.3, 0, 0.01, 3
 179286488, -0.66, -0.74, 1.8, 1.86, 275.21, 275.31, 0, 0.01, 3
 179288746, -0.66, -0.68, 1.8, 1.84, 275.21, 275.3, 0, 0.01, 3
 179306779, -0.66, -0.72, 1.79, 1.8, 275.21, 275.25, 0, 0.01, 3
 179308678, -0.66, -0.73, 1.79, 1.8, 275.21, 275.3, 0, 0.01, 3
 179316249, -0.66, -0.63, 1.79, 1.83, 275.21, 275.28, 0, 0.01, 3
 179319206, -0.66, -0.73, 1.79, 1.81, 275.21, 275.26, 0, 0.01, 3
 179328820, -0.66, -0.69, 1.79, 1.84, 275.21, 275.29, 0, 0.01, 3
 179331756, -0.66, -0.75, 1.79, 1.83, 275.21, 275.28, 0, 0.01, 3
 179336740, -0.66, -0.66, 1.78, 1.87, 275.21, 275.28, 0, 0.01, 3
 179338878, -0.66, -0.66, 1.78, 1.8, 275.21, 275.31, 0, 0.01, 3
 179349087, -0.66, -0.7, 1.78, 1.85, 275.21, 275.3, 0, 0.01, 3
 179351239, -0.66, -0.69, 1.78, 1.83, 275.21, 275.33, 0, 0.01, 3
 179358745, -0.66, -0.67, 1.78, 1.8, 275.21, 275.34, 0, 0.01, 3
 179361662, -0.66, -0.74, 1.78, 1.84, 275.21, 275.33, 0, 0.01, 3
 179369084, -0.66, -0.69, 1.77, 1.81, 275.21, 275.3, 0, 0.01, 3
 179371072, -0.66, -0.72, 1.77, 1.78, 275.21, 275.35, 0, 0.01, 3
 179381663, -0.66, -0.7, 1.77, 1.77, 275.21, 275.31, 0, 0.01, 3
 179383848, -0.66, -0.71, 1.77, 1.81, 275.21, 275.37, 0, 0.01, 3
 179401341, -0.66, -0.62, 1.77, 1.83, 275.21, 275.38, 0, 0.01, 3
 179403745, -0.66, -0.64, 1.77, 1.81, 275.21, 275.33, 0, 0.01, 3
 179411702, -0.65, -0.73, 1.77, 1.84, 275.21, 275.37, 0, 0.01, 3
 179413712, -0.65, -0.62, 1.77, 1.82, 275.21, 275.35, 0, 0.01, 3
 179424669, -0.65, -0.71, 1.77, 1.85, 275.21, 275.37, 0, 0.01, 3
 179426150, -0.65, -0.63, 1.77, 1.78, 275.21, 275.35, 0, 0.01, 3
 179436787, -0.64, -0.67, 1.77, 1.85, 275.21, 275.33, 0, 0.01, 3
 179438743, -0.65, -0.64, 1.77, 1.77, 275.21, 275.37, 0, 0.01, 3
 179444039, -0.64, -0.76, 1.77, 1.73, 275.21, 275.34, 0, 0.01, 3
 179446217, -0.64, -0.69, 1.77, 1.81, 275.21, 275.38, 0, 0.01, 3
 179453940, -0.64, -0.71, 1.77, 1.8, 275.21, 275.35, 0, 0.01, 3
 179456587, -0.64, -0.72, 1.77, 1.75, 275.21, 275.36, 0, 0.02, 3
 179466170, -0.64, -0.73, 1.77, 1.76, 275.21, 275.37, 0, 0.02, 3
 179469124, -0.64, -0.67, 1.77, 1.78, 275.21, 275.36, 0, 0.02, 3
 179478658, -0.64, -0.69, 1.77, 1.78, 275.21, 275.36, 0, 0.02, 3
 179481652, -0.64, -0.68, 1.77, 1.75, 275.21, 275.37, 0, 0.02, 3
 179496440, -0.63, -0.67, 1.77, 1.82, 275.21, 275.39, 0, 0.02, 3
 179506763, -0.63, -0.7, 1.77, 1.74, 275.21, 275.38, 0, 0.02, 3
 179508840, -0.63, -0.66, 1.77, 1.82, 275.21, 275.4, 0, 0.02, 3
 179516216, -0.62, -0.67, 1.77, 1.72, 275.21, 275.35, 0, 0.02, 3
 179519160, -0.62, -0.67, 1.77, 1.78, 275.21, 275.36, 0, 0.02, 3
 179528680, -0.62, -0.66, 1.77, 1.76, 275.21, 275.35, 0, 0.02, 3
 179531730, -0.61, -0.66, 1.77, 1.78, 275.21, 275.36, 0, 0.02, 3
 179536623, -0.61, -0.64, 1.77, 1.82, 275.21, 275.36, 0, 0.02, 3
 179538704, -0.61, -0.65, 1.77, 1.71, 275.21, 275.39, 0, 0.02, 3
 179541328, -0.61, -0.63, 1.77, 1.81, 275.21, 275.36, 0, 0.02, 3
 179549106, -0.6, -0.65, 1.78, 1.76, 275.21, 275.35, 0, 0.02, 3
 179551172, -0.61, -0.64, 1.78, 1.76, 275.21, 275.4, 0, 0.02, 3
 179558756, -0.6, -0.66, 1.78, 1.75, 275.21, 275.37, 0, 0.01, 3
 179561532, -0.6, -0.67, 1.78, 1.75, 275.21, 275.35, 0, 0.01, 3
 179566330, -0.6, -0.68, 1.78, 1.74, 275.21, 275.35, 0, 0.01, 3
 179569159, -0.6, -0.68, 1.78, 1.76, 275.21, 275.35, 0, 0.01, 3
 179576298, -0.6, -0.61, 1.78, 1.8, 275.21, 275.38, 0, 0.01, 3
 179578708, -0.6, -0.67, 1.78, 1.74, 275.21, 275.34, 0, 0.01, 3
 179587449, -0.6, -0.59, 1.78, 1.87, 275.21, 275.34, 0, 0.01, 3
 179588803, -0.6, -0.65, 1.78, 1.79, 275.21, 275.38, 0, 0.01, 3
 179591292, -0.6, -0.64, 1.78, 1.77, 275.21, 275.34, 0, 0.01, 3
 179596349, -0.59, -0.61, 1.78, 1.8, 275.21, 275.36, 0, 0.01, 3
 179601215, -0.59, -0.67, 1.78, 1.77, 275.21, 275.37, 0, 0.01, 3
 179611734, -0.59, -0.67, 1.78, 1.8, 275.21, 275.33, 0, 0.01, 3
 179613785, -0.59, -0.66, 1.78, 1.78, 275.21, 275.36, 0, 0.01, 3
 179616250, -0.59, -0.62, 1.78, 1.71, 275.21, 275.33, 0, 0.01, 3
 179619142, -0.59, -0.63, 1.78, 1.79, 275.21, 275.31, 0, 0.01, 3
 179621286, -0.58, -0.66, 1.78, 1.77, 275.21, 275.35, 0, 0.01, 3
 179624009, -0.58, -0.68, 1.78, 1.84, 275.21, 275.33, 0, 0.01, 3
 179626213, -0.58, -0.65, 1.78, 1.74, 275.21, 275.35, 0, 0.01, 3
 179631786, -0.58, -0.64, 1.78, 1.8, 275.21, 275.31, 0, 0.01, 3
 179633692, -0.58, -0.68, 1.78, 1.78, 275.21, 275.35, 0, 0.01, 3
 179644677, -0.57, -0.69, 1.78, 1.77, 275.21, 275.31, 0, 0.01, 3
 179646367, -0.57, -0.66, 1.78, 1.79, 275.21, 275.34, 0, 0.01, 3
 179651232, -0.57, -0.58, 1.78, 1.76, 275.21, 275.33, 0, 0.01, 3
 179653995, -0.57, -0.59, 1.78, 1.79, 275.21, 275.31, 0, 0.01, 3
 179658835, -0.56, -0.66, 1.78, 1.78, 275.21, 275.34, 0, 0.01, 3
 179661599, -0.56, -0.62, 1.78, 1.81, 275.21, 275.3, 0, 0.01, 3
 179666204, -0.56, -0.61, 1.78, 1.78, 275.21, 275.29, 0, 0.01, 3
 179669037, -0.56, -0.7, 1.78, 1.77, 275.21, 275.3, 0, 0.01, 3
 179671246, -0.56, -0.65, 1.78, 1.78, 275.21, 275.33, 0, 0.01, 3
 179674086, -0.56, -0.59, 1.78, 1.83, 275.21, 275.29, 0, 0.01, 3
 179676346, -0.56, -0.58, 1.78, 1.75, 275.21, 275.32, 0, 0.01, 3
 179678721, -0.56, -0.63, 1.78, 1.79, 275.21, 275.27, 0, 0.01, 3
 179681739, -0.55, -0.7, 1.78, 1.78, 275.21, 275.31, 0, 0.01, 3
 179686649, -0.55, -0.59, 1.78, 1.82, 275.21, 275.29, 0, 0.01, 3
 179688584, -0.55, -0.6, 1.78, 1.77, 275.21, 275.32, 0, 0.01, 3
 179691252, -0.55, -0.65, 1.78, 1.79, 275.21, 275.3, 0, 0.01, 3
 179696332, -0.55, -0.57, 1.78, 1.8, 275.21, 275.31, 0, 0.01, 3
 179706663, -0.55, -0.61, 1.78, 1.79, 275.21, 275.31, 0, 0.01, 3
 179708760, -0.55, -0.57, 1.78, 1.79, 275.21, 275.34, 0, 0.01, 3
 179711672, -0.55, -0.62, 1.77, 1.84, 275.21, 275.31, 0, 0.01, 3
 179713752, -0.55, -0.65, 1.77, 1.73, 275.21, 275.33, 0, 0.01, 3
 179716227, -0.54, -0.59, 1.77, 1.79, 275.21, 275.32, 0, 0.01, 3
 179719084, -0.54, -0.59, 1.77, 1.77, 275.21, 275.32, 0, 0.01, 3
 179721318, -0.54, -0.58, 1.77, 1.8, 275.21, 275.34, 0, 0.01, 3
 179724123, -0.54, -0.67, 1.77, 1.82, 275.21, 275.3, 0, 0.01, 3
 179726286, -0.54, -0.64, 1.77, 1.73, 275.21, 275.34, 0, 0.01, 3
 179728664, -0.54, -0.55, 1.77, 1.83, 275.21, 275.29, 0, 0.01, 3
 179731588, -0.54, -0.6, 1.77, 1.76, 275.21, 275.31, 0, 0.01, 3
 179733629, -0.53, -0.61, 1.77, 1.83, 275.21, 275.31, 0, 0.01, 3
 179736734, -0.53, -0.69, 1.77, 1.81, 275.21, 275.3, 0, 0.01, 3
 179738700, -0.53, -0.58, 1.77, 1.77, 275.21, 275.33, 0, 0.01, 3
 179741150, -0.53, -0.57, 1.77, 1.81, 275.21, 275.29, 0, 0.01, 3
 179744256, -0.53, -0.61, 1.77, 1.77, 275.21, 275.31, 0, 0.01, 3
 179746248, -0.52, -0.65, 1.77, 1.8, 275.21, 275.31, 0, 0.01, 3
 179749244, -0.52, -0.68, 1.77, 1.81, 275.21, 275.32, 0, 0.01, 3
 179751372, -0.52, -0.53, 1.77, 1.77, 275.21, 275.32, 0, 0.01, 3
 179758764, -0.51, -0.66, 1.77, 1.76, 275.21, 275.32, 0, 0.01, 3
 179761615, -0.51, -0.62, 1.77, 1.84, 275.21, 275.31, 0, 0.01, 3
 179766270, -0.5, -0.56, 1.77, 1.79, 275.21, 275.28, 0, 0.01, 3
 179769087, -0.5, -0.67, 1.77, 1.72, 275.21, 275.3, 0, 0.01, 3
 179771264, -0.5, -0.63, 1.77, 1.78, 275.21, 275.33, 0, 0.01, 3
 179774099, -0.5, -0.57, 1.77, 1.84, 275.21, 275.29, 0, 0.01, 3
 179776234, -0.5, -0.53, 1.77, 1.71, 275.21, 275.31, 0, 0.01, 3
 179778663, -0.5, -0.6, 1.77, 1.78, 275.21, 275.27, 0, 0.01, 3
 179781599, -0.49, -0.69, 1.77, 1.7, 275.21, 275.3, 0, 0.01, 3
 179783639, -0.49, -0.55, 1.77, 1.86, 275.21, 275.31, 0, 0.01, 3
 179787440, -0.49, -0.57, 1.77, 1.79, 275.21, 275.29, 0, 0.01, 3
 179788792, -0.49, -0.52, 1.77, 1.73, 275.21, 275.3, 0, 0.01, 3
 179791335, -0.49, -0.63, 1.77, 1.75, 275.21, 275.27, 0, 0.01, 3
 179796281, -0.49, -0.53, 1.77, 1.83, 275.21, 275.33, 0, 0.01, 3
 179803848, -0.48, -0.67, 1.77, 1.73, 275.21, 275.29, 0, 0.01, 3
 179807445, -0.48, -0.57, 1.77, 1.79, 275.21, 275.32, 0, 0.01, 3
