TimeUS,CAN,CAE,CAD,CAe
 3220378, 0, 0, 0, 0
 3240370, -0.003046802, 0.004684354, -0.01610379, 0.5992095
 3340330, -5.009122E-05, 0.0001344704, -0.0009109667, 0.01859937
 3440290, -1.728416E-05, 4.056585E-05, -0.0007941502, 0.01859937
 3540250, -9.774975E-05, 0.0002153619, -0.0008693364, 0.01859937
 3640210, -0.0001012565, -3.393849E-05, -0.000874017, 0.01859937
 3740170, -6.378624E-05, 5.749457E-05, -0.001024447, 0.01859937
 3840963, -5.87756E-05, 6.374445E-05, -0.0009802198, 0.01875436
 3940923, -0.0001337899, 2.406721E-05, -0.001017421, 0.01859937
 4040883, -0.0001955183, 3.812335E-05, -0.0008993269, 0.01859937
 4140843, -9.449072E-06, -6.003785E-05, -0.001132722, 0.01859937
 4240803, -0.0001036252, 0.0001307419, -0.00106521, 0.01859007
 4340763, 9.909093E-05, 8.582932E-05, -0.001040719, 0.01859007
 4440723, -2.807134E-05, 5.950821E-05, -0.001023074, 0.01859007
 4540683, 3.742971E-07, -3.958411E-05, -0.001063103, 0.01859007
 4640643, -6.936335E-05, 2.644554E-05, -0.000821033, 0.01859007
 4740603, -7.404562E-05, 0.0001183094, -0.001037078, 0.01859007
 4840563, 7.436646E-05, 0.0001354383, -0.0009369344, 0.01859007
 4940523, -8.299637E-05, 1.202022E-05, -0.001062197, 0.01859007
 5040483, -5.318461E-05, 0.000149204, -0.0009842272, 0.01859007
 5140443, -2.598904E-05, 7.333558E-05, -0.0008585451, 0.01859007
 5240403, 4.097634E-05, 0.0001602372, -0.001094266, 0.01859007
 5340363, -2.477368E-05, 5.802285E-06, -0.0009776495, 0.01859007
 5440323, -1.820776E-05, 4.038413E-05, -0.0009483644, 0.01859007
 5540283, 5.08087E-05, 0.0001548575, -0.0009148751, 0.01859007
 5640243, -0.0001012506, 0.0001038945, -0.0008581732, 0.01859007
 5740203, -8.985219E-05, 7.118174E-05, -0.001030328, 0.01859007
 5840163, -4.222652E-05, 0.0003020092, -0.0009907001, 0.01859007
 5940956, -0.0001178955, 2.679684E-06, -0.001170212, 0.01874498
 6040916, 0.0001030881, 3.684238E-05, -0.001008365, 0.01859007
 6140876, -5.508718E-05, 0.0001749143, -0.001076668, 0.01859007
 6240836, -5.383607E-05, 8.883818E-05, -0.001084685, 0.01859937
 6340796, -4.996351E-05, 0.000155676, -0.001009327, 0.01859937
 6440756, -5.661484E-06, 6.899158E-05, -0.001029909, 0.01859937
 6540716, -0.0001040401, 8.78052E-06, -0.0009752091, 0.01859937
 6640676, -6.891642E-07, -4.728974E-05, -0.0008999943, 0.01859937
 6740636, -5.352593E-05, 0.0001432928, -0.0009032736, 0.01859937
 6840596, -1.684185E-05, 5.303219E-05, -0.001076191, 0.01859937
 6940556, 6.793132E-05, 0.0001711375, -0.001053579, 0.01859937
 7040516, -9.093914E-05, 0.0001078705, -0.0008778874, 0.01859937
 7140476, -1.595321E-05, 0.0001232504, -0.0008765623, 0.01859937
 7240436, -0.0001880758, 8.134306E-05, -0.000929756, 0.01859007
 7340396, -3.841078E-05, 0.0002379695, -0.001017621, 0.01859007
 7440356, 7.769674E-05, 3.643559E-05, -0.0009829212, 0.01859007
 7540316, -9.109013E-05, 0.0001391198, -0.0009965914, 0.01859007
 7640276, 2.519386E-05, 0.0001399705, -0.0009178685, 0.01859007
 7740236, -0.0001180544, 0.0001632687, -0.0009765531, 0.01859007
 7840196, -0.0001139439, 6.403094E-05, -0.0008614145, 0.01859007
 7940156, -0.0001413757, 7.929932E-05, -0.001082521, 0.01859007
 8040949, -7.861937E-05, 2.760125E-05, -0.0008453332, 0.01874498
 8140909, -0.0001319086, -6.580095E-05, -0.001023827, 0.01859007
 8240869, -4.237121E-06, 3.856899E-05, -0.0009620822, 0.01859937
 8340829, 8.662832E-05, 3.829547E-05, -0.0009455903, 0.01859937
 8440789, 4.912793E-05, -6.005598E-05, -0.0009063622, 0.01859937
 8540749, -4.449012E-05, 6.240548E-05, -0.0009302804, 0.01859937
 8640709, -3.484918E-05, 0.0002150753, -0.0009366674, 0.01859937
 8740669, -0.0001838185, 0.0002017697, -0.001014666, 0.01859937
 8840629, -2.328871E-05, 0.0001105393, -0.0008964289, 0.01859937
 8940589, -0.000145301, 0.000310249, -0.001010881, 0.01859937
 9040549, -9.22769E-05, 0.000191301, -0.0008982878, 0.01859937
 9140509, -7.467976E-05, 0.0002074277, -0.0009462576, 0.01859937
 9240469, -2.995532E-05, 0.0001968422, -0.000971596, 0.01859007
 9340429, -4.651435E-05, 0.0001910708, -0.0009752949, 0.01859007
 9440389, -0.0001292201, 0.0002395716, -0.0009190506, 0.01859007
 9540349, -0.0001631256, 0.0002708294, -0.0009575159, 0.01859007
 9640309, -6.295598E-05, 0.0001286915, -0.0009939031, 0.01859007
 9740269, 1.841783E-05, 0.0002379398, -0.0009597181, 0.01859007
 9840229, -0.0001626728, 3.511343E-05, -0.001080357, 0.01859007
 9940189, -4.690225E-05, 0.000142954, -0.0009225015, 0.01859007
 10040149, -3.121779E-05, 0.0001675184, -0.0008371341, 0.01859007
 10140942, -0.0001266203, 0.0001328477, -0.0009280739, 0.01874498
 10240902, -6.504558E-05, 5.57602E-05, -0.0009620822, 0.01859007
 10340862, -0.0001907316, 0.0002197395, -0.0009231498, 0.01859007
 10440822, 2.684454E-05, 0.000177644, -0.0009613005, 0.01859007
 10540782, -6.183395E-05, 0.0002831036, -0.000938412, 0.01859007
 10640742, 2.457605E-05, 0.0001248851, -0.001018412, 0.01859007
 10740702, -0.0001477175, 0.0001682786, -0.001022006, 0.01859007
 10840662, 1.57606E-05, 0.0002347587, -0.000912654, 0.01859007
 10940622, 0.0001125087, 0.0001452991, -0.001018546, 0.01859007
 11040582, -3.818656E-05, 6.282778E-05, -0.0008042646, 0.01859007
 11140542, -0.0001185459, 0.0002430385, -0.001002807, 0.01859007
 11240502, -7.110935E-05, 6.296075E-05, -0.0009830642, 0.01859937
 11340462, -0.0001005823, 0.0001161646, -0.000940576, 0.01859937
 11440422, -0.0001275148, 0.0001026832, -0.0009893845, 0.01859937
 11540382, 8.713308E-05, -1.318358E-05, -0.001031234, 0.01859937
 11640342, -0.0002539325, 0.0001675379, -0.00110235, 0.01859937
 11740302, 1.593457E-05, 8.119447E-05, -0.0009797562, 0.01859937
 11840262, -0.0001136297, 6.723437E-05, -0.0009317293, 0.01859937
 11940222, -7.936445E-05, 0.0001782306, -0.001056258, 0.01859937
 12040182, -4.317252E-05, 0.0001121832, -0.0008926825, 0.01859937
 12140975, 6.715298E-06, 0.0003340546, -0.0009384882, 0.01859937
 12240935, -0.0001036645, 2.816375E-05, -0.0009774072, 0.01874498
 12340895, -2.001519E-05, 0.0002480308, -0.001038069, 0.01859007
 12440855, -8.858118E-05, 0.0002403091, -0.0008897082, 0.01859007
 12540815, -2.394957E-05, 0.0001364633, -0.0009695656, 0.01859007
 12640775, -5.728891E-05, 4.897852E-05, -0.0008941982, 0.01859007
 12740735, -0.0001372107, 3.819788E-05, -0.001028317, 0.01859007
 12840695, 5.834625E-05, 0.0001140034, -0.001035457, 0.01859007
 12940655, -6.564562E-05, 0.0001426687, -0.0008913765, 0.01859007
 13040615, -0.0001710673, 2.892069E-05, -0.0009521012, 0.01859007
 13140575, -9.086201E-05, 0.0001508144, -0.0009079733, 0.01859007
 13240535, -0.0001048346, 0.0001817197, -0.0009587648, 0.01859937
 13340495, -0.0001314815, 0.0001135386, -0.0009112526, 0.01859937
 13440455, -7.798762E-05, 0.0002250633, -0.0009489172, 0.01859937
 13540415, 3.788786E-05, 0.0002173633, -0.0009683167, 0.01859937
 13640375, -0.0001716066, 0.000233119, -0.0008696796, 0.01859937
 13740335, 3.90793E-05, 0.000214055, -0.001028803, 0.01859937
 13840295, -0.0001197643, 7.244827E-05, -0.00105315, 0.01859937
 13940255, -0.0001407933, 5.69711E-05, -0.001012159, 0.01859937
 14040215, -0.0001979829, 7.523644E-05, -0.0009488219, 0.01859937
 14140175, -0.0002392591, 0.0003152782, -0.0009297847, 0.01859937
 14240968, -0.000103478, 0.0001531651, -0.0008635415, 0.01874498
 14340928, -0.0002362835, 0.0002823363, -0.0009374968, 0.01859007
 14440888, 9.579475E-06, 0.0002031241, -0.0009517675, 0.01859007
 14540848, -0.0001513834, 0.0003287867, -0.0009436264, 0.01859007
 14640808, 2.049289E-05, 0.0003125159, -0.001071835, 0.01859007
 14740768, 5.426327E-05, -3.183224E-06, -0.001016372, 0.01859007
 14840728, -1.634933E-05, 0.0001753251, -0.0008855709, 0.01859007
 14940688, -0.0001017045, 6.113888E-05, -0.0009978021, 0.01859007
 15040648, -0.0002102214, 0.0001860382, -0.001158003, 0.01859007
 15140608, -4.041535E-05, 0.0001280743, -0.0009941225, 0.01859007
 15240568, -8.575352E-05, 0.0002484203, -0.001125715, 0.01859007
 15340528, -3.764647E-05, 0.0002899207, -0.0009422537, 0.01859007
 15440488, -9.683109E-05, 0.0001893011, -0.001113894, 0.01859007
 15540448, -9.271519E-05, 5.309152E-05, -0.0009015767, 0.01859007
 15640408, -1.710232E-05, 0.0002068528, -0.0009237598, 0.01859007
 15740368, 7.769201E-05, 0.0001424878, -0.0009672967, 0.01859007
 15840328, -1.937021E-05, 0.0001943168, -0.0009179829, 0.01859007
 15940288, -2.007525E-05, 0.0001678249, -0.001026716, 0.01859007
 16040248, -7.616055E-05, 0.0001958399, -0.001047964, 0.01859007
 16140208, -9.688546E-05, 9.651404E-05, -0.0009387837, 0.01859007
 16240168, -0.000201115, 0.0002311127, -0.0009635884, 0.01859937
 16340961, -4.594468E-06, 0.0003251834, -0.001032701, 0.01875436
 16440921, 0.0001281601, 0.0001564999, -0.0009031401, 0.01859937
 16540881, -0.0001496849, 0.0002718239, -0.0008904517, 0.01859937
 16640841, -0.0001548523, 2.070157E-05, -0.000964351, 0.01859937
 16740801, -5.071294E-05, 0.0002146048, -0.0009052088, 0.01859937
 16840761, -0.0002066536, 0.0002030919, -0.0009696895, 0.01859937
 16940721, -0.0003102664, 0.0002539275, -0.0008729303, 0.01859937
 17040681, -5.472323E-05, 0.0002167836, -0.001012788, 0.01859937
 17140641, -0.0001136587, 0.0001593736, -0.0009025777, 0.01859937
 17240601, -0.0002580795, 0.0003772851, -0.0009124252, 0.01859007
 17340561, -0.000194339, 9.170097E-05, -0.0009288219, 0.01859007
 17440521, -0.0001318848, 0.000300602, -0.001014265, 0.01859007
 17540481, -0.0001235093, 0.0002264476, -0.0009623111, 0.01859007
 17640441, -9.783475E-05, 0.0002123827, -0.00102214, 0.01859007
 17740401, -0.0001126333, 0.0002654538, -0.0008788502, 0.01859007
 17840361, -0.000120574, 0.0002019536, -0.0008969533, 0.01859007
 17940321, -0.0001236246, 0.0001511765, -0.0009329687, 0.01859007
 18040281, -0.0001751811, 0.0002106166, -0.0009331498, 0.01859007
 18140241, -6.810629E-05, 0.0001437845, -0.0009142079, 0.01859007
 18240201, -0.000115389, 0.0003415659, -0.0008909189, 0.01859937
 18340161, -0.0003676336, 0.0001214392, -0.001061339, 0.01859937
 18440954, -6.701893E-05, 0.0002503778, -0.001014229, 0.01875436
 18540914, -0.0002654904, 0.0002177997, -0.001020309, 0.01859937
 18640874, -7.362528E-05, 0.0003937893, -0.001062769, 0.01859937
 18740834, -0.0001606345, 0.0001604241, -0.001088174, 0.01859937
 18840794, -0.0002544725, 0.0001729635, -0.0008806805, 0.01859937
 18940754, -6.804476E-05, 9.384778E-05, -0.0009734646, 0.01859937
 19040714, -0.0002858806, 0.0002090436, -0.001009003, 0.01859937
 19140674, -0.0002571123, 7.915554E-05, -0.000973169, 0.01859937
 19240634, -0.0001891033, 0.0002484721, -0.001184209, 0.01859007
 19340594, -0.0003399173, 0.0002648939, -0.0009467628, 0.01859007
 19440554, -0.0002376882, 8.535692E-05, -0.0008752657, 0.01859007
 19540514, -0.0001932668, 0.0002383016, -0.00103866, 0.01859007
 19640474, -8.236279E-05, 0.0002294085, -0.001019794, 0.01859007
 19740434, -0.0003062401, 0.0003592614, -0.0009575541, 0.01859007
 19840394, -0.0003134198, 0.0002710317, -0.001059099, 0.01859007
 19940354, -0.0001028137, 0.0002049817, -0.0009268771, 0.01859007
 20040314, -0.0001375842, 0.0004229251, -0.000811052, 0.01859007
 20140274, -0.0001810542, 0.0002626383, -0.001067555, 0.01859007
 20240234, 6.35455E-05, 0.0003464345, -0.0009821013, 0.01859007
 20340194, -1.495084E-06, 0.0002995846, -0.001275563, 0.01859007
 20440154, -0.0003593513, 0.0003558918, -0.001056982, 0.01859007
 20540947, -0.0001200708, 0.0002416312, -0.001014282, 0.01874498
 20640907, 0.01330959, -0.002093647, -0.0009296226, 0.01859007
 20740867, 0.07515816, -0.01410185, -0.001016658, 0.01859007
 20840827, 0.165168, -0.03108973, -0.0001229748, 0.01859007
 20940787, 0.266621, -0.04928612, 0.002752805, 0.01859007
 21040747, 0.371554, -0.07011731, 0.004796341, 0.01859007
 21140707, 0.4733031, -0.08932588, 0.005005512, 0.01859007
 21240667, 0.5698925, -0.1075812, 0.003166448, 0.01859937
 21340627, 0.6600976, -0.1239381, -0.001918702, 0.01859937
 21440587, 0.7517906, -0.1406717, -0.009313623, 0.01859937
 21540547, 0.8270885, -0.1513702, -0.01911455, 0.01859937
 21640507, 0.8862924, -0.1685395, -0.03141557, 0.01859937
 21740467, 0.8905094, -0.1639114, -0.04214308, 0.01859937
 21840427, 0.8552289, -0.1630165, -0.05202428, 0.01859937
 21940387, 0.8103656, -0.1485429, -0.06111585, 0.01859937
 22040347, 0.7468979, -0.1422859, -0.06762499, 0.01859937
 22140307, 0.6930428, -0.1295023, -0.07394476, 0.01859937
 22240267, 0.6214414, -0.1154686, -0.09966663, 0.01859007
 22340227, 0.562156, -0.105065, -0.1430559, 0.01859007
 22440187, 0.5054453, -0.09139071, -0.1158768, 0.01859007
 22540147, 0.4576562, -0.08661684, -0.06915271, 0.01859007
 22640940, 0.4100251, -0.08117685, -0.05174534, 0.01874498
 22740900, 0.5411661, -0.1003081, -0.2075818, 0.01859007
 22840860, 0.5435051, -0.0970138, -0.7896919, 0.01859007
 22940820, 0.396861, -0.07427607, -0.9712045, 0.01859007
 23040780, 0.3370628, -0.0715633, -0.8016586, 0.01859007
 23140740, 0.3386023, -0.07340616, -0.5275121, 0.01859007
 23240700, 0.3567315, -0.06978546, -0.3216929, 0.01859937
 23340660, 0.3731078, -0.06736267, -0.1757154, 0.01859937
 23440620, 0.3585355, -0.07809862, -0.1268213, 0.01859937
 23540580, 0.3200342, -0.07317136, -0.1355501, 0.01859937
 23640540, 0.255086, -0.04942802, -0.1990936, 0.01859937
 23740500, 0.174837, -0.03901644, -0.2871827, 0.01859937
 23840460, 0.1117243, -0.03031557, -0.3091655, 0.01859937
 23940420, 0.06980754, -0.0284033, -0.31009, 0.01859937
 24040380, 0.03592501, -0.01873956, -0.2917696, 0.01859937
 24140340, 0.01227134, -0.08148994, -0.2390945, 0.01859937
 24240300, -0.02592445, -0.1248664, -0.2217109, 0.01859007
 24340260, -0.05588869, -0.1236763, -0.225855, 0.01859007
 24440220, -0.07024101, -0.1013164, -0.1995883, 0.01859007
 24540180, -0.05735082, -0.0858871, -0.1342469, 0.01859007
 24640973, -0.04978877, -0.07560075, -0.08767635, 0.01859007
 24740933, -0.07250851, -0.066168, -0.09887019, 0.01874498
 24840893, -0.1076168, -0.08565874, -0.1120564, 0.01859007
 24940853, -0.1120059, -0.1076482, -0.07947565, 0.01859007
 25040813, -0.1093757, -0.1068197, -0.04260384, 0.01859007
 25140773, -0.127061, -0.09178469, -0.0584498, 0.01859007
 25240733, -0.1697729, -0.08911754, -0.1004072, 0.01859007
 25340693, -0.2425703, -0.08533214, -0.1833842, 0.01859007
 25440653, -0.2933893, -0.08952316, -0.2605089, 0.01859007
 25540613, -0.3237556, -0.08836447, -0.2865408, 0.01859007
 25640573, -0.3019936, -0.0755487, -0.2263596, 0.01859007
 25740533, -0.2678178, -0.05513599, -0.1500383, 0.01859007
 25840493, -0.2420876, -0.03654481, -0.09979442, 0.01859007
 25940453, -0.1718546, -0.02769195, 0.002088084, 0.01859007
 26040413, -0.1343975, -0.02659605, 0.06917637, 0.01859007
 26140373, -0.1190548, -0.03017685, 0.08539195, 0.01859007
 26240333, -0.1247304, -0.03455099, 0.09039939, 0.01859937
 26340293, -0.1287854, -0.03012384, 0.06819185, 0.01859937
 26440253, -0.1316529, -0.02525651, 0.06844766, 0.01859937
 26540213, -0.1477853, -0.02014848, 0.03260299, 0.01859937
 26640173, -0.152913, -0.03156892, 0.02446475, 0.01859937
 26740966, -0.1442596, -0.03503907, 0.05617762, 0.01875436
 26840926, -0.1339094, -0.03901792, 0.07264519, 0.01859937
 26940886, -0.1173616, -0.02699476, 0.09805173, 0.01859937
 27040846, -0.09122681, -0.02522648, 0.1345646, 0.01859937
 27140806, -0.1108879, -0.0199602, 0.09674112, 0.01859937
 27240766, -0.1153897, -0.01766668, 0.08266297, 0.01859007
 27340726, -0.08201757, -0.01752624, 0.1328774, 0.01859007
 27440686, -0.09658597, -0.03208373, 0.1066033, 0.01859007
 27540646, -0.1320153, -0.02263609, 0.02234478, 0.01859007
 27640606, -0.1434733, -0.02474418, 0.007952503, 0.01859007
 27740566, -0.144792, -0.01947022, 0.009039313, 0.01859007
 27840526, -0.1455634, -0.01297532, 0.005637497, 0.01859007
 27940486, -0.1711383, -0.00878235, -0.0676224, 0.01859007
 28040446, -0.1574503, -0.005019651, -0.009525321, 0.01859007
 28140406, -0.1696103, 0.009590819, -0.002823701, 0.01859007
 28240366, -0.179116, 0.02025563, 0.01359007, 0.01859937
 28340326, -0.1805483, 0.03192515, 0.03219799, 0.01859937
 28440286, -0.1957534, 0.03692433, 0.05712076, 0.01859937
 28540246, -0.1960732, 0.04972257, 0.06111096, 0.01859937
 28640206, -0.1284394, -0.0006910288, 0.2936674, 0.01859937
 28740166, -0.009801172, -0.00615753, 0.5996668, 0.01859937
 28840959, 0.0824902, 0.1033184, 0.7398412, 0.01875436
 28940919, 0.1224761, 0.181525, 0.7780866, 0.01859937
 29040879, 0.09963292, 0.1985903, 0.6880841, 0.01859937
 29140839, 0.05690407, 0.2342276, 0.4772029, 0.01859937
 29240799, 0.02225025, 0.2641318, 0.2345824, 0.01859007
 29340759, -0.02012253, 0.281125, 0.03207287, 0.01859007
 29440719, -0.0535768, 0.2672462, -0.09859324, 0.01859007
 29540679, -0.06486042, 0.2220522, -0.08259541, 0.01859007
 29640639, -0.08090665, 0.1609177, -0.02488932, 0.01859007
 29740599, -0.07659715, 0.1097998, 0.0840132, 0.01859007
 29840559, -0.07942592, 0.08451952, 0.1162183, 0.01859007
 29940519, -0.07623921, 0.1040007, 0.0998514, 0.01859007
 30040479, -0.06700094, 0.1030841, 0.1526542, 0.01859007
 30140439, -0.06014384, 0.102365, 0.1562407, 0.01859007
 30240399, -0.0733811, 0.1228218, 0.1066645, 0.01859007
 30340359, -0.1275037, 0.1583766, 0.07066258, 0.01859007
 30440319, -0.2226187, 0.2182462, -0.02856103, 0.01859007
 30540279, -0.3338663, 0.2728369, -0.1587206, 0.01859007
 30640239, -0.4036847, 0.2873338, -0.1944979, 0.01859007
 30740199, -0.3966982, 0.2599699, -0.1347481, 0.01859007
 30840159, -0.3431454, 0.1983524, 0.006055116, 0.01859007
 30940952, -0.2805552, 0.1401053, 0.1684581, 0.01874498
 31040912, -0.2180623, 0.0927514, 0.2864109, 0.01859007
 31140872, -0.1757892, 0.0615383, 0.3621333, 0.01859007
 31240832, -0.1493361, 0.05553904, 0.344472, 0.01859007
 31340792, -0.1325089, 0.04921274, 0.310748, 0.01859007
 31440752, -0.1219144, 0.05410166, 0.2490091, 0.01859007
 31540712, -0.1127932, 0.05988329, 0.1741566, 0.01859007
 31640672, -0.09942491, 0.05706004, 0.1362837, 0.01859007
 31740632, -0.08966888, 0.05038072, 0.09970892, 0.01859007
 31840592, -0.07221923, 0.04750282, 0.06007483, 0.01859007
 31940552, -0.06712252, 0.04746653, 0.02554703, 0.01859007
 32040512, -0.056457, 0.04196431, 0.0352504, 0.01859007
 32140472, -0.04504731, 0.0262766, 0.05654992, 0.01859007
 32240432, -0.04004364, 0.01496446, 0.07018221, 0.01859007
 32340392, -0.03182973, 0.01571618, 0.06335199, 0.01859007
 32440352, -0.02334791, 0.006331594, 0.08211951, 0.01859007
 32540312, -0.02072292, 0.003096198, 0.1055505, 0.01859007
 32640272, -0.01366211, 0.001751794, 0.1068726, 0.01859007
 32740232, -0.009382056, -0.002397265, 0.07689185, 0.01859007
 32840192, -0.01205821, -0.003971109, 0.02951056, 0.01859007
 32940152, -0.01200642, -0.007588651, 0.02162782, 0.01859007
 33040945, -0.01516652, -0.01472525, -0.01682866, 0.01874498
 33140905, -0.01360805, -0.01550852, -0.02383586, 0.01859007
 33240865, -0.01124082, -0.01785539, -0.02213362, 0.01859007
 33340825, -0.01077312, -0.01723305, -0.005769223, 0.01859007
 33440785, -0.01384608, -0.0187514, 0.007461299, 0.01859007
 33540745, -0.01059742, -0.0217329, 0.01883872, 0.01859007
 33640705, -0.005356819, -0.01815093, 0.01968316, 0.01859007
 33740665, -0.006757111, -0.02284045, 0.0009401565, 0.01859007
 33840625, -0.008602249, -0.03009827, -0.01472804, 0.01859007
 33940585, -0.005945137, -0.02624616, -0.02898568, 0.01859007
 34040545, -0.000494501, -0.02853607, -0.01955175, 0.01859007
 34140505, -0.004259909, -0.04038599, 0.005389604, 0.01859007
 34240465, -0.007288537, -0.05038848, 0.004999945, 0.01859007
 34340425, -0.008733968, -0.04985964, 0.01088877, 0.01859007
 34440385, -0.01016102, -0.04461574, 0.005126828, 0.01859007
 34540345, -0.002562961, -0.04094335, -0.004265252, 0.01859007
 34640305, -0.0048976, -0.04679699, -0.02115022, 0.01859007
 34740265, -0.01104842, -0.05090128, -0.03256656, 0.01859007
 34840225, -0.006948695, -0.0434875, -0.04130675, 0.01859007
 34940185, -0.009268382, -0.03591016, -0.02075017, 0.01859007
 35040145, -0.006009845, -0.03381762, -0.02341719, 0.01859007
 35140938, -0.009597946, -0.04794133, -0.03054335, 0.01874498
 35240898, -0.001718431, -0.04824507, 0.0006455509, 0.01859007
 35340858, -0.004581647, -0.04905627, -0.008514907, 0.01859007
 35440818, -0.005893152, -0.04308128, -0.01212334, 0.01859007
 35540778, 0.0003110131, -0.03405804, 0.004245147, 0.01859007
 35640738, -0.004472256, -0.03127338, 0.01786964, 0.01859007
 35740698, -0.008919997, -0.03763821, -0.01917161, 0.01859007
 35840658, -0.007220905, -0.04609207, -0.03505515, 0.01859007
 35940618, -0.001853425, -0.05078992, 0.00476186, 0.01859007
 36040578, -0.007011065, -0.04853171, 0.002024126, 0.01859007
 36140538, -0.009764024, -0.04686859, -0.04093388, 0.01859007
 36240498, -0.007564371, -0.04939989, -0.05211577, 0.01859007
 36340458, -0.003656548, -0.04910243, -0.02341404, 0.01859007
 36440418, -0.007444584, -0.04874259, 0.0059536, 0.01859007
 36540378, -0.005128672, -0.03851917, 0.01300993, 0.01859007
 36640338, -0.003817812, -0.03710868, 0.03860205, 0.01859007
 36740298, -0.003278052, -0.04259737, 0.001143714, 0.01859007
 36840258, -0.0007269752, -0.04428903, -0.01560053, 0.01859007
 36940218, -0.003154156, -0.04385922, -0.004554261, 0.01859007
 37040178, -0.007413178, -0.0382421, -0.0283496, 0.01859007
 37140971, -0.005363709, -0.0433673, -0.04094251, 0.01859007
 37240931, -0.009139891, -0.0462012, -0.03907296, 0.01874498
 37340891, -0.006235676, -0.05085424, -0.03385459, 0.01859007
 37440851, -0.004128376, -0.05293459, -0.02193316, 0.01859007
 37540811, -0.01012119, -0.04851711, -0.03321011, 0.01859007
 37640771, -0.01687488, -0.03730413, -0.002727085, 0.01859007
 37740731, -0.01218258, -0.03389109, -0.001330597, 0.01859007
 37840691, -0.01786777, -0.02305347, -0.007732197, 0.01859007
 37940651, -0.01364507, -0.02652106, -0.01713828, 0.01859007
 38040611, -0.01008298, -0.03473331, -0.02548628, 0.01859007
 38140571, -0.01242941, -0.03670052, -0.01498053, 0.01859007
 38240531, -0.01285426, -0.03517172, 0.01252148, 0.01859007
 38340491, -0.0115077, -0.03589779, 0.02027134, 0.01859007
 38440451, -0.004724987, -0.0252846, -0.01784793, 0.01859007
 38540411, -0.01036419, -0.02541787, -0.04204706, 0.01859007
 38640371, -0.01330865, -0.03077743, -0.07384333, 0.01859007
 38740331, -0.0151688, -0.03780569, -0.07618664, 0.01859007
 38840291, -0.01933426, -0.03087887, -0.03845015, 0.01859007
 38940251, -0.01488479, -0.03508123, 0.02747232, 0.01859007
 39040211, -0.006372922, -0.03243663, 0.01244994, 0.01859007
 39140171, -0.01040317, -0.03407204, 0.008910304, 0.01859007
 39240964, -0.01390787, -0.03144556, -0.02845478, 0.01874498
 39340924, -0.01416442, -0.02459596, -0.04464736, 0.01859007
 39440884, -0.01933993, -0.03283314, -0.03523545, 0.01859007
 39540844, -0.02046834, -0.02882317, 0.005564237, 0.01859007
 39640804, -0.0159466, -0.02168067, -0.001090262, 0.01859007
 39740764, -0.02120959, -0.02337451, -0.001164113, 0.01859007
 39840724, -0.01173234, -0.02836448, 0.005342558, 0.01859007
 39940684, -0.01021908, -0.02978246, -0.02699808, 0.01859007
 40040644, -0.01674633, -0.02554318, -0.02356619, 0.01859007
 40140604, -0.01379387, -0.03837198, -0.02090527, 0.01859007
 40240564, -0.0132811, -0.03513582, -0.02942447, 0.01859007
 40340524, -0.01556647, -0.03291051, -0.04289277, 0.01859007
 40440484, -0.01196745, -0.03938446, -0.02895619, 0.01859007
 40540444, -0.01370638, -0.03700171, -0.02634417, 0.01859007
 40640404, -0.01278612, -0.04183824, -0.01635899, 0.01859007
 40740364, -0.01187265, -0.03351661, -0.02247271, 0.01859007
 40840324, -0.01570014, -0.02558678, -0.009102689, 0.01859007
 40940284, -0.0159122, -0.02312969, 0.01031385, 0.01859007
 41040244, -0.0195494, -0.01972903, 0.02648696, 0.01859007
 41140204, -0.01938866, -0.01937449, 0.02757416, 0.01859007
 41240164, -0.01684763, -0.02276428, 0.04700141, 0.01859007
 41340957, -0.01539847, -0.02517421, -0.01529064, 0.01874498
 41440917, -0.01451931, -0.02864381, -0.0262227, 0.01859007
 41540877, -0.009245289, -0.02074496, -0.01259519, 0.01859007
 41640837, -0.01121793, -0.02496635, -0.02591828, 0.01859007
 41740797, -0.01952719, -0.02788951, -0.04910193, 0.01859007
 41840757, -0.01625598, -0.03406443, -0.05157601, 0.01859007
 41940717, -0.01332637, -0.03580623, -0.02204791, 0.01859007
 42040677, -0.01323733, -0.03078214, -0.0195693, 0.01859007
 42140637, -0.01472746, -0.02567807, -0.0206762, 0.01859007
 42240597, -0.01324878, -0.02267492, 0.01086294, 0.01859007
 42340557, -0.009388776, -0.02291861, 0.03603101, 0.01859007
 42440517, -0.01210898, -0.02266433, 0.006269874, 0.01859007
 42540477, -0.02518613, -0.03096345, -0.03134053, 0.01859007
 42640437, -0.02395383, -0.03551742, -0.02901958, 0.01859007
 42740397, -0.02028119, -0.03376809, -0.03679597, 0.01859007
 42840357, -0.0179903, -0.0294644, -0.02077628, 0.01859007
 42940317, -0.0159356, -0.02040328, -0.01260372, 0.01859007
 43040277, -0.01716103, -0.01743799, -0.03644721, 0.01859007
 43140237, -0.02137303, -0.01958891, -0.03384348, 0.01859007
 43240197, -0.01597656, -0.02814764, 0.009323251, 0.01859007
 43340157, -0.0194747, -0.02933591, 0.022128, 0.01859007
 43440950, -0.0233595, -0.02255516, -0.01725193, 0.01874498
 43540910, -0.01419399, -0.01790105, -0.006837855, 0.01859007
 43640870, -0.01399982, -0.0208111, 0.02200054, 0.01859007
 43740830, -0.01227339, -0.02596915, 0.02688998, 0.01859007
 43840790, -0.008067816, -0.04633709, -0.01646436, 0.01859007
 43940750, -0.01354096, -0.06373689, -0.02256126, 0.01859007
 44040710, -0.01243352, -0.115339, -0.02061364, 0.01859007
 44140670, -0.02569778, -0.3106705, 0.001684554, 0.01859007
 44240630, -0.02467493, -0.385799, 0.03596644, 0.01859007
 44340590, -0.01985067, -0.1651884, -0.05643313, 0.01859007
 44440550, -0.01666371, 0.08958161, -0.1463504, 0.01859007
 44540510, -0.01161644, 0.2617983, -0.08556332, 0.01859007
 44640470, -0.008884255, 0.2839921, 0.054223, 0.01859007
 44740430, 0.002575475, 0.237671, 0.1427933, 0.01859007
 44840390, -0.004455262, 0.1801585, 0.09339787, 0.01859007
 44940350, -0.008854838, 0.1227127, 0.0400531, 0.01859007
 45040310, -0.01687535, 0.06384155, -0.01144897, 0.01859007
 45140270, -0.01197297, 0.01605826, -0.01108465, 0.01859007
 45240230, -0.01042015, -0.005205835, -0.01963509, 0.01859007
 45340190, -0.01145064, -0.001974576, -0.04323984, 0.01859007
 45440150, -0.009916148, 0.008302317, -0.03102049, 0.01859007
 45540943, -0.01123606, 0.02929777, -0.01149461, 0.01874498
 45640903, -0.006200966, 0.04279225, -0.01182745, 0.01859007
 45740863, -0.0144798, 0.05252871, -0.01881077, 0.01859007
 45840823, -0.01625878, 0.05236687, -0.03674584, 0.01859007
 45940783, -0.01312994, 0.05629292, -0.007483349, 0.01859007
 46040743, -0.01455596, 0.04792646, 0.005744619, 0.01859007
 46140703, -0.01704357, 0.04123035, 0.004034622, 0.01859007
 46240663, -0.01466993, 0.04470658, -0.01055654, 0.01859007
 46340623, -0.01188242, 0.03646768, 0.04202617, 0.01859007
 46440583, -0.01056792, 0.03503145, 0.01871678, 0.01859007
 46540543, -0.01815599, 0.02904521, -0.01822116, 0.01859007
 46640503, -0.02218944, 0.02437396, -0.02864365, 0.01859007
 46740463, -0.02467159, 0.01865603, -0.03172173, 0.01859007
 46840423, -0.02064654, 0.01758659, -0.0312049, 0.01859007
 46940383, -0.01539275, 0.01749123, -0.009919737, 0.01859007
 47040343, -0.01257743, 0.01382866, 0.04368127, 0.01859007
 47140303, -0.009727729, 0.02230115, 0.06043889, 0.01859007
 47240263, -0.01413784, 0.02368588, 0.01068297, 0.01859007
 47340223, -0.01795189, 0.03016141, 0.004238264, 0.01859007
 47440183, -0.01503662, 0.02727471, -0.01621416, 0.01859007
 47540976, -0.01547853, 0.0102389, -0.05248634, 0.01859007
 47640936, -0.01534359, 0.010114, -0.004679237, 0.01874498
 47740896, -0.009567792, 0.02394159, -0.02534825, 0.01859007
 47840856, -0.01436366, 0.01866069, -0.008229462, 0.01859007
 47940816, -0.01230535, 0.01428269, 0.02315639, 0.01859007
 48040776, -0.01460619, 0.009120388, 0.02755873, 0.01859007
 48140736, -0.009381866, 0.01548482, 0.02618971, 0.01859007
 48240696, -0.004261578, 0.0103648, 0.02065004, 0.01859007
 48340656, -0.005281921, 0.01779171, -0.02168876, 0.01859007
 48440616, -0.008640424, 0.01692623, 0.002874216, 0.01859007
 48540576, -0.01175111, 0.002677329, 0.02450753, 0.01859007
 48640536, -0.0119473, 0.004356787, 0.009996048, 0.01859007
 48740496, -0.006403743, 0.005877916, 0.003135028, 0.01859007
 48840456, -0.00673438, 0.01104854, -0.005007085, 0.01859007
 48940416, -0.006954323, 0.0119146, -0.02969483, 0.01859007
 49040376, -6.373698E-05, 0.01242342, 0.009544845, 0.01859007
 49140336, -0.003005771, 0.008272197, 0.05295005, 0.01859007
 49240296, -0.00197444, 0.008306926, 0.03687171, 0.01859007
 49340256, -0.002401474, 0.007987492, -0.002816218, 0.01859007
 49440216, -0.005016521, 0.008118484, -0.04476079, 0.01859007
 49540176, -0.007299025, -0.001098222, -0.04274976, 0.01859007
 49640969, -0.00825336, -0.003072152, -0.03467349, 0.01874498
 49740929, -0.006668177, 0.0006915301, -0.04509526, 0.01859007
 49840889, -0.01008827, -0.002061914, -6.283121E-05, 0.01859007
 49940849, -0.01338852, -0.008349174, 0.005242472, 0.01859007
 50040809, -0.0108263, -0.007479696, -0.01462685, 0.01859007
 50140769, -0.00639546, 0.002003946, 0.03090686, 0.01859007
 50240729, -0.007251333, -0.0006760812, 0.04590708, 0.01859007
 50340689, -0.0050917, -0.00623284, -0.01546664, 0.01859007
 50440649, -0.01351449, 0.003229779, -0.02442706, 0.01859007
 50540609, -0.01535461, -0.0002117586, -0.04134024, 0.01859007
 50640569, -0.01131994, -0.005244211, -0.02053691, 0.01859007
 50740529, -0.008501382, -0.008551992, -0.02972526, 0.01859007
 50840489, -0.01232915, -0.01466727, -0.02336692, 0.01859007
 50940449, -0.008580962, -0.01863191, -0.0328195, 0.01859007
 51040409, -0.01180766, -0.01012245, -0.03507615, 0.01859007
 51140369, -0.01422091, 0.002872629, -0.004607731, 0.01859007
 51240329, -0.009787394, -0.004580573, 0.02892707, 0.01859007
 51340289, -0.01144542, -0.01124707, 0.03569288, 0.01859007
 51440249, -0.0148614, -0.02396676, -0.001593162, 0.01859007
 51540209, -0.01785239, -0.02153656, 0.02621176, 0.01859007
 51640169, -0.0123555, -0.02205674, 0.03109877, 0.01859007
 51740962, -0.004520169, -0.01379819, -0.01869642, 0.01874498
 51840922, -0.006998743, -0.009553732, -0.01287471, 0.01859007
 51940882, -0.01250698, -0.01728017, -0.01487388, 0.01859007
 52040842, -0.006735318, -0.0124069, 0.01226673, 0.01859007
 52140802, -0.008122555, -0.0088178, -0.005996775, 0.01859007
 52240762, -0.007961136, 0.001325038, -0.006723118, 0.01859007
 52340722, 0.003183669, 0.005906994, 0.01530376, 0.01859007
 52440682, 0.0004153111, -0.0120262, 0.05945773, 0.01859007
 52540642, 0.001918881, -0.02136927, 0.04856772, 0.01859007
 52640602, -0.004327911, -0.01968234, 0.01767115, 0.01859007
 52740562, -0.00568407, -0.01145416, 0.003375829, 0.01859007
 52840522, -0.00594157, -0.009442498, 0.01537985, 0.01859007
 52940482, -0.007482696, -0.008593895, 0.0164939, 0.01859007
 53040442, -0.005053032, -0.01326423, -0.007279649, 0.01859007
 53140402, 0.0002284632, -0.008018065, -0.02987056, 0.01859007
 53240362, -0.003239112, -0.01542389, -0.03117916, 0.01859007
 53340322, -0.004352624, -0.01042948, -0.0498633, 0.01859007
 53440282, -0.007001211, -0.004278886, -0.002114613, 0.01859007
 53540242, -0.00656487, -0.003924731, -0.008287061, 0.01859007
 53640202, -0.003674046, -0.009732983, 0.02101675, 0.01859007
 53740162, -0.0075724, -0.02334422, 0.003295553, 0.01859007
 53840955, -0.009626628, -0.01540303, -0.022076, 0.01874498
 53940915, -0.005615836, -0.01543357, -0.01145149, 0.01859007
 54040875, -0.002098206, -0.01514012, 0.05492558, 0.01859007
 54140835, -0.004103178, -0.01715646, -0.00998824, 0.01859007
 54240795, 0.001566547, -0.008467201, 0.01560541, 0.01859007
 54340755, -0.0008668149, -0.001024935, 0.006362715, 0.01859007
 54440715, 5.308699E-06, -0.004239757, 0.01893425, 0.01859007
 54540675, -0.002667582, -0.0006887604, -0.02262094, 0.01859007
 54640635, -0.00749702, 0.002891653, -0.03502395, 0.01859007
 54740595, -0.009643514, -0.006110855, -0.00241633, 0.01859007
 54840555, -0.0005222221, -0.02006681, 0.001534916, 0.01859007
 54940515, 0.001349373, -0.02228308, -0.02051674, 0.01859007
 55040475, 0.002042389, -0.0120232, 0.02492707, 0.01859007
 55140435, 0.001686762, -0.01051273, 0.02639485, 0.01859007
 55240395, 0.002940204, -0.0006568494, 0.01726222, 0.01859007
 55340355, -0.005480422, -0.009248346, -0.0302204, 0.01859007
 55440315, -0.005705852, -0.01074941, -0.01435183, 0.01859007
 55540275, -0.003645575, 0.002862839, 0.02020866, 0.01859007
 55640235, -0.001151467, 0.006302828, 0.005496725, 0.01859007
 55740195, -0.003422266, 0.001051488, -0.02884726, 0.01859007
 55840155, -0.003920294, -0.00437138, -0.03878181, 0.01859007
 55940948, 0.0001508947, -0.01698927, -0.04385145, 0.01874498
 56040908, 0.0008846147, -0.01038942, 0.009861834, 0.01859007
 56140868, 0.0008970546, -0.007760476, 0.01550667, 0.01859007
 56240828, -0.004041541, -0.01214411, 0.04083936, 0.01859007
 56340788, -0.002941335, -0.009212012, 0.02954037, 0.01859007
 56440748, 0.001648011, -0.006987059, 0.009103356, 0.01859007
 56540708, -0.003209614, -0.003711806, -0.01109966, 0.01859007
 56640668, -0.003784785, 0.008258853, -0.03467232, 0.01859007
 56740628, -0.005732124, 0.005000548, -0.03435254, 0.01859007
 56840588, -0.001713456, -0.007742171, 0.01065791, 0.01859007
 56940548, -0.008242773, -0.00812441, -0.03370641, 0.01859007
 57040508, -0.006972102, 0.000959673, -0.06842671, 0.01859007
 57140468, -0.0110473, 0.005385709, -0.03952274, 0.01859007
 57240428, -0.006126911, -0.007218997, -0.008586147, 0.01859007
 57340388, -0.009813774, -0.01127493, 0.0006444063, 0.01859007
 57440348, -0.004866281, -0.0177022, 0.02330818, 0.01859007
 57540308, -0.004560351, -0.00840359, 0.007547638, 0.01859007
 57640268, -0.009987612, -0.01339732, 0.04540622, 0.01859007
 57740228, -0.009578055, 0.003989078, 0.04483845, 0.01859007
 57840188, -0.006547553, -0.004305451, -0.0009061905, 0.01859007
 57940148, 0.0004165313, -0.001270675, 0.005422797, 0.01859007
 58040941, 0.002372171, -0.005297993, 0.01647443, 0.01874498
 58140901, 0.01067508, -0.005008728, 0.03253676, 0.01859007
 58240861, -0.002660067, -0.0004580799, -0.008493334, 0.01859007
 58340821, -0.001678743, -0.005526273, -0.01870691, 0.01859007
 58440781, 0.0005139803, -0.007725749, -0.04846558, 0.01859007
 58540741, -0.004798793, 0.0003839163, -0.0554237, 0.01859007
 58640701, 7.1491E-05, 0.01515218, -0.02805325, 0.01859007
 58740661, -0.003461264, 0.04030522, 0.02417865, 0.01859007
 58840621, 0.0006310942, 0.04601834, 0.03695187, 0.01859007
 58940581, 0.004499042, 0.05340914, 0.005493379, 0.01859007
 59040541, 0.001577722, 0.03875465, 0.05408183, 0.01859007
 59140501, 0.005405082, 0.02772754, 0.04932898, 0.01859007
 59240461, 0.00241962, 0.02336814, -0.0003800206, 0.01859007
 59340421, 0.004120562, 0.01836991, 3.958069E-05, 0.01859007
 59440381, -0.001113442, 0.0226184, 0.009556141, 0.01859007
 59540341, 0.001548482, 0.01217666, -0.02456385, 0.01859007
 59640301, 0.002191657, 0.02859155, -0.01633929, 0.01859007
 59740261, 0.0009669267, 0.02965232, 0.02706225, 0.01859007
 59840221, 0.006439098, 0.01977069, -0.002143536, 0.01859007
 59940181, -0.001779978, 0.006899022, -0.01209271, 0.01859007
 60040974, 0.001260424, -0.002554181, -0.0444493, 0.01859007
 60140934, -0.0005765305, 0.01437263, -0.03086191, 0.01874498
 60240894, 0.007770267, 0.02066258, 0.02800913, 0.01859007
 60340854, 0.001439197, 0.01772378, 0.03472077, 0.01859007
 60440814, 0.006833788, 0.01841659, 0.03652802, 0.01859007
 60540774, 0.002262695, 0.01786401, -0.003180681, 0.01859007
 60640734, 0.002202951, 0.01399893, 0.01363968, 0.01859007
 60740694, 0.001764925, 0.01389959, -0.02729841, 0.01859007
 60840654, 0.0007408319, 0.01240435, -0.02570704, 0.01859007
 60940614, 0.00122027, 0.01938033, -0.004307758, 0.01859007
 61040574, -0.002557115, 0.02674249, 0.01492462, 0.01859007
 61140534, -9.115439E-05, 0.02122756, 0.007746268, 0.01859007
 61240494, 1.513824E-05, 0.0174346, -0.01977977, 0.01859007
 61340454, 0.002642666, 0.008049647, 0.01089798, 0.01859007
 61440414, 0.003450902, 0.008104723, 0.06665771, 0.01859007
 61540374, 0.003028908, 0.00672681, 0.04223619, 0.01859007
 61640334, 0.004390807, 0.008435951, 0.01913445, 0.01859007
 61740294, 0.00767273, 0.01328928, -0.01152964, 0.01859007
 61840254, 0.002992747, 0.02315158, -0.02791428, 0.01859007
 61940214, 0.001844482, 0.02285315, -0.02279257, 0.01859007
 62040174, 0.002880448, 0.02505706, -0.01171891, 0.01859007
 62140967, 0.009118699, 0.02472638, -0.02406168, 0.01874498
 62240927, 0.01298071, 0.02094128, -0.03672298, 0.01859007
 62340887, 0.006306265, 0.01846654, -0.04433218, 0.01859007
 62440847, -0.0009945151, 0.01655554, -0.01520287, 0.01859007
 62540807, -0.006027212, 0.0284838, 0.03511553, 0.01859007
 62640767, -0.0001768392, 0.02617057, 0.06710773, 0.01859007
 62740727, 0.0002570798, 0.01303642, 0.05129489, 0.01859007
 62840687, 0.001031038, 0.01075289, 0.01426096, 0.01859007
 62940647, 0.007558003, 0.004173042, 0.005686888, 0.01859007
 63040607, 0.01273412, 0.01195691, -0.009908297, 0.01859007
 63140567, 0.01005163, 0.01926739, -0.02275839, 0.01859007
 63240527, -0.001268941, 0.01532583, -0.04379902, 0.01859007
 63340487, 0.0004625198, 0.01971907, -0.01274891, 0.01859007
 63440447, -0.002550067, 0.02096755, -0.03913981, 0.01859007
 63540407, -0.004212862, 0.0192387, 0.0009299376, 0.01859007
 63640367, -0.0006772227, 0.01788208, -0.01152925, 0.01859007
 63740327, -0.006528536, 0.0130046, 0.0140829, 0.01859007
 63840287, 0.002355094, 0.01633347, 0.03119054, 0.01859007
 63940247, 0.01082195, 0.02603821, 0.0317272, 0.01859007
 64040207, 0.01060842, 0.02061287, 0.03782258, 0.01859007
 64140167, 0.004497368, 0.004781223, 0.01781349, 0.01859007
 64240960, 0.004041881, 0.007852643, -0.00610212, 0.01874498
 64340920, 0.003692944, 0.009187294, -0.04465969, 0.01859007
 64440880, 0.002439881, 0.01448934, -0.05192429, 0.01859007
 64540840, 0.00174566, 0.01135594, -0.02766751, 0.01859007
 64640800, 0.001317578, 0.0178743, -0.005971302, 0.01859007
 64740760, 0.00187555, 0.01743243, -0.003342674, 0.01859007
 64840720, -0.004019395, 0.0120228, 0.01628114, 0.01859007
 64940680, 7.03361E-05, 0.01641311, 0.00851486, 0.01859007
 65040640, -0.0065092, 0.01809827, 0.01617023, 0.01859007
 65140600, 0.0003108741, 0.01874031, 0.02506763, 0.01859007
 65240560, 0.0021328, 0.01490865, 0.004575024, 0.01859007
 65340520, 0.0008808218, 0.01572101, 0.001315878, 0.01859007
 65440480, -0.003567641, 0.01675873, 0.005369012, 0.01859007
 65540440, 0.00221462, 0.01672694, 0.0157645, 0.01859007
 65640400, 0.0005785952, 0.01693388, 0.004224736, 0.01859007
 65740360, 0.005946275, 0.01408791, -0.02697249, 0.01859007
 65840320, 0.007691261, 0.01442792, 0.02037973, 0.01859007
 65940280, 0.00847063, 0.01638051, -0.02388346, 0.01859007
 66040240, 0.01123079, 0.009072849, -0.008780599, 0.01859007
 66140200, 0.009101372, 0.01992824, 0.009861957, 0.01859007
 66240160, 0.007869085, 0.02634507, 0.02160972, 0.01859007
 66340953, 0.01205032, 0.02089863, 0.02294648, 0.01874498
 66440913, 0.009456996, 0.01955602, 0.001721809, 0.01859007
 66540873, 0.005276931, 0.01789816, -0.004001332, 0.01859007
 66640833, 0.006377722, 0.00547466, 0.0008803082, 0.01859007
 66740793, 0.005656216, -0.00222365, -0.01197691, 0.01859007
 66840753, -0.002935991, 0.0001795791, 0.01153278, 0.01859007
 66940713, 0.001112254, 0.004229856, -0.007117951, 0.01859007
 67040673, 0.003995125, 0.01396386, -0.0005236819, 0.01859007
 67140633, 0.005825305, 0.01517802, -0.03114273, 0.01859007
 67240593, 0.006718444, 0.01915776, -0.01809425, 0.01859007
 67340553, 0.002077846, 0.01739924, -0.02924044, 0.01859007
 67440513, 0.005154703, 0.01768605, -0.02170605, 0.01859007
 67540473, -0.0003928788, 0.01350358, -0.03917475, 0.01859007
 67640433, 0.0003814756, 0.01034373, 0.02189577, 0.01859007
 67740393, 0.0001918001, 0.009861676, 0.04239633, 0.01859007
 67840353, 0.0004794789, 0.00576759, 0.04025154, 0.01859007
 67940313, -0.006512706, 0.002831238, 0.001320263, 0.01859007
 68040273, -0.006376985, -0.002234025, -0.006273401, 0.01859007
 68140233, -0.004705171, -0.0009878473, 0.007824523, 0.01859007
 68240193, -0.002641809, 0.002744332, -0.01871896, 0.01859007
 68340153, -0.00287775, 0.01378569, -0.06745805, 0.01859007
 68440946, -0.002486054, 0.02476422, -0.06208081, 0.01874498
 68540906, 0.001436688, 0.01479873, 0.0051368, 0.01859007
 68640866, 0.0008751836, 0.01321729, 0.009372785, 0.01859007
 68740826, -0.0001680822, 0.02173277, -0.006607329, 0.01859007
 68840786, -0.0003982703, 0.02067988, -0.004454595, 0.01859007
 68940746, 0.002307457, 0.01776074, -0.01368266, 0.01859007
 69040706, 0.0009357648, 0.01178561, 0.03691074, 0.01859007
 69140666, 0.005238627, 0.00601384, 0.05890572, 0.01859007
 69240626, 0.003076226, -0.001704153, 0.03838667, 0.01859007
 69340586, 0.005656761, 0.001364425, 0.04452744, 0.01859007
 69440546, 0.005175956, 0.006516728, 0.009984903, 0.01859007
 69540506, 0.008198021, 0.0129611, -0.03385174, 0.01859007
 69640466, 0.005006792, 0.02539142, -0.009183299, 0.01859007
 69740426, 0.0007721035, 0.02734663, -0.01406548, 0.01859007
 69840386, 0.00401294, 0.01747923, 0.002125414, 0.01859007
 69940346, 0.00149458, 0.01076685, -0.004091876, 0.01859007
 70040306, -0.001099937, 0.001690434, -0.04093065, 0.01859007
 70140266, -0.005480883, 0.003358229, -0.03443082, 0.01859007
 70240226, -0.006308199, 0.002697126, 0.007102022, 0.01859007
 70340186, -0.002694376, 0.01643852, -0.01330732, 0.01859007
 70440146, 0.005872065, 0.006660147, 0.01677451, 0.01859007
 70540939, 0.001842814, 0.01101531, -0.01439394, 0.01874498
 70640899, 0.002789385, 0.009311832, 0.01075254, 0.01859007
 70740859, 0.002605081, 0.01682889, -0.006108825, 0.01859007
 70840819, 0.004210841, 0.007814788, -0.004848104, 0.01859007
 70940779, 0.001660531, 0.00438878, 0.003658328, 0.01859007
 71040739, 9.968993E-06, 0.0008567955, 0.04489197, 0.01859007
 71140699, 0.0005778146, -0.006850713, 0.05458644, 0.01859007
 71240659, -0.004999243, 0.002879793, -0.01315267, 0.01859007
 71340619, -0.006459569, 0.01692201, -0.06497714, 0.01859007
 71440579, -0.008567398, 0.01998668, -0.05987209, 0.01859007
 71540539, -0.008241006, 0.02152485, -0.03701452, 0.01859007
 71640499, -0.003952872, 0.01706845, -0.01761659, 0.01859007
 71740459, 0.003860474, 0.01340647, 0.02401331, 0.01859007
 71840419, 0.004257347, 0.001041316, 0.0405902, 0.01859007
 71940379, 0.0065737, -0.008005621, 0.01976402, 0.01859007
 72040339, 0.007885484, -0.01884608, 0.02858196, 0.01859007
 72140299, 0.005990652, -0.009660212, 0.0304662, 0.01859007
 72240259, 0.006727785, -0.004804712, -0.001176297, 0.01859007
 72340219, 0.002353107, -0.0005474637, -0.007219392, 0.01859007
 72440179, 0.002429668, 0.01164999, -0.03000517, 0.01859007
 72540972, -0.002346414, 0.01187883, -0.01957397, 0.01859007
 72640932, 0.00690825, 0.01760761, 0.00684312, 0.01874498
 72740892, 0.002001104, 0.01672698, -0.01024551, 0.01859007
 72840852, -0.000492287, 0.01349859, 0.0109014, 0.01859007
 72940812, 0.005365074, 0.008690627, 0.03166129, 0.01859007
 73040772, -0.002389997, 0.01315894, 0.003910102, 0.01859007
 73140732, -0.006009965, 0.01052374, -0.01651069, 0.01859007
 73240692, -0.004828863, 0.003441809, -0.003899826, 0.01859007
 73340652, 0.001338239, 0.005460731, -0.01706598, 0.01859007
 73440612, 0.001279198, 0.01300784, -0.001657814, 0.01859007
 73540572, -0.007465517, 0.006376754, -0.02127295, 0.01859007
 73640532, -0.004015182, -0.001609596, -0.0004172471, 0.01859007
 73740492, -0.0008189454, 8.064217E-07, 0.030014, 0.01859007
 73840452, 0.005700679, -0.0001767277, 0.03356135, 0.01859007
 73940412, 0.005572894, 0.0009078361, 0.006365718, 0.01859007
 74040372, 0.003533576, 0.009907937, 0.01459803, 0.01859007
 74140332, 0.005327819, 0.01399036, -0.04731545, 0.01859007
 74240292, 0.001907858, 0.01129194, -0.0659495, 0.01859007
 74340252, 0.00151881, -0.001463526, -0.03756838, 0.01859007
 74440212, 0.001935146, -5.276063E-05, 0.02748463, 0.01859007
 74540172, 0.0002212038, 0.0183395, 0.03008733, 0.01859007
 74640965, 0.007490852, 0.0134223, 0.03942068, 0.01874498
 74740925, 0.004727385, 0.01021323, 0.02831268, 0.01859007
 74840885, 0.005545193, 0.001214002, 0.0205227, 0.01859007
 74940845, 0.002514579, 0.003534743, -0.03725444, 0.01859007
 75040805, 0.002218902, 0.003279295, 0.003798834, 0.01859007
 75140765, -0.001537591, 0.01037013, -0.03784953, 0.01859007
 75240725, -0.001339776, 0.01158199, -0.04029151, 0.01859007
 75340685, -0.0007799699, 0.01235216, -0.0256662, 0.01859007
 75440645, -0.0002167192, 0.005248908, -0.004131791, 0.01859007
 75540605, -0.0007859363, 0.01081816, 0.0443302, 0.01859007
 75640565, -0.003103419, 0.01388937, 0.01247489, 0.01859007
 75740525, -0.001409135, 0.01065007, 0.01752402, 0.01859007
 75840485, -0.0001212332, 0.009127794, -0.003537307, 0.01859007
 75940445, -0.0001777146, 0.003513084, -0.04119343, 0.01859007
 76040405, -0.003271909, 0.0136305, -0.01732703, 0.01859007
 76140365, 0.002525631, 0.01331471, -0.01033035, 0.01859007
 76240325, -0.00166448, 0.009208714, -0.003748273, 0.01859007
 76340285, 0.001546203, -0.004595627, 0.01560108, 0.01859007
 76440245, 0.004166882, -0.005452165, 0.01864509, 0.01859007
 76540205, 0.002986245, -0.004890863, 0.04140866, 0.01859007
 76640165, 0.003238508, 0.006050745, 0.009305578, 0.01859007
 76740958, 0.006268857, 0.001603977, 0.007144548, 0.01874498
 76840918, 0.006351185, -6.90106E-05, 0.03820701, 0.01859007
 76940878, 0.006020986, 0.01167676, -0.003470472, 0.01859007
 77040838, 0.005196776, 0.01177449, -0.01193682, 0.01859007
 77140798, 0.0008543088, 0.01354509, -0.006793394, 0.01859007
 77240758, 0.0006527714, 0.01154092, -0.04273755, 0.01859007
 77340718, -0.001619588, 0.00782118, -0.03222738, 0.01859007
 77440678, 0.002297499, -0.0008002574, 0.01045581, 0.01859007
 77540638, 3.351169E-05, -0.002901406, 0.008352752, 0.01859007
 77640598, -0.0008584426, -0.001096508, -0.03040201, 0.01859007
 77740558, 0.003051654, 0.003299621, -0.03145637, 0.01859007
 77840518, 0.0002857895, 0.009582695, -0.006356947, 0.01859007
 77940478, 0.001144901, 0.006602555, -0.01210023, 0.01859007
 78040438, -0.006566986, 0.009169403, -0.01266893, 0.01859007
 78140398, -0.008580263, 0.01026763, 0.01626843, 0.01859007
 78240358, -0.01109049, 0.0002562634, 0.02026175, 0.01859007
 78340318, -0.005180608, 0.00338796, 0.03028487, 0.01859007
 78440278, -0.001516769, 0.007481465, -0.005403979, 0.01859007
 78540238, 0.0005331262, 0.005140914, -0.01114457, 0.01859007
 78640198, 0.001567512, 0.005328315, 0.006828093, 0.01859007
 78740158, 0.005206918, 0.01186689, -0.02977342, 0.01859007
 78840951, 0.002612325, 0.01182355, -0.001913373, 0.01874498
 78940911, -0.0008954036, 0.0072151, 0.07849821, 0.01859007
 79040871, 0.0002652311, 0.00253143, 0.05516086, 0.01859007
 79140831, -0.001972288, 0.001224941, -0.01170115, 0.01859007
 79240791, -0.004436173, 0.0117228, -0.04697476, 0.01859007
 79340751, 0.001805, 0.009059489, -0.02943708, 0.01859007
 79440711, 0.0004413247, 0.002137758, -0.01838634, 0.01859007
 79540671, 0.001616809, 0.009694465, -0.01343906, 0.01859007
 79640631, 5.100179E-05, 0.007922496, 0.012658, 0.01859007
 79740591, 0.001010575, 0.01076841, 0.0185686, 0.01859007
 79840551, 0.007166988, 0.01522082, 0.02310789, 0.01859007
 79940511, 0.00513997, 0.005641426, 0.01535257, 0.01859007
 80040471, -0.001254001, -0.004329617, -0.0316804, 0.01859007
 80140431, -0.003866971, -0.000468627, -0.007077494, 0.01859007
 80240391, -0.001376525, 0.004869912, -0.01678303, 0.01859007
 80340351, 0.001692343, 0.006796696, -0.01707014, 0.01859007
 80440311, -0.001683082, 0.02326789, -0.02969569, 0.01859007
 80540271, 0.001229212, 0.01626483, 0.01055408, 0.01859007
 80640231, 0.004859241, 0.00239278, 0.02490135, 0.01859007
 80740191, 0.004295707, 0.001150326, 0.01521314, 0.01859007
 80840151, 0.0003979616, 0.004697834, -0.02754453, 0.01859007
 80940944, -0.006974321, 0.002620408, -0.01323723, 0.01874498
 81040904, -0.002144257, -0.0002069962, 0.00446263, 0.01859007
 81140864, -0.004445821, 0.004279767, -0.02060443, 0.01859007
 81240824, -0.007192335, 0.006829061, -0.06622081, 0.01859007
 81340784, -0.005769471, -0.006309985, -0.03645623, 0.01859007
 81440744, -0.004594012, 0.0005580202, 0.003565134, 0.01859007
 81540704, 0.004772276, 0.01433255, 0.03453905, 0.01859007
 81640664, 0.0008667338, 0.00351427, 0.05362849, 0.01859007
 81740624, -0.002540291, 0.002272272, 0.05663493, 0.01859007
 81840584, -0.002439798, -0.002833507, 0.01097229, 0.01859007
 81940544, -0.003602511, -0.004019265, 0.03159425, 0.01859007
 82040504, -0.0006226659, -0.0008294605, 0.0256298, 0.01859007
 82140464, 0.00724883, -0.001459993, 0.008383639, 0.01859007
 82240424, 0.009599167, 0.004402854, -0.05143818, 0.01859007
 82340384, -0.001198428, 0.001859888, -0.01182661, 0.01859007
 82440344, -0.004007469, -0.0003885191, 0.01019138, 0.01859007
 82540304, 0.0005889158, 0.00164719, -0.01386111, 0.01859007
 82640264, -0.002543675, 0.006923337, -0.01054365, 0.01859007
 82740224, -0.0009001312, 0.00919348, -0.0009493076, 0.01859007
 82840184, -0.006876553, 0.01271687, -0.0479048, 0.01859007
 82940977, -0.006602103, 0.01320331, -0.01276411, 0.01859007
 83040937, 0.001733456, 0.004600121, -0.0204557, 0.01874498
 83140897, 0.003630397, 0.008341532, -0.003892285, 0.01859007
 83240857, 0.005694464, 0.01420937, 0.0007083823, 0.01859565
 83340817, 0.004374524, 0.005478781, 0.04495057, 0.01859937
 83440777, -0.001347921, 0.00173342, 0.02892063, 0.01859937
 83540737, -0.003161606, -0.004259316, 0.02441976, 0.01859937
 83640697, -0.00101388, -0.003537997, 0.005504637, 0.01859937
 83740657, -0.001345469, 0.002532955, 0.04123545, 0.01859937
 83840617, 0.003533012, -0.0001815615, 0.02647877, 0.01859937
 83940577, 0.01012743, -0.0005710499, -0.01117212, 0.01859937
 84040537, 0.01070612, 0.003821271, -0.04254261, 0.01859937
 84140497, 0.01203896, 0.003486614, -0.04047432, 0.01859937
 84240457, 0.001113069, 0.000722673, -0.0495607, 0.01859379
 84340417, -0.004749498, -0.0009930826, -0.004906684, 0.01859007
 84440377, -0.009519959, -0.00681257, 0.003900264, 0.01859007
 84540337, -0.00154734, 0.002206376, -0.009359267, 0.01859007
 84640297, -0.004688313, 0.005023695, 0.001525116, 0.01859007
 84740257, -0.005889217, 0.002333525, 0.008809055, 0.01859007
 84840217, -0.006251716, -0.001689777, 0.0293166, 0.01859007
 84940177, -0.004352279, 0.007140052, 0.03464268, 0.01859007
 85040970, -0.002554314, 0.01266807, -0.003120948, 0.01859007
 85140930, -0.006888214, 0.01269107, -0.05257687, 0.01874498
 85240890, -0.001699397, 0.002580598, -0.03486071, 0.01859007
 85340850, 0.001258379, -0.002770912, -0.02942633, 0.01859007
 85440810, 0.007483301, -0.005559936, 0.006046793, 0.01859007
 85540770, 0.00521374, 0.0009083317, 0.02980249, 0.01859007
 85640730, 0.007880353, 0.01283338, 0.04188051, 0.01859007
 85740690, 0.005577397, 0.01430195, 0.04321051, 0.01859007
 85840650, 0.01076713, 0.01397275, 0.05258986, 0.01859007
 85940610, 0.004615008, 0.008162893, -0.01373963, 0.01859007
 86040570, -0.0008443728, 0.01074997, -0.02423679, 0.01859007
 86140530, -0.0005210341, 0.007880218, -0.02500973, 0.01859007
 86240490, 0.002449268, -0.001964544, -0.02732008, 0.01859007
 86340450, -0.002507837, 0.001702869, -0.03199659, 0.01859007
 86440410, -0.00156564, -0.002412392, -0.01137294, 0.01859007
 86540370, 0.006910516, 0.002915295, 0.002539954, 0.01859007
 86640330, 0.002647612, 0.002569994, 0.006031923, 0.01859007
 86740290, 0.003071772, 0.005462349, 0.03131495, 0.01859007
 86840250, 0.005968994, 0.002731116, 0.02452441, 0.01859007
 86940210, 0.002905173, 0.001357609, 0.01681191, 0.01859007
 87040170, -0.005203553, 0.00224215, -0.001545297, 0.01859007
 87140963, -0.003415891, 0.004126194, 0.005897855, 0.01874498
 87240923, 0.0004564497, 0.006553815, -0.03935757, 0.01859007
 87340883, -0.0009412563, 0.008013496, -0.05661999, 0.01859007
 87440843, 0.0001716785, 0.002721574, -0.03842312, 0.01859007
 87540803, 0.005785814, -0.005077978, 0.01640689, 0.01859007
 87640763, 0.004033922, 0.001631427, 0.04340915, 0.01859007
 87740723, -0.004877974, 0.003137095, 0.03075986, 0.01859007
 87840683, -0.007614742, 0.001092142, -0.009084023, 0.01859007
 87940643, -0.003296378, 0.006295703, -0.02291435, 0.01859007
 88040603, -0.0006204429, 0.01013229, 0.02642557, 0.01859007
 88140563, 0.00541951, 0.009223532, 0.0144989, 0.01859007
 88240523, 0.00496662, -0.003591101, -0.03217695, 0.01859565
 88340483, -0.007690899, 0.006935788, -0.01902499, 0.01859937
 88440443, -0.005930219, 0.008545945, 0.002379962, 0.01859937
 88540403, -0.001516298, -0.003421912, -0.009942645, 0.01859937
 88640363, 0.001072301, 0.001766813, -0.02782298, 0.01859937
 88740323, 0.003304132, 0.00593522, -0.00494821, 0.01859937
 88840283, 0.002596288, -0.001923237, 0.001013751, 0.01859937
 88940243, 0.00298518, 0.002386646, 0.01563979, 0.01859937
 89040203, 0.001731921, 0.008995337, 0.03744211, 0.01859937
 89140163, 0.002079269, 0.003049102, 0.01209642, 0.01859937
 89240956, 0.007971048, -0.0008116161, 0.0222945, 0.0187487
 89340916, 0.00269013, 0.002333861, -0.01269155, 0.01859007
 89440876, 0.004303839, 0.002295697, -0.01465235, 0.01859007
 89540836, 0.001908984, -0.002402343, -0.01539702, 0.01859007
 89640796, -0.01110909, -0.004488647, 0.005472302, 0.01859007
 89740756, -0.005151447, 0.01000703, -0.008218471, 0.01859007
 89840716, -0.007731414, 0.008555174, -0.001448824, 0.01859007
 89940676, 0.002844449, 0.006443895, 0.009999355, 0.01859007
 90040636, -0.001660969, -0.002305878, -0.003755345, 0.01859007
 90140596, -0.007394623, -0.004414377, -0.01771274, 0.01859007
 90240556, -0.003874213, -0.005130569, -0.01327516, 0.01859007
 90340516, -0.008591038, -0.006521224, 0.0170223, 0.01859007
 90440476, -0.004699821, -0.0005049807, -0.003368603, 0.01859007
 90540436, 0.003396113, 0.001833971, -0.009718925, 0.01859007
 90640396, 0.004986311, 0.002354899, 0.03503077, 0.01859007
 90740356, 0.008179479, 0.002775019, -0.006552458, 0.01859007
 90840316, 0.001639214, 0.001905488, -0.02560745, 0.01859007
 90940276, -0.0004534087, 0.0008116966, 0.0008212817, 0.01859007
 91040236, -0.002680451, 2.127484E-05, 0.02654308, 0.01859007
 91140196, -0.003020973, -0.003443325, -0.01670394, 0.01859007
 91240156, 0.003796733, -0.002257012, 0.01113538, 0.01859007
 91340949, 0.006208281, -0.003901076, 0.01787157, 0.01874498
 91440909, 0.0001768841, -5.737552E-05, 0.000681347, 0.01859007
 91540869, -0.005697248, 0.009363246, -0.0530637, 0.01859007
 91640829, -0.006308339, 0.008369297, -0.009156644, 0.01859007
 91740789, -7.725204E-06, 0.004428228, -0.003369337, 0.01859007
 91840749, -0.004215412, 0.007860292, -0.01250855, 0.01859007
 91940709, 0.00195126, 0.00160831, -0.01544894, 0.01859007
 92040669, 0.001338085, 0.002667844, 0.002508743, 0.01859007
 92140629, 0.0002252524, 0.0002086558, 0.01441609, 0.01859007
 92240589, 0.001306561, -0.001202798, 0.03331025, 0.01859007
 92340549, 0.0006523317, 0.001012497, 0.02068739, 0.01859007
 92440509, 0.006509128, -0.007130561, -0.00179445, 0.01859007
 92540469, 0.001653324, -0.01273091, 0.01155738, 0.01859007
 92640429, 0.002521724, -0.005223278, -0.01072923, 0.01859007
 92740389, -0.003536471, 0.01301519, -0.02202937, 0.01859007
 92840349, -0.002132517, 0.01519967, -0.03930775, 0.01859007
 92940309, 0.0008597837, 0.004231079, 0.02025293, 0.01859007
 93040269, -0.000429677, -0.0003704568, 0.01250887, 0.01859007
 93140229, -0.00357044, 0.02018735, -0.00753578, 0.01859007
 93240189, -0.002627942, 0.02357265, -0.004021352, 0.01859565
 93340149, 0.001977239, 0.008234147, 0.02030344, 0.01859937
 93440942, -0.001272893, 0.001499396, 0.03628477, 0.01875436
 93540902, -0.006572506, -0.007523395, 0.006368359, 0.01859937
 93640862, -0.007496128, -0.00431647, -0.02813864, 0.01859937
 93740822, -0.007482094, 0.003353926, -0.0319357, 0.01859937
 93840782, -0.0007664034, 0.0003903842, -0.03172786, 0.01859937
 93940742, -0.001825338, -0.006948483, -0.007137198, 0.01859937
 94040702, 0.001208334, 0.006830613, 0.007333682, 0.01859937
 94140662, 0.001092196, 0.0005388196, -0.009239076, 0.01859937
 94240622, 0.001216437, -0.007692047, 0.02544153, 0.01859379
 94340582, 0.001423007, -0.01128988, 0.009183461, 0.01859007
 94440542, 0.002013667, -0.01017877, 0.05155032, 0.01859007
 94540502, 0.008426251, 0.004569951, 0.05318301, 0.01859007
 94640462, 0.007730609, 0.001687433, 0.05345739, 0.01859007
 94740422, 0.006125091, 0.00635963, -0.01879299, 0.01859007
 94840382, 0.001121383, 0.008538621, -0.03739026, 0.01859007
 94940342, 0.004028883, 0.002649075, -0.001055523, 0.01859007
 95040302, 0.0006332003, 0.00238875, -0.01649518, 0.01859007
 95140262, 0.0004701736, 0.01088042, -0.05125655, 0.01859007
 95240222, 0.0005549372, 0.004125909, -0.04725317, 0.01859007
 95340182, -0.001717147, -0.002646676, -0.02082109, 0.01859007
 95440975, 0.0008097548, -0.01064133, -0.02752506, 0.01859007
 95540935, -0.001454361, -0.01118143, -0.02939585, 0.01874498
 95640895, -0.003296379, -0.008938991, -0.02206558, 0.01859007
 95740855, -0.001034274, 0.006078353, 0.008841238, 0.01859007
 95840815, -0.007052369, 0.01488914, 0.06463461, 0.01859007
 95940775, -0.007222407, 0.004892922, 0.02115935, 0.01859007
 96040735, -0.007833331, 0.0004635468, 0.01559299, 0.01859007
 96140695, -0.009079104, 0.0009958571, -0.0003875612, 0.01859007
 96240655, -0.008475181, -0.0001205234, 0.0001246908, 0.01859007
 96340615, -0.003419351, -0.00309867, -0.02846604, 0.01859007
 96440575, -0.00518212, 0.006872813, -0.03485614, 0.01859007
 96540535, -0.0003015814, 0.005692178, -0.0301449, 0.01859007
 96640495, -0.004098881, 0.004154914, -0.01590092, 0.01859007
 96740455, -0.002874195, 0.01230926, 0.04717942, 0.01859007
 96840415, -0.009347301, 0.01380513, 0.02023937, 0.01859007
 96940375, -0.009397172, 0.01864544, 0.005958471, 0.01859007
 97040335, 0.0002597967, 0.01159109, 0.009394263, 0.01859007
 97140295, -0.002504004, 0.004224098, 0.02241653, 0.01859007
 97240255, 0.003062415, 0.003166784, 0.04265589, 0.01859007
 97340215, 0.0008136223, -0.002390355, -0.007744132, 0.01859007
 97440175, 0.005544642, -0.01292384, -0.0164428, 0.01859007
 97540968, -0.004994334, -0.009950634, -0.00527834, 0.01874498
 97640928, -0.001193673, -0.01710096, 0.01079352, 0.01859007
 97740888, -0.00121533, -0.00502721, 0.0008848275, 0.01859007
 97840848, 0.001519032, 0.000639233, 0.004385872, 0.01859007
 97940808, 0.005290566, 0.002711921, -0.004952433, 0.01859007
 98040768, 0.00307226, 0.00703279, -0.001363495, 0.01859007
 98140728, 0.003354077, 0.01223896, 0.01749479, 0.01859007
 98240688, 0.001443025, 0.003489877, 0.002717952, 0.01859565
 98340648, -0.003469708, -0.003471091, -0.05045488, 0.01859937
 98440608, -0.004938568, -0.006959329, -0.05058245, 0.01859937
 98540568, -0.01091596, 0.001722714, -0.04080619, 0.01859937
 98640528, -0.009910151, 0.006928844, 0.003055008, 0.01859937
 98740488, -0.006829632, 0.01251954, -0.001355973, 0.01859937
 98840448, -0.006550383, 0.008762736, 0.01471605, 0.01859937
 98940408, -0.001687966, 0.009198296, 0.03695057, 0.01859937
 99040368, -0.001008415, 0.004230005, -0.007571614, 0.01859937
 99140328, 0.0026692, 0.001374608, -0.03699848, 0.01859937
 99240288, -0.0007573458, -0.001635706, -0.01270069, 0.01859379
 99340248, -0.001325507, 0.002279605, -0.002590602, 0.01859007
 99440208, 0.005563121, 0.005790455, 0.03546747, 0.01859007
 99540168, 0.005402856, 0.003748279, 0.01871283, 0.01859007
 99640961, 0.0009748011, 0.003059439, -0.02986604, 0.01874498
 99740921, -0.00183358, 0.01170414, 0.008780542, 0.01859007
 99840881, 0.001404634, 0.006565168, 0.02162782, 0.01859007
 99940841, 0.002574355, 0.003057382, 0.01923654, 0.01859007
 100040801, 0.0034518, 0.005333306, 0.003655725, 0.01859007
 100140761, 0.0009244492, 0.003684099, 0.00546845, 0.01859007
 100240721, -0.0006444498, -0.0008478154, 0.005523121, 0.01859007
 100340681, 0.002242878, -0.002977422, -0.01140934, 0.01859007
 100440641, -0.0001733235, 0.008525955, -0.01164776, 0.01859007
 100540601, -0.001190063, 0.001770127, -0.05293456, 0.01859007
 100640561, -0.0006608053, -0.005633297, -0.04630037, 0.01859007
 100740521, -0.002670386, -0.01434153, -0.02431382, 0.01859007
