TimeUS,COFN,COFE,CNe,CEe,POFN,POFE,PNe,PEe
 8040949, 0.03954163, 0.0236364, 0.09728408, 0.04849193, 0, 0, 0, 0
 8220877, -0.006434309, 0.006648168, 0.09739286, 0.04819769, 0.03954163, 0.0236364, 0.09728408, 0.04849193
 8420797, 0.03769812, 0.002086445, 0.09741965, 0.04819313, -0.006434309, 0.006648168, 0.09739286, 0.04819769
 8620717, 0.03032751, -0.0006435309, 0.09741046, 0.04819303, 0.03769812, 0.002086445, 0.09741965, 0.04819313
 8820637, 0.04969921, -0.0160656, 0.09745217, 0.04817558, 0.03032751, -0.0006435309, 0.09741046, 0.04819303
 9020557, 0.0002767295, -0.04030844, 0.09740798, 0.0482241, 0.04969921, -0.0160656, 0.09745217, 0.04817558
 9220477, -0.04996216, 0.002063199, 0.09744712, 0.04817738, 0.0002767295, -0.04030844, 0.09740798, 0.0482241
 9420397, 0.02350826, -0.03506364, 0.0974265, 0.04819249, -0.04996216, 0.002063199, 0.09744712, 0.04817738
 9620317, -0.01804456, -0.01122489, 0.09740388, 0.04818894, 0.02350826, -0.03506364, 0.0974265, 0.04819249
 9820237, -0.03103259, 0.006042566, 0.09741983, 0.04817702, -0.01804456, -0.01122489, 0.09740388, 0.04818894
 10020157, 0.01777956, 0.06497129, 0.09743181, 0.04828366, -0.03103259, 0.006042566, 0.09741983, 0.04817702
 10220910, -0.0267322, 0.02415234, 0.09742301, 0.04818163, 0.01777956, 0.06497129, 0.09743181, 0.04828366
 10420830, 0.03656962, -0.02771936, 0.09744124, 0.04817467, -0.0267322, 0.02415234, 0.09742301, 0.04818163
 10620750, 0.05959442, 0.02351568, 0.09746403, 0.04820256, 0.03656962, -0.02771936, 0.09744124, 0.04817467
 10820670, -0.003861173, 0.03989255, 0.09741469, 0.04820988, 0.05959442, 0.02351568, 0.09746403, 0.04820256
 11020590, 0.01114811, 0.01257255, 0.09740099, 0.04818856, -0.003861173, 0.03989255, 0.09741469, 0.04820988
 11220510, 0.03217082, -0.07623551, 0.09749176, 0.04824796, 0.01114811, 0.01257255, 0.09740099, 0.04818856
 11420430, -0.002797179, 0.01322106, 0.09739814, 0.04819062, 0.03217082, -0.07623551, 0.09749176, 0.04824796
 11620350, -0.03851396, 0.04449806, 0.09745897, 0.04818908, -0.002797179, 0.01322106, 0.09739814, 0.04819062
 11820270, -0.03930953, -0.02946215, 0.09742501, 0.04821885, -0.03851396, 0.04449806, 0.09745897, 0.04818908
 12020190, -0.01991663, -0.01628918, 0.09740353, 0.04819747, -0.03930953, -0.02946215, 0.09742501, 0.04821885
 12220943, 0.007900821, 0.01969255, 0.0974, 0.04819675, -0.01991663, -0.01628918, 0.09740353, 0.04819747
 12420863, 0.03449216, -0.02979753, 0.09743845, 0.04817925, 0.007900821, 0.01969255, 0.0974, 0.04819675
 12620783, 0.04327349, 0.008703567, 0.09743249, 0.04818652, 0.03449216, -0.02979753, 0.09743845, 0.04817925
 12820703, -0.01808055, 0.04089917, 0.09742423, 0.04820511, 0.04327349, 0.008703567, 0.09743249, 0.04818652
 13020623, -0.0201923, 0.01024337, 0.09740607, 0.04818679, -0.01808055, 0.04089917, 0.09742423, 0.04820511
 13220543, -0.06667311, -0.01891348, 0.09747709, 0.048202, -0.0201923, 0.01024337, 0.09740607, 0.04818679
 13420463, 0.005993212, -0.05749573, 0.09742686, 0.04824945, -0.06667311, -0.01891348, 0.09747709, 0.048202
 13620383, 0.004543804, 0.06800494, 0.09743299, 0.04828528, 0.005993212, -0.05749573, 0.09742686, 0.04824945
 13820303, -0.01238269, -0.01974778, 0.09739953, 0.04820114, 0.004543804, 0.06800494, 0.09743299, 0.04828528
 14020223, -0.04920838, -0.05188633, 0.09744646, 0.04827539, -0.01238269, -0.01974778, 0.09739953, 0.04820114
 14220976, -0.04595136, 0.06072786, 0.09749585, 0.04820096, -0.04920838, -0.05188633, 0.09744646, 0.04827539
 14420896, -0.009280308, -0.0102666, 0.09739707, 0.04819311, -0.04595136, 0.06072786, 0.09749585, 0.04820096
 14620816, -0.04498403, 0.002284789, 0.09743854, 0.04817729, -0.009280308, -0.0102666, 0.09739707, 0.04819311
 14820736, -0.04809083, 0.02687044, 0.09746343, 0.04816416, -0.04498403, 0.002284789, 0.09743854, 0.04817729
 15020656, -0.04761813, -0.05107975, 0.09744783, 0.04826388, -0.04809083, 0.02687044, 0.09746343, 0.04816416
 15220576, 0.03961936, -0.08042234, 0.0975175, 0.04823998, -0.04761813, -0.05107975, 0.09744783, 0.04826388
 15420496, 0.07805178, 0.04806111, 0.09751149, 0.0482656, 0.03961936, -0.08042234, 0.0975175, 0.04823998
 15620416, -0.01876058, -0.0004119142, 0.09740654, 0.04817991, 0.07805178, 0.04806111, 0.09751149, 0.0482656
 15820336, -0.06254432, 0.007034698, 0.09748389, 0.0481571, -0.01876058, -0.0004119142, 0.09740654, 0.04817991
 16020256, -0.03295692, 0.07464485, 0.09749265, 0.0482392, -0.06254432, 0.007034698, 0.09748389, 0.0481571
 16220176, -0.01683199, -0.04923777, 0.09741888, 0.04824213, -0.03295692, 0.07464485, 0.09749265, 0.0482392
 16420929, 0.01572842, -0.06296074, 0.09744756, 0.04823982, -0.01683199, -0.04923777, 0.09741888, 0.04824213
 16620849, -0.06213895, -0.04101275, 0.09746952, 0.04824467, 0.01572842, -0.06296074, 0.09744756, 0.04823982
 16820769, -0.03205011, 0.08599329, 0.09750848, 0.04827242, -0.06213895, -0.04101275, 0.09746952, 0.04824467
 17020689, 0.04310196, -0.04239391, 0.09746617, 0.04818162, -0.03205011, 0.08599329, 0.09750848, 0.04827242
 17220609, -0.02354437, 0.00757248, 0.09740946, 0.04818361, 0.04310196, -0.04239391, 0.09746617, 0.04818162
 17420529, -0.02453115, 0.0691555, 0.09746635, 0.04824522, -0.02354437, 0.00757248, 0.09740946, 0.04818361
 17620449, -0.02851463, -0.03789748, 0.09741732, 0.04822831, -0.02453115, 0.0691555, 0.09746635, 0.04824522
 17820369, -0.00988478, -0.005002364, 0.09740003, 0.04818454, -0.02851463, -0.03789748, 0.09741732, 0.04822831
 18020289, 0.05779425, -0.01565975, 0.09747676, 0.0481576, -0.00988478, -0.005002364, 0.09740003, 0.04818454
 18220209, -0.02709725, 0.04502113, 0.09744152, 0.04819838, 0.05779425, -0.01565975, 0.09747676, 0.0481576
 18420962, -0.04642937, 0.02552343, 0.09745778, 0.0481672, -0.02709725, 0.04502113, 0.09744152, 0.04819838
 18620882, -0.07096912, -0.04555231, 0.09749091, 0.04825947, -0.04642937, 0.02552343, 0.09745778, 0.0481672
 18820802, 0.07312668, 0.04157455, 0.09749679, 0.04824628, -0.07096912, -0.04555231, 0.09749091, 0.04825947
 19020722, 0.05983586, 0.04948383, 0.09746841, 0.04826489, 0.07312668, 0.04157455, 0.09749679, 0.04824628
 19220642, -0.03542604, 0.04883249, 0.09746152, 0.04819045, 0.05983586, 0.04948383, 0.09746841, 0.04826489
 19420562, 0.009012252, 0.010228, 0.09740084, 0.04818524, -0.03542604, 0.04883249, 0.09746152, 0.04819045
 19620482, 0.03017326, -0.07640847, 0.09749019, 0.04824753, 0.009012252, 0.010228, 0.09740084, 0.04818524
 19820402, 0.07569607, 0.02550153, 0.09724505, 0.04872628, 0.03017326, -0.07640847, 0.09749019, 0.04824753
 20020322, -0.01593432, 0.03229795, 0.09668716, 0.04964175, 0.07569607, 0.02550153, 0.09724505, 0.04872628
 20220242, -0.001406833, -0.03037655, 0.09599584, 0.05095274, -0.01593432, 0.03229795, 0.09668716, 0.04964175
 20420162, -0.03650794, -0.04958958, 0.09520499, 0.05251306, -0.001406833, -0.03037655, 0.09599584, 0.05095274
 20620915, 0.04674514, 0.01904918, 0.09433618, 0.05401722, -0.03650794, -0.04958958, 0.09520499, 0.05251306
 20820835, 0.05650081, 0.05934066, 0.09347208, 0.05563279, 0.04674514, 0.01904918, 0.09433618, 0.05401722
 21020755, -0.004833601, 0.0377697, 0.09255773, 0.05697651, 0.05650081, 0.05934066, 0.09347208, 0.05563279
 21220675, 0.3591343, -0.03997499, 0.09460932, 0.05764691, -0.004833601, 0.0377697, 0.09255773, 0.05697651
 21420595, 1.026523, -0.1974561, 0.1126688, 0.05490299, 0.3591343, -0.03997499, 0.09460932, 0.05764691
 21620515, 2.215213, -0.3884221, 0.1666728, 0.04554542, 1.026523, -0.1974561, 0.1126688, 0.05490299
 21820435, 3.775101, -0.726948, 0.2519342, 0.03157855, 2.215213, -0.3884221, 0.1666728, 0.04554542
 22020355, 5.758824, -1.018184, 0.3648663, 0.01504398, 3.775101, -0.726948, 0.2519342, 0.03157855
 22220275, 7.898091, -1.260674, 0.4881562, 0.0003573969, 5.758824, -1.018184, 0.3648663, 0.01504398
 22420195, 9.742057, -1.395105, 0.5942119, -0.007338129, 7.898091, -1.260674, 0.4881562, 0.0003573969
 22620948, 11.45994, -1.489652, 0.6919648, -0.009790882, 9.742057, -1.395105, 0.5942119, -0.007338129
 22820868, 13.16237, -1.542935, 0.7846156, -0.007576995, 11.45994, -1.489652, 0.6919648, -0.009790882
 23020788, 14.39919, -1.432422, 0.850217, -0.002107836, 13.16237, -1.542935, 0.7846156, -0.007576995
 23220708, 16.7884, -1.491768, 0.9579434, 0.005793661, 14.39919, -1.432422, 0.850217, -0.002107836
 23420628, 18.40935, -1.469318, 0.9969631, 0.0303162, 16.7884, -1.491768, 0.9579434, 0.005793661
 23620548, 19.82796, -1.295358, 1.031372, 0.06538165, 18.40935, -1.469318, 0.9969631, 0.0303162
 23820468, 20.99364, -1.445391, 1.069848, 0.1033364, 19.82796, -1.295358, 1.031372, 0.06538165
 24020388, 22.62195, -1.604759, 1.134436, 0.1390131, 20.99364, -1.445391, 1.069848, 0.1033364
 24220308, 23.92482, -1.44267, 1.186617, 0.1807429, 22.62195, -1.604759, 1.134436, 0.1390131
 24420228, 24.93596, -1.648498, 1.232763, 0.2219825, 23.92482, -1.44267, 1.186617, 0.1807429
 24620148, 26.41879, -2.19109, 1.303599, 0.278856, 24.93596, -1.648498, 1.232763, 0.2219825
 24820901, 26.90556, -1.472141, 1.339109, 0.3343292, 26.41879, -2.19109, 1.303599, 0.278856
 25020821, 26.91197, -2.269916, 1.367175, 0.3887799, 26.90556, -1.472141, 1.339109, 0.3343292
 25220741, 27.40298, -1.982582, 1.41451, 0.4463771, 26.91197, -2.269916, 1.367175, 0.3887799
 25420661, 26.7616, -2.144053, 1.420214, 0.5131483, 27.40298, -1.982582, 1.41451, 0.4463771
 25620581, 26.77164, -1.683743, 1.457461, 0.5724066, 26.7616, -2.144053, 1.420214, 0.5131483
 25820501, 26.99275, -1.985077, 1.508832, 0.628701, 26.77164, -1.683743, 1.457461, 0.5724066
 26020421, 27.37519, -1.696352, 1.56588, 0.6866903, 26.99275, -1.985077, 1.508832, 0.628701
 26220341, 26.54515, -2.606648, 1.580374, 0.7454097, 27.37519, -1.696352, 1.56588, 0.6866903
 26420261, 27.43558, -2.035725, 1.654968, 0.7962127, 26.54515, -2.606648, 1.580374, 0.7454097
 26620181, 27.21248, -1.914726, 1.689315, 0.8524349, 27.43558, -2.035725, 1.654968, 0.7962127
 26820934, 25.53321, -2.239373, 1.674639, 0.9085156, 27.21248, -1.914726, 1.689315, 0.8524349
 27020854, 25.89013, -2.849826, 1.735779, 0.9536836, 25.53321, -2.239373, 1.674639, 0.9085156
 27220774, 24.36366, -2.137637, 1.727747, 0.9994041, 25.89013, -2.849826, 1.735779, 0.9536836
 27420694, 23.81644, -0.9970981, 1.75209, 1.038555, 24.36366, -2.137637, 1.727747, 0.9994041
 27620614, 22.59122, -2.837767, 1.763354, 1.071336, 23.81644, -0.9970981, 1.75209, 1.038555
 27820534, 22.72747, -1.307329, 1.808351, 1.098915, 22.59122, -2.837767, 1.763354, 1.071336
 28020454, 23.60092, -2.077108, 1.884058, 1.117137, 22.72747, -1.307329, 1.808351, 1.098915
 28220374, 21.9866, -1.261783, 1.877598, 1.144624, 23.60092, -2.077108, 1.884058, 1.117137
 28420294, 20.34683, -3.53735, 1.883758, 1.168003, 21.9866, -1.261783, 1.877598, 1.144624
 28620214, 21.81054, -2.219236, 1.966417, 1.181977, 20.34683, -3.53735, 1.883758, 1.168003
 28820967, 22.33103, -2.960695, 2.028982, 1.197115, 21.81054, -2.219236, 1.966417, 1.181977
 29020887, 21.66323, -3.144623, 2.055717, 1.217155, 22.33103, -2.960695, 2.028982, 1.197115
 29220807, 19.51752, -1.963106, 2.036614, 1.245291, 21.66323, -3.144623, 2.055717, 1.217155
 29420727, 21.54222, -4.327785, 2.141229, 1.255716, 19.51752, -1.963106, 2.036614, 1.245291
 29620647, 19.96492, -4.511696, 2.139509, 1.283775, 21.54222, -4.327785, 2.141229, 1.255716
 29820567, 19.17753, -4.636261, 2.156404, 1.312279, 19.96492, -4.511696, 2.139509, 1.283775
 30020487, 19.5141, -3.808368, 2.197561, 1.33138, 19.17753, -4.636261, 2.156404, 1.312279
 30220407, 18.91948, -4.616279, 2.220837, 1.35576, 19.5141, -3.808368, 2.197561, 1.33138
 30420327, 20.36959, -3.633339, 2.286567, 1.371456, 18.91948, -4.616279, 2.220837, 1.35576
 30620247, 20.16685, -3.00451, 2.309715, 1.39778, 20.36959, -3.633339, 2.286567, 1.371456
 30820167, 17.8359, -3.345897, 2.288263, 1.428473, 20.16685, -3.00451, 2.309715, 1.39778
 31020920, 18.7419, -2.082726, 2.331784, 1.446548, 17.8359, -3.345897, 2.288263, 1.428473
 31220840, 19.27524, -2.703609, 2.37042, 1.46417, 18.7419, -2.082726, 2.331784, 1.446548
 31420760, 17.80949, -2.070997, 2.3603, 1.488635, 19.27524, -2.703609, 2.37042, 1.46417
 31620680, 19.23172, -2.669044, 2.418187, 1.499073, 17.80949, -2.070997, 2.3603, 1.488635
 31820600, 19.0896, -4.708431, 2.446971, 1.515513, 19.23172, -2.669044, 2.418187, 1.499073
 32020520, 18.70058, -4.393347, 2.459945, 1.53153, 19.0896, -4.708431, 2.446971, 1.515513
 32220440, 16.88112, -4.177712, 2.442985, 1.555323, 18.70058, -4.393347, 2.459945, 1.53153
 32420360, 15.33988, -2.928964, 2.432111, 1.574242, 16.88112, -4.177712, 2.442985, 1.555323
 32620280, 16.30417, -2.406268, 2.468534, 1.585827, 15.33988, -2.928964, 2.432111, 1.574242
 32820200, 17.76873, -1.355106, 2.51251, 1.597565, 16.30417, -2.406268, 2.468534, 1.585827
 33020953, 14.83003, -2.061762, 2.481296, 1.617286, 17.76873, -1.355106, 2.51251, 1.597565
 33220873, 18.06572, -3.385275, 2.564535, 1.615209, 14.83003, -2.061762, 2.481296, 1.617286
 33420793, 16.97446, -4.72871, 2.567944, 1.629541, 18.06572, -3.385275, 2.564535, 1.615209
 33620713, 17.75136, -4.441736, 2.599733, 1.636748, 16.97446, -4.72871, 2.567944, 1.629541
 33820633, 16.8811, -4.884016, 2.601847, 1.651098, 17.75136, -4.441736, 2.599733, 1.636748
 34020553, 15.28435, -4.533377, 2.590048, 1.665481, 16.8811, -4.884016, 2.601847, 1.651098
 34220473, 16.01878, -4.051543, 2.616983, 1.671113, 15.28435, -4.533377, 2.590048, 1.665481
 34420393, 18.10965, -2.872574, 2.686377, 1.74075, 16.01878, -4.051543, 2.616983, 1.671113
 34620313, 16.31504, -2.326469, 3.026311, 1.890323, 18.10965, -2.872574, 2.686377, 1.74075
 34820233, 18.4044, -4.990826, 3.399296, 1.892002, 16.31504, -2.326469, 3.026311, 1.890323
 35020153, 16.60727, -4.175056, 2.972264, 1.856313, 18.4044, -4.990826, 3.399296, 1.892002
 35220906, 19.91876, -5.111278, 2.589821, 1.843628, 16.60727, -4.175056, 2.972264, 1.856313
 35420826, 18.96125, -3.211886, 2.402143, 1.846795, 19.91876, -5.111278, 2.589821, 1.843628
 35620746, 21.70219, -3.079691, 2.405796, 1.816519, 18.96125, -3.211886, 2.402143, 1.846795
 35820666, 21.6716, -0.8093738, 2.344537, 1.774823, 21.70219, -3.079691, 2.405796, 1.816519
 36020586, 21.15975, -2.550034, 2.239898, 1.729432, 21.6716, -0.8093738, 2.344537, 1.774823
 36220506, 21.98289, -2.35644, 2.155517, 1.679999, 21.15975, -2.550034, 2.239898, 1.729432
 36420426, 24.71412, -2.501314, 2.137598, 1.630365, 21.98289, -2.35644, 2.155517, 1.679999
 36620346, 24.53851, -2.359346, 2.065815, 1.576306, 24.71412, -2.501314, 2.137598, 1.630365
 36820266, 24.39915, -1.38271, 1.998094, 1.522496, 24.53851, -2.359346, 2.065815, 1.576306
 37020186, 24.59857, 0.7591143, 1.936829, 1.471441, 24.39915, -1.38271, 1.998094, 1.522496
 37220939, 25.08575, 0.6756887, 1.880656, 1.430382, 24.59857, 0.7591143, 1.936829, 1.471441
 37420859, 26.11659, -0.09675941, 1.852532, 1.396623, 25.08575, 0.6756887, 1.880656, 1.430382
 37620779, 26.28627, 0.8968211, 1.813777, 1.367787, 26.11659, -0.09675941, 1.852532, 1.396623
 37820699, 28.16332, 0.2663783, 1.843481, 1.352102, 26.28627, 0.8968211, 1.813777, 1.367787
 38020619, 26.59585, 2.094517, 1.758798, 1.337052, 28.16332, 0.2663783, 1.843481, 1.352102
 38220539, 28.95258, 1.757835, 1.820808, 1.331871, 26.59585, 2.094517, 1.758798, 1.337052
 38420459, 28.01434, 1.487351, 1.76354, 1.325428, 28.95258, 1.757835, 1.820808, 1.331871
 38620379, 28.08581, 0.8798971, 1.745663, 1.327236, 28.01434, 1.487351, 1.76354, 1.325428
 38820299, 29.00649, 1.491275, 1.766186, 1.334067, 28.08581, 0.8798971, 1.745663, 1.327236
 39020219, 28.46797, 2.662304, 1.738025, 1.338436, 29.00649, 1.491275, 1.766186, 1.334067
 39220972, 28.15501, 2.747235, 1.720364, 1.344631, 28.46797, 2.662304, 1.738025, 1.338436
 39420892, 28.82927, 3.137924, 1.741901, 1.361783, 28.15501, 2.747235, 1.720364, 1.344631
 39620812, 28.78462, 3.519238, 1.738312, 1.376799, 28.82927, 3.137924, 1.741901, 1.361783
 39820732, 29.01954, 2.62684, 1.74183, 1.394338, 28.78462, 3.519238, 1.738312, 1.376799
 40020652, 28.11814, 2.85543, 1.710864, 1.406951, 29.01954, 2.62684, 1.74183, 1.394338
 40220572, 28.7073, 3.129863, 1.734757, 1.429752, 28.11814, 2.85543, 1.710864, 1.406951
 40420492, 27.74385, 2.543106, 1.703796, 1.445756, 28.7073, 3.129863, 1.734757, 1.429752
 40620412, 28.58392, 2.759629, 1.741379, 1.473347, 27.74385, 2.543106, 1.703796, 1.445756
 40820332, 27.79035, 2.115305, 1.717834, 1.494261, 28.58392, 2.759629, 1.741379, 1.473347
 41020252, 28.28626, 2.590772, 1.746068, 1.521881, 27.79035, 2.115305, 1.717834, 1.494261
 41220172, 27.57071, 3.338794, 1.734296, 1.542029, 28.28626, 2.590772, 1.746068, 1.521881
 41420925, 29.38146, 2.874257, 1.808941, 1.573866, 27.57071, 3.338794, 1.734296, 1.542029
 41620845, 28.49788, 2.602237, 1.787723, 1.5938, 29.38146, 2.874257, 1.808941, 1.573866
 41820765, 29.70562, 2.829503, 1.840244, 1.626301, 28.49788, 2.602237, 1.787723, 1.5938
 42020685, 28.68985, 3.554607, 1.821037, 1.644231, 29.70562, 2.829503, 1.840244, 1.626301
 42220605, 27.81229, 3.261672, 1.802432, 1.665958, 28.68985, 3.554607, 1.821037, 1.644231
 42420525, 29.27455, 3.740777, 1.86985, 1.697611, 27.81229, 3.261672, 1.802432, 1.665958
 42620445, 29.20923, 4.384388, 1.884776, 1.721758, 29.27455, 3.740777, 1.86985, 1.697611
 42820365, 28.03391, 4.748281, 1.862392, 1.737729, 29.20923, 4.384388, 1.884776, 1.721758
 43020285, 27.27624, 4.055705, 1.845766, 1.754926, 28.03391, 4.748281, 1.862392, 1.737729
 43220205, 27.65476, 4.299495, 1.870378, 1.775518, 27.27624, 4.055705, 1.845766, 1.754926
 43420958, 27.70814, 2.993661, 1.880064, 1.790372, 27.65476, 4.299495, 1.870378, 1.775518
 43620878, 28.51594, 4.660992, 1.925136, 1.811141, 27.70814, 2.993661, 1.880064, 1.790372
 43820798, 29.2246, 2.346372, 1.953629, 1.832733, 28.51594, 4.660992, 1.925136, 1.811141
 44020718, 29.82918, 2.760983, 1.991322, 1.856839, 29.2246, 2.346372, 1.953629, 1.832733
 44220638, 27.16139, 2.812701, 1.920481, 1.867774, 29.82918, 2.760983, 1.991322, 1.856839
 44420558, 26.78977, 3.812672, 1.929818, 1.886482, 27.16139, 2.812701, 1.920481, 1.867774
 44620478, 27.12598, 4.419697, 1.952376, 1.912207, 26.78977, 3.812672, 1.929818, 1.886482
 44820398, 29.17464, 4.325378, 2.02871, 1.938421, 27.12598, 4.419697, 1.952376, 1.912207
 45020318, 27.3477, 2.831336, 1.979021, 1.944677, 29.17464, 4.325378, 2.02871, 1.938421
 45220238, 27.24974, 2.23485, 1.981956, 1.961079, 27.3477, 2.831336, 1.979021, 1.944677
 45420158, 26.38547, 4.247123, 1.974334, 1.971672, 27.24974, 2.23485, 1.981956, 1.961079
 45620911, 26.69085, 2.715419, 1.98727, 1.981735, 26.38547, 4.247123, 1.974334, 1.971672
 45820831, 29.13164, 3.070359, 2.069729, 2.003177, 26.69085, 2.715419, 1.98727, 1.981735
 46020751, 28.29952, 4.552286, 2.057892, 2.00947, 29.13164, 3.070359, 2.069729, 2.003177
 46220671, 27.60609, 3.831845, 2.040559, 2.014325, 28.29952, 4.552286, 2.057892, 2.00947
 46420591, 26.41081, 3.981503, 2.013812, 2.016862, 27.60609, 3.831845, 2.040559, 2.014325
 46620511, 28.11348, 2.549104, 2.066015, 2.028318, 26.41081, 3.981503, 2.013812, 2.016862
 46820431, 27.27011, 3.510592, 2.050975, 2.028964, 28.11348, 2.549104, 2.066015, 2.028318
 47020351, 27.39826, 1.587492, 2.054999, 2.033193, 27.27011, 3.510592, 2.050975, 2.028964
 47220271, 25.52989, 3.462001, 2.011644, 2.031036, 27.39826, 1.587492, 2.054999, 2.033193
 47420191, 27.64952, 3.25585, 2.078549, 2.043585, 25.52989, 3.462001, 2.011644, 2.031036
 47620944, 27.13737, 2.849355, 2.064436, 2.050525, 27.64952, 3.25585, 2.078549, 2.043585
 47820864, 27.26816, 2.283589, 2.073961, 2.052891, 27.13737, 2.849355, 2.064436, 2.050525
 48020784, 28.79696, 3.862643, 2.127295, 2.066889, 27.26816, 2.283589, 2.073961, 2.052891
 48220704, 26.03384, 1.194592, 2.040934, 2.065785, 28.79696, 3.862643, 2.127295, 2.066889
 48420624, 28.40464, 2.331551, 2.11986, 2.078238, 26.03384, 1.194592, 2.040934, 2.065785
 48620544, 25.84375, 3.06048, 2.050215, 2.078287, 28.40464, 2.331551, 2.11986, 2.078238
 48820464, 28.80415, 1.443271, 2.139993, 2.09195, 25.84375, 3.06048, 2.050215, 2.078287
 49020384, 28.4143, 4.260408, 2.14235, 2.098666, 28.80415, 1.443271, 2.139993, 2.09195
 49220304, 28.09767, 3.686017, 2.133861, 2.107423, 28.4143, 4.260408, 2.14235, 2.098666
 49420224, 27.20833, 2.331246, 2.111152, 2.111065, 28.09767, 3.686017, 2.133861, 2.107423
 49620977, 28.53571, 4.554077, 2.160898, 2.126654, 27.20833, 2.331246, 2.111152, 2.111065
 49820897, 26.4472, 2.822257, 2.101995, 2.125329, 28.53571, 4.554077, 2.160898, 2.126654
 50020817, 26.46786, 3.089922, 2.107347, 2.136194, 26.4472, 2.822257, 2.101995, 2.125329
 50220737, 26.50829, 3.838191, 2.118768, 2.145074, 26.46786, 3.089922, 2.107347, 2.136194
 50420657, 27.37112, 4.608459, 2.150733, 2.160547, 26.50829, 3.838191, 2.118768, 2.145074
 50620577, 27.32242, 3.776873, 2.151474, 2.170393, 27.37112, 4.608459, 2.150733, 2.160547
 50820497, 29.30248, 2.562703, 2.210552, 2.186535, 27.32242, 3.776873, 2.151474, 2.170393
 51020417, 26.68848, 4.04479, 2.14464, 2.181885, 29.30248, 2.562703, 2.210552, 2.186535
 51220337, 26.4508, 2.742949, 2.133177, 2.17892, 26.68848, 4.04479, 2.14464, 2.181885
 51420257, 27.32593, 1.67156, 2.151036, 2.185053, 26.4508, 2.742949, 2.133177, 2.17892
 51620177, 25.98117, 4.34855, 2.124035, 2.179667, 27.32593, 1.67156, 2.151036, 2.185053
 51820930, 27.33008, 1.160131, 2.152634, 2.181696, 25.98117, 4.34855, 2.124035, 2.179667
 52020850, 28.98843, 2.239852, 2.200553, 2.186291, 27.33008, 1.160131, 2.152634, 2.181696
 52220770, 27.87573, 4.590623, 2.175254, 2.183776, 28.98843, 2.239852, 2.200553, 2.186291
 52420690, 27.20003, 1.322012, 2.14457, 2.18149, 27.87573, 4.590623, 2.175254, 2.183776
 52620610, 27.90669, 1.889026, 2.166368, 2.183305, 27.20003, 1.322012, 2.14457, 2.18149
 52820530, 28.95695, 3.487677, 2.206317, 2.185353, 27.90669, 1.889026, 2.166368, 2.183305
 53020450, 26.75995, 3.279209, 2.139752, 2.182705, 28.95695, 3.487677, 2.206317, 2.185353
 53220370, 28.01552, 2.305624, 2.172572, 2.188885, 26.75995, 3.279209, 2.139752, 2.182705
 53420290, 27.21422, 2.135965, 2.150636, 2.187492, 28.01552, 2.305624, 2.172572, 2.188885
 53620210, 29.38423, 2.764242, 2.214605, 2.19897, 27.21422, 2.135965, 2.150636, 2.187492
 53820963, 28.43765, 1.408589, 2.182847, 2.201591, 29.38423, 2.764242, 2.214605, 2.19897
 54020883, 28.51794, 4.082431, 2.199243, 2.201499, 28.43765, 1.408589, 2.182847, 2.201591
 54220803, 27.5972, 4.58439, 2.176905, 2.203036, 28.51794, 4.082431, 2.199243, 2.201499
 54420723, 29.52178, 2.900437, 2.229365, 2.211793, 27.5972, 4.58439, 2.176905, 2.203036
 54620643, 26.50992, 4.039788, 2.144549, 2.206251, 29.52178, 2.900437, 2.229365, 2.211793
 54820563, 26.82914, 3.033668, 2.144949, 2.208724, 26.50992, 4.039788, 2.144549, 2.206251
 55020483, 28.01526, 2.297056, 2.177306, 2.206782, 26.82914, 3.033668, 2.144949, 2.208724
 55220403, 28.04727, 2.592665, 2.176922, 2.204786, 28.01526, 2.297056, 2.177306, 2.206782
 55420323, 27.30367, 3.290791, 2.155619, 2.201698, 28.04727, 2.592665, 2.176922, 2.204786
 55620243, 28.58689, 3.626471, 2.192664, 2.203511, 27.30367, 3.290791, 2.155619, 2.201698
 55820163, 27.14369, 1.494799, 2.137735, 2.2038, 28.58689, 3.626471, 2.192664, 2.203511
 56020916, 29.15315, 2.735993, 2.197765, 2.21109, 27.14369, 1.494799, 2.137735, 2.2038
 56220836, 27.73948, 1.796898, 2.154096, 2.202742, 29.15315, 2.735993, 2.197765, 2.21109
 56420756, 27.84275, 1.646459, 2.157183, 2.205357, 27.73948, 1.796898, 2.154096, 2.202742
 56620676, 27.04173, 4.512541, 2.142487, 2.205691, 27.84275, 1.646459, 2.157183, 2.205357
 56820596, 26.40182, 2.238742, 2.111849, 2.207248, 27.04173, 4.512541, 2.142487, 2.205691
 57020516, 26.85911, 2.897914, 2.125962, 2.209427, 26.40182, 2.238742, 2.111849, 2.207248
 57220436, 27.21249, 4.099257, 2.138852, 2.212318, 26.85911, 2.897914, 2.125962, 2.209427
 57420356, 28.72051, 3.061413, 2.175094, 2.220554, 27.21249, 4.099257, 2.138852, 2.212318
 57620276, 26.58924, 3.430975, 2.120238, 2.211217, 28.72051, 3.061413, 2.175094, 2.220554
 57820196, 28.63676, 5.045695, 2.182765, 2.224315, 26.58924, 3.430975, 2.120238, 2.211217
 58020949, 26.71866, 4.706533, 2.124498, 2.223638, 28.63676, 5.045695, 2.182765, 2.224315
 58220869, 27.39203, 3.087453, 2.141209, 2.23245, 26.71866, 4.706533, 2.124498, 2.223638
 58420789, 27.3828, 2.651464, 2.145812, 2.244242, 27.39203, 3.087453, 2.141209, 2.23245
 58620709, 28.55204, 2.265777, 2.18291, 2.261773, 27.3828, 2.651464, 2.145812, 2.244242
 58820629, 26.9589, 3.369693, 2.150304, 2.266247, 28.55204, 2.265777, 2.18291, 2.261773
 59020549, 28.06729, 4.019132, 2.184414, 2.290311, 26.9589, 3.369693, 2.150304, 2.266247
 59220469, 29.60417, 5.434385, 2.237857, 2.314592, 28.06729, 4.019132, 2.184414, 2.290311
 59420389, 28.79012, 3.82755, 2.214739, 2.323132, 29.60417, 5.434385, 2.237857, 2.314592
 59620309, 29.05073, 3.865275, 2.227144, 2.337663, 28.79012, 3.82755, 2.214739, 2.323132
 59820229, 29.55791, 4.070796, 2.244802, 2.356018, 29.05073, 3.865275, 2.227144, 2.337663
 60020149, 27.55082, 5.497667, 2.196, 2.368249, 29.55791, 4.070796, 2.244802, 2.356018
 60220902, 29.04235, 2.722227, 2.232368, 2.386054, 27.55082, 5.497667, 2.196, 2.368249
 60420822, 28.27004, 2.267075, 2.198735, 2.418074, 29.04235, 2.722227, 2.232368, 2.386054
 60620742, 29.54686, 3.119813, 2.228523, 2.488603, 28.27004, 2.267075, 2.198735, 2.418074
 60820662, 27.67496, 3.825695, 2.244798, 2.398368, 29.54686, 3.119813, 2.228523, 2.488603
 61020582, 30.4138, 3.813758, 2.339759, 2.477477, 27.67496, 3.825695, 2.244798, 2.398368
 61220502, 30.69489, 2.621204, 2.353806, 2.640723, 30.4138, 3.813758, 2.339759, 2.477477
 61420422, 26.2949, 5.829772, 2.280872, 2.616517, 30.69489, 2.621204, 2.353806, 2.640723
 61620342, 29.76323, 4.60557, 2.388407, 2.526027, 26.2949, 5.829772, 2.280872, 2.616517
 61820262, 28.45697, 2.250027, 2.389183, 2.445866, 29.76323, 4.60557, 2.388407, 2.526027
 62020182, 27.68021, 3.19281, 2.410257, 2.409175, 28.45697, 2.250027, 2.389183, 2.445866
 62220935, 27.84758, 3.237763, 2.449731, 2.392373, 27.68021, 3.19281, 2.410257, 2.409175
 62420855, 29.66516, 2.199576, 2.529169, 2.381585, 27.84758, 3.237763, 2.449731, 2.392373
 62620775, 30.2668, 2.234654, 2.580394, 2.362397, 29.66516, 2.199576, 2.529169, 2.381585
 62820695, 27.69532, -0.02772462, 2.533758, 2.348234, 30.2668, 2.234654, 2.580394, 2.362397
 63020615, 29.82946, 0.1264638, 2.623945, 2.328558, 27.69532, -0.02772462, 2.533758, 2.348234
 63220535, 28.20893, 2.706709, 2.612426, 2.31035, 29.82946, 0.1264638, 2.623945, 2.328558
 63420455, 27.17387, -1.576077, 2.610678, 2.293611, 28.20893, 2.706709, 2.612426, 2.31035
 63620375, 28.17186, -0.02250127, 2.66189, 2.281541, 27.17387, -1.576077, 2.610678, 2.293611
 63820295, 26.77299, 1.546956, 2.651089, 2.272121, 28.17186, -0.02250127, 2.66189, 2.281541
 64020215, 30.54202, 1.890033, 2.776096, 2.262045, 26.77299, 1.546956, 2.651089, 2.272121
 64220968, 30.3334, 1.844054, 2.789716, 2.260885, 30.54202, 1.890033, 2.776096, 2.262045
 64420888, 26.95761, -1.880507, 2.726952, 2.250144, 30.3334, 1.844054, 2.789716, 2.260885
 64620808, 30.40974, -0.1656128, 2.835269, 2.241448, 26.95761, -1.880507, 2.726952, 2.250144
 64820728, 30.47953, -2.695969, 2.8566, 2.240305, 30.40974, -0.1656128, 2.835269, 2.241448
 65020648, 30.01954, -1.984093, 2.861102, 2.237673, 30.47953, -2.695969, 2.8566, 2.240305
 65220568, 29.78598, -1.353184, 2.867434, 2.23208, 30.01954, -1.984093, 2.861102, 2.237673
 65420488, 26.59491, -0.6924639, 2.796506, 2.229978, 29.78598, -1.353184, 2.867434, 2.23208
 65620408, 27.43167, 0.02925336, 2.823368, 2.226502, 26.59491, -0.6924639, 2.796506, 2.229978
 65820328, 27.25624, 1.065371, 2.825712, 2.224535, 27.43167, 0.02925336, 2.823368, 2.226502
 66020248, 29.54135, -2.544864, 2.892837, 2.216553, 27.25624, 1.065371, 2.825712, 2.224535
 66220168, 29.41669, -0.6476799, 2.894134, 2.214083, 29.54135, -2.544864, 2.892837, 2.216553
 66420921, 30.88068, -1.482783, 2.935043, 2.214008, 29.41669, -0.6476799, 2.894134, 2.214083
 66620841, 27.81349, -1.579736, 2.858121, 2.220103, 30.88068, -1.482783, 2.935043, 2.214008
 66820761, 28.72462, 0.7559289, 2.880448, 2.221487, 27.81349, -1.579736, 2.858121, 2.220103
 67020681, 30.87063, -3.632048, 2.947202, 2.218193, 28.72462, 0.7559289, 2.880448, 2.221487
 67220601, 28.92601, 0.4191811, 2.889752, 2.224222, 30.87063, -3.632048, 2.947202, 2.218193
 67420521, 27.28917, -2.515195, 2.852619, 2.229113, 28.92601, 0.4191811, 2.889752, 2.224222
 67620441, 27.50323, 0.7772492, 2.851539, 2.236737, 27.28917, -2.515195, 2.852619, 2.229113
 67820361, 27.43564, 0.4556788, 2.848567, 2.239125, 27.50323, 0.7772492, 2.851539, 2.236737
 68020281, 29.58674, 0.4873396, 2.903447, 2.240885, 27.43564, 0.4556788, 2.848567, 2.239125
 68220201, 30.28637, -2.723169, 2.926061, 2.242325, 29.58674, 0.4873396, 2.903447, 2.240885
 68420954, 30.58993, -0.8872188, 2.930398, 2.245279, 30.28637, -2.723169, 2.926061, 2.242325
 68620874, 27.9224, -0.05089569, 2.853681, 2.261298, 30.58993, -0.8872188, 2.930398, 2.245279
 68820794, 28.28799, -2.229601, 2.868388, 2.265676, 27.9224, -0.05089569, 2.853681, 2.261298
 69020714, 30.29401, -2.7328, 2.91748, 2.277385, 28.28799, -2.229601, 2.868388, 2.265676
 69220634, 27.17789, -1.091347, 2.835776, 2.289313, 30.29401, -2.7328, 2.91748, 2.277385
 69420554, 27.23494, -2.752518, 2.841154, 2.299012, 27.17789, -1.091347, 2.835776, 2.289313
 69620474, 28.01577, 0.5814965, 2.859116, 2.305405, 27.23494, -2.752518, 2.841154, 2.299012
 69820394, 28.80288, -1.77697, 2.873765, 2.311073, 28.01577, 0.5814965, 2.859116, 2.305405
 70020314, 28.27343, -1.641703, 2.851225, 2.315228, 28.80288, -1.77697, 2.873765, 2.311073
 70220234, 28.64931, -0.1120413, 2.851015, 2.308305, 28.27343, -1.641703, 2.851225, 2.315228
 70420154, 25.4582, -1.681051, 2.760029, 2.302454, 28.64931, -0.1120413, 2.851015, 2.308305
 70620907, 28.75229, -0.3754358, 2.81724, 2.289213, 25.4582, -1.681051, 2.760029, 2.302454
 70820827, 26.1545, -2.211249, 2.732262, 2.277113, 28.75229, -0.3754358, 2.81724, 2.289213
 71020747, 26.46434, -0.6265187, 2.709892, 2.257207, 26.1545, -2.211249, 2.732262, 2.277113
 71220667, 29.4414, -1.698292, 2.756521, 2.230519, 26.46434, -0.6265187, 2.709892, 2.257207
 71420587, 26.86447, -0.2209868, 2.662239, 2.205388, 29.4414, -1.698292, 2.756521, 2.230519
 71620507, 26.09897, -2.224238, 2.607642, 2.185535, 26.86447, -0.2209868, 2.662239, 2.205388
 71820427, 29.13134, 1.573098, 2.652618, 2.163028, 26.09897, -2.224238, 2.607642, 2.185535
 72020347, 25.65587, -1.626492, 2.538836, 2.142962, 29.13134, 1.573098, 2.652618, 2.163028
 72220267, 28.24549, -1.266569, 2.58528, 2.119894, 25.65587, -1.626492, 2.538836, 2.142962
 72420187, 26.43151, -1.334817, 2.515352, 2.107193, 28.24549, -1.266569, 2.58528, 2.119894
 72620940, 26.29591, 0.2144802, 2.490978, 2.093618, 26.43151, -1.334817, 2.515352, 2.107193
 72820860, 29.6095, -1.000563, 2.562476, 2.083263, 26.29591, 0.2144802, 2.490978, 2.093618
 73020780, 28.19529, -1.086543, 2.50604, 2.074655, 29.6095, -1.000563, 2.562476, 2.083263
 73220700, 27.25484, 1.838349, 2.467169, 2.068177, 28.19529, -1.086543, 2.50604, 2.074655
 73420620, 28.89155, 1.919014, 2.502967, 2.059062, 27.25484, 1.838349, 2.467169, 2.068177
 73620540, 28.82856, -0.06071801, 2.488794, 2.055047, 28.89155, 1.919014, 2.502967, 2.059062
 73820460, 30.17698, -1.707256, 2.523358, 2.050085, 28.82856, -0.06071801, 2.488794, 2.055047
 74020380, 27.41922, -0.5341941, 2.439741, 2.046407, 30.17698, -1.707256, 2.523358, 2.050085
 74220300, 28.45286, 0.7418544, 2.464898, 2.045433, 27.41922, -0.5341941, 2.439741, 2.046407
 74420220, 29.3923, 0.8340732, 2.488076, 2.045874, 28.45286, 0.7418544, 2.464898, 2.045433
 74620973, 27.15402, -1.63778, 2.424455, 2.04447, 29.3923, 0.8340732, 2.488076, 2.045874
 74820893, 30.40813, 0.5300139, 2.515301, 2.051862, 27.15402, -1.63778, 2.424455, 2.04447
 75020813, 29.86865, -1.027381, 2.50152, 2.055046, 30.40813, 0.5300139, 2.515301, 2.051862
 75220733, 28.27672, -1.41905, 2.457273, 2.057635, 29.86865, -1.027381, 2.50152, 2.055046
 75420653, 28.42647, 0.4311302, 2.462256, 2.061304, 28.27672, -1.41905, 2.457273, 2.057635
 75620573, 27.46166, 1.792513, 2.43852, 2.06811, 28.42647, 0.4311302, 2.462256, 2.061304
 75820493, 29.629, 0.4253784, 2.500726, 2.073462, 27.46166, 1.792513, 2.43852, 2.06811
 76020413, 27.28326, 0.5951231, 2.436833, 2.074731, 29.629, 0.4253784, 2.500726, 2.073462
 76220333, 29.44006, -1.194695, 2.499665, 2.078395, 27.28326, 0.5951231, 2.436833, 2.074731
 76420253, 28.79857, -1.24031, 2.480103, 2.086117, 29.44006, -1.194695, 2.499665, 2.078395
 76620173, 29.71682, 1.569391, 2.516157, 2.084921, 28.79857, -1.24031, 2.480103, 2.086117
 76820926, 29.17277, 1.66409, 2.502172, 2.090377, 29.71682, 1.569391, 2.516157, 2.084921
 77020846, 29.85238, -0.2238812, 2.524707, 2.088902, 29.17277, 1.66409, 2.502172, 2.090377
 77220766, 27.86648, 1.599334, 2.465325, 2.092355, 29.85238, -0.2238812, 2.524707, 2.088902
 77420686, 28.11124, 0.5084507, 2.46669, 2.086689, 27.86648, 1.599334, 2.465325, 2.092355
 77620606, 28.6155, 1.599413, 2.474024, 2.076374, 28.11124, 0.5084507, 2.46669, 2.086689
 77820526, 26.28333, 1.616522, 2.399744, 2.062823, 28.6155, 1.599413, 2.474024, 2.076374
 78020446, 26.87806, -1.594337, 2.399483, 2.046843, 26.28333, 1.616522, 2.399744, 2.062823
 78220366, 28.098, 2.078788, 2.417017, 2.027497, 26.87806, -1.594337, 2.399483, 2.046843
 78420286, 28.76157, -0.5326759, 2.415657, 2.005586, 28.098, 2.078788, 2.417017, 2.027497
 78620206, 26.66468, -1.341291, 2.336853, 1.98005, 28.76157, -0.5326759, 2.415657, 2.005586
 78820959, 27.88674, -0.802756, 2.349827, 1.948336, 26.66468, -1.341291, 2.336853, 1.98005
 79020879, 28.73571, 1.998098, 2.3532, 1.922316, 27.88674, -0.802756, 2.349827, 1.948336
 79220799, 27.88412, 1.761419, 2.309059, 1.894685, 28.73571, 1.998098, 2.3532, 1.922316
 79420719, 26.50439, -1.156965, 2.245523, 1.866053, 27.88412, 1.761419, 2.309059, 1.894685
 79620639, 29.63971, 1.890004, 2.319531, 1.838048, 26.50439, -1.156965, 2.245523, 1.866053
 79820559, 27.23241, -0.3583854, 2.225753, 1.808244, 29.63971, 1.890004, 2.319531, 1.838048
 80020479, 27.70206, -1.240675, 2.220375, 1.783983, 27.23241, -0.3583854, 2.225753, 1.808244
 80220399, 29.54172, 0.4503762, 2.264849, 1.752974, 27.70206, -1.240675, 2.220375, 1.783983
 80420319, 29.86787, 0.9265681, 2.260671, 1.728959, 29.54172, 0.4503762, 2.264849, 1.752974
 80620239, 28.20387, 1.252328, 2.192362, 1.709971, 29.86787, 0.9265681, 2.260671, 1.728959
 80820159, 27.94339, 0.6130356, 2.172315, 1.689946, 28.20387, 1.252328, 2.192362, 1.709971
 81020912, 29.8613, -0.5091043, 2.225532, 1.671786, 27.94339, 0.6130356, 2.172315, 1.689946
 81220832, 28.53865, 0.7100662, 2.17331, 1.654366, 29.8613, -0.5091043, 2.225532, 1.671786
 81420752, 29.26817, 0.3149587, 2.189534, 1.639443, 28.53865, 0.7100662, 2.17331, 1.654366
 81620672, 28.12336, 0.2149838, 2.147331, 1.623388, 29.26817, 0.3149587, 2.189534, 1.639443
 81820592, 29.69799, -0.8548758, 2.192648, 1.616432, 28.12336, 0.2149838, 2.147331, 1.623388
 82020512, 28.93259, -0.08660215, 2.164945, 1.604746, 29.69799, -0.8548758, 2.192648, 1.616432
 82220432, 29.8856, -0.3179775, 2.193785, 1.593979, 28.93259, -0.08660215, 2.164945, 1.604746
 82420352, 29.00614, -1.412815, 2.159943, 1.58636, 29.8856, -0.3179775, 2.193785, 1.593979
 82620272, 29.84147, -0.4206112, 2.185468, 1.575901, 29.00614, -1.412815, 2.159943, 1.58636
 82820192, 27.86592, 0.3915001, 2.11733, 1.570473, 29.84147, -0.4206112, 2.185468, 1.575901
 83020945, 29.28811, -0.05496284, 2.162136, 1.570049, 27.86592, 0.3915001, 2.11733, 1.570473
 83220865, 29.32067, 0.5539504, 2.16215, 1.568414, 29.28811, -0.05496284, 2.162136, 1.570049
 83420785, 28.77559, -1.18746, 2.14587, 1.572663, 29.32067, 0.5539504, 2.16215, 1.568414
 83620705, 29.36762, 1.088721, 2.170848, 1.579374, 28.77559, -1.18746, 2.14587, 1.572663
 83820625, 31.27408, 0.6574334, 2.246775, 1.587231, 29.36762, 1.088721, 2.170848, 1.579374
 84020545, 29.76625, 0.1950324, 2.205018, 1.603979, 31.27408, 0.6574334, 2.246775, 1.587231
 84220465, 31.38121, -0.02471545, 2.274408, 1.620644, 29.76625, 0.1950324, 2.205018, 1.603979
 84420385, 31.84787, -0.6362826, 2.307301, 1.640531, 31.38121, -0.02471545, 2.274408, 1.620644
 84620305, 31.72031, 1.342385, 2.321423, 1.664898, 31.84787, -0.6362826, 2.307301, 1.640531
 84820225, 29.42594, -0.7490743, 2.26407, 1.6945, 31.72031, 1.342385, 2.321423, 1.664898
 85020145, 30.88393, 1.297103, 2.334574, 1.723732, 29.42594, -0.7490743, 2.26407, 1.6945
 85220898, 29.09004, -0.1434241, 2.295937, 1.755906, 30.88393, 1.297103, 2.334574, 1.723732
 85420818, 29.89128, -1.66343, 2.344797, 1.786568, 29.09004, -0.1434241, 2.295937, 1.755906
 85620738, 30.68315, 1.046528, 2.392694, 1.8121, 29.89128, -1.66343, 2.344797, 1.786568
 85820658, 28.8645, -1.171555, 2.355588, 1.840282, 30.68315, 1.046528, 2.392694, 1.8121
 86020578, 31.01222, 0.04258491, 2.440143, 1.866751, 28.8645, -1.171555, 2.355588, 1.840282
 86220498, 31.59455, -0.06718189, 2.475706, 1.892215, 31.01222, 0.04258491, 2.440143, 1.866751
 86420418, 31.17801, -0.126018, 2.478197, 1.914005, 31.59455, -0.06718189, 2.475706, 1.892215
 86620338, 30.93634, -0.8185068, 2.48512, 1.935372, 31.17801, -0.126018, 2.478197, 1.914005
 86820258, 31.13056, 0.8472595, 2.504301, 1.954769, 30.93634, -0.8185068, 2.48512, 1.935372
 87020178, 28.04869, -0.5168693, 2.423286, 1.973762, 31.13056, 0.8472595, 2.504301, 1.954769
 87220931, 28.35299, 0.8923513, 2.444121, 1.988466, 28.04869, -0.5168693, 2.423286, 1.973762
 87420851, 29.16368, 0.6538507, 2.476064, 2.00287, 28.35299, 0.8923513, 2.444121, 1.988466
 87620771, 30.11852, -1.362634, 2.512473, 2.014769, 29.16368, 0.6538507, 2.476064, 2.00287
 87820691, 30.83247, -0.3271196, 2.541484, 2.024809, 30.11852, -1.362634, 2.512473, 2.014769
 88020611, 28.02799, -1.036416, 2.467379, 2.034894, 30.83247, -0.3271196, 2.541484, 2.024809
 88220531, 28.25936, -0.1444041, 2.477714, 2.044502, 28.02799, -1.036416, 2.467379, 2.034894
 88420451, 29.21107, -1.32292, 2.511636, 2.050774, 28.25936, -0.1444041, 2.477714, 2.044502
 88620371, 27.52286, 0.3348373, 2.464838, 2.059592, 29.21107, -1.32292, 2.511636, 2.050774
 88820291, 27.90474, -1.457844, 2.479589, 2.065238, 27.52286, 0.3348373, 2.464838, 2.059592
 89020211, 28.40671, 1.758743, 2.497621, 2.071163, 27.90474, -1.457844, 2.479589, 2.065238
 89220964, 28.40972, 1.398025, 2.497927, 2.07763, 28.40671, 1.758743, 2.497621, 2.071163
 89420884, 26.85867, 1.471763, 2.462392, 2.079099, 28.40972, 1.398025, 2.497927, 2.07763
 89620804, 28.88339, 1.611669, 2.52205, 2.086676, 26.85867, 1.471763, 2.462392, 2.079099
 89820724, 28.88318, -0.7621045, 2.527802, 2.090509, 28.88339, 1.611669, 2.52205, 2.086676
 90020644, 29.19325, 1.34772, 2.538615, 2.099814, 28.88318, -0.7621045, 2.527802, 2.090509
 90220564, 28.28082, 0.565204, 2.516982, 2.10378, 29.19325, 1.34772, 2.538615, 2.099814
 90420484, 30.39334, -1.626202, 2.582691, 2.108335, 28.28082, 0.565204, 2.516982, 2.10378
 90620404, 26.9219, -1.188872, 2.489199, 2.113406, 30.39334, -1.626202, 2.582691, 2.108335
 90820324, 29.20473, 2.076441, 2.555236, 2.120143, 26.9219, -1.188872, 2.489199, 2.113406
 91020244, 28.64691, -1.703386, 2.543914, 2.123582, 29.20473, 2.076441, 2.555236, 2.120143
 91220164, 27.52094, -0.8638709, 2.515768, 2.126224, 28.64691, -1.703386, 2.543914, 2.123582
 91420917, 26.64324, -1.460005, 2.498087, 2.128874, 27.52094, -0.8638709, 2.515768, 2.126224
 91620837, 27.27605, 1.65153, 2.51848, 2.133734, 26.64324, -1.460005, 2.498087, 2.128874
 91820757, 27.0142, 1.645731, 2.511903, 2.141169, 27.27605, 1.65153, 2.51848, 2.133734
 92020677, 30.25647, -1.931793, 2.606694, 2.145169, 27.0142, 1.645731, 2.511903, 2.141169
 92220597, 27.35099, 2.184706, 2.528493, 2.149815, 30.25647, -1.931793, 2.606694, 2.145169
 92420517, 26.76608, -1.243281, 2.517479, 2.152227, 27.35099, 2.184706, 2.528493, 2.149815
 92620437, 29.06352, 0.1291754, 2.584683, 2.153022, 26.76608, -1.243281, 2.517479, 2.152227
 92820357, 27.29404, 1.947952, 2.541609, 2.15672, 29.06352, 0.1291754, 2.584683, 2.153022
 93020277, 30.53889, 2.068369, 2.630549, 2.167767, 27.29404, 1.947952, 2.541609, 2.15672
 93220197, 29.86119, -1.202327, 2.619964, 2.166795, 30.53889, 2.068369, 2.630549, 2.167767
 93420950, 27.77628, 2.088398, 2.560554, 2.184447, 29.86119, -1.202327, 2.619964, 2.166795
 93620870, 30.40398, 2.056346, 2.647057, 2.193063, 27.77628, 2.088398, 2.560554, 2.184447
 93820790, 29.49732, -1.437199, 2.638564, 2.205478, 30.40398, 2.056346, 2.647057, 2.193063
 94020710, 31.0262, 0.08403, 2.698155, 2.228822, 29.49732, -1.437199, 2.638564, 2.205478
 94220630, 28.0456, -1.487296, 2.639444, 2.256813, 31.0262, 0.08403, 2.698155, 2.228822
 94420550, 30.45509, 1.51956, 2.731348, 2.284144, 28.0456, -1.487296, 2.639444, 2.256813
 94620470, 31.68901, -0.4284892, 2.799078, 2.310234, 30.45509, 1.51956, 2.731348, 2.284144
 94820390, 29.30021, 1.558922, 2.759933, 2.349459, 31.68901, -0.4284892, 2.799078, 2.310234
 95020310, 28.67049, -1.302767, 2.773755, 2.386905, 29.30021, 1.558922, 2.759933, 2.349459
 95220230, 31.73279, -2.020416, 2.890481, 2.420843, 28.67049, -1.302767, 2.773755, 2.386905
 95420150, 32.31276, 1.879314, 2.935888, 2.46004, 31.73279, -2.020416, 2.890481, 2.420843
 95620903, 28.02385, -0.2508157, 2.85902, 2.490885, 32.31276, 1.879314, 2.935888, 2.46004
 95820823, 29.11698, -0.1091602, 2.918254, 2.523968, 28.02385, -0.2508157, 2.85902, 2.490885
 96020743, 28.25067, -0.1543448, 2.922133, 2.562022, 29.11698, -0.1091602, 2.918254, 2.523968
 96220663, 29.11764, -2.455815, 2.970055, 2.595595, 28.25067, -0.1543448, 2.922133, 2.562022
 96420583, 27.26828, 0.8157169, 2.947477, 2.61343, 29.11764, -2.455815, 2.970055, 2.595595
 96620503, 27.07833, -1.531336, 2.958946, 2.633888, 27.26828, 0.8157169, 2.947477, 2.61343
 96820423, 30.755, 1.845396, 3.061343, 2.65185, 27.07833, -1.531336, 2.958946, 2.633888
 97020343, 29.57373, 0.9998206, 3.040309, 2.672901, 30.755, 1.845396, 3.061343, 2.65185
 97220263, 30.44349, 0.1319516, 3.071603, 2.686695, 29.57373, 0.9998206, 3.040309, 2.672901
 97420183, 27.84726, -0.5053495, 3.019106, 2.69906, 30.44349, 0.1319516, 3.071603, 2.686695
 97620936, 27.61583, -0.01385375, 3.023386, 2.706078, 27.84726, -0.5053495, 3.019106, 2.69906
 97820856, 26.49892, -1.084238, 3.005675, 2.713044, 27.61583, -0.01385375, 3.023386, 2.706078
 98020776, 28.79006, 2.125012, 3.06391, 2.720635, 26.49892, -1.084238, 3.005675, 2.713044
 98220696, 26.1977, -1.909355, 3.009932, 2.726918, 28.79006, 2.125012, 3.06391, 2.720635
 98420616, 29.59526, -1.112562, 3.088068, 2.733338, 26.1977, -1.909355, 3.009932, 2.726918
 98620536, 26.89179, 2.329868, 3.03359, 2.730191, 29.59526, -1.112562, 3.088068, 2.733338
 98820456, 29.26785, -1.774673, 3.084763, 2.736518, 26.89179, 2.329868, 3.03359, 2.730191
 99020376, 27.73769, 2.18357, 3.047982, 2.741791, 29.26785, -1.774673, 3.084763, 2.736518
 99220296, 27.23084, 1.519197, 3.037651, 2.743824, 27.73769, 2.18357, 3.047982, 2.741791
 99420216, 27.08383, -0.01822635, 3.039303, 2.739661, 27.23084, 1.519197, 3.037651, 2.743824
 99620969, 26.7909, 1.58772, 3.03297, 2.745275, 27.08383, -0.01822635, 3.039303, 2.739661
 99820889, 26.33707, -0.7479339, 3.027721, 2.750408, 26.7909, 1.58772, 3.03297, 2.745275
 100020809, 29.01074, -0.3392784, 3.088194, 2.759059, 26.33707, -0.7479339, 3.027721, 2.750408
 100220729, 27.68655, 1.593929, 3.061863, 2.762087, 29.01074, -0.3392784, 3.088194, 2.759059
 100420649, 29.2524, 2.083645, 3.09497, 2.763427, 27.68655, 1.593929, 3.061863, 2.762087
 100620569, 25.0299, -0.1030382, 2.996897, 2.756126, 29.2524, 2.083645, 3.09497, 2.763427
 100820489, 25.96593, -1.325799, 3.004579, 2.7421, 25.0299, -0.1030382, 2.996897, 2.756126
 101020409, 26.33193, -0.9364751, 2.998985, 2.718713, 25.96593, -1.325799, 3.004579, 2.7421
 101220329, 27.72035, -1.781798, 3.010466, 2.697096, 26.33193, -0.9364751, 2.998985, 2.718713
 101420249, 25.38419, 1.463033, 2.935586, 2.671211, 27.72035, -1.781798, 3.010466, 2.697096
 101620169, 27.80392, -2.123941, 2.957404, 2.643037, 25.38419, 1.463033, 2.935586, 2.671211
 101820922, 28.02176, 0.3870736, 2.936275, 2.605473, 27.80392, -2.123941, 2.957404, 2.643037
 102020842, 28.98031, -0.6194472, 2.934956, 2.572614, 28.02176, 0.3870736, 2.936275, 2.605473
 102220762, 24.80171, -1.90162, 2.818706, 2.544517, 28.98031, -0.6194472, 2.934956, 2.572614
 102420682, 27.28173, -1.584434, 2.853738, 2.515057, 24.80171, -1.90162, 2.818706, 2.544517
 102620602, 27.15361, 2.060416, 2.828129, 2.492663, 27.28173, -1.584434, 2.853738, 2.515057
 102820522, 25.18616, -1.566932, 2.763889, 2.465437, 27.15361, 2.060416, 2.828129, 2.492663
 103020442, 26.64583, 0.07549846, 2.779099, 2.440228, 25.18616, -1.566932, 2.763889, 2.465437
 103220362, 26.51135, 1.833479, 2.757997, 2.425439, 26.64583, 0.07549846, 2.779099, 2.440228
 103420282, 29.66971, -0.7921193, 2.825065, 2.402786, 26.51135, 1.833479, 2.757997, 2.425439
 103620202, 26.30799, -0.5568497, 2.721853, 2.386297, 29.66971, -0.7921193, 2.825065, 2.402786
 103820955, 28.36686, -1.778636, 2.758114, 2.365921, 26.30799, -0.5568497, 2.721853, 2.386297
 104020875, 27.28257, 1.170409, 2.71584, 2.347778, 28.36686, -1.778636, 2.758114, 2.365921
 104220795, 30.1455, 0.43409, 2.779198, 2.329979, 27.28257, 1.170409, 2.71584, 2.347778
 104420715, 28.24382, 0.1958035, 2.718627, 2.316923, 30.1455, 0.43409, 2.779198, 2.329979
 104620635, 30.29466, 1.300604, 2.760244, 2.306793, 28.24382, 0.1958035, 2.718627, 2.316923
 104820555, 26.40755, 0.7795575, 2.65352, 2.29126, 30.29466, 1.300604, 2.760244, 2.306793
 105020475, 28.45411, 1.324177, 2.699543, 2.279914, 26.40755, 0.7795575, 2.65352, 2.29126
 105220395, 30.68837, -1.524421, 2.754451, 2.270422, 28.45411, 1.324177, 2.699543, 2.279914
 105420315, 27.98254, -2.109202, 2.678784, 2.262143, 30.68837, -1.524421, 2.754451, 2.270422
 105620235, 30.38879, 1.685522, 2.740101, 2.251178, 27.98254, -2.109202, 2.678784, 2.262143
 105820155, 27.32298, 0.05955961, 2.653894, 2.243, 30.38879, 1.685522, 2.740101, 2.251178
 106020908, 28.92815, -0.323009, 2.694341, 2.235636, 27.32298, 0.05955961, 2.653894, 2.243
 106220828, 26.90951, 0.5224993, 2.63771, 2.233324, 28.92815, -0.323009, 2.694341, 2.235636
 106420748, 30.26593, 1.491552, 2.724484, 2.230878, 26.90951, 0.5224993, 2.63771, 2.233324
 106620668, 27.10285, 0.7477278, 2.636452, 2.228554, 30.26593, 1.491552, 2.724484, 2.230878
 106820588, 29.56996, -1.164328, 2.697324, 2.227234, 27.10285, 0.7477278, 2.636452, 2.228554
 107020508, 28.27032, -0.526591, 2.651515, 2.225055, 29.56996, -1.164328, 2.697324, 2.227234
 107220428, 26.8923, -0.8086433, 2.610925, 2.21359, 28.27032, -0.526591, 2.651515, 2.225055
 107420348, 30.52556, -1.78767, 2.702974, 2.205949, 26.8923, -0.8086433, 2.610925, 2.21359
 107620268, 30.61417, -0.8410239, 2.698243, 2.196602, 30.52556, -1.78767, 2.702974, 2.205949
 107820188, 27.13633, 0.8234497, 2.594323, 2.19022, 30.61417, -0.8410239, 2.698243, 2.196602
 108020941, 28.30995, 0.8420841, 2.616286, 2.182165, 27.13633, 0.8234497, 2.594323, 2.19022
 108220861, 29.54603, 0.8693549, 2.639872, 2.16759, 28.30995, 0.8420841, 2.616286, 2.182165
 108420781, 27.95233, -1.365582, 2.578292, 2.151845, 29.54603, 0.8693549, 2.639872, 2.16759
 108620701, 25.87027, -0.354303, 2.503846, 2.13091, 27.95233, -1.365582, 2.578292, 2.151845
 108820621, 28.5169, -1.813242, 2.555121, 2.10384, 25.87027, -0.354303, 2.503846, 2.13091
 109020541, 28.57291, 0.2899647, 2.529696, 2.07757, 28.5169, -1.813242, 2.555121, 2.10384
 109220461, 26.08157, -0.7791786, 2.435102, 2.049151, 28.57291, 0.2899647, 2.529696, 2.07757
 109420381, 26.45627, -0.2366428, 2.414897, 2.009367, 26.08157, -0.7791786, 2.435102, 2.049151
 109620301, 27.47051, 1.346697, 2.40396, 1.975588, 26.45627, -0.2366428, 2.414897, 2.009367
 109820221, 28.22419, 1.049351, 2.391893, 1.934946, 27.47051, 1.346697, 2.40396, 1.975588
 110020974, 27.7637, 1.167155, 2.348502, 1.894507, 28.22419, 1.049351, 2.391893, 1.934946
 110220894, 27.42494, -0.9915904, 2.308927, 1.860621, 27.7637, 1.167155, 2.348502, 1.894507
 110420814, 26.5019, 0.00172985, 2.252917, 1.829481, 27.42494, -0.9915904, 2.308927, 1.860621
 110620734, 27.53559, 1.015854, 2.258451, 1.802142, 26.5019, 0.00172985, 2.252917, 1.829481
 110820654, 29.38102, -1.552428, 2.29651, 1.776068, 27.53559, 1.015854, 2.258451, 1.802142
 111020574, 28.32597, -0.7045376, 2.246962, 1.750647, 29.38102, -1.552428, 2.29651, 1.776068
 111220494, 29.43738, -0.4226755, 2.266761, 1.726607, 28.32597, -0.7045376, 2.246962, 1.750647
 111420414, 29.28924, -0.9163947, 2.246255, 1.709159, 29.43738, -0.4226755, 2.266761, 1.726607
 111620334, 29.70941, 0.7742595, 2.248595, 1.691648, 29.28924, -0.9163947, 2.246255, 1.709159
 111820254, 27.00125, 0.1351377, 2.150111, 1.674767, 29.70941, 0.7742595, 2.248595, 1.691648
 112020174, 28.12299, 0.8408144, 2.173482, 1.664285, 27.00125, 0.1351377, 2.150111, 1.674767
 112220927, 28.30507, -1.276109, 2.170501, 1.651568, 28.12299, 0.8408144, 2.173482, 1.664285
 112420847, 29.00748, -0.9809688, 2.18547, 1.641632, 28.30507, -1.276109, 2.170501, 1.651568
 112620767, 28.66492, -0.3195649, 2.16856, 1.63239, 29.00748, -0.9809688, 2.18547, 1.641632
 112820687, 27.98495, 1.095, 2.139848, 1.627534, 28.66492, -0.3195649, 2.16856, 1.63239
 113020607, 27.93108, 0.3254687, 2.134358, 1.618987, 27.98495, 1.095, 2.139848, 1.627534
 113220527, 29.81844, 0.7703617, 2.193099, 1.615166, 27.93108, 0.3254687, 2.134358, 1.618987
 113420447, 28.69862, -0.106374, 2.151481, 1.611394, 29.81844, 0.7703617, 2.193099, 1.615166
 113620367, 29.5228, -1.262448, 2.175435, 1.611922, 28.69862, -0.106374, 2.151481, 1.611394
 113820287, 30.14808, -0.3568986, 2.196106, 1.606507, 29.5228, -1.262448, 2.175435, 1.611922
 114020207, 27.76888, 0.6848211, 2.11549, 1.604489, 30.14808, -0.3568986, 2.196106, 1.606507
 114220960, 29.07612, -1.324462, 2.157066, 1.609399, 27.76888, 0.6848211, 2.11549, 1.604489
 114420880, 28.08018, 0.9572908, 2.125733, 1.607157, 29.07612, -1.324462, 2.157066, 1.609399
 114620800, 29.23834, -0.7423722, 2.163725, 1.608084, 28.08018, 0.9572908, 2.125733, 1.607157
 114820720, 29.48298, -0.8256115, 2.167854, 1.609116, 29.23834, -0.7423722, 2.163725, 1.608084
 115020640, 27.19398, -0.2653236, 2.08853, 1.602419, 29.48298, -0.8256115, 2.167854, 1.609116
 115220560, 29.41791, 1.347577, 2.153927, 1.593653, 27.19398, -0.2653236, 2.08853, 1.602419
 115420480, 28.15916, 0.4921443, 2.100988, 1.579456, 29.41791, 1.347577, 2.153927, 1.593653
 115620400, 26.84243, -0.136762, 2.045459, 1.559993, 28.15916, 0.4921443, 2.100988, 1.579456
 115820320, 27.80876, 0.300713, 2.056031, 1.543949, 26.84243, -0.136762, 2.045459, 1.559993
 116020240, 26.90404, -1.179997, 2.009823, 1.522031, 27.80876, 0.300713, 2.056031, 1.543949
 116220160, 27.79141, 0.6818475, 2.021495, 1.493397, 26.90404, -1.179997, 2.009823, 1.522031
 116420913, 26.67682, -1.037274, 1.963097, 1.468086, 27.79141, 0.6818475, 2.021495, 1.493397
 116620833, 27.04153, 0.1925016, 1.953776, 1.439023, 26.67682, -1.037274, 1.963097, 1.468086
 116820753, 27.47976, -1.015587, 1.94965, 1.411553, 27.04153, 0.1925016, 1.953776, 1.439023
 117020673, 29.11932, -0.1567402, 1.990961, 1.382969, 27.47976, -1.015587, 1.94965, 1.411553
 117220593, 28.90179, 0.7199826, 1.967792, 1.358904, 29.11932, -0.1567402, 1.990961, 1.382969
 117420513, 27.95803, 1.286817, 1.918087, 1.338694, 28.90179, 0.7199826, 1.967792, 1.358904
 117620433, 27.5007, -0.1664467, 1.886869, 1.316601, 27.95803, 1.286817, 1.918087, 1.338694
 117820353, 28.22068, 0.4633519, 1.901393, 1.296642, 27.5007, -0.1664467, 1.886869, 1.316601
 118020273, 27.67288, 1.146591, 1.870662, 1.279781, 28.22068, 0.4633519, 1.901393, 1.296642
 118220193, 29.33847, -0.3553391, 1.92191, 1.265508, 27.67288, 1.146591, 1.870662, 1.279781
 118420946, 27.62228, 0.3436424, 1.850437, 1.250066, 29.33847, -0.3553391, 1.92191, 1.265508
 118620866, 29.73318, 0.3089952, 1.921441, 1.239354, 27.62228, 0.3436424, 1.850437, 1.250066
 118820786, 28.84927, -0.09342001, 1.882827, 1.226351, 29.73318, 0.3089952, 1.921441, 1.239354
 119020706, 29.25797, 0.7211706, 1.892193, 1.21802, 28.84927, -0.09342001, 1.882827, 1.226351
 119220626, 28.12259, -0.8171452, 1.843345, 1.211041, 29.25797, 0.7211706, 1.892193, 1.21802
 119420546, 28.56197, 0.2048666, 1.856013, 1.204747, 28.12259, -0.8171452, 1.843345, 1.211041
 119620466, 29.09804, -0.1266196, 1.875877, 1.19827, 28.56197, 0.2048666, 1.856013, 1.204747
 119820386, 29.84231, 0.4574215, 1.903437, 1.19512, 29.09804, -0.1266196, 1.875877, 1.19827
 120020306, 29.25418, 0.7054144, 1.878347, 1.19375, 29.84231, 0.4574215, 1.903437, 1.19512
 120220226, 29.04705, -0.2906718, 1.868492, 1.192817, 29.25418, 0.7054144, 1.878347, 1.19375
 120420146, 30.26203, -0.3197529, 1.915924, 1.18924, 29.04705, -0.2906718, 1.868492, 1.192817
 120620899, 28.89523, -0.8742182, 1.87905, 1.161212, 30.26203, -0.3197529, 1.915924, 1.18924
 120820819, 29.47787, 1.853387, 1.863914, 1.229027, 28.89523, -0.8742182, 1.87905, 1.161212
 121020739, 27.58043, 1.138106, 1.773774, 1.368902, 29.47787, 1.853387, 1.863914, 1.229027
 121220659, 27.38705, 2.911937, 1.82025, 1.69164, 27.58043, 1.138106, 1.773774, 1.368902
