TimeUS,CAN,CAE,CAD,CAe,NAN,NAE,NAD,NAe,m10,m00,Gye
 8040949, -0.01083339, -0.003921081, -0.05424276, 1.495416, -0.01608532, -0.006181824, -0.07828062, 1.491887, -0.3201157, 0.9473785, 11.1826
 8220877, -0.01621242, -0.006215974, -0.08045597, 1.529077, 9.41327E-05, -0.0001234065, -0.001013341, 0.03347886, -0.3201112, 0.94738, 3590.501
 8420797, 0.0002229193, -0.0002085789, -0.003370386, 0.07439747, 0.0001911634, 0.0002294642, -0.0008661619, 0.03719873, -0.3201211, 0.9473766, 5.563381
 8620717, 6.204499E-05, 0.0006384594, -0.003089012, 0.07811734, 0.0001918166, 6.073991E-05, -0.0009713101, 0.03719873, -0.3201395, 0.9473704, 5.84155
 8820637, -3.944215E-05, 0.0004507747, -0.003304561, 0.07811734, 0.000253286, -0.0001112646, -0.0009816056, 0.03719873, -0.3201652, 0.9473618, 5.84155
 9020557, 7.318091E-05, 0.0003944707, -0.003252587, 0.07811734, -0.0002426329, 0.0002112303, -0.001037373, 0.03719873, -0.3202031, 0.9473489, 5.84155
 9220477, -0.0003416819, 0.000679074, -0.003257039, 0.07810804, -0.0001124374, 0.0005058524, -0.001390187, 0.03718013, -0.320234, 0.9473385, 5.840384
 9420397, -0.000292153, 0.001073542, -0.003784763, 0.07807828, -0.0002733419, 0.000208635, -0.001004961, 0.03718013, -0.3202462, 0.9473344, 5.838631
 9620317, -0.0006220869, 0.0006688899, -0.003370281, 0.07807828, 7.043013E-05, 0.0003686706, -0.001078746, 0.03718013, -0.320246, 0.9473345, 5.838631
 9820237, -4.209649E-05, 0.0007192793, -0.003612655, 0.07807828, -0.0003315001, 0.0002051226, -0.001099242, 0.03718013, -0.3202395, 0.9473367, 5.838631
 10020157, -0.0004077002, 0.0006589745, -0.003259232, 0.07807828, 1.718848E-06, -2.521446E-05, -0.001062635, 0.03718013, -0.3202352, 0.9473382, 5.838631
 10220910, -0.0002748821, 0.0001708553, -0.003398313, 0.0782332, 0.0001351466, 2.713715E-06, -0.0008829811, 0.03733505, -0.3202523, 0.9473324, 5.850215
 10420830, -9.195467E-05, 0.0004613046, -0.003118024, 0.0782332, -8.335261E-07, 0.0001242394, -0.00120582, 0.03718013, -0.3202608, 0.9473295, 5.850215
 10620750, -3.578064E-05, 0.0005852109, -0.003629167, 0.07807828, -2.729441E-05, 0.0001003143, -0.0009977163, 0.03718013, -0.3202598, 0.9473298, 5.838631
 10820670, -0.0003002178, 0.0005648995, -0.003302292, 0.07807828, 0.0004141476, 0.0002549682, -0.001217355, 0.03718013, -0.3202408, 0.9473362, 5.838631
 11020590, 0.0005894823, 0.0006272485, -0.00347051, 0.07807828, -6.823145E-05, -0.0001756043, -0.00112193, 0.03718013, -0.3202166, 0.9473444, 5.838631
 11220510, -0.0003563079, 8.31965E-05, -0.003533409, 0.07808758, 0.0001048953, 0.0002570527, -0.001192093, 0.03719873, -0.3202035, 0.9473488, 5.839798
 11420430, -9.849323E-05, 0.0005774089, -0.003564534, 0.07811734, 4.613742E-06, -4.071999E-06, -0.0009230735, 0.03719873, -0.3202013, 0.9473496, 5.84155
 11620350, -0.000128379, 0.000167555, -0.003367821, 0.07811734, -0.0003606882, 5.770528E-05, -0.001546908, 0.03719873, -0.3202021, 0.9473493, 5.84155
 11820270, -0.0004828383, 0.0002016678, -0.003952228, 0.07811734, -0.0001295785, 0.0003700661, -0.001161206, 0.03719873, -0.3202079, 0.9473474, 5.84155
 12020190, -0.0003173315, 0.0008860752, -0.003569481, 0.07811734, 0.0002659035, -0.0002101757, -0.0009317484, 0.03719873, -0.3202232, 0.9473422, 5.84155
 12220943, 0.0002083919, 0.0002003941, -0.003307045, 0.07826295, 0.000155185, 6.133191E-05, -0.0009889504, 0.03733505, -0.3202263, 0.9473411, 5.851971
 12420863, 4.09513E-05, 0.0006513346, -0.003331439, 0.0782332, -3.87101E-05, 0.0003151562, -0.001046716, 0.03718013, -0.3202156, 0.9473447, 5.850215
 12620783, -0.0001316852, 0.0005808903, -0.003327002, 0.07807828, -2.54511E-05, 7.222876E-05, -0.001168832, 0.03718013, -0.3202007, 0.9473497, 5.838631
 12820703, -0.0001137363, 0.0002384707, -0.003706279, 0.07807828, 8.942356E-05, 0.0001717182, -0.001209443, 0.03718013, -0.3201753, 0.9473583, 5.838631
 13020623, -9.967729E-05, 0.0003608268, -0.003408069, 0.07807828, -0.000322181, 2.538856E-05, -0.001245763, 0.03718013, -0.3201615, 0.9473631, 5.838631
 13220543, -0.0006073989, 0.0004100588, -0.003530043, 0.07808758, -0.0002156948, 0.0001148979, -0.001115734, 0.03719873, -0.3201579, 0.9473643, 5.839798
 13420463, -0.0004123671, 0.0004506539, -0.003414246, 0.07811734, -0.000353237, 0.0001640579, -0.0008231684, 0.03719873, -0.3201765, 0.947358, 5.84155
 13620383, -0.000586203, 0.0007209759, -0.003061805, 0.07811734, -0.0001184155, 0.0002603415, -0.0008620627, 0.03719873, -0.3201922, 0.9473526, 5.84155
 13820303, -0.0002334015, 0.0006414068, -0.003365009, 0.07811734, -0.000233163, 8.597221E-05, -0.001035371, 0.03719873, -0.3201909, 0.9473531, 5.84155
 14020223, -0.0006892707, 0.0001839618, -0.003437555, 0.07811734, 1.462069E-06, 0.0002213462, -0.001047955, 0.03719873, -0.3201864, 0.9473546, 5.84155
 14220976, -0.0003340013, 0.0008637551, -0.003208924, 0.07826295, -0.0003278471, -0.0001075497, -0.0008582496, 0.03718013, -0.320195, 0.9473516, 5.851971
 14420896, -0.000672347, 0.000379954, -0.0030892, 0.0782332, 5.717516E-05, 0.0003338819, -0.001121723, 0.03733505, -0.3202212, 0.9473429, 5.850215
 14620816, -6.796289E-05, 0.001088822, -0.003512448, 0.0782332, -0.000193707, 0.0005463581, -0.001250148, 0.03718013, -0.3202637, 0.9473285, 5.850215
 14820736, -0.0001793257, 0.0008525135, -0.003708481, 0.07807828, -0.0001446461, 0.000187003, -0.000893426, 0.03718013, -0.3202786, 0.9473234, 5.838631
 15020656, -0.0004796063, 0.0004898596, -0.003423217, 0.07807828, -0.0002067986, 8.653163E-05, -0.001305058, 0.03718013, -0.3202701, 0.9473263, 5.838631
 15220576, -0.0004083085, 0.0006075814, -0.003915393, 0.07807828, -0.0001373697, -3.301579E-05, -0.001247193, 0.03718013, -0.320269, 0.9473267, 5.838631
 15420496, -0.0002546615, 0.0005294732, -0.003752895, 0.07807828, -0.000268059, 0.0001273236, -0.001236516, 0.03718013, -0.3202755, 0.9473245, 5.838631
 15620416, -0.0003239441, 0.0004327761, -0.003547832, 0.07807828, -0.0005332723, 0.0004229413, -0.0009659716, 0.03718013, -0.3202686, 0.9473267, 5.838631
 15820336, -0.0006305591, 0.0008896456, -0.003271225, 0.07807828, 0.0001412206, 0.000160889, -0.001081701, 0.03718013, -0.3202624, 0.9473288, 5.838631
 16020256, 8.354165E-06, 0.0006282555, -0.003636612, 0.07807828, 0.0001177146, 0.0001187694, -0.001063494, 0.03718013, -0.3202575, 0.9473306, 5.838631
 16220176, -0.0001510403, 0.0005407372, -0.003378451, 0.07808758, -0.000180377, 3.630933E-05, -0.0009961911, 0.03719873, -0.3202491, 0.9473334, 5.839798
 16420929, -2.25463E-05, 0.0005398608, -0.003401214, 0.07827234, 3.028406E-05, 0.0002978384, -0.0006781265, 0.03735373, -0.3202382, 0.947337, 5.853141
 16620849, -0.0002658791, 0.0006965769, -0.002881835, 0.07827234, -0.0002746227, 2.618034E-05, -0.001183322, 0.03719873, -0.3202187, 0.9473436, 5.853141
 16820769, -0.0005626527, 0.0004445223, -0.003530225, 0.07811734, -0.000394682, 0.0004227797, -0.001103151, 0.03719873, -0.3202011, 0.9473495, 5.84155
 17020689, -0.0009428627, 0.001046048, -0.003449166, 0.07811734, -8.33766E-05, -8.560946E-06, -0.001199338, 0.03719873, -0.3202085, 0.9473471, 5.84155
 17220609, -0.0005801116, 0.0005570503, -0.003430472, 0.07810804, -0.0001022353, 0.0005830342, -0.00123337, 0.03718013, -0.3202173, 0.9473441, 5.840384
 17420529, -0.0004461193, 0.001031271, -0.003617308, 0.07807828, -0.0002991076, 0.0002828715, -0.001250148, 0.03718013, -0.3202438, 0.9473351, 5.838631
 17620449, -0.0005846081, 0.0007998568, -0.003725506, 0.07807828, -0.0002277581, 0.0002752992, -0.001314019, 0.03718013, -0.3202509, 0.9473328, 5.838631
 17820369, -0.0004943779, 0.0008885937, -0.003604067, 0.07807828, -0.0002312219, 0.0002012503, -0.0008072484, 0.03718013, -0.3202438, 0.9473352, 5.838631
 18020289, -0.0006795362, 0.0006205125, -0.003034341, 0.07807828, 4.950682E-05, 0.0002199584, -0.0009924732, 0.03718013, -0.3202331, 0.9473388, 5.838631
 18220209, -0.0001366972, 0.0007779432, -0.003141663, 0.07808758, -0.0002145842, 0.000258937, -0.001059871, 0.03719873, -0.3202333, 0.9473386, 5.839798
 18420962, -0.000804662, 0.0006851834, -0.003612467, 0.07827234, 0.0002023027, 0.0004470283, -0.0009894291, 0.03735373, -0.3202462, 0.9473343, 5.853141
 18620882, -6.327078E-05, 0.001202649, -0.003522109, 0.07827234, -0.0004345865, 0.0002577727, -0.001190377, 0.03719873, -0.3202646, 0.9473281, 5.853141
 18820802, -0.001001468, 0.0006449014, -0.003648852, 0.07811734, 1.847416E-05, 0.0001649482, -0.00101316, 0.03719873, -0.3202722, 0.9473256, 5.84155
 19020722, -0.0002900207, 0.0005586238, -0.003452645, 0.07811734, -0.0005453397, 0.0003486777, -0.001018212, 0.03719873, -0.3202677, 0.947327, 5.84155
 19220642, -0.001169309, 0.0008113442, -0.003603457, 0.07810804, -7.574882E-05, 0.0002030892, -0.001199052, 0.03718013, -0.3202646, 0.9473281, 5.840384
 19420562, -0.000674472, 0.0005717904, -0.003499567, 0.07807828, -0.0004386254, 0.0002810566, -0.000791233, 0.03718013, -0.3202718, 0.9473257, 5.838631
 19620482, -0.0008271704, 0.0008327663, -0.003261834, 0.07807828, -0.0001510867, 0.0001667212, -0.0009194509, 0.03718013, -0.2920759, 0.9563951, 5.838631
 19820402, -0.0008761457, 0.0009515384, -0.003317583, 0.07807828, -0.0002918878, 0.0002382026, -0.001167974, 0.03718013, -0.2458722, 0.9693022, 5.838631
 20020322, -0.0006340547, 0.0009531279, -0.003421768, 0.07807828, -9.204341E-05, 0.0005538044, -0.0007529107, 0.03718013, -0.2108375, 0.9775211, 5.838631
 20220242, -0.0003107277, 0.001325424, -0.003182663, 0.07807828, 0.0001673602, 0.0004148215, -0.001198575, 0.03718013, -0.1951298, 0.9807774, 5.838631
 20420162, -0.000236359, 0.001343005, -0.004092763, 0.07807828, -0.0003853194, 0.000149149, -0.0008837978, 0.03718013, -0.1920997, 0.9813754, 5.838631
 20620915, 0.01295285, -0.001648332, -0.00328843, 0.0782332, 0.02514755, -0.004236735, -0.0008717811, 0.03733505, -0.1891597, 0.9819463, 5.850215
 20820835, 0.2885409, -0.05361797, -0.002193999, 0.0782332, 0.2092009, -0.03943552, 0.0001460445, 0.03718013, -0.1867453, 0.9824075, 5.850215
 21020755, 0.9494367, -0.1770411, 0.008594278, 0.07807828, 0.4409934, -0.08712552, 0.005366943, 0.03718013, -0.185637, 0.9825982, 5.838631
 21220675, 1.678489, -0.3217741, 0.01557367, 0.07808758, 0.6560084, -0.1243138, 0.003446154, 0.03719873, -0.1852722, 0.9824995, 5.839798
 21420595, 2.34421, -0.4425548, -0.007402148, 0.07811734, 0.8620671, -0.1522441, -0.01299472, 0.03719873, -0.1848681, 0.9819795, 5.84155
 21620515, 2.931826, -0.5373455, -0.07040591, 0.07811734, 0.9929935, -0.1826636, -0.03803991, 0.03719873, -0.1844014, 0.9807422, 5.84155
 21820435, 3.134166, -0.5817968, -0.1492325, 0.07811734, 0.9400655, -0.1802375, -0.06022275, 0.03719873, -0.1837402, 0.9786474, 5.84155
 22020355, 2.865007, -0.5412785, -0.2147912, 0.07811734, 0.8130135, -0.1478945, -0.07651948, 0.03719873, -0.1830362, 0.9757613, 5.84155
 22220275, 2.443867, -0.4502941, -0.2823292, 0.07810804, 0.6725923, -0.1296572, -0.1267496, 0.03718013, -0.1823613, 0.9723336, 5.840384
 22420195, 2.001482, -0.3757034, -0.4424785, 0.07807828, 0.5354561, -0.09555613, -0.1121755, 0.03718013, -0.1818078, 0.9687183, 5.838631
 22620948, 1.611053, -0.2990584, -0.2730795, 0.0782332, 0.4408464, -0.08889133, -0.05054789, 0.03733505, -0.1814509, 0.9651219, 5.850215
 22820868, 1.726259, -0.3248182, -1.117865, 0.0782332, 0.5607244, -0.1012435, -0.9747888, 0.03718013, -0.1795392, 0.9559076, 5.850215
 23020788, 1.498163, -0.2884133, -3.140358, 0.07807828, 0.3787958, -0.08206002, -0.8094745, 0.03718013, -0.1770644, 0.9381759, 5.838631
 23220708, 1.234316, -0.2633913, -1.916095, 0.07808758, 0.4084421, -0.07454491, -0.3074805, 0.03719873, -0.1759273, 0.9315137, 5.839798
 23420628, 1.312178, -0.2545783, -0.6993024, 0.07811734, 0.394304, -0.08408982, -0.130411, 0.03719873, -0.1782577, 0.9313089, 5.84155
 23620548, 1.118974, -0.2411077, -0.5268476, 0.07811734, 0.257036, -0.05140386, -0.2477182, 0.03719873, -0.178197, 0.9269647, 5.84155
 23820468, 0.62959, -0.1402955, -0.9727539, 0.07811734, 0.1052504, -0.03812759, -0.3411174, 0.03719873, -0.1839215, 0.9165155, 5.84155
 24020388, 0.23852, -0.1012664, -1.095334, 0.07811734, 0.02827905, -0.02852259, -0.3155912, 0.03719873, -0.195444, 0.9066401, 5.84155
 24220308, 0.01763528, -0.2610685, -0.9040081, 0.07810804, -0.04313612, -0.1434186, -0.2436863, 0.03718013, -0.2073147, 0.8994458, 5.840384
 24420228, -0.1988576, -0.4273408, -0.7794451, 0.07807828, -0.08520317, -0.1052483, -0.2135085, 0.03718013, -0.210565, 0.8942789, 5.838631
 24620148, -0.2356245, -0.3091117, -0.5263571, 0.07807828, -0.07194048, -0.07620914, -0.1072613, 0.03718013, -0.2217018, 0.8915942, 5.838631
 24820901, -0.2994097, -0.2533239, -0.3912241, 0.0782332, -0.1432475, -0.09949184, -0.1245215, 0.03733505, -0.2365827, 0.8867568, 5.850215
 25020821, -0.4379351, -0.3496349, -0.3169311, 0.0782332, -0.1192267, -0.1115231, -0.03877747, 0.03718013, -0.2433048, 0.8856451, 5.850215
 25220741, -0.4812593, -0.3259338, -0.2337757, 0.07807828, -0.2083321, -0.09458394, -0.1318769, 0.03718013, -0.252866, 0.8818489, 5.838631
 25420661, -0.8502465, -0.2989359, -0.6524875, 0.07807828, -0.341261, -0.09550147, -0.3067028, 0.03718013, -0.2654338, 0.8716794, 5.838631
 25620581, -1.128331, -0.2900254, -0.9645823, 0.07807828, -0.3317089, -0.06859363, -0.2577862, 0.03718013, -0.2744402, 0.8629658, 5.838631
 25820501, -0.9951409, -0.1805389, -0.624535, 0.07807828, -0.2598128, -0.03637364, -0.1040399, 0.03718013, -0.282856, 0.8600602, 5.838631
 26020421, -0.6748959, -0.1059851, -0.07089747, 0.07807828, -0.1527088, -0.0230241, 0.07804284, 0.03718013, -0.2944678, 0.8626737, 5.838631
 26220341, -0.456609, -0.1027404, 0.2937121, 0.07808758, -0.1378352, -0.03496443, 0.1009418, 0.03719873, -0.3060381, 0.8656597, 5.839798
 26420261, -0.4579026, -0.1132747, 0.2735772, 0.07811734, -0.1470919, -0.0188825, 0.07457696, 0.03719873, -0.3143956, 0.867233, 5.84155
 26620181, -0.5194194, -0.09039754, 0.1475128, 0.07811734, -0.1817318, -0.0396997, 0.02167988, 0.03719873, -0.3243669, 0.866717, 5.84155
 26820934, -0.542585, -0.1468871, 0.1591176, 0.07827234, -0.1481194, -0.05549463, 0.07807644, 0.03735373, -0.3342341, 0.867782, 5.853141
 27020854, -0.428353, -0.1406602, 0.3336215, 0.07827234, -0.09608639, -0.02123301, 0.1452314, 0.03719873, -0.34167, 0.8708084, 5.853141
 27220774, -0.3861025, -0.07916158, 0.3496571, 0.07810804, -0.1321079, -0.02933015, 0.08621943, 0.03718013, -0.3502229, 0.8716217, 5.840384
 27420694, -0.3847707, -0.1034695, 0.3319281, 0.07807828, -0.1264586, -0.04335373, 0.08195487, 0.03718013, -0.3602331, 0.8721927, 5.838631
 27620614, -0.4766879, -0.1210217, 0.1170949, 0.07807828, -0.1623124, -0.04589849, -0.002883902, 0.03718013, -0.3696048, 0.8700051, 5.838631
 27820534, -0.5298373, -0.1095777, 0.009761147, 0.07807828, -0.1736342, -0.02000217, -0.01876185, 0.03718013, -0.3785382, 0.8679143, 5.838631
 28020454, -0.5847829, -0.05527144, -0.1084003, 0.07807828, -0.1751463, -0.01045441, 0.02169532, 0.03718013, -0.3860942, 0.865799, 5.838631
 28220374, -0.6140202, 0.01385839, 0.05086789, 0.07808758, -0.2055691, 0.02232277, 0.02643681, 0.03719873, -0.3932477, 0.8645937, 5.839798
 28420294, -0.6739606, 0.09741325, 0.1567604, 0.07811734, -0.2065481, 0.03199957, 0.09862558, 0.03719873, -0.4009022, 0.8648071, 5.84155
 28620214, -0.4088955, 0.03301612, 1.035482, 0.07811734, 0.03337836, 0.01957429, 0.7298926, 0.03719873, -0.3985517, 0.8814035, 5.84155
 28820967, 0.2683259, 0.3121254, 2.563146, 0.07827234, 0.1405885, 0.1930175, 0.8663178, 0.03735373, -0.4088957, 0.8936893, 5.853141
 29020887, 0.3989823, 0.7635713, 2.428973, 0.07827234, 0.08887342, 0.308713, 0.5285447, 0.03719873, -0.4379078, 0.8832642, 5.853141
 29220807, 0.1952627, 1.131276, 1.035004, 0.07810804, 0.01204904, 0.397227, 0.02546188, 0.03718013, -0.4381309, 0.8819603, 5.840384
 29420727, -0.06163546, 1.206271, -0.2243744, 0.07807828, -0.06101966, 0.3054014, -0.1528958, 0.03718013, -0.4181227, 0.8905396, 5.838631
 29620647, -0.2383656, 0.791568, -0.248135, 0.07807828, -0.09557426, 0.1367096, 0.05981131, 0.03718013, -0.3950956, 0.9033166, 5.838631
 29820567, -0.3040624, 0.3506001, 0.4144092, 0.07807828, -0.09810737, 0.08919672, 0.1892781, 0.03718013, -0.373828, 0.9161773, 5.838631
 30020487, -0.312168, 0.344709, 0.5551947, 0.07807828, -0.09676828, 0.1163393, 0.1898622, 0.03718013, -0.3529823, 0.9272441, 5.838631
 30220407, -0.3071907, 0.4202882, 0.4971588, 0.07807828, -0.1183473, 0.1585961, 0.1022398, 0.03718013, -0.3354285, 0.9354644, 5.838631
 30420327, -0.5776943, 0.6415417, 0.1126233, 0.07807828, -0.3049512, 0.2726544, -0.09341927, 0.03718013, -0.316035, 0.9421731, 5.838631
 30620247, -1.229181, 0.9498493, -0.5097246, 0.07807828, -0.4673362, 0.3029968, -0.1765149, 0.03718013, -0.2986342, 0.9464883, 5.838631
 30820167, -1.40475, 0.8294083, -0.2636732, 0.07807828, -0.3703538, 0.1734066, 0.1169696, 0.03718013, -0.284411, 0.9525086, 5.838631
 31020920, -1.004517, 0.4179791, 0.7410802, 0.0782332, -0.2308289, 0.06235192, 0.3935941, 0.03733505, -0.2725084, 0.9597938, 5.850215
 31220840, -0.6448191, 0.1683429, 1.301717, 0.0782332, -0.1642249, 0.05136943, 0.3844615, 0.03718013, -0.2564292, 0.966334, 5.850215
 31420760, -0.4895006, 0.1610244, 1.068863, 0.07807828, -0.1386742, 0.05197022, 0.2437438, 0.03718013, -0.239173, 0.9709073, 5.838631
 31620680, -0.4103571, 0.1783669, 0.6179944, 0.07807828, -0.1067529, 0.05116814, 0.1336164, 0.03718013, -0.2215047, 0.9746497, 5.838631
 31820600, -0.3162815, 0.1558532, 0.3538128, 0.07807828, -0.07085151, 0.04795694, 0.06380723, 0.03718013, -0.2026127, 0.978259, 5.838631
 32020520, -0.2283895, 0.1397105, 0.1721921, 0.07807828, -0.06604624, 0.03896816, 0.05441167, 0.03718013, -0.1834593, 0.9816064, 5.838631
 32220440, -0.1840634, 0.07634825, 0.2182765, 0.07807828, -0.03695226, 0.01180882, 0.07631338, 0.03718013, -0.1645627, 0.9843786, 5.838631
 32420360, -0.1200834, 0.02185604, 0.2475334, 0.07807828, -0.0320148, -0.002222989, 0.09331155, 0.03718013, -0.1450103, 0.9868318, 5.838631
 32620280, -0.09690408, -0.01734275, 0.3313952, 0.07807828, -0.01887022, -0.007725591, 0.1064511, 0.03718013, -0.1257117, 0.9886994, 5.838631
 32820200, -0.05200054, -0.0374129, 0.2377623, 0.07807828, -0.01357742, -0.02159327, 0.01575183, 0.03718013, -0.1075972, 0.9905119, 5.838631
 33020953, -0.04640267, -0.07474253, 0.02170533, 0.0782332, -0.01245795, -0.02517301, -0.02153233, 0.03733505, -0.09168845, 0.9921706, 5.850215
 33220873, -0.0481015, -0.09212004, -0.06725813, 0.0782332, -0.01797491, -0.03069728, -0.02078874, 0.03718013, -0.07564145, 0.993638, 5.850215
 33420793, -0.05053186, -0.10069, -0.005468882, 0.07807828, -0.009209327, -0.0389296, 0.03106352, 0.03718013, -0.0612402, 0.9944936, 5.838631
 33620713, -0.02584385, -0.1199665, 0.1137889, 0.07807828, -0.005311891, -0.03615376, 0.03719492, 0.03718013, -0.0465305, 0.9950674, 5.838631
 33820633, -0.01648479, -0.1357681, 0.06473441, 0.07807828, -0.009843052, -0.04976662, -0.01271388, 0.03718013, -0.03476439, 0.9955698, 5.838631
 34020553, -0.01952855, -0.1584575, -0.05666891, 0.07807828, -0.004610226, -0.04286458, -0.004538436, 0.03718013, -0.02260264, 0.9961032, 5.838631
 34220473, -0.01141603, -0.1855412, 0.005769652, 0.07807828, -0.006709275, -0.07312211, 0.003063979, 0.03718013, -0.01336948, 0.9962807, 5.838631
 34420393, -0.01080758, -0.2297706, 0.03146902, 0.07807828, -0.006100276, -0.06701388, 0.01002864, 0.03718013, -0.002905702, 0.996342, 5.838631
 34620313, -0.003495757, -0.2156231, 0.00539887, 0.07807828, -0.006500975, -0.0725144, -0.01615469, 0.03718013, 0.004581593, 0.9964913, 5.838631
 34820233, -0.01952311, -0.2281806, -0.07492581, 0.07807828, 0.007096634, -0.06648993, -0.046843, 0.03718013, 0.0135124, 0.9966497, 5.838631
 35020153, 0.002989324, -0.1947379, -0.0897086, 0.07807828, 0.001368541, -0.05722462, -0.01361045, 0.03718013, 0.02009893, 0.9966865, 5.838631
 35220906, -0.004668008, -0.2183913, -0.04899417, 0.0782332, -0.006476423, -0.07103845, 0.007370078, 0.03733505, 0.02549044, 0.9966645, 5.850215
 35420826, -0.01699914, -0.2342256, -0.02239096, 0.0782332, -0.005307917, -0.07084785, -0.01940552, 0.03718013, 0.03280786, 0.9965893, 5.850215
 35620746, -0.0002468893, -0.2015729, -0.002194766, 0.07807828, 0.001580774, -0.05294795, 0.03073702, 0.03718013, 0.03978785, 0.9962863, 5.838631
 35820666, 0.002635446, -0.1926028, -0.002822767, 0.07807828, -0.001902177, -0.06140095, -0.009554569, 0.03718013, 0.04387189, 0.9962868, 5.838631
 36020586, 0.005076597, -0.2133014, 0.01164446, 0.07807828, -0.001510934, -0.06198966, 0.0008061998, 0.03718013, 0.04857029, 0.9960968, 5.838631
 36220506, -0.005797564, -0.2161843, -0.1003308, 0.07807828, 0.0006104768, -0.07561849, -0.07151555, 0.03718013, 0.051677, 0.9962801, 5.838631
 36420426, -0.002925586, -0.2366026, -0.131334, 0.07807828, -0.002731291, -0.07163525, 0.0004685434, 0.03718013, 0.05528076, 0.9961805, 5.838631
 36620346, -0.003680394, -0.2049001, 0.03513949, 0.07807828, 0.003787093, -0.06201659, 0.0388546, 0.03718013, 0.06005234, 0.9957922, 5.838631
 36820266, 0.01091105, -0.204364, 0.02841696, 0.07807828, 0.001447772, -0.06338206, -0.01055981, 0.03718013, 0.06250583, 0.9957538, 5.838631
 37020186, 0.001356618, -0.2024095, -0.04895888, 0.07807828, -0.002431457, -0.05607617, -0.03623714, 0.03718013, 0.06501859, 0.9957577, 5.838631
 37220939, -0.0073021, -0.2011603, -0.1361351, 0.0782332, -0.0003162744, -0.06903975, -0.04059483, 0.03733505, 0.06550107, 0.9959423, 5.850215
 37420859, -0.008885762, -0.2315245, -0.1132133, 0.0782332, 0.0007640106, -0.0769711, -0.03561254, 0.03718013, 0.066245, 0.9960403, 5.850215
 37620779, -0.0238406, -0.2233108, -0.0918864, 0.07807828, -0.01355495, -0.05102351, -0.01252226, 0.03718013, 0.06934495, 0.995919, 5.838631
 37820699, -0.03248826, -0.1549684, -0.04348643, 0.07807828, -0.01695752, -0.03486751, -0.0158034, 0.03718013, 0.07125112, 0.9958417, 5.838631
 38020619, -0.03962978, -0.1312513, -0.08339936, 0.07807828, -0.006500755, -0.05282693, -0.03483828, 0.03718013, 0.07114908, 0.9959704, 5.838631
 38220539, -0.0234497, -0.1639397, -0.061078, 0.07807828, -0.01741021, -0.04867497, 0.02231106, 0.03718013, 0.07232085, 0.9958521, 5.838631
 38420459, -0.04311512, -0.1443696, 0.01277654, 0.07807828, -0.007395646, -0.04146063, -0.04345214, 0.03718013, 0.07499298, 0.9957438, 5.838631
 38620379, -0.04961551, -0.1294918, -0.2096628, 0.07807828, -0.01700144, -0.04869336, -0.09707772, 0.03718013, 0.07410651, 0.9961171, 5.838631
 38820299, -0.06108056, -0.1490035, -0.2738984, 0.07807828, -0.02299478, -0.04226676, -0.0235838, 0.03718013, 0.07503597, 0.9961952, 5.838631
 39020219, -0.0550416, -0.1333635, 0.0006199165, 0.07807828, -0.01292954, -0.04646738, 0.0067353, 0.03718013, 0.07442553, 0.9961533, 5.838631
 39220972, -0.04320209, -0.1345862, -0.02455292, 0.0782332, -0.02052671, -0.03216118, -0.03873162, 0.03718013, 0.075928, 0.9961182, 5.850215
 39420892, -0.06813215, -0.1066249, -0.1475883, 0.0782332, -0.02470369, -0.03651126, -0.04550971, 0.03733505, 0.07541525, 0.9962676, 5.850215
 39620812, -0.0735387, -0.0978877, -0.06242177, 0.0782332, -0.01825463, -0.015565, -0.01846281, 0.03718013, 0.07712969, 0.9961296, 5.850215
 39820732, -0.07450783, -0.07197545, -0.02865983, 0.07807828, -0.01811126, -0.02801593, -0.02075719, 0.03718013, 0.07652502, 0.9961525, 5.838631
 40020652, -0.06943885, -0.09141548, -0.09844428, 0.07807828, -0.03809791, -0.02452794, -0.01491217, 0.03718013, 0.07662936, 0.9962099, 5.838631
 40220572, -0.08134648, -0.1008852, -0.08248651, 0.07807828, -0.01811935, -0.03394549, -0.0445651, 0.03718013, 0.07657532, 0.9962927, 5.838631
 40420492, -0.06114597, -0.1120378, -0.137102, 0.07807828, -0.02043224, -0.04598081, -0.03646069, 0.03718013, 0.07601167, 0.9964126, 5.838631
 40620412, -0.05248268, -0.1348566, -0.08660967, 0.07807828, -0.02121563, -0.04528416, -0.0215264, 0.03718013, 0.07492147, 0.9965313, 5.838631
 40820332, -0.05347479, -0.1144447, -0.06006522, 0.07807828, -0.01970144, -0.02842554, 0.0006701649, 0.03718013, 0.07547907, 0.9964845, 5.838631
 41020252, -0.06265863, -0.07726933, 0.02827155, 0.07807828, -0.01802319, -0.01182228, 0.0134217, 0.03718013, 0.07482345, 0.9964755, 5.838631
 41220172, -0.06511384, -0.05540752, 0.07329788, 0.07807828, -0.01833786, -0.01927877, 0.03323131, 0.03718013, 0.0735031, 0.9964721, 5.838631
 41420925, -0.07185455, -0.0693096, -0.02588353, 0.0782332, -0.02624065, -0.0119955, -0.03690764, 0.03733505, 0.07370475, 0.9965371, 5.850215
 41620845, -0.06997956, -0.03779265, -0.1037605, 0.0782332, -0.02273311, -0.01091244, -0.0382952, 0.03718013, 0.07289312, 0.9966571, 5.850215
 41820765, -0.07408364, -0.0504704, -0.1580612, 0.07807828, -0.01433735, -0.02939356, -0.04082334, 0.03718013, 0.0714163, 0.9968664, 5.838631
 42020685, -0.06005611, -0.0825533, -0.08558367, 0.07807828, -0.01984617, -0.01486181, -0.02235271, 0.03718013, 0.07115012, 0.9968976, 5.838631
 42220605, -0.07730447, -0.04292671, -0.03845555, 0.07807828, -0.02839981, -0.008800528, 0.02729373, 0.03718013, 0.07032719, 0.9968987, 5.838631
 42420525, -0.07736196, -0.02954529, 0.07887942, 0.07807828, -0.02243461, -0.007835757, -0.01209643, 0.03718013, 0.06937249, 0.9969214, 5.838631
 42620445, -0.08295243, -0.03952901, -0.06972513, 0.07807828, -0.02221106, -0.02553389, -0.02826351, 0.03718013, 0.06821443, 0.9970331, 5.838631
 42820365, -0.06490104, -0.05231544, -0.08795119, 0.07807828, -0.01377847, -0.006016495, -0.0127929, 0.03718013, 0.06778911, 0.9970833, 5.838631
 43020285, -0.0464551, -0.006191669, -0.06263243, 0.07807828, -0.02255816, 0.003742193, -0.04561573, 0.03718013, 0.06790465, 0.9971254, 5.838631
 43220205, -0.06453076, -0.01224984, -0.09857299, 0.07807828, -0.02278064, -0.01476701, 0.01610931, 0.03718013, 0.06619153, 0.997232, 5.838631
 43420958, -0.07394792, -0.04902798, 0.01355918, 0.0782332, -0.02101005, -0.01818126, -0.06087669, 0.03733505, 0.06588767, 0.9972683, 5.850215
 43620878, -0.07097898, -0.03743295, -0.08090722, 0.0782332, -0.02734287, -0.001472068, 0.01140977, 0.03718013, 0.06598229, 0.9972099, 5.850215
 43820798, -0.0814267, -0.003826896, 0.0173114, 0.07807828, -0.01242018, -0.01198335, -0.02403585, 0.03718013, 0.06468514, 0.9972832, 5.838631
 44020718, -0.06074764, -0.02144569, -0.06445199, 0.07807828, -0.01111503, -0.02174375, -0.002564548, 0.03718013, 0.06295116, 0.9973856, 5.838631
 44220638, -0.04818317, -0.04931205, -0.0273493, 0.07807828, -0.01469688, 0.007054352, -0.01171502, 0.03718013, 0.06448946, 0.9972976, 5.838631
 44420558, -0.04996748, 0.02731763, -0.01594803, 0.07807828, -0.01547374, 0.009381318, 0.002915646, 0.03718013, 0.06466862, 0.9972538, 5.838631
 44620478, -0.05267534, 0.02511225, 0.01232938, 0.07807828, -0.01664878, -0.01106153, 0.02501364, 0.03718013, 0.06323225, 0.9972904, 5.838631
 44820398, -0.04098199, -0.02846989, 0.07129249, 0.07807828, -0.01647153, -0.001250582, -0.001040805, 0.03718013, 0.06275659, 0.9972728, 5.838631
 45020318, -0.06858616, -0.003430077, -0.03961675, 0.07807828, -0.02815896, -0.007359917, -0.01504477, 0.03718013, 0.06267103, 0.9973077, 5.838631
 45220238, -0.07005527, -0.0230058, -0.02728464, 0.07807828, -0.01798466, -0.006298147, -0.03425705, 0.03718013, 0.0609444, 0.9974111, 5.838631
 45420158, -0.05945215, -0.01896989, -0.1032846, 0.07807828, -0.02452348, -0.001699545, -0.01677061, 0.03718013, 0.06039193, 0.9974797, 5.838631
 45620911, -0.06831335, 0.002814764, -0.03572955, 0.0782332, -0.01026183, -0.008653501, -0.01064048, 0.03733505, 0.05982082, 0.9975036, 5.850215
 45820831, -0.06000957, -0.02240828, -0.07541911, 0.0782332, -0.02310122, -0.006662996, -0.02816628, 0.03718013, 0.05899927, 0.9976221, 5.850215
 46020751, -0.06976119, -0.01988264, -0.03677754, 0.07807828, -0.02141881, -0.01005027, 0.004203735, 0.03718013, 0.05780189, 0.9976372, 5.838631
 46220671, -0.07085519, -0.02785702, 0.02421399, 0.07807828, -0.001021325, -0.006688814, 0.006123, 0.03718013, 0.05709051, 0.9976165, 5.838631
 46420591, -0.03059868, -0.01026656, 0.1136095, 0.07807828, -0.00504126, 0.0008247116, 0.01926128, 0.03718013, 0.05614184, 0.9975072, 5.838631
 46620511, -0.03944361, -0.008267691, 0.002362946, 0.07807828, -0.009196857, -0.008459727, -0.00440183, 0.03718013, 0.05390242, 0.9976453, 5.838631
 46820431, -0.05064952, -0.02957936, -0.06984231, 0.07807828, -0.02137154, -0.01295442, -0.03723858, 0.03718013, 0.05264593, 0.9977952, 5.838631
 47020351, -0.05675287, -0.03492548, -0.03387679, 0.07807828, -0.01280261, 0.002492946, 0.0586176, 0.03718013, 0.05219688, 0.9977142, 5.838631
 47220271, -0.04644537, 0.004342417, 0.1289204, 0.07807828, -0.01607409, 0.01788447, -0.008127202, 0.03718013, 0.05113813, 0.997696, 5.838631
 47420191, -0.04686241, 0.03794109, -0.02114867, 0.07807828, -0.02096002, 0.004596485, -0.03408356, 0.03718013, 0.04932645, 0.9978196, 5.838631
 47620944, -0.03960285, -0.01605496, -0.08171651, 0.0782332, 0.000153632, -0.002062607, 0.01347417, 0.03733505, 0.0476862, 0.9978966, 5.850215
 47820864, -0.01843906, 0.011651, -0.008002371, 0.0782332, -0.01422969, 0.002070249, -0.001375792, 0.03718013, 0.04726758, 0.9979215, 5.850215
 48020784, -0.05207534, 0.003422718, 0.03315593, 0.07807828, -0.01752659, -0.002626056, 0.02266206, 0.03718013, 0.04669689, 0.9978828, 5.838631
 48220704, -0.0450738, 0.001980238, 0.0475535, 0.07807828, -0.01254224, -0.001710168, 0.001320597, 0.03718013, 0.04557426, 0.9978904, 5.838631
 48420624, -0.02610163, 0.01466098, -0.05670152, 0.07807828, -0.0145525, -0.0015511, -0.01237279, 0.03718013, 0.04429834, 0.9979904, 5.838631
 48620544, -0.03574361, -0.01509278, -0.002317294, 0.07807828, -0.009419341, -0.0004999243, -0.01702085, 0.03718013, 0.04206663, 0.9980503, 5.838631
 48820464, -0.04808975, -0.004275512, -0.03793157, 0.07807828, -0.01015794, 0.01437994, -0.008016526, 0.03718013, 0.04164327, 0.998088, 5.838631
 49020384, -0.04989406, 0.0292919, -0.04901013, 0.07807828, -0.009838848, 0.001690921, 0.03419929, 0.03718013, 0.04069024, 0.998097, 5.838631
 49220304, -0.0292005, 0.01208262, 0.1415472, 0.07807828, -0.009840612, 0.002130894, 0.0240164, 0.03718013, 0.03956115, 0.9979638, 5.838631
 49420224, -0.02266696, 0.01568292, -0.003733997, 0.07807828, -0.0126885, 0.008112722, -0.04263011, 0.03718013, 0.03838791, 0.9980919, 5.838631
 49620977, -0.03108925, 0.007691039, -0.1086305, 0.0782332, -0.01616864, -0.006194485, -0.02579915, 0.03718013, 0.0372242, 0.9981996, 5.850215
 49820897, -0.03676671, -0.0006443419, -0.06428108, 0.0782332, -0.00589353, 0.001189948, 0.04157985, 0.03733505, 0.03569026, 0.9982359, 5.850215
 50020817, -0.02914316, -0.00402909, 0.05415451, 0.0782332, -0.01439735, 0.004288811, 0.001713734, 0.03718013, 0.03443123, 0.9982721, 5.850215
 50220737, -0.02658602, 0.02471249, 0.1106425, 0.07807828, -0.009832012, 0.006634444, 0.07406132, 0.03718013, 0.03301624, 0.9980816, 5.838631
 50420657, -0.02135026, 0.02934492, 0.09337971, 0.07807828, -0.009415059, 0.01309504, -0.01124619, 0.03718013, 0.03318374, 0.9980851, 5.838631
 50620577, -0.02790734, 0.03746598, -0.04827622, 0.07807828, -0.005889616, 0.01623563, -0.01191883, 0.03718013, 0.03251953, 0.9981723, 5.838631
 50820497, -0.02097408, 0.02662553, -0.0503592, 0.07807828, -0.00759685, -0.007922768, -0.03212073, 0.03718013, 0.03011122, 0.998292, 5.838631
 51020417, -0.02338031, -0.006655529, -0.1132596, 0.07807828, -0.01347179, 0.001998742, -0.0213611, 0.03718013, 0.02975839, 0.9983882, 5.838631
 51220337, -0.03746638, 0.03992726, -0.003409365, 0.07807828, -0.01231708, 0.00322943, 0.0443447, 0.03718013, 0.02931661, 0.9982929, 5.838631
 51420257, -0.04136989, 0.006213763, 0.09543573, 0.07807828, -0.01524206, -0.01172531, -0.009567152, 0.03718013, 0.02679507, 0.9983009, 5.838631
 51620177, -0.0460089, -0.02205888, 0.0520907, 0.07807828, -0.02349521, -0.009739071, 0.03397641, 0.03718013, 0.02523953, 0.9981906, 5.838631
 51820930, -0.03779348, 0.003418331, 0.009212995, 0.0782332, -0.005531699, 0.009514641, 0.002083104, 0.03733505, 0.02529128, 0.9982309, 5.850215
 52020850, -0.02639018, 0.02647783, -0.003401971, 0.0782332, -0.005939587, 0.001474942, -0.00184119, 0.03718013, 0.02412946, 0.9982449, 5.850215
 52220770, -0.02534431, 0.04009793, -0.04575012, 0.07807828, -0.007486906, 0.02629685, -0.002615264, 0.03718013, 0.02435473, 0.9983004, 5.838631
 52420690, -0.01849722, 0.07077827, 0.01043262, 0.07807828, 0.001976626, 0.01132048, 0.02892729, 0.03718013, 0.02096554, 0.9982863, 5.838631
 52620610, -0.00686455, 0.01212332, 0.06090459, 0.07807828, -0.002625035, 0.01151228, -0.01507318, 0.03718013, 0.02039393, 0.99827, 5.838631
 52820530, -0.01085544, 0.03655556, 0.00111132, 0.07807828, -0.008142092, 0.006132587, 0.03040718, 0.03718013, 0.02046759, 0.9981853, 5.838631
 53020450, -0.02069089, 0.03078869, 0.07408636, 0.07807828, -0.002424802, 0.002416302, -0.02708591, 0.03718013, 0.02002678, 0.9981394, 5.838631
 53220370, -0.009174531, 0.02821348, -0.08282056, 0.07807828, -0.003197863, 0.005031141, -0.02302812, 0.03718013, 0.01826087, 0.998277, 5.838631
 53420290, -0.01831766, 0.03654823, -0.07661436, 0.07807828, -0.01016386, 0.0193719, 0.009184881, 0.03718013, 0.01896504, 0.9982949, 5.838631
 53620210, -0.02644211, 0.05684321, 0.02909855, 0.07807828, -0.004523017, 0.002792125, 0.04141581, 0.03718013, 0.01652487, 0.9982619, 5.838631
 53820963, -0.0159653, 0.006551245, 0.04912435, 0.0782332, -0.009882958, 0.01254026, -0.03193541, 0.03733505, 0.01665214, 0.9982934, 5.850215
 54020883, -0.01913137, 0.02489606, 0.002467766, 0.0782332, -0.001043975, 0.001073543, 0.06246995, 0.03718013, 0.01472908, 0.998173, 5.850215
 54220803, -0.003548854, 0.01545798, 0.08669184, 0.07807828, -0.00429154, 0.007773757, 0.03430205, 0.03718013, 0.01466767, 0.9981135, 5.838631
 54420723, -0.00464431, 0.04490708, 0.0986087, 0.07807828, -0.002990444, 0.01787894, 0.0470859, 0.03718013, 0.01496883, 0.997974, 5.838631
 54620643, -0.009964193, 0.06835826, 0.02323825, 0.07807828, -0.001311499, 0.02741665, -0.02581765, 0.03718013, 0.01547476, 0.9980445, 5.838631
 54820563, -0.007322065, 0.04674775, -0.04765084, 0.07807828, -0.003469146, -0.006539329, -0.02096644, 0.03718013, 0.01290852, 0.9981321, 5.838631
 55020483, 0.002353512, -0.009252101, -0.05419981, 0.07807828, 0.01455127, 0.006468483, 0.01477146, 0.03718013, 0.01287271, 0.9981219, 5.838631
 55220403, 0.0213894, 0.02858603, 0.05343468, 0.07807828, -0.005055366, 0.01748905, 0.01424153, 0.03718013, 0.01225334, 0.9980765, 5.838631
 55420323, -0.02297311, 0.03686748, -0.0183127, 0.07807828, -0.001245644, 0.005074224, 0.003126038, 0.03718013, 0.01154125, 0.9981091, 5.838631
 55620243, 0.000686781, 0.05369344, 0.04077238, 0.07807828, 0.01125574, 0.02499025, -0.003533285, 0.03718013, 0.01249111, 0.9980276, 5.838631
 55820163, 0.01935335, 0.07064503, -0.08731598, 0.07807828, 0.006919089, 0.0187261, -0.05335294, 0.03718013, 0.01112083, 0.9982377, 5.838631
 56020916, 0.007429908, 0.03355131, -0.1151915, 0.0782332, -0.006538532, 0.0009540521, 0.01177665, 0.03733505, 0.01050972, 0.998265, 5.850215
 56220836, -0.02496183, 0.01358004, 0.08125386, 0.0782332, -0.002865414, 0.004072467, 0.07339049, 0.03718013, 0.009541058, 0.9980723, 5.850215
 56420756, -0.000772492, 0.02059622, 0.1484429, 0.07807828, 0.005727354, 0.009915543, 0.002866361, 0.03718013, 0.009003498, 0.9979891, 5.838631
 56620676, -0.001106543, 0.05386452, -0.03694226, 0.07807828, -0.003564791, 0.02781051, -0.03616888, 0.03718013, 0.01111314, 0.9980637, 5.838631
 56820596, -0.01351434, 0.06780728, -0.0490539, 0.07807828, -0.001755542, 0.006402702, 0.03063368, 0.03718013, 0.00925609, 0.9980338, 5.838631
 57020516, -0.02061079, 0.03963222, -0.05448362, 0.07807828, 0.0009676518, 0.01784296, -0.07580528, 0.03718013, 0.01007367, 0.9982715, 5.838631
 57220436, -0.01427916, 0.05918096, -0.1420809, 0.07807828, -0.001599119, -0.001796238, -0.004162363, 0.03718013, 0.009412636, 0.9982806, 5.838631
 57420356, 0.001788344, -0.001062572, 0.03685718, 0.07807828, 0.008156022, 0.003612947, 0.02680669, 0.03718013, 0.007833868, 0.9981596, 5.838631
 57620276, 0.01001862, 0.01079722, 0.0894889, 0.07807828, -0.01203187, 0.003896775, 0.04692403, 0.03718013, 0.008703401, 0.9979886, 5.838631
 57820196, -0.01803149, 0.03726799, 0.08567489, 0.07807828, 0.005589961, 0.01504491, -0.007043594, 0.03718013, 0.007877841, 0.9979684, 5.838631
 58020949, 0.01866299, 0.04374094, 0.003395192, 0.0782332, 0.000785729, 0.01688538, 0.02447698, 0.03733505, 0.007150605, 0.9979154, 5.850215
 58220869, 0.003413453, 0.05047455, 0.05700706, 0.0782332, -0.0117698, 0.02011044, -0.01683458, 0.03718013, 0.007323368, 0.9978994, 5.850215
 58420789, -0.01967255, 0.05232924, -0.1120666, 0.07807828, -0.00803294, 0.01095831, -0.06824882, 0.03718013, 0.00588871, 0.998133, 5.838631
 58620709, -0.02441668, 0.02611984, -0.1736781, 0.07807828, 0.005096185, 0.00233964, -0.01245201, 0.03718013, 0.00581955, 0.9982449, 5.838631
 58820629, 0.008917606, 0.03769061, 0.06330351, 0.07807828, 0.004743663, 0.02325181, 0.03459776, 0.03718013, 0.007329479, 0.9980333, 5.838631
 59020549, 0.01034124, 0.08331078, 0.1047316, 0.07807828, -0.002285645, 0.0177712, 0.06360818, 0.03718013, 0.007227616, 0.9978383, 5.838631
 59220469, -0.00325689, 0.05061053, 0.1276921, 0.07807828, -0.009840937, 0.009860354, -0.01584153, 0.03718013, 0.006895711, 0.9977787, 5.838631
 59420389, -0.01618146, 0.03567036, -0.01662512, 0.07807828, -0.00498108, 0.008294838, 0.02534663, 0.03718013, 0.006188292, 0.9977453, 5.838631
 59620309, 0.001264072, 0.02349636, -0.01125707, 0.07807828, 0.00334299, 0.02030258, -0.001078651, 0.03718013, 0.007374638, 0.9977858, 5.838631
 59820229, 0.005139426, 0.0513521, 0.01525759, 0.07807828, -0.0007084932, 0.002087986, -0.02571469, 0.03718013, 0.006541712, 0.9978129, 5.838631
 60020149, -0.01054313, -0.02215828, -0.1104011, 0.07807828, -0.004641398, -0.02037014, -0.06488874, 0.03718013, 0.004231248, 0.9980046, 5.838631
 60220902, -0.001401322, -0.01319307, -0.1086775, 0.0782332, 0.02022989, 0.006653077, 0.02977065, 0.03733505, 0.006073895, 0.9979646, 5.850215
 60420822, 0.03676528, 0.02315497, 0.1069895, 0.0782332, 0.01247917, 0.00623628, 0.04322192, 0.03718013, 0.005351272, 0.9978145, 5.850215
 60620742, 0.01635666, 0.01875469, 0.07656644, 0.07807828, 0.00196003, 0.00392655, 0.01438357, 0.03718013, 0.003534723, 0.9977924, 5.838631
 60820662, 2.814201E-05, 0.008643733, -0.02109442, 0.07807828, 0.003631331, 0.001122388, -0.02104308, 0.03718013, 0.002732306, 0.9978644, 5.838631
 61020582, -0.0008245984, 0.02723538, -0.004957428, 0.07807828, -0.01130791, 0.02564914, 0.03580511, 0.03718013, 0.003179624, 0.9977735, 5.838631
 61220502, -0.009482379, 0.0565881, 0.02220085, 0.07807828, 0.00674491, 0.008938983, -0.04176147, 0.03718013, 0.001614522, 0.9978732, 5.838631
 61420422, 0.01569036, 0.01229655, 0.001699872, 0.07807828, 0.01187887, -0.0003934858, 0.08413143, 0.03718013, 0.0004160927, 0.9976357, 5.838631
 61620342, 0.01161915, 0.0007126224, 0.1430996, 0.07807828, 0.004434915, 0.002799766, 0.007279535, 0.03718013, 0.0007311047, 0.9975854, 5.838631
 61820262, 0.0005684132, -0.01512524, -0.0581117, 0.07807828, -0.0006353995, -0.04272535, -0.04349523, 0.03718013, 0.004346962, 0.9977434, 5.838631
 62020182, -0.008636862, 0.2328856, -0.1233734, 0.07807828, -0.004567029, 0.3332006, -0.009690888, 0.03718013, 0.02497659, 0.9972512, 5.838631
 62220935, -0.02561416, 1.448019, 0.05170191, 0.0782332, -0.00326739, 0.6175493, 0.08531997, 0.03733505, 0.03457993, 0.9968156, 5.850215
 62420855, -0.0254981, 2.231673, 0.344267, 0.0782332, -0.01025286, 0.8497045, 0.1557605, 0.03718013, 0.06323581, 0.995551, 5.850215
 62620775, -0.05700664, 3.099619, 0.6247695, 0.07807828, -0.03459539, 1.175771, 0.1882128, 0.03718013, 0.1186968, 0.9913219, 5.838631
 62820695, -0.3712097, 4.376026, 0.1148463, 0.07807828, -0.2983527, 1.691808, -0.2580292, 0.03718013, 0.219091, 0.9755502, 5.838631
 63020615, -1.437608, 5.709661, -1.364439, 0.07807828, -0.7111188, 1.866101, -0.6719097, 0.03718013, 0.3515473, 0.935748, 5.838631
 63220535, -2.594086, 5.606427, -2.26222, 0.07807828, -0.9295443, 1.508924, -0.6917482, 0.03718013, 0.4723086, 0.8784823, 5.838631
 63420455, -2.973897, 4.297294, -1.966966, 0.07807828, -0.9188452, 1.094242, -0.4936789, 0.03718013, 0.5638588, 0.8193789, 5.838631
 63620375, -2.869719, 3.127589, -1.311436, 0.07807828, -0.8789372, 0.8167918, -0.3091996, 0.03718013, 0.6342924, 0.7630871, 5.838631
 63820295, -2.813945, 2.394721, -0.8757317, 0.07807828, -0.8813378, 0.6509811, -0.2251493, 0.03718013, 0.6946075, 0.7059807, 5.838631
 64020215, -2.905081, 1.971392, -0.7286403, 0.07807828, -0.9448119, 0.5564671, -0.2312854, 0.03718013, 0.7479822, 0.6457001, 5.838631
 64220968, -3.110583, 1.611229, -0.8069623, 0.0782332, -1.026267, 0.4233655, -0.2751185, 0.03733505, 0.7966049, 0.5799912, 5.850215
 64420888, -3.360021, 1.228158, -0.9212736, 0.0782332, -1.072634, 0.3187146, -0.2817833, 0.03718013, 0.8403422, 0.5085246, 5.850215
 64620808, -3.438706, 0.8276656, -0.8836356, 0.07807828, -1.077815, 0.1629329, -0.2610659, 0.03718013, 0.8772916, 0.4352684, 5.838631
 64820728, -3.431345, 0.394906, -0.8243062, 0.07807828, -1.058719, 0.04876594, -0.2450822, 0.03718013, 0.9064278, 0.3621817, 5.838631
 65020648, -3.377497, 0.04041185, -0.7804966, 0.07807828, -1.0214, -0.064826, -0.2183997, 0.03718013, 0.9299452, 0.2873944, 5.838631
 65220568, -3.269625, -0.3079268, -0.7170081, 0.07807828, -1.014572, -0.171097, -0.2518117, 0.03718013, 0.9466763, 0.2127892, 5.838631
 65420488, -3.212328, -0.6538616, -0.7501352, 0.07807828, -0.9811302, -0.2582149, -0.211472, 0.03718013, 0.9576669, 0.1376685, 5.838631
 65620408, -3.108817, -0.9399391, -0.6944892, 0.07807828, -0.965825, -0.3580237, -0.2250248, 0.03718013, 0.9622564, 0.06225943, 5.838631
 65820328, -3.0506, -1.259616, -0.7430418, 0.07807828, -0.9123865, -0.449995, -0.2060866, 0.03718013, 0.9607978, -0.01369466, 5.838631
 66020248, -2.94327, -1.579022, -0.7520547, 0.07807828, -0.8933239, -0.5331798, -0.2502964, 0.03718013, 0.952556, -0.08991431, 5.838631
 66220168, -2.802641, -1.827516, -0.7541521, 0.07807828, -0.8453395, -0.619284, -0.2168149, 0.03718013, 0.9390901, -0.1641576, 5.838631
 66420921, -2.627301, -2.109511, -0.7222019, 0.0782332, -0.7845858, -0.7194591, -0.2308701, 0.03733505, 0.9193292, -0.2369029, 5.850215
 66620841, -2.373384, -2.387374, -0.7267956, 0.0782332, -0.6720847, -0.7861794, -0.2210403, 0.03718013, 0.8948845, -0.3045917, 5.850215
 66820761, -2.002802, -2.558532, -0.6531578, 0.07807828, -0.5526092, -0.8208493, -0.1696755, 0.03718013, 0.8677611, -0.3677381, 5.838631
 67020681, -1.658138, -2.659099, -0.4980335, 0.07807828, -0.4557813, -0.8481376, -0.1210368, 0.03718013, 0.837822, -0.4274787, 5.838631
 67220601, -1.363724, -2.764447, -0.4130455, 0.07807828, -0.3656738, -0.8679813, -0.1246814, 0.03718013, 0.8050413, -0.4831756, 5.838631
 67420521, -1.051533, -2.816236, -0.3958259, 0.07807828, -0.2529001, -0.8807153, -0.09887439, 0.03718013, 0.7700494, -0.5348374, 5.838631
 67620441, -0.6770171, -2.793074, -0.3016856, 0.07807828, -0.1241387, -0.8241631, -0.03683075, 0.03718013, 0.7360063, -0.5809171, 5.838631
 67820361, -0.2879207, -2.554991, -0.06995044, 0.07807828, -0.03151689, -0.7606388, -0.001572457, 0.03718013, 0.7045037, -0.621827, 5.838631
 68020281, -0.006504258, -2.379943, 0.01746747, 0.07807828, 0.04997097, -0.7065637, 0.01951514, 0.03718013, 0.6739607, -0.6590376, 5.838631
 68220201, 0.2192627, -2.174953, 0.13174, 0.07807828, 0.09643736, -0.6590748, 0.04697427, 0.03718013, 0.6440682, -0.6939446, 5.838631
 68420954, 0.3435399, -2.106901, 0.1236643, 0.0782332, 0.1216351, -0.6379094, 0.05040067, 0.03733505, 0.6121995, -0.7269973, 5.850215
 68620874, 0.4478211, -1.915311, 0.1930603, 0.0782332, 0.1665055, -0.5665054, 0.052225, 0.03718013, 0.5824308, -0.7564144, 5.850215
 68820794, 0.552454, -1.776375, 0.1365423, 0.07807828, 0.1888689, -0.5388618, 0.02139885, 0.03718013, 0.5511625, -0.7838082, 5.838631
 69020714, 0.6431206, -1.64206, 0.08980724, 0.07807828, 0.2133534, -0.4525986, 0.06235012, 0.03718013, 0.5215323, -0.8082864, 5.838631
 69220634, 0.7152184, -1.383248, 0.1984076, 0.07807828, 0.2372792, -0.3892155, 0.05310337, 0.03718013, 0.4940215, -0.8296733, 5.838631
 69420554, 0.7655945, -1.207555, 0.1830993, 0.07807828, 0.2525156, -0.3657465, 0.03914659, 0.03718013, 0.4651664, -0.8502451, 5.838631
 69620474, 0.7993754, -1.152791, 0.1018464, 0.07807828, 0.2509862, -0.3475301, 0.04760668, 0.03718013, 0.4349569, -0.8694972, 5.838631
 69820394, 0.8178599, -1.064918, 0.1143921, 0.07807828, 0.2488316, -0.2951802, 0.03245609, 0.03718013, 0.4079603, -0.8852165, 5.838631
 70020314, 0.843442, -0.9195358, 0.01363387, 0.07807828, 0.285773, -0.2845128, -0.04915531, 0.03718013, 0.3811696, -0.8986654, 5.838631
 70220234, 0.9047304, -0.8289209, -0.1003035, 0.07807828, 0.2801588, -0.2252808, -0.0003374657, 0.03718013, 0.3546609, -0.9113343, 5.838631
 70420154, 0.894424, -0.6890355, -0.00762396, 0.07807828, 0.2790293, -0.175117, 0.006096499, 0.03718013, 0.330612, -0.922152, 5.838631
 70620907, 0.9062958, -0.5533302, -0.01625364, 0.0782332, 0.2777169, -0.1486403, 0.01494472, 0.03733505, 0.3068932, -0.9319725, 5.850215
 70820827, 0.8873283, -0.4592715, -0.0105676, 0.0782332, 0.279234, -0.1282011, -0.01490149, 0.03718013, 0.2844678, -0.9404307, 5.850215
 71020747, 0.8817237, -0.3561587, -0.00561357, 0.07807828, 0.2727098, -0.08065392, 0.02826332, 0.03718013, 0.2666379, -0.9473462, 5.838631
 71220667, 0.8643236, -0.2326962, 0.06475891, 0.07807828, 0.2813826, -0.07826129, -0.03248126, 0.03718013, 0.2471027, -0.9539323, 5.838631
 71420587, 0.8983282, -0.2453155, -0.1538995, 0.07807828, 0.2720443, -0.07213411, -0.04899134, 0.03718013, 0.2276733, -0.9593047, 5.838631
 71620507, 0.8621256, -0.1925406, -0.1249016, 0.07807828, 0.2631311, -0.0489406, -0.01925737, 0.03718013, 0.2117639, -0.9638389, 5.838631
 71820427, 0.8088124, -0.09526505, -0.002497389, 0.07807828, 0.2391416, 0.001557442, 0.02087568, 0.03718013, 0.1983539, -0.968006, 5.838631
 72020347, 0.7686017, 0.04092871, 0.04007415, 0.07807828, 0.2384453, 0.03291617, 0.02566445, 0.03718013, 0.1866893, -0.9714687, 5.838631
 72220267, 0.7442693, 0.1030062, 0.05819996, 0.07807828, 0.2301252, 0.0390044, -0.001328414, 0.03718013, 0.1742186, -0.9747825, 5.838631
 72420187, 0.7334604, 0.1159984, -0.02679028, 0.07807828, 0.2301367, 0.0349462, -0.04369942, 0.03718013, 0.162204, -0.9774505, 5.838631
 72620940, 0.720496, 0.1148424, -0.07838508, 0.0782332, 0.2151513, 0.03959551, -0.002742468, 0.03733505, 0.1517814, -0.9799017, 5.850215
 72820860, 0.6843222, 0.133539, -0.03320621, 0.0782332, 0.2099989, 0.05041137, 0.006502315, 0.03718013, 0.1428791, -0.981894, 5.850215
 73020780, 0.6593522, 0.1771381, 0.01352792, 0.07807828, 0.2085912, 0.05280598, -0.02878458, 0.03718013, 0.1343827, -0.9837259, 5.838631
 73220700, 0.6649708, 0.2043885, -0.07890279, 0.07807828, 0.2004837, 0.07798374, -0.01550254, 0.03718013, 0.1274612, -0.9851552, 5.838631
 73420620, 0.6283119, 0.2447851, -0.05306923, 0.07807828, 0.1779401, 0.07649142, 0.0001049575, 0.03718013, 0.1192239, -0.9866837, 5.838631
 73620540, 0.5969635, 0.259024, -0.0382448, 0.07807828, 0.1896663, 0.08476902, 0.00220878, 0.03718013, 0.1143426, -0.9877915, 5.838631
 73820460, 0.5883046, 0.2755661, 0.04631351, 0.07807828, 0.1727433, 0.09199843, 0.02042125, 0.03718013, 0.1091979, -0.9891084, 5.838631
 74020380, 0.565494, 0.281038, 0.02517323, 0.07807828, 0.1766864, 0.07565125, 0.005299069, 0.03718013, 0.1028829, -0.990266, 5.838631
 74220300, 0.5869639, 0.2594554, -0.1272168, 0.07807828, 0.1902483, 0.08387551, -0.07121917, 0.03718013, 0.1001034, -0.990537, 5.838631
 74420220, 0.5856738, 0.2931348, -0.1164849, 0.07807828, 0.16806, 0.09436988, 0.03895498, 0.03718013, 0.0955026, -0.9915063, 5.838631
 74620973, 0.5152866, 0.274245, 0.116576, 0.0782332, 0.141585, 0.0780884, 0.03401234, 0.03718013, 0.09027611, -0.9926577, 5.850215
 74820893, 0.4678217, 0.2729336, 0.0914067, 0.0782332, 0.1522656, 0.09544215, -0.002018967, 0.03733505, 0.08717705, -0.9934186, 5.850215
 75020813, 0.4906647, 0.3054955, -0.04023065, 0.0782332, 0.151676, 0.09519291, 0.009625113, 0.03718013, 0.08356292, -0.9939924, 5.850215
 75220733, 0.4887053, 0.2914583, -0.06416675, 0.07807828, 0.1485373, 0.08482478, -0.03725487, 0.03718013, 0.08014306, -0.9944155, 5.838631
 75420653, 0.4642797, 0.2780138, -0.06969786, 0.07807828, 0.1401098, 0.08112687, 0.02139246, 0.03718013, 0.07807054, -0.9949216, 5.838631
 75620573, 0.4328659, 0.2559898, 0.09799463, 0.07807828, 0.1307721, 0.0809192, 0.007816525, 0.03718013, 0.07476064, -0.995593, 5.838631
 75820493, 0.4100246, 0.2656066, 0.03344514, 0.07807828, 0.1198891, 0.09301165, 0.0009073441, 0.03718013, 0.07213912, -0.9960385, 5.838631
 76020413, 0.3916287, 0.2912307, -0.06547026, 0.07807828, 0.1214876, 0.06896555, -0.005625, 0.03718013, 0.06889316, -0.9964029, 5.838631
 76220333, 0.3766155, 0.2425472, -0.04654339, 0.07807828, 0.117551, 0.08171182, 0.008819675, 0.03718013, 0.06712062, -0.9966821, 5.838631
 76420253, 0.3611594, 0.2844923, 0.02778669, 0.07807828, 0.09878683, 0.09742071, 0.01918178, 0.03718013, 0.06702124, -0.9969045, 5.838631
 76620173, 0.3280649, 0.2920619, 0.06474461, 0.07807828, 0.108505, 0.08235119, -0.01027974, 0.03718013, 0.06409859, -0.9972684, 5.838631
 76820926, 0.3284262, 0.2678682, 0.0160569, 0.0782332, 0.1005758, 0.08702295, 0.03087007, 0.03733505, 0.06243329, -0.9975588, 5.850215
 77020846, 0.3121294, 0.2475085, 0.0111091, 0.0782332, 0.1013325, 0.07135537, -0.01235372, 0.03718013, 0.059373, -0.9978057, 5.850215
 77220766, 0.3076097, 0.2215071, -0.0733543, 0.07807828, 0.09069972, 0.07548868, -0.04303583, 0.03718013, 0.05768879, -0.9979408, 5.838631
 77420686, 0.2835282, 0.2390144, -0.08836719, 0.07807828, 0.08314255, 0.0727346, 0.01337746, 0.03718013, 0.05712492, -0.9980494, 5.838631
 77620606, 0.2726831, 0.2420058, -0.01582231, 0.07807828, 0.09390465, 0.08620539, -0.05865039, 0.03718013, 0.05531402, -0.9981743, 5.838631
 77820526, 0.2816899, 0.2408295, -0.1337841, 0.07807828, 0.08385931, 0.06313183, -0.0210324, 0.03718013, 0.05350709, -0.998314, 5.838631
 78020446, 0.2706045, 0.2038135, -0.06778865, 0.07807828, 0.08177824, 0.05787153, -0.005680005, 0.03718013, 0.0504804, -0.9985109, 5.838631
 78220366, 0.258498, 0.1896696, 0.02170633, 0.07807828, 0.07231954, 0.07144633, 0.01628453, 0.03718013, 0.04825161, -0.9987026, 5.838631
 78420286, 0.2399612, 0.2043062, 0.02608736, 0.07807828, 0.07767563, 0.05164569, -0.02777114, 0.03718013, 0.04588002, -0.9988531, 5.838631
 78620206, 0.2485095, 0.1773726, -0.07121779, 0.07807828, 0.06643076, 0.06318108, -0.00825828, 0.03718013, 0.04403801, -0.9989621, 5.838631
 78820959, 0.2227353, 0.1756481, -0.06848572, 0.0782332, 0.06478886, 0.04419023, 0.009758646, 0.03733505, 0.04127602, -0.999103, 5.850215
 79020879, 0.1827013, 0.1512447, 0.1443321, 0.0782332, 0.04964546, 0.04505007, 0.03263855, 0.03718013, 0.03904011, -0.9992349, 5.850215
 79220799, 0.1803452, 0.1581732, -0.01599094, 0.07807828, 0.05863671, 0.04446128, -0.05003853, 0.03718013, 0.03581998, -0.999355, 5.838631
 79420719, 0.1858195, 0.1528099, -0.11632, 0.07807828, 0.05428775, 0.0489836, -0.02997782, 0.03718013, 0.03363853, -0.9994323, 5.838631
 79620639, 0.1771397, 0.1443822, -0.06163117, 0.07807828, 0.06006175, 0.04197399, 0.01316698, 0.03718013, 0.03076437, -0.9995265, 5.838631
 79820559, 0.1720096, 0.1202516, 0.04789272, 0.07807828, 0.03908289, 0.04029623, 0.02561498, 0.03718013, 0.02775652, -0.9996045, 5.838631
 80020479, 0.1397022, 0.1425546, 0.01329081, 0.07807828, 0.05006155, 0.06023414, -0.03837299, 0.03718013, 0.02734146, -0.9996104, 5.838631
 80220399, 0.1533673, 0.1648506, -0.07163916, 0.07807828, 0.04963018, 0.03930777, -0.0219672, 0.03718013, 0.02446405, -0.9996784, 5.838631
 80420319, 0.1454948, 0.1077844, -0.08124609, 0.07807828, 0.04487411, 0.02316677, -0.03519376, 0.03718013, 0.01942083, -0.9997875, 5.838631
 80620239, 0.1241303, 0.09028862, -0.01517281, 0.07807828, 0.03103784, 0.03955505, 0.02756551, 0.03718013, 0.0176292, -0.9997881, 5.838631
 80820159, 0.1041226, 0.1245602, 0.005936291, 0.07807828, 0.04791665, 0.04428427, -0.05258116, 0.03718013, 0.01504613, -0.9998348, 5.838631
 81020912, 0.1313113, 0.1314869, -0.1017623, 0.0782332, 0.03562057, 0.04336626, -0.006264725, 0.03733505, 0.01242486, -0.999858, 5.850215
 81220832, 0.1216289, 0.1234688, -0.1128971, 0.0782332, 0.04567157, 0.03152964, -0.07724179, 0.03718013, 0.01011301, -0.9999114, 5.850215
 81420752, 0.1376521, 0.1230911, -0.1389406, 0.07807828, 0.0373555, 0.03155854, 0.008706518, 0.03718013, 0.007030076, -0.9999241, 5.838631
 81620672, 0.1073814, 0.08991677, 0.08643429, 0.07807828, 0.02565508, 0.02317668, 0.05999844, 0.03718013, 0.004993042, -0.9998696, 5.838631
 81820592, 0.09179632, 0.09531213, 0.1207781, 0.07807828, 0.03265113, 0.04011886, -0.008773535, 0.03718013, 0.002898283, -0.999834, 5.838631
 82020512, 0.1007711, 0.1181119, 0.02858684, 0.07807828, 0.02692364, 0.03297466, 0.01393971, 0.03718013, 0.0008112716, -0.9997735, 5.838631
 82220432, 0.0894004, 0.106335, -0.03386121, 0.07807828, 0.02309716, 0.02740756, -0.06741706, 0.03718013, -0.001556904, -0.9998009, 5.838631
 82420352, 0.09337714, 0.0945713, -0.08004988, 0.07807828, 0.03645583, 0.02258343, 0.004573899, 0.03718013, -0.003885372, -0.9997416, 5.838631
 82620272, 0.09243548, 0.07891991, 0.01073435, 0.07807828, 0.01964712, 0.02444542, 0.02077597, 0.03718013, -0.00665407, -0.999675, 5.838631
 82820192, 0.07136213, 0.06030346, 0.01294045, 0.07807828, 0.02715156, 0.02139349, -0.04787093, 0.03718013, -0.01096737, -0.9996318, 5.838631
 83020945, 0.0888809, 0.05956411, -0.08732767, 0.0782332, 0.02966052, 0.02670802, -0.02303754, 0.03733505, -0.01280919, -0.9995981, 5.850215
 83220865, 0.08680339, 0.06571645, -0.04505554, 0.07823878, 0.01920966, 0.01035084, -0.0002172554, 0.03719873, -0.01622408, -0.9995068, 5.8508
 83420785, 0.06528355, 0.05893675, 0.07361512, 0.07811734, 0.01164737, 0.03662681, 0.02576541, 0.03719873, -0.01823559, -0.9993514, 5.84155
 83620705, 0.04917589, 0.1094518, 0.07756843, 0.07811734, 0.0284289, 0.03325096, 0.02252345, 0.03719873, -0.02070206, -0.9992015, 5.84155
 83820625, 0.07087774, 0.08866965, 0.1181182, 0.07811734, 0.01456779, 0.02267334, 0.03877004, 0.03719873, -0.02306612, -0.998991, 5.84155
 84020545, 0.04184673, 0.0778532, -0.001105979, 0.07811734, 0.01561843, 0.01230133, -0.05278907, 0.03719873, -0.02578436, -0.998968, 5.84155
 84220465, 0.04821233, 0.05651186, -0.1596585, 0.07811176, 0.02268068, 0.02917449, -0.07395674, 0.03718013, -0.02765248, -0.9989988, 5.840967
 84420385, 0.06915593, 0.08103806, -0.09816702, 0.07807828, 0.01971465, 0.03084886, 0.00859365, 0.03718013, -0.02955693, -0.9988938, 5.838631
 84620305, 0.05772241, 0.06942903, 0.002867734, 0.07807828, 0.01811977, 0.001169269, 0.01368671, 0.03718013, -0.03320593, -0.9987249, 5.838631
 84820225, 0.06409755, 0.0365888, 0.06317912, 0.07807828, 0.02222197, 0.01348535, 0.04193507, 0.03718013, -0.03511711, -0.9985237, 5.838631
 85020145, 0.05779254, 0.03045273, 0.1019419, 0.07807828, 0.0098142, -0.006731847, 0.001403342, 0.03718013, -0.03913484, -0.998278, 5.838631
 85220898, 0.03766355, 0.01072755, -0.07655779, 0.0782332, 0.007500877, 0.01646974, -0.01564946, 0.03733505, -0.04072003, -0.998265, 5.850215
 85420818, 0.02762493, 0.06241756, -0.03419387, 0.0782332, -0.00071023, 0.02811575, 0.02590888, 0.03718013, -0.04278551, -0.998132, 5.850215
 85620738, 0.01456772, 0.0532732, 0.1004759, 0.07807828, 0.005438562, -0.003101437, 0.0379402, 0.03718013, -0.04681376, -0.9977816, 5.838631
 85820658, 0.02681552, -0.001008239, 0.1324566, 0.07807828, 0.006590685, 0.0006037189, 0.03950989, 0.03718013, -0.04957089, -0.9974681, 5.838631
 86020578, 0.01658846, 0.0168373, 0.009102277, 0.07807828, 0.008930167, -0.006184046, -0.02165567, 0.03718013, -0.05266444, -0.9973458, 5.838631
 86220498, 0.01576317, 0.01824834, -0.0632119, 0.07807828, 0.006548812, 0.01614766, -0.007364283, 0.03718013, -0.05411603, -0.9972918, 5.838631
 86420418, 0.02657855, 0.05059724, -0.03723691, 0.07807828, 0.003776642, 0.021168, 0.01804068, 0.03718013, -0.05662753, -0.9971365, 5.838631
 86620338, 0.002563797, 0.04910337, 0.0443255, 0.07807828, 0.01223695, 0.01289936, 0.0281147, 0.03718013, -0.05903477, -0.9968964, 5.838631
 86820258, 0.01407828, 0.03575902, 0.1023851, 0.07807828, 0.00300671, 0.01219312, 0.01398671, 0.03718013, -0.06156722, -0.9965885, 5.838631
 87020178, 0.003202341, 0.03910424, 0.04487062, 0.07807828, -0.004795874, 0.01293296, 0.01134333, 0.03718013, -0.06369669, -0.9963627, 5.838631
 87220931, -0.006119231, 0.03334482, -0.000310652, 0.0782332, -0.003514676, 0.00722397, -0.05028436, 0.03733505, -0.06600834, -0.9962958, 5.850215
 87420851, 0.001646662, 0.0277263, -0.1572553, 0.0782332, 0.0001592595, 0.007989527, -0.03870741, 0.03718013, -0.06703229, -0.9963154, 5.850215
 87620771, -0.003509637, 0.03923773, 0.01076217, 0.07807828, 0.006171028, 0.01257251, 0.03632913, 0.03718013, -0.06891842, -0.9959934, 5.838631
 87820691, 0.02975014, 0.0341728, 0.07866237, 0.07807828, 0.01984387, 0.007072484, -0.03307955, 0.03718013, -0.07040698, -0.9958261, 5.838631
 88020611, 0.02757093, 0.01547116, -0.02409107, 0.07807828, 0.002111234, -0.01226113, 0.05986298, 0.03718013, -0.07370389, -0.9954097, 5.838631
 88220531, -0.01572052, -0.003532629, 0.07885443, 0.07808387, -0.009399706, 0.01615679, -0.02573538, 0.03719873, -0.07498675, -0.9953368, 5.839214
 88420451, -0.008087806, 0.02026129, -0.0318587, 0.07811734, 0.00762253, 0.009018226, 7.016235E-05, 0.03719873, -0.0773211, -0.9951168, 5.84155
 88620371, 0.01601497, 0.03662935, -0.04184932, 0.07811734, 0.002616759, 0.005402003, -0.0393157, 0.03719873, -0.07957649, -0.9950083, 5.84155
 88820291, -0.005342282, 0.02145931, -0.05787575, 0.07811734, -0.01093622, 0.005403067, -0.004564366, 0.03719873, -0.0813119, -0.9948021, 5.84155
 89020211, -0.01728379, 0.01319667, 0.05329608, 0.07811734, 0.004169614, -0.002569307, 0.0405363, 0.03719873, -0.08364252, -0.9944094, 5.84155
 89220964, 0.0008325686, 0.01196885, 0.0868618, 0.07826667, -0.008015179, 0.004962634, 0.02245418, 0.03733505, -0.08409308, -0.9942517, 5.852556
 89420884, -0.02674743, 0.01697965, 0.006130831, 0.0782332, -0.00433311, 0.00285459, 0.0009920918, 0.03718013, -0.08589743, -0.9941249, 5.850215
 89620804, -0.007080638, 0.02356989, -0.0006857994, 0.07807828, 0.01112798, 0.003936558, 0.01524201, 0.03718013, -0.08857419, -0.9938495, 5.838631
 89820724, 0.00878885, -0.004579613, 0.01723457, 0.07807828, -0.002211753, -0.008448217, 0.01137174, 0.03718013, -0.09085274, -0.9935947, 5.838631
 90020644, -0.02696115, -0.008035798, 0.03598245, 0.07807828, -0.00345916, 0.005149024, 9.142078E-05, 0.03718013, -0.09205859, -0.9933924, 5.838631
 90220564, -0.0126539, 0.02328211, -0.02850747, 0.07807828, -0.007107668, 0.007716829, 0.001645288, 0.03718013, -0.09279662, -0.9933277, 5.838631
 90420484, -0.01032727, 0.02251775, 0.01962449, 0.07807828, -0.008332727, 0.004324781, -0.01511417, 0.03718013, -0.09500881, -0.9930828, 5.838631
 90620404, -0.02215149, 0.00709253, 0.004593621, 0.07807828, -0.006030453, 0.006494604, 0.04762861, 0.03718013, -0.09704357, -0.992748, 5.838631
 90820324, -0.01885058, 0.005414536, 0.0282289, 0.07807828, -0.00301663, 0.009405924, -0.03418517, 0.03718013, -0.09841099, -0.99269, 5.838631
 91020244, -0.02181919, 0.01357002, -0.01149054, 0.07807828, -0.01090842, -0.003603229, 0.03251901, 0.03718013, -0.1000249, -0.9923688, 5.838631
 91220164, -0.03996784, 0.003977182, 0.05180047, 0.07807828, -0.02537443, -0.007992798, 0.02689191, 0.03718013, -0.1009434, -0.9921908, 5.838631
 91420917, -0.05612311, -0.004505805, 0.06896913, 0.0782332, -0.01277514, -0.005956952, 0.01380654, 0.03733505, -0.1032564, -0.9919047, 5.850215
 91620837, -0.02716153, -0.03069869, -0.05366511, 0.0782332, -0.003379846, -0.0105072, 0.006947313, 0.03718013, -0.1053109, -0.9918186, 5.850215
 91820757, -0.009308101, -0.03065682, -0.01503572, 0.07807828, -0.002364762, -0.006939711, -0.01769226, 0.03718013, -0.10681, -0.991695, 5.838631
 92020677, -0.02551854, -0.01675179, -0.03530052, 0.07807828, -0.01012085, -0.01054787, 0.006743689, 0.03718013, -0.1085824, -0.9914669, 5.838631
