TimeUS,CAN,CAE,CAD,CAe,NAN,NAE,NAD,NAe,m10,m00,Gye
 8040949, -0.01083339, -0.003921081, -0.05424276, 1.495416, -0.007748732, 0.006691291, -0.06755063, 1.491887, -0.3201157, 0.9473785, 11.1826
 8220877, -0.007875834, 0.006657141, -0.06972598, 1.529076, 9.41327E-05, -0.0001234065, -0.001013341, 0.03347886, -0.3201112, 0.94738, 2995.994
 8420797, 0.0002229193, -0.0002085789, -0.003370386, 0.07439747, 0.0001911634, 0.0002294642, -0.0008661619, 0.03719873, -0.3201211, 0.9473766, 5.563381
 8620717, 6.204499E-05, 0.0006384594, -0.003089012, 0.07811734, 0.0001918166, 6.073991E-05, -0.0009713101, 0.03719873, -0.3201395, 0.9473704, 5.84155
 8820637, -3.944215E-05, 0.0004507747, -0.003304561, 0.07811734, 0.000253286, -0.0001112646, -0.0009816056, 0.03719873, -0.3201652, 0.9473618, 5.84155
 9020557, 7.318091E-05, 0.0003944707, -0.003252587, 0.07811734, -0.0002426329, 0.0002112303, -0.001037373, 0.03719873, -0.3202031, 0.9473489, 5.84155
 9220477, -0.0003416819, 0.000679074, -0.003257039, 0.07810804, -0.0001124374, 0.0005058524, -0.001390187, 0.03718013, -0.320234, 0.9473385, 5.840384
 9420397, -0.000292153, 0.001073542, -0.003784763, 0.07807828, -0.0002733419, 0.000208635, -0.001004961, 0.03718013, -0.3202462, 0.9473344, 5.838631
 9620317, -0.0006220869, 0.0006688899, -0.003370281, 0.07807828, 7.043013E-05, 0.0003686706, -0.001078746, 0.03718013, -0.320246, 0.9473345, 5.838631
 9820237, -4.209649E-05, 0.0007192793, -0.003612655, 0.07807828, -0.0003315001, 0.0002051226, -0.001099242, 0.03718013, -0.3202395, 0.9473367, 5.838631
 10020157, -0.0004077002, 0.0006589745, -0.003259232, 0.07807828, 1.718848E-06, -2.521446E-05, -0.001062635, 0.03718013, -0.3202352, 0.9473382, 5.838631
 10220910, -0.0002748821, 0.0001708553, -0.003398313, 0.0782332, 0.0001351466, 2.713715E-06, -0.0008829811, 0.03733505, -0.3202523, 0.9473324, 5.850215
 10420830, -9.195467E-05, 0.0004613046, -0.003118024, 0.0782332, -8.335261E-07, 0.0001242394, -0.00120582, 0.03718013, -0.3202608, 0.9473295, 5.850215
 10620750, -3.578064E-05, 0.0005852109, -0.003629167, 0.07807828, -2.729441E-05, 0.0001003143, -0.0009977163, 0.03718013, -0.3202598, 0.9473298, 5.838631
 10820670, -0.0003002178, 0.0005648995, -0.003302292, 0.07807828, 0.0004141476, 0.0002549682, -0.001217355, 0.03718013, -0.3202408, 0.9473362, 5.838631
 11020590, 0.0005894823, 0.0006272485, -0.00347051, 0.07807828, -6.823145E-05, -0.0001756043, -0.00112193, 0.03718013, -0.3202166, 0.9473444, 5.838631
 11220510, -0.0003563079, 8.31965E-05, -0.003533409, 0.07808758, 0.0001048953, 0.0002570527, -0.001192093, 0.03719873, -0.3202035, 0.9473488, 5.839798
 11420430, -9.849323E-05, 0.0005774089, -0.003564534, 0.07811734, 4.613742E-06, -4.071999E-06, -0.0009230735, 0.03719873, -0.3202013, 0.9473496, 5.84155
 11620350, -0.000128379, 0.000167555, -0.003367821, 0.07811734, -0.0003606882, 5.770528E-05, -0.001546908, 0.03719873, -0.3202021, 0.9473493, 5.84155
 11820270, -0.0004828383, 0.0002016678, -0.003952228, 0.07811734, -0.0001295785, 0.0003700661, -0.001161206, 0.03719873, -0.3202079, 0.9473474, 5.84155
 12020190, -0.0003173315, 0.0008860752, -0.003569481, 0.07811734, 0.0002659035, -0.0002101757, -0.0009317484, 0.03719873, -0.3202232, 0.9473422, 5.84155
 12220943, 0.0002083919, 0.0002003941, -0.003307045, 0.07826295, 0.000155185, 6.133191E-05, -0.0009889504, 0.03733505, -0.3202263, 0.9473411, 5.851971
 12420863, 4.09513E-05, 0.0006513346, -0.003331439, 0.0782332, -3.87101E-05, 0.0003151562, -0.001046716, 0.03718013, -0.3202156, 0.9473447, 5.850215
 12620783, -0.0001316852, 0.0005808903, -0.003327002, 0.07807828, -2.54511E-05, 7.222876E-05, -0.001168832, 0.03718013, -0.3202007, 0.9473497, 5.838631
 12820703, -0.0001137363, 0.0002384707, -0.003706279, 0.07807828, 8.942356E-05, 0.0001717182, -0.001209443, 0.03718013, -0.3201753, 0.9473583, 5.838631
 13020623, -9.967729E-05, 0.0003608268, -0.003408069, 0.07807828, -0.000322181, 2.538856E-05, -0.001245763, 0.03718013, -0.3201615, 0.9473631, 5.838631
 13220543, -0.0006073989, 0.0004100588, -0.003530043, 0.07808758, -0.0002156948, 0.0001148979, -0.001115734, 0.03719873, -0.3201579, 0.9473643, 5.839798
 13420463, -0.0004123671, 0.0004506539, -0.003414246, 0.07811734, -0.000353237, 0.0001640579, -0.0008231684, 0.03719873, -0.3201765, 0.947358, 5.84155
 13620383, -0.000586203, 0.0007209759, -0.003061805, 0.07811734, -0.0001184155, 0.0002603415, -0.0008620627, 0.03719873, -0.3201922, 0.9473526, 5.84155
 13820303, -0.0002334015, 0.0006414068, -0.003365009, 0.07811734, -0.000233163, 8.597221E-05, -0.001035371, 0.03719873, -0.3201909, 0.9473531, 5.84155
 14020223, -0.0006892707, 0.0001839618, -0.003437555, 0.07811734, 1.462069E-06, 0.0002213462, -0.001047955, 0.03719873, -0.3201864, 0.9473546, 5.84155
 14220976, -0.0003340013, 0.0008637551, -0.003208924, 0.07826295, -0.0003278471, -0.0001075497, -0.0008582496, 0.03718013, -0.320195, 0.9473516, 5.851971
 14420896, -0.000672347, 0.000379954, -0.0030892, 0.0782332, 5.717516E-05, 0.0003338819, -0.001121723, 0.03733505, -0.3202212, 0.9473429, 5.850215
 14620816, -6.796289E-05, 0.001088822, -0.003512448, 0.0782332, -0.000193707, 0.0005463581, -0.001250148, 0.03718013, -0.3202637, 0.9473285, 5.850215
 14820736, -0.0001793257, 0.0008525135, -0.003708481, 0.07807828, -0.0001446461, 0.000187003, -0.000893426, 0.03718013, -0.3202786, 0.9473234, 5.838631
 15020656, -0.0004796063, 0.0004898596, -0.003423217, 0.07807828, -0.0002067986, 8.653163E-05, -0.001305058, 0.03718013, -0.3202701, 0.9473263, 5.838631
 15220576, -0.0004083085, 0.0006075814, -0.003915393, 0.07807828, -0.0001373697, -3.301579E-05, -0.001247193, 0.03718013, -0.320269, 0.9473267, 5.838631
 15420496, -0.0002546615, 0.0005294732, -0.003752895, 0.07807828, -0.000268059, 0.0001273236, -0.001236516, 0.03718013, -0.3202755, 0.9473245, 5.838631
 15620416, -0.0003239441, 0.0004327761, -0.003547832, 0.07807828, -0.0005332723, 0.0004229413, -0.0009659716, 0.03718013, -0.3202686, 0.9473267, 5.838631
 15820336, -0.0006305591, 0.0008896456, -0.003271225, 0.07807828, 0.0001412206, 0.000160889, -0.001081701, 0.03718013, -0.3202624, 0.9473288, 5.838631
 16020256, 8.354165E-06, 0.0006282555, -0.003636612, 0.07807828, 0.0001177146, 0.0001187694, -0.001063494, 0.03718013, -0.3202575, 0.9473306, 5.838631
 16220176, -0.0001510403, 0.0005407372, -0.003378451, 0.07808758, -0.000180377, 3.630933E-05, -0.0009961911, 0.03719873, -0.3202491, 0.9473334, 5.839798
 16420929, -2.25463E-05, 0.0005398608, -0.003401214, 0.07827234, 3.028406E-05, 0.0002978384, -0.0006781265, 0.03735373, -0.3202382, 0.947337, 5.853141
 16620849, -0.0002658791, 0.0006965769, -0.002881835, 0.07827234, -0.0002746227, 2.618034E-05, -0.001183322, 0.03719873, -0.3202187, 0.9473436, 5.853141
 16820769, -0.0005626527, 0.0004445223, -0.003530225, 0.07811734, -0.000394682, 0.0004227797, -0.001103151, 0.03719873, -0.3202011, 0.9473495, 5.84155
 17020689, -0.0009428627, 0.001046048, -0.003449166, 0.07811734, -8.33766E-05, -8.560946E-06, -0.001199338, 0.03719873, -0.3202085, 0.9473471, 5.84155
 17220609, -0.0005801116, 0.0005570503, -0.003430472, 0.07810804, -0.0001022353, 0.0005830342, -0.00123337, 0.03718013, -0.3202173, 0.9473441, 5.840384
 17420529, -0.0004461193, 0.001031271, -0.003617308, 0.07807828, -0.0002991076, 0.0002828715, -0.001250148, 0.03718013, -0.3202438, 0.9473351, 5.838631
 17620449, -0.0005846081, 0.0007998568, -0.003725506, 0.07807828, -0.0002277581, 0.0002752992, -0.001314019, 0.03718013, -0.3202509, 0.9473328, 5.838631
 17820369, -0.0004943779, 0.0008885937, -0.003604067, 0.07807828, -0.0002312219, 0.0002012503, -0.0008072484, 0.03718013, -0.3202438, 0.9473352, 5.838631
 18020289, -0.0006795362, 0.0006205125, -0.003034341, 0.07807828, 4.950682E-05, 0.0002199584, -0.0009924732, 0.03718013, -0.3202331, 0.9473388, 5.838631
 18220209, -0.0001366972, 0.0007779432, -0.003141663, 0.07808758, -0.0002145842, 0.000258937, -0.001059871, 0.03719873, -0.3202333, 0.9473386, 5.839798
 18420962, -0.000804662, 0.0006851834, -0.003612467, 0.07827234, 0.0002023027, 0.0004470283, -0.0009894291, 0.03735373, -0.3202462, 0.9473343, 5.853141
 18620882, -6.327078E-05, 0.001202649, -0.003522109, 0.07827234, -0.0004345865, 0.0002577727, -0.001190377, 0.03719873, -0.3202646, 0.9473281, 5.853141
 18820802, -0.001001468, 0.0006449014, -0.003648852, 0.07811734, 1.847416E-05, 0.0001649482, -0.00101316, 0.03719873, -0.3202722, 0.9473256, 5.84155
 19020722, -0.0002900207, 0.0005586238, -0.003452645, 0.07811734, -0.0005453397, 0.0003486777, -0.001018212, 0.03719873, -0.3202677, 0.947327, 5.84155
 19220642, -0.001169309, 0.0008113442, -0.003603457, 0.07810804, -7.574882E-05, 0.0002030892, -0.001199052, 0.03718013, -0.3202646, 0.9473281, 5.840384
 19420562, -0.000674472, 0.0005717904, -0.003499567, 0.07807828, -0.0004386254, 0.0002810566, -0.000791233, 0.03718013, -0.3202718, 0.9473257, 5.838631
 19620482, -0.0008271704, 0.0008327663, -0.003261834, 0.07807828, -0.0001510867, 0.0001667212, -0.0009194509, 0.03718013, -0.2920759, 0.9563951, 5.838631
 19820402, -0.0008761457, 0.0009515384, -0.003317583, 0.07807828, -0.0002918878, 0.0002382026, -0.001167974, 0.03718013, -0.2458722, 0.9693022, 5.838631
 20020322, -0.0006340547, 0.0009531279, -0.003421768, 0.07807828, -9.204341E-05, 0.0005538044, -0.0007529107, 0.03718013, -0.2108375, 0.9775211, 5.838631
 20220242, -0.0003107277, 0.001325424, -0.003182663, 0.07807828, 0.0001673602, 0.0004148215, -0.001198575, 0.03718013, -0.1951298, 0.9807774, 5.838631
 20420162, -0.000236359, 0.001343005, -0.004092763, 0.07807828, -0.0003853194, 0.000149149, -0.0008837978, 0.03718013, -0.1920997, 0.9813754, 5.838631
 20620915, 0.01295285, -0.001648332, -0.00328843, 0.0782332, 0.02514755, -0.004236735, -0.0008717811, 0.03733505, -0.1891597, 0.9819463, 5.850215
 20820835, 0.2885409, -0.05361797, -0.002193999, 0.0782332, 0.2092009, -0.03943552, 0.0001460445, 0.03718013, -0.1867453, 0.9824075, 5.850215
 21020755, 0.9494367, -0.1770411, 0.008594278, 0.07807828, 0.4409934, -0.08712552, 0.005366943, 0.03718013, -0.185637, 0.9825982, 5.838631
 21220675, 1.678489, -0.3217741, 0.01557367, 0.07808758, 0.6560084, -0.1243138, 0.003446154, 0.03719873, -0.1852722, 0.9824995, 5.839798
 21420595, 2.34421, -0.4425548, -0.007402148, 0.07811734, 0.8620671, -0.1522441, -0.01299472, 0.03719873, -0.1848681, 0.9819795, 5.84155
 21620515, 2.931826, -0.5373455, -0.07040591, 0.07811734, 0.9929935, -0.1826636, -0.03803991, 0.03719873, -0.1844014, 0.9807422, 5.84155
 21820435, 3.134166, -0.5817968, -0.1492325, 0.07811734, 0.9400655, -0.1802375, -0.06022275, 0.03719873, -0.1837402, 0.9786474, 5.84155
 22020355, 2.865007, -0.5412785, -0.2147912, 0.07811734, 0.8130135, -0.1478945, -0.07651948, 0.03719873, -0.1830362, 0.9757613, 5.84155
 22220275, 2.443867, -0.4502941, -0.2823292, 0.07810804, 0.6725923, -0.1296572, -0.1267496, 0.03718013, -0.1823613, 0.9723336, 5.840384
 22420195, 2.001482, -0.3757034, -0.4424785, 0.07807828, 0.5354561, -0.09555613, -0.1121755, 0.03718013, -0.1818078, 0.9687183, 5.838631
 22620948, 1.611053, -0.2990584, -0.2730795, 0.0782332, 0.4408464, -0.08889133, -0.05054789, 0.03733505, -0.1814509, 0.9651219, 5.850215
 22820868, 1.726259, -0.3248182, -1.117865, 0.0782332, 0.5607244, -0.1012435, -0.9747888, 0.03718013, -0.1795392, 0.9559076, 5.850215
 23020788, 1.498163, -0.2884133, -3.140358, 0.07807828, 0.3787958, -0.08206002, -0.8094745, 0.03718013, -0.1770644, 0.9381759, 5.838631
 23220708, 1.234316, -0.2633913, -1.916095, 0.07808758, 0.4084421, -0.07454491, -0.3074805, 0.03719873, -0.1759273, 0.9315137, 5.839798
 23420628, 1.312178, -0.2545783, -0.6993024, 0.07811734, 0.394304, -0.08408982, -0.130411, 0.03719873, -0.1782577, 0.9313089, 5.84155
 23620548, 1.118974, -0.2411077, -0.5268476, 0.07811734, 0.257036, -0.05140386, -0.2477182, 0.03719873, -0.178197, 0.9269647, 5.84155
 23820468, 0.62959, -0.1402955, -0.9727539, 0.07811734, 0.1052504, -0.03812759, -0.3411174, 0.03719873, -0.1839215, 0.9165155, 5.84155
 24020388, 0.23852, -0.1012664, -1.095334, 0.07811734, 0.02827905, -0.02852259, -0.3155912, 0.03719873, -0.195444, 0.9066401, 5.84155
 24220308, 0.01763528, -0.2610685, -0.9040081, 0.07810804, -0.04313612, -0.1434186, -0.2436863, 0.03718013, -0.2073147, 0.8994458, 5.840384
 24420228, -0.1988576, -0.4273408, -0.7794451, 0.07807828, -0.08520317, -0.1052483, -0.2135085, 0.03718013, -0.210565, 0.8942789, 5.838631
 24620148, -0.2356245, -0.3091117, -0.5263571, 0.07807828, -0.07194048, -0.07620914, -0.1072613, 0.03718013, -0.2217018, 0.8915942, 5.838631
 24820901, -0.2994097, -0.2533239, -0.3912241, 0.0782332, -0.1432475, -0.09949184, -0.1245215, 0.03733505, -0.2365827, 0.8867568, 5.850215
 25020821, -0.4379351, -0.3496349, -0.3169311, 0.0782332, -0.1192267, -0.1115231, -0.03877747, 0.03718013, -0.2433048, 0.8856451, 5.850215
 25220741, -0.4812593, -0.3259338, -0.2337757, 0.07807828, -0.2083321, -0.09458394, -0.1318769, 0.03718013, -0.252866, 0.8818489, 5.838631
 25420661, -0.8502465, -0.2989359, -0.6524875, 0.07807828, -0.341261, -0.09550147, -0.3067028, 0.03718013, -0.2654338, 0.8716794, 5.838631
 25620581, -1.128331, -0.2900254, -0.9645823, 0.07807828, -0.3317089, -0.06859363, -0.2577862, 0.03718013, -0.2744402, 0.8629658, 5.838631
 25820501, -0.9951409, -0.1805389, -0.624535, 0.07807828, -0.2598128, -0.03637364, -0.1040399, 0.03718013, -0.282856, 0.8600602, 5.838631
 26020421, -0.6748959, -0.1059851, -0.07089747, 0.07807828, -0.1527088, -0.0230241, 0.07804284, 0.03718013, -0.2944678, 0.8626737, 5.838631
 26220341, -0.456609, -0.1027404, 0.2937121, 0.07808758, -0.1378352, -0.03496443, 0.1009418, 0.03719873, -0.3060381, 0.8656597, 5.839798
 26420261, -0.4579026, -0.1132747, 0.2735772, 0.07811734, -0.1470919, -0.0188825, 0.07457696, 0.03719873, -0.3143956, 0.867233, 5.84155
 26620181, -0.5194194, -0.09039754, 0.1475128, 0.07811734, -0.1817318, -0.0396997, 0.02167988, 0.03719873, -0.3243669, 0.866717, 5.84155
 26820934, -0.542585, -0.1468871, 0.1591176, 0.07827234, -0.1481194, -0.05549463, 0.07807644, 0.03735373, -0.3342341, 0.867782, 5.853141
 27020854, -0.428353, -0.1406602, 0.3336215, 0.07827234, -0.09608639, -0.02123301, 0.1452314, 0.03719873, -0.34167, 0.8708084, 5.853141
 27220774, -0.3861025, -0.07916158, 0.3496571, 0.07810804, -0.1321079, -0.02933015, 0.08621943, 0.03718013, -0.3502229, 0.8716217, 5.840384
 27420694, -0.3847707, -0.1034695, 0.3319281, 0.07807828, -0.1264586, -0.04335373, 0.08195487, 0.03718013, -0.3602331, 0.8721927, 5.838631
 27620614, -0.4766879, -0.1210217, 0.1170949, 0.07807828, -0.1623124, -0.04589849, -0.002883902, 0.03718013, -0.3696048, 0.8700051, 5.838631
 27820534, -0.5298373, -0.1095777, 0.009761147, 0.07807828, -0.1736342, -0.02000217, -0.01876185, 0.03718013, -0.3785382, 0.8679143, 5.838631
 28020454, -0.5847829, -0.05527144, -0.1084003, 0.07807828, -0.1751463, -0.01045441, 0.02169532, 0.03718013, -0.3860942, 0.865799, 5.838631
 28220374, -0.6140202, 0.01385839, 0.05086789, 0.07808758, -0.2055691, 0.02232277, 0.02643681, 0.03719873, -0.3932477, 0.8645937, 5.839798
 28420294, -0.6739606, 0.09741325, 0.1567604, 0.07811734, -0.2065481, 0.03199957, 0.09862558, 0.03719873, -0.4009022, 0.8648071, 5.84155
 28620214, -0.4088955, 0.03301612, 1.035482, 0.07811734, 0.03337836, 0.01957429, 0.7298926, 0.03719873, -0.3985517, 0.8814035, 5.84155
 28820967, 0.2754017, 0.3228799, 2.570113, 0.07827234, 0.1473084, 0.2005437, 0.8764703, 0.03735373, -0.4102873, 0.8929812, 5.853141
 29020887, 0.3793, 0.7102834, 2.435033, 0.07827234, 0.05904812, 0.2546378, 0.5052647, 0.03719873, -0.4408628, 0.8818464, 5.853141
 29220807, 0.06487047, 0.9094871, 0.9549211, 0.07810804, -0.04061786, 0.3036541, 0.01434591, 0.03718013, -0.4415512, 0.881026, 5.840384
 29420727, -0.220106, 0.8960441, -0.1816852, 0.07807828, -0.1002575, 0.2156719, -0.1047356, 0.03718013, -0.4236729, 0.8896362, 5.838631
 29620647, -0.3259694, 0.5724368, -0.09498093, 0.07807828, -0.1005392, 0.1033447, 0.09845465, 0.03718013, -0.4031557, 0.9016572, 5.838631
 29820567, -0.2961363, 0.2903544, 0.4887531, 0.07807828, -0.08894127, 0.08526368, 0.1888972, 0.03718013, -0.3861745, 0.9124724, 5.838631
 30020487, -0.2759703, 0.3269666, 0.5376756, 0.07807828, -0.08474875, 0.1097313, 0.1814596, 0.03718013, -0.369799, 0.9216532, 5.838631
 30220407, -0.2759844, 0.3885719, 0.4773589, 0.07807828, -0.1116176, 0.143495, 0.0998253, 0.03718013, -0.355877, 0.9286209, 5.838631
 30420327, -0.5557228, 0.5872243, 0.111285, 0.07807828, -0.2972661, 0.2535693, -0.09109475, 0.03718013, -0.3393492, 0.9347314, 5.838631
 30620247, -1.201885, 0.8924208, -0.5036349, 0.07807828, -0.4576881, 0.2899025, -0.1761794, 0.03718013, -0.3245755, 0.9386853, 5.838631
 30820167, -1.374216, 0.8044581, -0.2651758, 0.07807828, -0.361368, 0.1746144, 0.1159772, 0.03718013, -0.3123835, 0.9443722, 5.838631
 31020920, -0.9771433, 0.4344951, 0.7387966, 0.0782332, -0.2230717, 0.073566, 0.3932607, 0.03733505, -0.3021126, 0.951274, 5.850215
 31220840, -0.621308, 0.2070744, 1.295028, 0.0782332, -0.1571101, 0.06340395, 0.3810973, 0.03718013, -0.2885734, 0.9573226, 5.850215
 31420760, -0.468096, 0.1930655, 1.060681, 0.07807828, -0.1325015, 0.05895708, 0.2422042, 0.03718013, -0.2738895, 0.9616267, 5.838631
 31620680, -0.3824266, 0.1955737, 0.6136087, 0.07807828, -0.09711792, 0.05471724, 0.1325807, 0.03718013, -0.2581587, 0.9654435, 5.838631
 31820600, -0.2906167, 0.168585, 0.3526511, 0.07807828, -0.06464034, 0.05212659, 0.06383249, 0.03718013, -0.2409042, 0.9693568, 5.838631
 32020520, -0.2064269, 0.1570917, 0.1706936, 0.07807828, -0.05541662, 0.04516349, 0.05278973, 0.03718013, -0.2234351, 0.9730878, 5.838631
 32220440, -0.1559295, 0.0975735, 0.2124787, 0.07807828, -0.03158449, 0.01905268, 0.07412271, 0.03718013, -0.2062284, 0.9762928, 5.838631
 32420360, -0.1034295, 0.04576039, 0.2355607, 0.07807828, -0.02408838, 0.005079922, 0.08797777, 0.03718013, -0.1883411, 0.9792956, 5.838631
 32620280, -0.06844761, 0.005279808, 0.3138597, 0.07807828, -0.01207152, -0.0009486083, 0.1017613, 0.03718013, -0.1704743, 0.9818026, 5.838631
 32820200, -0.03875721, -0.01486856, 0.2252274, 0.07807828, -0.01287134, -0.01390815, 0.01272589, 0.03718013, -0.153674, 0.9842777, 5.838631
 33020953, -0.04635941, -0.05120769, 0.01195168, 0.0782332, -0.01334018, -0.01913967, -0.02539672, 0.03733505, -0.1390677, 0.9865324, 5.850215
 33220873, -0.05195324, -0.07373466, -0.0811023, 0.0782332, -0.01941513, -0.02513686, -0.02518552, 0.03718013, -0.1240856, 0.9886665, 5.850215
 33420793, -0.0552076, -0.08171427, -0.02549467, 0.07807828, -0.01096076, -0.03190358, 0.02206034, 0.03718013, -0.1105745, 0.9901763, 5.838631
 33620713, -0.03961984, -0.09568182, 0.08504182, 0.07807828, -0.01085454, -0.02801078, 0.02925236, 0.03718013, -0.09686089, 0.9914318, 5.838631
 33820633, -0.02968149, -0.1074114, 0.0458936, 0.07807828, -0.01208556, -0.0390866, -0.01537004, 0.03718013, -0.08599333, 0.9924527, 5.838631
 34020553, -0.02493466, -0.1245288, -0.0537186, 0.07807828, -0.005182564, -0.03258219, 0.003153874, 0.03718013, -0.07466538, 0.993494, 5.838631
 34220473, -0.01437387, -0.1533733, 0.03432425, 0.07807828, -0.007717364, -0.06297825, 0.01116392, 0.03718013, -0.06595905, 0.994048, 5.838631
 34420393, -0.01302917, -0.196714, 0.04923017, 0.07807828, -0.006210626, -0.05611077, 0.01215772, 0.03718013, -0.05586897, 0.9946138, 5.838631
 34620313, -0.003786532, -0.1821722, 0.01043889, 0.07807828, -0.00678216, -0.06191642, -0.01484325, 0.03718013, -0.04875704, 0.9951356, 5.838631
 34820233, -0.0200883, -0.1957862, -0.06758004, 0.07807828, 0.007282305, -0.05792769, -0.04294327, 0.03718013, -0.04011605, 0.9957432, 5.838631
 35020153, 0.004551467, -0.168167, -0.07993056, 0.07807828, 0.002054573, -0.04942553, -0.0120277, 0.03718013, -0.03372152, 0.9961224, 5.838631
 35220906, 0.004012635, -0.1929193, -0.04287935, 0.0782332, -0.002770295, -0.06289505, 0.01152011, 0.03733505, -0.02853848, 0.996376, 5.850215
 35420826, -0.00709327, -0.2077985, 0.001280019, 0.0782332, 0.0005446281, -0.06243038, -0.006553984, 0.03718013, -0.02140796, 0.9966412, 5.850215
 35620746, 0.01549455, -0.1767404, 0.03591342, 0.07807828, 0.003934025, -0.04571151, 0.03884802, 0.03718013, -0.01458975, 0.9966705, 5.838631
 35820666, 0.006239598, -0.170045, 0.003994009, 0.07807828, -0.002159071, -0.05496567, -0.01579196, 0.03718013, -0.01078039, 0.9969465, 5.838631
 36020586, 0.001483013, -0.195344, -0.01966888, 0.07807828, -0.003222404, -0.05711281, -0.01270634, 0.03718013, -0.00640757, 0.9970956, 5.838631
 36220506, -0.01327944, -0.2007883, -0.1390087, 0.07807828, -0.002662535, -0.0711624, -0.08030244, 0.03718013, -0.003637216, 0.9975134, 5.838631
 36420426, -0.01354135, -0.2222496, -0.150906, 0.07807828, -0.00605164, -0.06696684, -0.001823554, 0.03718013, -0.0003010235, 0.9976304, 5.838631
 36620346, -0.01271727, -0.1897452, 0.03381297, 0.07807828, 0.001202776, -0.0575635, 0.03961494, 0.03718013, 0.004192448, 0.9975008, 5.838631
 36820266, 0.00250588, -0.1902287, 0.0258896, 0.07807828, -0.001132047, -0.05893569, -0.01349472, 0.03718013, 0.006348484, 0.9976158, 5.838631
 37020186, -0.01013479, -0.1876476, -0.05970643, 0.07807828, -0.009953015, -0.05113093, -0.04045384, 0.03718013, 0.008560544, 0.9977844, 5.838631
 37220939, -0.02905323, -0.1842258, -0.1472314, 0.0782332, -0.00460518, -0.0636793, -0.04224315, 0.03733505, 0.008768802, 0.998007, 5.850215
 37420859, -0.02037116, -0.2112131, -0.1130506, 0.0782332, -0.001967626, -0.06885322, -0.03333255, 0.03718013, 0.00939803, 0.9981356, 5.850215
 37620779, -0.03010656, -0.194966, -0.0779267, 0.07807828, -0.01391495, -0.04136196, -0.004409075, 0.03718013, 0.01250813, 0.9981605, 5.838631
 37820699, -0.03265079, -0.1208351, -0.0212177, 0.07807828, -0.01605759, -0.02303198, -0.01268919, 0.03718013, 0.0144227, 0.9981762, 5.838631
 38020619, -0.04120351, -0.0964594, -0.0804631, 0.07807828, -0.01210059, -0.04341877, -0.03560949, 0.03718013, 0.01436037, 0.9983107, 5.838631
 38220539, -0.03786388, -0.1352401, -0.0642233, 0.07807828, -0.01912641, -0.0399916, 0.02117225, 0.03718013, 0.01576098, 0.998263, 5.838631
 38420459, -0.0452188, -0.1173828, 0.01689605, 0.07807828, -0.006673437, -0.03321618, -0.03809244, 0.03718013, 0.01875321, 0.9982818, 5.838631
 38620379, -0.03761271, -0.1016442, -0.1870312, 0.07807828, -0.01190916, -0.03994527, -0.08798874, 0.03718013, 0.01820556, 0.9985825, 5.838631
 38820299, -0.04911518, -0.1233323, -0.2438228, 0.07807828, -0.02104396, -0.03575566, -0.01643143, 0.03718013, 0.0193918, 0.998699, 5.838631
 39020219, -0.05080017, -0.1173135, 0.009563405, 0.07807828, -0.01277471, -0.04294443, 0.002853491, 0.03718013, 0.01905047, 0.9986317, 5.838631
 39220972, -0.04332661, -0.124074, -0.04591119, 0.0782332, -0.02066899, -0.02871214, -0.04810325, 0.03718013, 0.02078705, 0.998717, 5.850215
 39420892, -0.06966051, -0.09579749, -0.1747485, 0.0782332, -0.02575744, -0.03315063, -0.0520441, 0.03733505, 0.02037044, 0.9988668, 5.850215
 39620812, -0.07631306, -0.08772546, -0.07909323, 0.0782332, -0.01844971, -0.01264586, -0.02127416, 0.03718013, 0.02213458, 0.998836, 5.850215
 39820732, -0.07641992, -0.06170467, -0.03464012, 0.07807828, -0.0190541, -0.02370319, -0.02146091, 0.03718013, 0.02178002, 0.9988247, 5.838631
 40020652, -0.07562737, -0.07203627, -0.09890965, 0.07807828, -0.04403662, -0.01537104, -0.01538653, 0.03718013, 0.02207287, 0.9988857, 5.838631
 40220572, -0.09827061, -0.07136536, -0.08320583, 0.07807828, -0.02072106, -0.02434507, -0.04352144, 0.03718013, 0.02200687, 0.998965, 5.838631
 40420492, -0.06972124, -0.08330575, -0.1299731, 0.07807828, -0.02675385, -0.03764903, -0.0321477, 0.03718013, 0.02154503, 0.9990389, 5.838631
 40620412, -0.0759364, -0.1119862, -0.07286745, 0.07807828, -0.02678693, -0.0389229, -0.01842696, 0.03718013, 0.02081667, 0.9990819, 5.838631
 40820332, -0.06191593, -0.09572838, -0.05417482, 0.07807828, -0.01893017, -0.02292695, 0.001472456, 0.03718013, 0.02182945, 0.9990453, 5.838631
 41020252, -0.0613221, -0.06082172, 0.02877578, 0.07807828, -0.02089421, -0.007400241, 0.01241178, 0.03718013, 0.02160064, 0.9989936, 5.838631
 41220172, -0.0717507, -0.04166503, 0.06775419, 0.07807828, -0.01786994, -0.01541274, 0.03010575, 0.03718013, 0.02068053, 0.9989179, 5.838631
 41420925, -0.06844293, -0.05577944, -0.03197156, 0.0782332, -0.02383964, -0.007753305, -0.03679592, 0.03733505, 0.02125, 0.9989907, 5.850215
 41620845, -0.07359866, -0.0231843, -0.1016882, 0.0782332, -0.02929092, -0.005469129, -0.03695869, 0.03718013, 0.02083592, 0.9990625, 5.850215
 41820765, -0.08711755, -0.02820885, -0.1523203, 0.07807828, -0.01433417, -0.02151372, -0.03786889, 0.03718013, 0.01968984, 0.9991829, 5.838631
 42020685, -0.05566584, -0.05518301, -0.0722283, 0.07807828, -0.01650252, -0.005051062, -0.01641761, 0.03718013, 0.01984684, 0.9991779, 5.838631
 42220605, -0.05432433, -0.01194836, -0.01741525, 0.07807828, -0.01514927, 9.014855E-05, 0.0375789, 0.03718013, 0.01947798, 0.9991077, 5.838631
 42420525, -0.03519667, -0.003061516, 0.1140761, 0.07807828, -0.01281803, 8.967367E-05, -0.004045012, 0.03718013, 0.01914704, 0.9990544, 5.838631
 42620445, -0.06629772, -0.01415065, -0.05873348, 0.07807828, -0.02617866, -0.01811035, -0.03296611, 0.03718013, 0.01870434, 0.9991224, 5.838631
 42820365, -0.07658716, -0.02920272, -0.1175318, 0.07807828, -0.01595831, 0.0007055048, -0.02852958, 0.03718013, 0.01903398, 0.9991833, 5.838631
 43020285, -0.05231529, 0.01610519, -0.1161624, 0.07807828, -0.02399309, 0.01162712, -0.06109101, 0.03718013, 0.01990564, 0.9992536, 5.838631
 43220205, -0.06976507, 0.01396101, -0.1304167, 0.07807828, -0.02460764, -0.004986139, 0.0143095, 0.03718013, 0.01911911, 0.9992687, 5.838631
 43420958, -0.07930648, -0.007419512, 0.01706376, 0.0782332, -0.02251124, 0.001050939, -0.054609, 0.03733505, 0.01998392, 0.9992559, 5.850215
 43620878, -0.07407486, 0.03441648, -0.056269, 0.0782332, -0.02761781, 0.02707302, 0.01864279, 0.03718013, 0.02145003, 0.9991542, 5.850215
 43820798, -0.08294198, 0.1027023, 0.0299447, 0.07807828, -0.01378914, 0.02990076, -0.02579801, 0.03718013, 0.02249188, 0.9991224, 5.838631
 44020718, -0.06928823, 0.1274146, -0.0860017, 0.07807828, -0.01903916, 0.01974679, -0.01786566, 0.03718013, 0.02877591, 0.9989664, 5.838631
 44220638, -0.08533679, 0.5130452, -0.01608465, 0.07807828, -0.0282914, 0.3298107, 0.03134322, 0.03718013, 0.03211108, 0.9988824, 5.838631
 44420558, -0.08017828, 0.6307459, -0.008627328, 0.07807828, -0.01987777, -0.0279629, -0.0663038, 0.03718013, 0.02195038, 0.9992667, 5.838631
 44620478, -0.05557139, -0.3255313, -0.137365, 0.07807828, -0.01199198, -0.1970031, 0.03529109, 0.03718013, 0.03547998, 0.9987559, 5.838631
 44820398, -0.02065331, -0.5640477, 0.1695069, 0.07807828, -0.008812603, -0.127219, 0.04398131, 0.03718013, 0.04886894, 0.9980825, 5.838631
 45020318, -0.05263647, -0.2961194, 0.05050096, 0.07807828, -0.03072707, -0.04223142, -0.01461741, 0.03718013, 0.05131552, 0.9979834, 5.838631
 45220238, -0.07946695, -0.06424421, -0.05297838, 0.07807828, -0.0199512, 0.006491275, -0.05122729, 0.03718013, 0.04429456, 0.9983289, 5.838631
 45420158, -0.0634962, 0.01426476, -0.1488413, 0.07807828, -0.0245704, 0.0008789569, -0.02430468, 0.03718013, 0.038116, 0.9986305, 5.838631
 45620911, -0.06607166, -0.01833674, -0.04133092, 0.0782332, -0.008672891, -0.03089933, -0.002970297, 0.03733505, 0.03526527, 0.9987106, 5.850215
 45820831, -0.05274341, -0.112141, -0.03747132, 0.0782332, -0.01987112, -0.04194177, -0.01128117, 0.03718013, 0.03448955, 0.9987688, 5.850215
 46020751, -0.05939721, -0.1255099, 0.007477763, 0.07807828, -0.01845159, -0.0395229, 0.01139576, 0.03718013, 0.0335055, 0.9987268, 5.838631
 46220671, -0.06295935, -0.1111295, 0.02689335, 0.07807828, 0.0005294559, -0.0277743, -0.002529562, 0.03718013, 0.03192979, 0.9987364, 5.838631
 46420591, -0.02642902, -0.06873962, 0.08914669, 0.07807828, -0.004004426, -0.01552948, 0.01495488, 0.03718013, 0.02939494, 0.998668, 5.838631
 46620511, -0.0364881, -0.05889037, -0.002457533, 0.07807828, -0.008393154, -0.02366869, -0.001161206, 0.03718013, 0.02548724, 0.9987824, 5.838631
 46820431, -0.04798369, -0.07838682, -0.05830283, 0.07807828, -0.02063085, -0.02805455, -0.03426259, 0.03718013, 0.02282955, 0.9989184, 5.838631
 47020351, -0.05443501, -0.08022802, -0.02708763, 0.07807828, -0.0118235, -0.009592048, 0.05944239, 0.03718013, 0.02120978, 0.9988463, 5.838631
 47220271, -0.04389334, -0.03377401, 0.1258625, 0.07807828, -0.01503228, 0.005940794, -0.01296612, 0.03718013, 0.01896075, 0.998829, 5.838631
 47420191, -0.05274067, 0.001202466, -0.03239784, 0.07807828, -0.02429835, -0.005971987, -0.03516879, 0.03718013, 0.01592609, 0.9989184, 5.838631
 47620944, -0.04629242, -0.04871819, -0.08258347, 0.0782332, 0.0001705128, -0.01146581, 0.01539703, 0.03733505, 0.01312909, 0.9989507, 5.850215
 47820864, -0.007950783, -0.01779142, 0.004856425, 0.0782332, -0.009234051, -0.006552876, 0.00490269, 0.03718013, 0.01169684, 0.9989592, 5.850215
 48020784, -0.04138818, -0.02306669, 0.05066767, 0.07807828, -0.01650514, -0.01058432, 0.02331878, 0.03718013, 0.01016589, 0.9989143, 5.838631
 48220704, -0.05508585, -0.02367077, 0.03633705, 0.07807828, -0.0222968, -0.009543935, -0.006496691, 0.03718013, 0.008085522, 0.9989242, 5.838631
 48420624, -0.0484513, -0.0107765, -0.07651983, 0.07807828, -0.01705219, -0.008586121, -0.01471617, 0.03718013, 0.005703623, 0.9989848, 5.838631
 48620544, -0.03669122, -0.03297938, 0.004305253, 0.07807828, -0.003421514, -0.004385938, -0.008097746, 0.03718013, 0.002363009, 0.9989308, 5.838631
 48820464, -0.02345348, -0.01361296, -0.01508526, 0.07807828, -0.003108563, 0.01236958, -0.004067605, 0.03718013, 0.0007525294, 0.9989404, 5.838631
 49020384, -0.03634389, 0.0268576, -0.04580576, 0.07807828, -0.009204761, 0.0018208, 0.03154942, 0.03718013, -0.001244776, 0.9989274, 5.838631
 49220304, -0.02916365, 0.01547985, 0.1318525, 0.07807828, -0.01078155, 0.00447413, 0.02048769, 0.03718013, -0.003251753, 0.9987637, 5.838631
 49420224, -0.02596943, 0.02375286, -0.01332672, 0.07807828, -0.01385409, 0.01230847, -0.04544633, 0.03718013, -0.005115268, 0.9988467, 5.838631
 49620977, -0.03575919, 0.0226833, -0.1165886, 0.0782332, -0.01802509, -0.0008101239, -0.02738887, 0.03718013, -0.00696366, 0.9989032, 5.850215
 49820897, -0.04165871, 0.01537655, -0.06596199, 0.0782332, -0.007202396, 0.005523197, 0.04257378, 0.03733505, -0.009034581, 0.9988633, 5.850215
 50020817, -0.03340978, 0.01045936, 0.05865306, 0.0782332, -0.01535938, 0.009081212, 0.003117935, 0.03718013, -0.01069672, 0.998832, 5.850215
 50220737, -0.02910136, 0.03872186, 0.112523, 0.07807828, -0.01066533, 0.01083726, 0.07278848, 0.03718013, -0.01246461, 0.9985763, 5.838631
 50420657, -0.02389952, 0.04237725, 0.085536, 0.07807828, -0.01020554, 0.01729142, -0.01689254, 0.03718013, -0.01261985, 0.998597, 5.838631
 50620577, -0.03108449, 0.05089828, -0.06850617, 0.07807828, -0.006857399, 0.02031078, -0.01763659, 0.03718013, -0.01360839, 0.9986692, 5.838631
 50820497, -0.02519157, 0.03982097, -0.0629399, 0.07807828, -0.009643829, -0.003682991, -0.03371444, 0.03718013, -0.01635503, 0.9986763, 5.838631
 51020417, -0.02866923, 0.007154335, -0.1129144, 0.07807828, -0.01467683, 0.006670042, -0.018471, 0.03718013, -0.01705487, 0.9987391, 5.838631
 51220337, -0.03939836, 0.05431773, 0.004176967, 0.07807828, -0.0131626, 0.007972719, 0.04648914, 0.03718013, -0.01776761, 0.9986123, 5.838631
 51420257, -0.03580771, 0.02190716, 0.1010535, 0.07807828, -0.01288351, -0.006516781, -0.008966196, 0.03718013, -0.02060072, 0.998492, 5.838631
 51620177, -0.04309599, -0.00589602, 0.04829536, 0.07807828, -0.02487622, -0.00395636, 0.02939326, 0.03718013, -0.02241058, 0.9983222, 5.838631
 51820930, -0.04157791, 0.02067799, 0.009066421, 0.0782332, -0.006202437, 0.01343312, 0.01824346, 0.03733505, -0.02277251, 0.998324, 5.850215
 52020850, -0.02876329, 0.02812442, 0.09398399, 0.0782332, -0.009631159, -0.002299601, 0.04516435, 0.03718013, -0.02409163, 0.998108, 5.850215
 52220770, -0.02905246, 0.02633827, 0.08945286, 0.07807828, -0.004291593, 0.02099695, 0.02366178, 0.03718013, -0.02400981, 0.9980426, 5.838631
 52420690, 0.0008016939, 0.05256568, 0.04466536, 0.07807828, 0.00876416, 0.004919397, 0.01515688, 0.03718013, -0.02795368, 0.9978677, 5.838631
 52620610, 0.006175946, -0.006490817, -0.001687392, 0.07807828, -0.001275661, 0.00637761, -0.03835784, 0.03718013, -0.02930177, 0.9979093, 5.838631
 52820530, -0.001357593, 0.0216446, -0.06655141, 0.07807828, -0.005601281, 0.002295814, 0.01226259, 0.03718013, -0.03008465, 0.9978829, 5.838631
 53020450, -0.01790004, 0.01764338, 0.03942297, 0.07807828, -0.004153318, -0.002722489, -0.0283066, 0.03718013, -0.03140632, 0.9978122, 5.838631
 53220370, -0.01494145, 0.01101803, -0.08590741, 0.07807828, -0.005670097, -0.0006227067, -0.02311611, 0.03718013, -0.03406496, 0.9978355, 5.838631
 53420290, -0.02524404, 0.0185591, -0.07798015, 0.07807828, -0.01191229, 0.01409765, 0.00802215, 0.03718013, -0.03442224, 0.9978575, 5.838631
 53620210, -0.02419155, 0.0392536, 0.02044404, 0.07807828, -0.003582999, -0.002550234, 0.03359833, 0.03718013, -0.03802045, 0.997668, 5.838631
 53820963, -0.02765909, -0.0104111, 0.009953566, 0.0782332, -0.01665609, 0.007353826, -0.04733216, 0.03733505, -0.03914073, 0.9977193, 5.850215
 54020883, -0.03766973, 0.0092159, -0.03591643, 0.0782332, -0.005537875, -0.003257662, 0.05609747, 0.03718013, -0.0423109, 0.9974669, 5.850215
 54220803, -0.01296427, 0.0007073354, 0.07031516, 0.07807828, -0.002205586, 0.00349551, 0.03036314, 0.03718013, -0.04367677, 0.9973552, 5.838631
 54420723, 0.003153598, 0.03117346, 0.08508684, 0.07807828, 0.001283216, 0.01397256, 0.0404975, 0.03718013, -0.04466277, 0.9971982, 5.838631
 54620643, 0.003031534, 0.05481442, 0.00189618, 0.07807828, -0.003774664, 0.02322322, -0.02963892, 0.03718013, -0.04547939, 0.9972626, 5.838631
 54820563, -0.01787668, 0.03491762, -0.0346992, 0.07807828, -0.003341703, -0.009784423, -0.006616806, 0.03718013, -0.04939336, 0.9970843, 5.838631
 55020483, -0.0008508948, -0.01922272, -0.01059597, 0.07807828, 0.008055402, 0.003441754, 0.02539153, 0.03718013, -0.05076987, 0.996949, 5.838631
 55220403, 0.00257148, 0.02079066, 0.0648106, 0.07807828, -0.008549506, 0.01578204, 0.004629095, 0.03718013, -0.05269005, 0.996825, 5.838631
 55420323, -0.03471001, 0.03089189, -0.06777105, 0.07807828, -0.005136384, 0.002620688, -0.01633448, 0.03718013, -0.0546613, 0.9968109, 5.838631
 55620243, -0.02012527, 0.04627626, -0.001544963, 0.07807828, -3.495606E-05, 0.02139924, -0.005851025, 0.03718013, -0.05503467, 0.9967387, 5.838631
 55820163, -0.01563262, 0.05820939, -0.08239325, 0.07807828, 7.167571E-05, 0.01429038, -0.04534557, 0.03718013, -0.05770394, 0.9967321, 5.838631
 56020916, -0.00293674, 0.0217182, -0.09404119, 0.0782332, -0.00205389, -0.001571868, 0.01729337, 0.03733505, -0.05965384, 0.9965974, 5.850215
 56220836, 5.14834E-05, 0.005947575, 0.0912999, 0.0782332, 0.008391068, 0.001658921, 0.0719291, 0.03718013, -0.06196129, 0.9962537, 5.850215
 56420756, 0.01588425, 0.01277342, 0.1383822, 0.07807828, 0.003974195, 0.007062361, -0.003051491, 0.03718013, -0.0638399, 0.9960814, 5.838631
 56620676, -0.004468132, 0.04569986, -0.05235677, 0.07807828, -0.003618628, 0.02512848, -0.04078206, 0.03718013, -0.06311784, 0.9962493, 5.838631
 56820596, -0.01536106, 0.05931947, -0.07073911, 0.07807828, -0.003453315, 0.003787504, 0.02272278, 0.03718013, -0.06632489, 0.9960238, 5.838631
 57020516, -0.02137834, 0.03145739, -0.06303731, 0.07807828, 0.005669924, 0.01427965, -0.06987036, 0.03718013, -0.06698044, 0.9962021, 5.838631
 57220436, 0.006094981, 0.05077197, -0.1344294, 0.07807828, 0.001658652, -0.004242147, -0.008207661, 0.03718013, -0.06915001, 0.9960651, 5.838631
 57420356, -0.00711548, -0.006123725, 0.01280739, 0.07807828, -0.003091118, 0.002898936, 0.01690493, 0.03718013, -0.07211332, 0.9957805, 5.838631
 57620276, -0.01835729, 0.009286897, 0.07314172, 0.07807828, -0.01623261, 0.003540986, 0.05022471, 0.03718013, -0.07273793, 0.9955668, 5.838631
 57820196, -0.03657265, 0.03353316, 0.1085933, 0.07807828, -0.003668354, 0.01275254, 0.004202591, 0.03718013, -0.07474507, 0.995334, 5.838631
 58020949, 0.002733633, 0.03565554, 0.0412288, 0.0782332, 0.006682403, 0.01866531, 0.04100214, 0.03733505, -0.07626289, 0.9950829, 5.850215
 58220869, 0.0360221, 0.06788788, 0.1226724, 0.0782332, 0.003806188, 0.02910842, 0.007292499, 0.03718013, -0.07763019, 0.9948574, 5.850215
 58420789, 0.01921943, 0.07724855, -0.04876851, 0.07807828, -0.001774888, 0.01769696, -0.06003085, 0.03718013, -0.08056805, 0.9948223, 5.838631
 58620709, -0.01119729, 0.04627173, -0.1828599, 0.07807828, 0.006003237, 0.007176071, -0.030217, 0.03718013, -0.08160358, 0.9949324, 5.838631
 58820629, 0.01164835, 0.05373515, 0.001405046, 0.07807828, 0.005331671, 0.02808532, 0.01396669, 0.03718013, -0.08096656, 0.9948775, 5.838631
 59020549, 0.02019653, 0.09773824, 0.05540418, 0.07807828, 0.001009066, 0.02230285, 0.05689433, 0.03718013, -0.08195364, 0.9946479, 5.838631
 59220469, 0.001559887, 0.06558214, 0.11769, 0.07807828, -0.01080331, 0.01581598, -0.01481646, 0.03718013, -0.08321162, 0.9944847, 5.838631
 59420389, -0.01951967, 0.05405904, -0.01191934, 0.07807828, -0.006361437, 0.0146859, 0.02718124, 0.03718013, -0.08481394, 0.9943049, 5.838631
 59620309, -0.002816924, 0.04824224, -0.001550102, 0.07807828, 0.003680443, 0.02947982, 0.004583813, 0.03718013, -0.08459407, 0.9943452, 5.838631
 59820229, 0.00601776, 0.08151743, 0.04018066, 0.07807828, -0.001192724, 0.01223363, -0.01559816, 0.03718013, -0.08631653, 0.9941713, 5.838631
 60020149, -0.01409106, 0.01219552, -0.08791635, 0.07807828, -0.006783024, -0.008869067, -0.06351323, 0.03718013, -0.08930536, 0.994068, 5.838631
 60220902, -0.003369206, 0.02101397, -0.1064176, 0.0782332, 0.02055773, 0.01447048, 0.02987729, 0.03733505, -0.08799344, 0.9941519, 5.850215
 60420822, 0.03798496, 0.04976287, 0.1054876, 0.0782332, 0.01268395, 0.01399152, 0.04153373, 0.03718013, -0.0891479, 0.9939046, 5.850215
 60620742, 0.01353154, 0.04304195, 0.07270259, 0.07807828, -0.00345714, 0.01100763, 0.01430912, 0.03718013, -0.0913369, 0.9936783, 5.838631
 60820662, -0.01090156, 0.03114608, -0.01831846, 0.07807828, 0.00724664, 0.007091991, -0.01977463, 0.03718013, -0.09248085, 0.9936287, 5.838631
 61020582, 0.009034001, 0.04732579, -0.001207338, 0.07807828, -0.01255387, 0.03368032, 0.03756041, 0.03718013, -0.09238482, 0.9935398, 5.838631
 61220502, -0.01377044, 0.08609944, 0.03028972, 0.07807828, 0.006930731, 0.02025017, -0.03887023, 0.03718013, -0.09449913, 0.9934249, 5.838631
 61420422, 0.01945004, 0.04147349, 0.007461958, 0.07807828, 0.0173863, 0.003370231, 0.08387508, 0.03718013, -0.09645616, 0.9929932, 5.838631
 61620342, 0.02559971, 0.01113143, 0.1411528, 0.07807828, 0.006093883, 0.004325341, 0.006779056, 0.03718013, -0.09642766, 0.9929532, 5.838631
 61820262, 0.004381525, 0.02908758, -0.05848433, 0.07807828, 0.000755991, 0.0245605, -0.04224756, 0.03718013, -0.09609225, 0.9931691, 5.838631
 62020182, 0.0009936318, 0.08158606, -0.09289426, 0.07807828, 0.005329026, 0.03648529, 0.002811928, 0.03718013, -0.09628194, 0.9931981, 5.838631
 62220935, 0.02017704, 0.09385801, -0.04934688, 0.0782332, 0.01675687, 0.02294639, -0.02782444, 0.03733505, -0.09821967, 0.9931471, 5.850215
 62420855, 0.03022959, 0.05283022, -0.08772884, 0.0782332, 0.004360105, 0.01376329, -0.007013375, 0.03718013, -0.09773085, 0.9932577, 5.850215
 62620775, 0.004271472, 0.06349855, 0.1074976, 0.07807828, -0.003378059, 0.01261602, 0.07064739, 0.03718013, -0.0973256, 0.9929786, 5.838631
 62820695, -0.009185176, 0.02924539, 0.1559409, 0.07807828, -0.008309985, 0.0005477497, 0.004532717, 0.03718013, -0.09991212, 0.9926289, 5.838631
 63020615, -0.009094836, 0.005605095, -0.01909851, 0.07807828, -0.004032995, 0.009528621, -0.03198259, 0.03718013, -0.09993088, 0.9926937, 5.838631
 63220535, -0.00878074, 0.03587511, -0.1303922, 0.07807828, -0.0009882251, 0.01751254, -0.0327132, 0.03718013, -0.1007426, 0.9927948, 5.838631
 63420455, 0.008360853, 0.05482905, -0.08592309, 0.07807828, 0.008583461, 0.01137988, -0.02998278, 0.03718013, -0.1016046, 0.9927773, 5.838631
 63620375, 0.02412191, 0.04155683, -0.02676144, 0.07807828, 0.007443954, 0.01011751, 0.006475146, 0.03718013, -0.1028035, 0.9926124, 5.838631
 63820295, 0.0190066, 0.03269051, 0.0700694, 0.07807828, 0.008235128, 0.01160982, 0.04811803, 0.03718013, -0.1025515, 0.9924649, 5.838631
 64020215, 0.02248167, 0.0537501, 0.131732, 0.07807828, 0.00938543, 0.02232816, 0.03215009, 0.03718013, -0.1039967, 0.9921613, 5.838631
 64220968, 0.01124942, 0.0282075, 0.04164061, 0.0782332, -0.007254913, 0.004437673, -0.02307305, 0.03733505, -0.1060292, 0.9919948, 5.850215
 64420888, 0.0008646869, 0.01473959, -0.1391242, 0.0782332, 0.015105, 0.01478032, -0.04800335, 0.03718013, -0.1069089, 0.9921572, 5.850215
 64620808, 0.02614329, 0.03798889, -0.1016004, 0.07807828, -0.004419847, 0.01179644, -0.01015228, 0.03718013, -0.1067185, 0.9922464, 5.838631
 64820728, -0.003774568, 0.03353464, -0.01088609, 0.07807828, -0.007695206, 0.009291378, 0.01614716, 0.03718013, -0.1089154, 0.9919904, 5.838631
 65020648, -0.01915098, 0.0380649, 0.04998882, 0.07807828, -0.01469003, 0.01110016, 0.03976251, 0.03718013, -0.1089718, 0.9918771, 5.838631
 65220568, -0.0165604, 0.04381255, 0.08759368, 0.07807828, -0.00132444, -0.004297854, -0.002833758, 0.03718013, -0.1104304, 0.9916283, 5.838631
 65420488, 0.005840369, 0.01612736, 0.002740689, 0.07807828, 0.003026246, 0.01491422, 0.01136964, 0.03718013, -0.1107668, 0.9915292, 5.838631
 65620408, 0.004517884, 0.04249712, 0.03754694, 0.07807828, -0.005677806, 0.01618524, 0.003320414, 0.03718013, -0.111853, 0.9913856, 5.838631
 65820328, 0.002804992, 0.03687051, -0.002330248, 0.07807828, 0.002750899, 0.01486973, 0.02933206, 0.03718013, -0.1124254, 0.9913058, 5.838631
 66020248, 0.01512852, 0.03404444, -0.002741576, 0.07807828, 0.0191617, 0.002424012, -0.001432799, 0.03718013, -0.1135691, 0.9912679, 5.838631
 66220168, 0.03733511, 0.04160193, 0.02100996, 0.07807828, 0.01303714, 0.02627949, 0.01830456, 0.03718013, -0.1133702, 0.9912127, 5.838631
 66420921, 0.03120585, 0.06437628, 0.02806042, 0.0782332, 0.00356939, 0.02067243, -0.007321832, 0.03733505, -0.1137034, 0.9912038, 5.850215
 66620841, 0.005264591, 0.04500474, -0.0186485, 0.0782332, 0.004032768, 0.002510119, -0.001298766, 0.03718013, -0.1156271, 0.9910112, 5.850215
 66820761, 0.01577503, -0.001540409, 0.01995294, 0.07807828, 0.004303837, 0.0006806764, 0.01895804, 0.03718013, -0.1167031, 0.9907863, 5.838631
 67020681, 0.02320238, 0.01614807, 0.04530236, 0.07807828, 0.003878031, 0.01661917, 0.01490111, 0.03718013, -0.1169402, 0.9907373, 5.838631
 67220601, 0.02073748, 0.04830074, -0.02368448, 0.07807828, 0.01155306, 0.01170227, -0.01256611, 0.03718013, -0.1178091, 0.9907282, 5.838631
 67420521, 0.02528187, 0.03999843, -0.08147509, 0.07807828, -0.001448248, 0.01230848, -0.01660331, 0.03718013, -0.1186573, 0.9908021, 5.838631
 67620441, -0.002410706, 0.02637395, -0.0632238, 0.07807828, -0.007671922, 0.004570168, 0.03587308, 0.03718013, -0.1198038, 0.9906724, 5.838631
 67820361, -0.006102567, 0.009952935, 0.1291008, 0.07807828, 0.00202996, -0.002498958, 0.0373441, 0.03718013, -0.1211708, 0.990326, 5.838631
 68020281, -0.007588269, -0.01267635, 0.05604293, 0.07807828, -0.009084077, -0.01493918, -0.006289921, 0.03718013, -0.123357, 0.9900389, 5.838631
 68220201, -0.02436181, -0.02560299, -0.01015969, 0.07807828, -0.0106426, 0.0004094169, -0.03718977, 0.03718013, -0.1240231, 0.9900073, 5.838631
 68420954, -0.03390313, 0.02786359, -0.196299, 0.0782332, -0.004199377, 0.0284096, -0.05640942, 0.03733505, -0.1246733, 0.990215, 5.850215
 68620874, -0.003553402, 0.05575975, -0.05489089, 0.0782332, -0.003866627, 0.009715176, 0.002583138, 0.03718013, -0.1258256, 0.9899917, 5.850215
 68820794, -0.001231879, 0.04592803, -0.007717487, 0.07807828, 0.002732751, 0.01693821, -0.01959055, 0.03718013, -0.1265161, 0.989917, 5.838631
 69020714, 0.00877696, 0.04300409, -0.003834229, 0.07807828, 0.009321417, 0.007431786, 0.06095793, 0.03718013, -0.127773, 0.9895761, 5.838631
 69220634, 0.01990763, 0.009091735, 0.1808404, 0.07807828, 0.009952705, -0.01651447, 0.04512726, 0.03718013, -0.1304613, 0.9890016, 5.838631
 69420554, 0.02690649, -0.02106163, 0.1209396, 0.07807828, -0.0006726554, -0.0006073418, -0.006245784, 0.03718013, -0.1308318, 0.9888935, 5.838631
 69620474, 0.01940694, 0.02652475, -0.05623899, 0.07807828, 0.001264686, 0.0286288, -0.001898959, 0.03718013, -0.1295107, 0.9891551, 5.838631
 69820394, 0.01048073, 0.07418439, -0.01127062, 0.07807828, 0.01927899, 0.01420697, 0.0252574, 0.03718013, -0.1311944, 0.9889281, 5.838631
 70020314, 0.01979836, 0.02223174, -0.001982363, 0.07807828, -0.01252475, 0.003709011, -0.0567826, 0.03718013, -0.1334788, 0.988786, 5.838631
 70220234, -0.01970713, 0.003015037, -0.09643754, 0.07807828, -0.0007092618, 0.003803569, 0.008219671, 0.03718013, -0.1338178, 0.9887484, 5.838631
 70420154, 0.008305037, 0.02453025, 0.02022929, 0.07807828, 0.008987383, -0.009261292, 0.02602108, 0.03718013, -0.1354557, 0.9884648, 5.838631
 70620907, 0.02038937, -0.0002841332, 0.03302681, 0.0782332, 0.005145711, 0.004556923, 0.03612641, 0.03733505, -0.1361116, 0.9883464, 5.850215
 70820827, 0.01747289, 0.02249708, 0.02966022, 0.0782332, 0.002066578, 0.007072783, -0.009880309, 0.03718013, -0.1368175, 0.9883175, 5.850215
 71020747, 0.006542859, 0.006629007, 0.02371895, 0.07807828, -0.00587991, -0.007907667, 0.04386825, 0.03718013, -0.1402592, 0.9876853, 5.838631
 71220667, -0.01384336, -0.02175564, 0.09643371, 0.07807828, -0.01016115, 0.006910789, -0.04440229, 0.03718013, -0.1404575, 0.9876876, 5.838631
 71420587, -0.02777166, 0.03788174, -0.1990938, 0.07807828, -0.00651015, 0.02278098, -0.06011455, 0.03718013, -0.140406, 0.988008, 5.838631
 71620507, -0.01770241, 0.06052406, -0.1405317, 0.07807828, -0.002042382, 0.02194322, -0.01149052, 0.03718013, -0.1418046, 0.9878681, 5.838631
 71820427, 0.007701655, 0.04500509, 0.05555957, 0.07807828, 0.007785495, -0.0003160978, 0.05044263, 0.03718013, -0.1437119, 0.9873819, 5.838631
 72020347, 0.0229235, -0.01496943, 0.1148138, 0.07807828, 0.003885765, -0.01305118, 0.04368055, 0.03718013, -0.1465779, 0.9868338, 5.838631
 72220267, 0.008190271, -0.01801116, 0.08924774, 0.07807828, -0.005078143, -0.004784557, -0.005977051, 0.03718013, -0.1476643, 0.9866567, 5.838631
 72420187, -0.009313983, 0.002358395, -0.04146101, 0.07807828, 0.004438877, 0.00524078, -0.04877361, 0.03718013, -0.1480355, 0.9867311, 5.838631
 72620940, 0.01550868, 0.02377938, -0.06243605, 0.0782332, 0.005792931, 0.008882984, 0.01600241, 0.03733505, -0.1488292, 0.986542, 5.850215
 72820860, 0.01561492, 0.03358502, 0.03138603, 0.0782332, 0.0009001706, 0.006735806, 0.0316662, 0.03718013, -0.1500737, 0.9862965, 5.850215
 73020780, 0.01486444, 0.02083432, 0.08439864, 0.07807828, 0.007247713, 0.01653378, -0.01727958, 0.03718013, -0.1508183, 0.9861463, 5.838631
 73220700, 0.004941049, 0.02903989, -0.04624669, 0.07807828, -0.004626955, 0.0005391958, -0.008232542, 0.03718013, -0.1526847, 0.9859105, 5.838631
 73420620, -0.01553984, 0.01725728, -0.04178088, 0.07807828, 0.004885543, 0.008038243, 0.001948626, 0.03718013, -0.1527887, 0.9859694, 5.838631
 73620540, -9.975058E-05, 0.00999894, -0.0340953, 0.07807828, -0.002634848, -0.001199446, 0.0095376, 0.03718013, -0.1556188, 0.9855337, 5.838631
 73820460, 0.003967106, -0.00753085, 0.07805929, 0.07807828, 0.01107434, -0.008210166, 0.03199079, 0.03718013, -0.1575596, 0.9850419, 5.838631
 74020380, 0.01504975, -0.005374094, 0.05011972, 0.07807828, -0.001758563, 0.01369394, 0.0112827, 0.03718013, -0.1577183, 0.9850081, 5.838631
 74220300, 0.0007027173, 0.03439815, -0.1185032, 0.07807828, 0.0006478817, 0.009291124, -0.0680652, 0.03718013, -0.1608514, 0.9848526, 5.838631
 74420220, 0.004393749, 0.003651992, -0.09097032, 0.07807828, 0.002732, -0.002825012, 0.05463379, 0.03718013, -0.161788, 0.9846078, 5.838631
 74620973, 0.01951715, 0.02401498, 0.1578399, 0.0782332, 0.01800699, 0.01528394, 0.04391153, 0.03718013, -0.1621447, 0.9843447, 5.850215
 74820893, 0.03806561, 0.02713491, 0.1055329, 0.0782332, 0.01013108, -0.0004644971, -0.008116458, 0.03733505, -0.1641254, 0.983956, 5.850215
 75020813, 0.02197444, 0.0005768684, -0.06396304, 0.0782332, -0.001708485, -0.001591276, 0.003336906, 0.03718013, -0.1651852, 0.9839035, 5.850215
 75220733, -0.001234976, 0.01481245, -0.08058435, 0.07807828, 0.003417328, 0.01193794, -0.03650711, 0.03718013, -0.1660834, 0.9839432, 5.838631
 75420653, 0.008419547, 0.02472586, -0.05883576, 0.07807828, -0.001082845, 0.009411278, 0.03038535, 0.03718013, -0.1683436, 0.9835063, 5.838631
 75620573, 0.004305114, 0.0355252, 0.1254153, 0.07807828, 0.006723992, 0.01203096, 0.01105829, 0.03718013, -0.1691796, 0.9831765, 5.838631
 75820493, 0.01636125, 0.0319814, 0.03265991, 0.07807828, 0.002359894, 0.001612372, -0.008257518, 0.03718013, -0.1703941, 0.9829899, 5.838631
 76020413, -0.01056705, 0.01597552, -0.1045237, 0.07807828, -0.006962935, 0.02545594, -0.01310091, 0.03718013, -0.1708345, 0.9830793, 5.838631
 76220333, -0.00630573, 0.0543367, -0.05474969, 0.07807828, -0.005076064, 0.007217361, 0.01620665, 0.03718013, -0.1727033, 0.9827717, 5.838631
 76420253, -0.004600949, -0.005125098, 0.06202799, 0.07807828, 0.01003714, -0.01373075, 0.03636183, 0.03718013, -0.1760043, 0.9820516, 5.838631
 76620173, 0.01866886, -0.02308189, 0.1115874, 0.07807828, 0.002773028, 0.003750395, -0.0007154463, 0.03718013, -0.1765338, 0.9818556, 5.838631
 76820926, 0.01900673, -0.001323018, 0.05494154, 0.0782332, 0.002748403, -0.007088262, 0.04286833, 0.03733505, -0.1784678, 0.9813291, 5.850215
 77020846, 0.02409254, 0.01020939, 0.03818901, 0.0782332, -0.0007380095, 0.009767202, -0.007333681, 0.03718013, -0.1788537, 0.9813488, 5.850215
 77220766, 0.006559846, 0.03589409, -0.06218809, 0.07807828, 0.003794475, 0.003966976, -0.04300171, 0.03718013, -0.1805706, 0.9811937, 5.838631
 77420686, 0.008926185, 0.009373904, -0.0842435, 0.07807828, 0.002046148, 0.001094431, 0.0181608, 0.03718013, -0.1835023, 0.9806795, 5.838631
 77620606, 0.002209823, -0.002705016, -0.0006665066, 0.07807828, -0.005232464, -0.008516699, -0.05542492, 0.03718013, -0.1850689, 0.9805092, 5.838631
 77820526, -0.0009548896, 0.0005240889, -0.1127602, 0.07807828, 0.00210328, 0.009286919, -0.01161273, 0.03718013, -0.1868469, 0.9802182, 5.838631
 78020446, -0.00173396, 0.02611188, -0.04531069, 0.07807828, -0.004235456, 0.0122553, -0.001106773, 0.03718013, -0.1873818, 0.9801683, 5.838631
 78220366, -0.02556119, 0.03041553, 0.04141224, 0.07807828, -0.006173882, -0.005511683, 0.02556846, 0.03718013, -0.1887451, 0.9797657, 5.838631
 78420286, -0.01416938, 0.003464925, 0.06551396, 0.07807828, 0.002251153, 0.01246614, -0.01170081, 0.03718013, -0.1899732, 0.9794633, 5.838631
 78620206, 0.00509108, 0.02325579, -0.01943336, 0.07807828, 0.0106996, -0.004408365, 0.008622535, 0.03718013, -0.1918646, 0.9790714, 5.838631
 78820959, 0.02634394, 0.01546798, -0.02370611, 0.0782332, 0.005996248, 0.01375935, 0.02086301, 0.03733505, -0.1929018, 0.9788767, 5.850215
 79020879, 0.008978334, 0.0274113, 0.1776766, 0.0782332, 0.001375858, 0.01064008, 0.03839234, 0.03718013, -0.1946338, 0.978216, 5.850215
 79220799, -0.00461568, 0.02452563, -0.0126092, 0.07807828, 0.003651672, 0.01286297, -0.05383855, 0.03718013, -0.1952121, 0.9782928, 5.838631
 79420719, 0.009009878, 0.02563673, -0.114534, 0.07807828, 0.006033963, 0.004582127, -0.02079475, 0.03718013, -0.1969169, 0.9780393, 5.838631
 79620639, 0.01421197, 0.02433621, -0.02581769, 0.07807828, -0.002963507, 0.009484575, 0.02494062, 0.03718013, -0.1979363, 0.9777721, 5.838631
 79820559, 0.01045279, 0.03883076, 0.07420638, 0.07807828, 0.01546986, 0.00557779, 0.02940603, 0.03718013, -0.1989784, 0.9774345, 5.838631
 80020479, 0.02303754, 0.008619766, 0.01315767, 0.07807828, -0.005960827, -0.01051176, -0.04374432, 0.03718013, -0.2024253, 0.9768405, 5.838631
 80220399, -0.01364314, -0.009195969, -0.08927331, 0.07807828, -0.001917662, 0.008450502, -0.02765522, 0.03718013, -0.2034683, 0.9767252, 5.838631
 80420319, 0.002054834, 0.04018267, -0.08919272, 0.07807828, -0.004087362, 0.02326624, -0.0324071, 0.03718013, -0.2025658, 0.9770248, 5.838631
 80620239, -0.003133421, 0.04884396, -0.0001476426, 0.07807828, 0.004021954, 0.0002697431, 0.03653533, 0.03718013, -0.2048653, 0.9763955, 5.838631
 80820159, 0.01607081, 0.004880991, 0.04426175, 0.07807828, -0.006794833, -1.02196E-05, -0.03616831, 0.03718013, -0.20624, 0.9761771, 5.838631
 81020912, -0.0009749809, 0.004004152, -0.04633702, 0.0782332, 0.00328282, -0.002914807, 0.00962214, 0.03733505, -0.2076675, 0.9758366, 5.850215
 81220832, -0.0008103164, 0.00990833, -0.0764842, 0.0782332, -0.009946318, 0.01265488, -0.07369889, 0.03718013, -0.2093264, 0.9757606, 5.850215
 81420752, -0.02774043, 0.0118441, -0.1366684, 0.07807828, -0.001054789, 0.007097422, 0.009008522, 0.03718013, -0.2102701, 0.9755782, 5.838631
 81620672, 0.008950158, 0.02618025, 0.0992333, 0.07807828, 0.01011181, 0.00916364, 0.07063013, 0.03718013, -0.2123264, 0.9748601, 5.838631
 81820592, 0.01887138, 0.01056192, 0.1649609, 0.07807828, -0.002133922, -0.005440743, 0.008765623, 0.03718013, -0.2142153, 0.9743071, 5.838631
 82020512, -0.00994934, -0.008938023, 0.0776677, 0.07807828, 0.002696562, -0.0009334346, 0.02382498, 0.03718013, -0.2161632, 0.9737083, 5.838631
 82220432, 0.01451795, -0.005610186, -0.01657433, 0.07807828, 0.01514449, 0.001994792, -0.07046808, 0.03718013, -0.2180004, 0.9735042, 5.838631
 82420352, 0.01930185, 0.001564518, -0.09644228, 0.07807828, -0.002144319, 0.008407496, -0.006139873, 0.03718013, -0.2199817, 0.9730363, 5.838631
 82620272, 0.001184101, 0.0175663, -0.03411989, 0.07807828, 0.001386052, 0.004684058, 0.0006903747, 0.03718013, -0.2216148, 0.9727191, 5.838631
 82820192, -0.0005404059, 0.03478202, -0.05147442, 0.07807828, -0.001464937, 0.009104587, -0.0650263, 0.03718013, -0.2216668, 0.9728795, 5.838631
 83020945, -0.0009201015, 0.03558467, -0.121317, 0.0782332, -0.0019824, 0.002706133, -0.02371978, 0.03733505, -0.2240883, 0.9723953, 5.850215
 83220865, 0.005678168, 0.02805062, -0.03561959, 0.07823878, 0.01157867, 0.01779168, 0.008792125, 0.03719873, -0.2248608, 0.9721724, 5.8508
 83420785, 0.02274468, 0.03117032, 0.1045006, 0.07811734, 0.01041076, -0.01045151, 0.03214074, 0.03719873, -0.2269111, 0.9714749, 5.84155
 83620705, 0.01002034, -0.02059004, 0.07786619, 0.07811734, -0.01617115, -0.001188595, 0.01357432, 0.03719873, -0.2282966, 0.9710737, 5.84155
 83820625, -0.02406851, 0.005519944, 0.08683671, 0.07811734, 0.004106786, 0.002965338, 0.02795646, 0.03719873, -0.2299519, 0.9705203, 5.84155
 84020545, 0.02113605, 0.0002634006, -0.03124259, 0.07811734, 0.008843466, 0.01144574, -0.05851674, 0.03719873, -0.2313698, 0.9703929, 5.84155
 84220465, 0.01204173, 0.02062576, -0.180191, 0.07811176, -0.01234099, -0.001763519, -0.07998966, 0.03718013, -0.2336659, 0.9701231, 5.840967
 84420385, -0.04190482, 0.004386964, -0.1099594, 0.07807828, -0.01568202, -0.004972263, 0.005485247, 0.03718013, -0.2358297, 0.9695952, 5.838631
 84620305, -0.03770119, 0.01006037, -0.0112207, 0.07807828, -0.007261977, 0.02221388, 0.007602987, 0.03718013, -0.2363718, 0.9694554, 5.838631
 84820225, -0.02792293, 0.03570389, 0.05312869, 0.07807828, -0.006719875, 0.007362467, 0.04403479, 0.03718013, -0.2384944, 0.9687613, 5.838631
 85020145, -0.009457998, 0.03266523, 0.1138508, 0.07807828, 0.009930232, 0.0230212, 0.007345121, 0.03718013, -0.238603, 0.9686219, 5.838631
 85220898, 0.02298442, 0.0428941, -0.06818668, 0.0782332, 0.008608169, -0.0009294534, -0.01828386, 0.03733505, -0.241273, 0.9681308, 5.850215
 85420818, 0.01950889, -0.01046193, -0.04820911, 0.0782332, 0.01093907, -0.01383702, 0.02124976, 0.03718013, -0.2433401, 0.9676493, 5.850215
 85620738, 0.03004466, -0.00372444, 0.09469364, 0.07807828, 0.01751741, 0.0179482, 0.04092391, 0.03718013, -0.2433715, 0.9674618, 5.838631
 85820658, 0.04662797, 0.04994835, 0.1420539, 0.07807828, 0.01343878, 0.01425143, 0.04155108, 0.03718013, -0.2446649, 0.9669495, 5.838631
 86020578, 0.03538913, 0.03153493, 0.006593683, 0.07807828, 0.007216534, 0.02287631, -0.02701603, 0.03718013, -0.245474, 0.9669175, 5.838631
 86220498, 0.0198472, 0.0332607, -0.09054414, 0.07807828, -0.0005563655, 0.001472907, -0.01986167, 0.03718013, -0.2478005, 0.96649, 5.838631
 86420418, -0.008942264, 0.008493951, -0.07820173, 0.07807828, -0.001734326, -0.00381932, 0.006357033, 0.03718013, -0.2491099, 0.9662423, 5.838631
 86620338, 0.007729222, 0.002762746, 0.01203562, 0.07807828, -0.00890158, 0.006614965, 0.0242186, 0.03718013, -0.2503546, 0.9658756, 5.838631
 86820258, -0.003588884, 0.01860391, 0.09842443, 0.07807828, -0.0002010495, 0.004440489, 0.01457022, 0.03718013, -0.2513757, 0.9654601, 5.838631
 87020178, 0.004563609, 0.01183506, 0.04309981, 0.07807828, 0.006323406, 0.001182289, 0.007305464, 0.03718013, -0.25284, 0.9650255, 5.838631
 87220931, 0.01284197, 0.01443418, -0.02667475, 0.0782332, 0.006394715, 0.007296609, -0.06533582, 0.03733505, -0.2541019, 0.9649065, 5.850215
 87420851, 0.00478314, 0.02278855, -0.2040535, 0.0782332, 0.001099313, 0.007500761, -0.05030345, 0.03718013, -0.2567055, 0.9644246, 5.850215
 87620771, 0.003871119, 0.007634557, -0.006628059, 0.07807828, -0.002389625, 0.002735392, 0.03716793, 0.03718013, -0.2581356, 0.9638518, 5.838631
 87820691, -0.008067643, 0.01513655, 0.07837106, 0.07807828, -0.008725747, 0.01079369, -0.03470034, 0.03718013, -0.2601086, 0.963297, 5.838631
 88020611, -0.003468502, 0.0314035, -0.02408124, 0.07807828, 0.004271366, 0.02491787, 0.06136403, 0.03718013, -0.2602249, 0.9631132, 5.838631
 88220531, 0.01573117, 0.03951246, 0.0675481, 0.07808387, -0.002662517, -0.004577814, -0.03548194, 0.03719873, -0.262364, 0.9626544, 5.839214
 88420451, -0.01419157, 0.02199727, -0.06719591, 0.07811734, -0.008946384, 0.006316097, -0.01272665, 0.03719873, -0.2633874, 0.962424, 5.84155
 88620371, -0.01684331, 0.007849964, -0.06827687, 0.07811734, -0.001573672, 0.007554413, -0.03875107, 0.03719873, -0.2644727, 0.9622374, 5.84155
 88820291, -0.000712588, 0.01655611, -0.04737322, 0.07811734, 0.006326975, 0.003678312, 0.0003614886, 0.03719873, -0.2660638, 0.9617516, 5.84155
 89020211, 0.01438513, 0.01884824, 0.071034, 0.07811734, 0.00250629, 0.01402672, 0.04527378, 0.03719873, -0.266888, 0.961315, 5.84155
 89220964, 0.0117761, 0.02045358, 0.09728349, 0.07826667, 0.007317315, 0.003330136, 0.02173212, 0.03733505, -0.2698717, 0.9603975, 5.852556
 89420884, 0.01421946, 0.009940283, -0.01252211, 0.0782332, -0.002434597, 0.007290585, -0.01176068, 0.03718013, -0.2713996, 0.9601031, 5.850215
 89620804, -0.02292993, 0.01083119, -0.04716517, 0.07807828, -0.02004457, 0.01076573, 4.00383E-06, 0.03718013, -0.2719814, 0.9600071, 5.838631
 89820724, -0.02580774, 0.03813732, -0.02670487, 0.07807828, -0.0001641868, 0.01615765, -0.0004372754, 0.03718013, -0.2728802, 0.9597839, 5.838631
 90020644, 0.0091197, 0.02701581, 0.008939493, 0.07807828, -0.002429467, 0.002423798, -0.002247483, 0.03718013, -0.2747651, 0.9592022, 5.838631
 90220564, -0.01271796, 0.002357214, -0.03004448, 0.07807828, -0.003900255, 0.0001165773, 0.005332244, 0.03718013, -0.2771911, 0.9585295, 5.838631
 90420484, -0.02208883, 0.006740944, 0.03708185, 0.07807828, 0.002409781, 0.001602694, -0.009052564, 0.03718013, -0.2780469, 0.9582447, 5.838631
 90620404, 0.01361971, 0.01050491, 0.02508564, 0.07807828, 0.004416891, -0.00194547, 0.05504484, 0.03718013, -0.2790898, 0.9578, 5.838631
 90820324, 0.01865065, 0.006076181, 0.03987927, 0.07807828, -0.0004772065, -0.005097176, -0.03592141, 0.03718013, -0.2808783, 0.9573958, 5.838631
 91020244, -0.004527296, 0.0009948278, -0.02926552, 0.07807828, -0.002166989, 0.008529983, 0.02047645, 0.03718013, -0.282319, 0.9569138, 5.838631
 91220164, -0.008310345, 0.01043953, 0.01064475, 0.07807828, 0.01315233, 0.006847644, 0.01490969, 0.03718013, -0.2844018, 0.9562962, 5.838631
