TimeUS,COFN,COFE,CNe,CEe,POFN,POFE,PNe,PEe
 1940890, -0.06015117, 0.01034272, 0.09733652, 0.04844565, 0, 0, 0, 0
 2040850, -0.04663571, 0.05738561, 0.09735627, 0.04847009, -0.06015117, 0.01034272, 0.09733652, 0.04844565
 2140810, 0.0693895, 0.05694862, 0.09735733, 0.04856318, -0.04663571, 0.05738561, 0.09735627, 0.04847009
 2240770, 0.02455873, 0.02850538, 0.09728568, 0.04846266, 0.0693895, 0.05694862, 0.09735733, 0.04856318
 2340730, -0.01388769, 0.01671005, 0.09728968, 0.04841987, 0.02455873, 0.02850538, 0.09728568, 0.04846266
 2440690, -0.0007730946, -0.0295585, 0.09729813, 0.04841769, -0.01388769, 0.01671005, 0.09728968, 0.04841987
 2540650, -0.06298292, 0.03242078, 0.09740889, 0.04834762, -0.0007730946, -0.0295585, 0.09729813, 0.04841769
 2640610, 0.03975889, -0.01237896, 0.09734762, 0.04834986, -0.06298292, 0.03242078, 0.09740889, 0.04834762
 2740570, 0.05591579, 0.02258874, 0.09737596, 0.04836298, 0.03975889, -0.01237896, 0.09734762, 0.04834986
 2840530, -0.04535958, -0.01094157, 0.09736561, 0.04832997, 0.05591579, 0.02258874, 0.09737596, 0.04836298
 2940490, 0.04126953, 0.0430842, 0.09737013, 0.04837189, -0.04535958, -0.01094157, 0.09736561, 0.04832997
 3040450, 0.0114157, -0.06232406, 0.09738462, 0.0483595, 0.04126953, 0.0430842, 0.09737013, 0.04837189
 3140410, 0.04402137, -0.02086678, 0.0973987, 0.0482705, 0.0114157, -0.06232406, 0.09738462, 0.0483595
 3240370, 0.01468283, -0.06398147, 0.09740126, 0.04833684, 0.04402137, -0.02086678, 0.0973987, 0.0482705
 3340330, 0.0407072, -0.001881741, 0.09739147, 0.04825874, 0.01468283, -0.06398147, 0.09740126, 0.04833684
 3440290, -0.06596764, 0.008326983, 0.09745565, 0.04823121, 0.0407072, -0.001881741, 0.09739147, 0.04825874
 3540250, 0.03580651, -0.02839672, 0.09740717, 0.04824289, -0.06596764, 0.008326983, 0.09745565, 0.04823121
 3640210, -0.04361824, 0.02494833, 0.09742211, 0.04822885, 0.03580651, -0.02839672, 0.09740717, 0.04824289
 3740170, 0.04987118, 0.05193241, 0.09742263, 0.04832607, -0.04361824, 0.02494833, 0.09742211, 0.04822885
 3840963, 0.06246472, 0.03381601, 0.09744398, 0.04827788, 0.04987118, 0.05193241, 0.09742263, 0.04832607
 3940923, 0.07634085, 0.05262671, 0.09748279, 0.04833075, 0.06246472, 0.03381601, 0.09744398, 0.04827788
 4040883, 0.05179339, 0.02598514, 0.09742476, 0.04825429, 0.07634085, 0.05262671, 0.09748279, 0.04833075
 4140843, -0.05210128, 0.06452478, 0.09749932, 0.04823382, 0.05179339, 0.02598514, 0.09742476, 0.04825429
 4240803, -0.03877478, 0.06994446, 0.09747653, 0.04826207, -0.05210128, 0.06452478, 0.09749932, 0.04823382
 4340763, 0.04948512, 0.02873357, 0.09742427, 0.0482522, -0.03877478, 0.06994446, 0.09747653, 0.04826207
 4440723, -0.03973648, 0.03899751, 0.09743994, 0.04821411, 0.04948512, 0.02873357, 0.09742427, 0.0482522
 4540683, 0.02227764, -0.02403282, 0.09740134, 0.0482171, -0.03973648, 0.03899751, 0.09743994, 0.04821411
 4640643, 0.08124856, 0.02952707, 0.09750402, 0.04824636, 0.02227764, -0.02403282, 0.09740134, 0.0482171
 4740603, 0.01047713, -0.04690319, 0.09740904, 0.04824728, 0.08124856, 0.02952707, 0.09750402, 0.04824636
 4840563, 0.0339134, -0.02952351, 0.09742352, 0.04820739, 0.01047713, -0.04690319, 0.09740904, 0.04824728
 4940523, -0.03830919, 0.07454967, 0.09748846, 0.04826121, 0.0339134, -0.02952351, 0.09742352, 0.04820739
 5040483, -0.01644444, -0.03043321, 0.09739324, 0.04823804, -0.03830919, 0.07454967, 0.09748846, 0.04826121
 5140443, -0.009602817, 0.0445398, 0.09740739, 0.048242, -0.01644444, -0.03043321, 0.09739324, 0.04823804
 5240403, 0.04172175, -0.05194729, 0.09746295, 0.04821713, -0.009602817, 0.0445398, 0.09740739, 0.048242
 5340363, 0.06223864, 0.00497886, 0.097461, 0.04820107, 0.04172175, -0.05194729, 0.09746295, 0.04821713
 5440323, 0.03855089, -0.06400883, 0.09747318, 0.0482388, 0.06223864, 0.00497886, 0.097461, 0.04820107
 5540283, -0.03125719, 0.02846594, 0.09742012, 0.04820558, 0.03855089, -0.06400883, 0.09747318, 0.0482388
 5640243, -0.02621726, 0.005652735, 0.09740156, 0.04820356, -0.03125719, 0.02846594, 0.09742012, 0.04820558
 5740203, 0.022492, 0.009633901, 0.09739608, 0.04821018, -0.02621726, 0.005652735, 0.09740156, 0.04820356
 5840163, -0.05454539, 0.01977127, 0.09746162, 0.04818011, 0.022492, 0.009633901, 0.09739608, 0.04821018
 5940956, 0.03884806, -0.03864961, 0.09744574, 0.04819877, -0.05454539, 0.01977127, 0.09746162, 0.04818011
 6040916, 0.02091915, -0.01022931, 0.09740041, 0.04819932, 0.03884806, -0.03864961, 0.09744574, 0.04819877
 6140876, 0.01599568, 0.02641968, 0.09739661, 0.04822222, 0.02091915, -0.01022931, 0.09740041, 0.04819932
 6240836, 0.02261427, 0.01572479, 0.09739866, 0.04821087, 0.01599568, 0.02641968, 0.09739661, 0.04822222
 6340796, -0.05329059, 0.05753476, 0.0975043, 0.04819683, 0.02261427, 0.01572479, 0.09739866, 0.04821087
 6440756, -0.02606918, -0.03781867, 0.09740802, 0.04824195, -0.05329059, 0.05753476, 0.0975043, 0.04819683
 6540716, -0.04209223, 0.03161923, 0.0974475, 0.04818667, -0.02606918, -0.03781867, 0.09740802, 0.04824195
 6640676, 0.03330881, 0.06391171, 0.09743135, 0.04830888, -0.04209223, 0.03161923, 0.0974475, 0.04818667
 6740636, -0.01182086, -0.07022172, 0.0974309, 0.04830519, 0.03330881, 0.06391171, 0.09743135, 0.04830888
 6840596, -0.07909179, -0.02802662, 0.09750742, 0.04822349, -0.01182086, -0.07022172, 0.0974309, 0.04830519
 6940556, -0.01872794, 0.02206923, 0.09740742, 0.04819607, -0.07909179, -0.02802662, 0.09750742, 0.04822349
 7040516, -0.07039333, -0.05083001, 0.09748572, 0.04828575, -0.01872794, 0.02206923, 0.09740742, 0.04819607
 7140476, 0.01652784, 0.04460325, 0.09740995, 0.04824369, -0.07039333, -0.05083001, 0.09748572, 0.04828575
 7240436, -0.05379092, -0.007703066, 0.09744954, 0.04818925, 0.01652784, 0.04460325, 0.09740995, 0.04824369
 7340396, 0.06820735, 0.05757042, 0.09748368, 0.04830565, -0.05379092, -0.007703066, 0.09744954, 0.04818925
 7440356, 0.06965271, 0.01607579, 0.09748521, 0.04819693, 0.06820735, 0.05757042, 0.09748368, 0.04830565
 7540316, -0.03489351, -0.05983734, 0.09743159, 0.04829373, 0.06965271, 0.01607579, 0.09748521, 0.04819693
 7640276, -0.03978672, 0.05930138, 0.09747749, 0.04821218, -0.03489351, -0.05983734, 0.09743159, 0.04829373
 7740236, -0.07551123, 0.008955814, 0.09751597, 0.04815957, -0.03978672, 0.05930138, 0.09747749, 0.04821218
 7840196, 3.176928E-05, -0.04935532, 0.09741388, 0.04824218, -0.07551123, 0.008955814, 0.09751597, 0.04815957
 7940156, -0.01807427, 0.04507902, 0.09742378, 0.04821932, 3.176928E-05, -0.04935532, 0.09741388, 0.04824218
 8040949, 0.003025366, 0.0204889, 0.09739479, 0.0482065, -0.01807427, 0.04507902, 0.09742378, 0.04821932
 8140909, 0.03769813, 0.002086398, 0.09741971, 0.04819301, 0.003025366, 0.0204889, 0.09739479, 0.0482065
 8240869, 0.03712897, 0.003965658, 0.09741831, 0.04819469, 0.03769813, 0.002086398, 0.09741971, 0.04819301
 8340829, -0.05627161, -0.05932753, 0.09745823, 0.04830974, 0.03712897, 0.003965658, 0.09741831, 0.04819469
 8440789, 0.05345029, -0.02227978, 0.09746525, 0.04817228, -0.05627161, -0.05932753, 0.09745823, 0.04830974
 8540749, 0.001941545, 0.06306195, 0.09742667, 0.04827344, 0.05345029, -0.02227978, 0.09746525, 0.04817228
 8640709, 0.003543037, -0.04803053, 0.09741509, 0.04823542, 0.001941545, 0.06306195, 0.09742667, 0.04827344
 8740669, -0.04130318, 0.05801275, 0.09747953, 0.04820703, 0.003543037, -0.04803053, 0.09741509, 0.04823542
 8840629, -0.05007657, -0.0003964575, 0.09744534, 0.04818126, -0.04130318, 0.05801275, 0.09747953, 0.04820703
 8940589, -0.04850523, 0.03336865, 0.09746745, 0.04817202, -0.05007657, -0.0003964575, 0.09744534, 0.04818126
 9040549, 0.02624585, -0.03455228, 0.09742884, 0.04819148, -0.04850523, 0.03336865, 0.09746745, 0.04817202
 9140509, -0.01134006, -0.04156853, 0.09741081, 0.04822694, 0.02624585, -0.03455228, 0.09742884, 0.04819148
 9240469, -0.02278749, -0.004849879, 0.09740739, 0.04818524, -0.01134006, -0.04156853, 0.09741081, 0.04822694
 9340429, 0.04234484, -0.09239623, 0.09754531, 0.04826852, -0.02278749, -0.004849879, 0.09740739, 0.04818524
 9440389, -0.02644728, 0.009150544, 0.09741529, 0.0481782, 0.04234484, -0.09239623, 0.09754531, 0.04826852
 9540349, -0.08941477, -0.03352976, 0.09754545, 0.04822347, -0.02644728, 0.009150544, 0.09741529, 0.0481782
 9640309, 0.01732413, 0.07418074, 0.0974419, 0.04831006, -0.08941477, -0.03352976, 0.09754545, 0.04822347
 9740269, 0.02358089, -0.05228766, 0.09744456, 0.04821178, 0.01732413, 0.07418074, 0.0974419, 0.04831006
 9840229, -0.03261517, 0.02782891, 0.09743438, 0.04817864, 0.02358089, -0.05228766, 0.09744456, 0.04821178
 9940189, 0.04817346, -0.02265761, 0.09745923, 0.04816524, -0.03261517, 0.02782891, 0.09743438, 0.04817864
 10040149, 0.03485405, -0.02889221, 0.09743881, 0.04817749, 0.04817346, -0.02265761, 0.09745923, 0.04816524
 10140942, 0.05841638, -0.01278195, 0.09747599, 0.0481588, 0.03485405, -0.02889221, 0.09743881, 0.04817749
 10240902, 0.06459924, 0.01909476, 0.0974763, 0.04819378, 0.05841638, -0.01278195, 0.09747599, 0.0481588
 10340862, -0.004130198, 0.07980905, 0.09745879, 0.04829754, 0.06459924, 0.01909476, 0.0974763, 0.04819378
 10440822, -0.0005899295, 0.04057133, 0.09741373, 0.04821331, -0.004130198, 0.07980905, 0.09745879, 0.04829754
 10540782, -0.04551199, 0.03125011, 0.09746253, 0.04816649, -0.0005899295, 0.04057133, 0.09741373, 0.04821331
 10640742, 0.006009545, 0.01059545, 0.09739984, 0.04818589, -0.04551199, 0.03125011, 0.09746253, 0.04816649
 10740702, 0.07657542, 0.03774521, 0.09750561, 0.04823633, 0.006009545, 0.01059545, 0.09739984, 0.04818589
 10840662, 0.03249033, -0.07677894, 0.09749392, 0.04824746, 0.07657542, 0.03774521, 0.09750561, 0.04823633
 10940622, 0.02809043, -0.06932156, 0.09747329, 0.04823898, 0.03249033, -0.07677894, 0.09749392, 0.04824746
 11040582, -0.005170672, 0.01475827, 0.09739962, 0.04818988, 0.02809043, -0.06932156, 0.09747329, 0.04823898
 11140542, 0.02742452, -0.006350845, 0.09741341, 0.04818232, -0.005170672, 0.01475827, 0.09739962, 0.04818988
 11240502, -0.0363911, 0.04918033, 0.09746038, 0.04819656, 0.02742452, -0.006350845, 0.09741341, 0.04818232
 11340462, -0.06554186, -0.01511761, 0.09747709, 0.0481917, -0.0363911, 0.04918033, 0.09746038, 0.04819656
 11440422, -0.04026156, -0.02966502, 0.0974263, 0.04821947, -0.06554186, -0.01511761, 0.09747709, 0.0481917
 11540382, -0.02718763, -0.02687947, 0.09741097, 0.04821203, -0.04026156, -0.02966502, 0.0974263, 0.04821947
 11640342, -0.02622543, -0.01744643, 0.09740858, 0.04819948, -0.02718763, -0.02687947, 0.09741097, 0.04821203
 11740302, 0.06040991, -0.001555288, 0.09747152, 0.04817065, -0.02622543, -0.01744643, 0.09740858, 0.04819948
 11840262, 0.008019947, 0.0186676, 0.09739929, 0.04819676, 0.06040991, -0.001555288, 0.09747152, 0.04817065
 11940222, 0.006381917, 0.03274353, 0.0974052, 0.04821078, 0.008019947, 0.0186676, 0.09739929, 0.04819676
 12040182, 0.03776342, -0.03384798, 0.09744765, 0.04817893, 0.006381917, 0.03274353, 0.0974052, 0.04821078
 12140975, -0.007157471, 0.02177584, 0.09740373, 0.04819199, 0.03776342, -0.03384798, 0.09744765, 0.04817893
 12240935, 0.04109458, 0.0063359, 0.09742966, 0.04818413, -0.007157471, 0.02177584, 0.09740373, 0.04819199
 12340895, 0.07101662, 0.03884717, 0.09748922, 0.04824222, 0.04109458, 0.0063359, 0.09742966, 0.04818413
 12440855, -0.0246932, 0.04180344, 0.09743363, 0.04819936, 0.07101662, 0.03884717, 0.09748922, 0.04824222
 12540815, 0.06611815, 0.02938798, 0.09747621, 0.04821978, -0.0246932, 0.04180344, 0.09743363, 0.04819936
 12640775, -0.01866643, 0.01556673, 0.09740748, 0.04818684, 0.06611815, 0.02938798, 0.09747621, 0.04821978
 12740735, -0.03961759, -0.05753253, 0.09743652, 0.0482868, -0.01866643, 0.01556673, 0.09740748, 0.04818684
 12840695, -0.07099721, -0.02108961, 0.09748839, 0.04820443, -0.03961759, -0.05753253, 0.09743652, 0.0482868
 12940655, -0.01161921, 0.008801519, 0.0973983, 0.04819139, -0.07099721, -0.02108961, 0.09748839, 0.04820443
 13040615, -0.0001577511, -0.063959, 0.09743011, 0.04827058, -0.01161921, 0.008801519, 0.0973983, 0.04819139
 13140575, 0.0843077, 0.02479725, 0.09752624, 0.04821065, -0.0001577511, -0.063959, 0.09743011, 0.04827058
 13240535, 0.006065285, 0.07389905, 0.09743914, 0.04830433, 0.0843077, 0.02479725, 0.09752624, 0.04821065
 13340495, -0.01483594, -0.007040865, 0.09739807, 0.04819399, 0.006065285, 0.07389905, 0.09743914, 0.04830433
 13440455, -0.01602776, -0.01865866, 0.09740034, 0.04820179, -0.01483594, -0.007040865, 0.09739807, 0.04819399
 13540415, 0.03403001, -0.03361683, 0.09743899, 0.04818596, -0.01602776, -0.01865866, 0.09740034, 0.04820179
 13640375, -0.04786285, -0.05737276, 0.09744737, 0.04829087, 0.03403001, -0.03361683, 0.09743899, 0.04818596
 13740335, -0.06633944, 0.01796848, 0.09749892, 0.0481549, -0.04786285, -0.05737276, 0.09744737, 0.04829087
 13840295, -0.04907598, 0.06753384, 0.0975145, 0.04820655, -0.06633944, 0.01796848, 0.09749892, 0.0481549
 13940255, -0.006164731, -0.02592652, 0.0974004, 0.04820555, -0.04907598, 0.06753384, 0.0975145, 0.04820655
 14040215, -0.0105014, -0.01004681, 0.09739725, 0.04819346, -0.006164731, -0.02592652, 0.0974004, 0.04820555
 14140175, 0.006267603, -0.01306556, 0.09739825, 0.04819139, -0.0105014, -0.01004681, 0.09739725, 0.04819346
 14240968, -0.04471406, -0.004031061, 0.09743509, 0.04818376, 0.006267603, -0.01306556, 0.09739825, 0.04819139
 14340928, -0.04842081, 0.0826943, 0.09754049, 0.04823587, -0.04471406, -0.004031061, 0.09743509, 0.04818376
 14440888, -0.05511289, 0.02714618, 0.09747909, 0.04815993, -0.04842081, 0.0826943, 0.09754049, 0.04823587
 14540848, 0.04130852, 0.02334298, 0.09742951, 0.04820375, -0.05511289, 0.02714618, 0.09747909, 0.04815993
 14640808, -0.05386423, -0.06031089, 0.09746228, 0.0482961, 0.04130852, 0.02334298, 0.09742951, 0.04820375
 14740768, 0.03191762, 0.06644784, 0.09744109, 0.04829806, -0.05386423, -0.06031089, 0.09746228, 0.0482961
 14840728, 0.04307428, -0.09257258, 0.09754933, 0.04826389, 0.03191762, 0.06644784, 0.09744109, 0.04829806
 14940688, -0.004374625, 0.07427716, 0.09745198, 0.04827985, 0.04307428, -0.09257258, 0.09754933, 0.04826389
 15040648, 0.08739755, 0.04997918, 0.09753946, 0.04827318, -0.004374625, 0.07427716, 0.09745198, 0.04827985
 15140608, -0.04094107, 0.02363756, 0.09744706, 0.04816768, 0.08739755, 0.04997918, 0.09753946, 0.04827318
 15240568, -0.02471269, -0.001127196, 0.09741153, 0.04817945, -0.04094107, 0.02363756, 0.09744706, 0.04816768
 15340528, 0.05702408, 0.00869439, 0.09746232, 0.04817726, -0.02471269, -0.001127196, 0.09741153, 0.04817945
 15440488, -0.06422028, 0.006718556, 0.09748824, 0.04815599, 0.05702408, 0.00869439, 0.09746232, 0.04817726
 15540448, -0.04120501, 0.01106187, 0.09743933, 0.04816796, -0.06422028, 0.006718556, 0.09748824, 0.04815599
 15640408, -0.03671926, 0.07952303, 0.09750898, 0.04824367, -0.04120501, 0.01106187, 0.09743933, 0.04816796
 15740368, 0.01495104, 0.01253576, 0.09740327, 0.04818757, -0.03671926, 0.07952303, 0.09750898, 0.04824367
 15840328, -0.01660527, -0.05039381, 0.09741979, 0.04824428, 0.01495104, 0.01253576, 0.09740327, 0.04818757
 15940288, -0.01972011, -0.03451812, 0.09741134, 0.04821565, -0.01660527, -0.05039381, 0.09741979, 0.04824428
 16040248, 0.02007055, -0.07351395, 0.09746809, 0.04825734, -0.01972011, -0.03451812, 0.09741134, 0.04821565
 16140208, -0.03956147, 0.07140595, 0.09750088, 0.04822277, 0.02007055, -0.07351395, 0.09746809, 0.04825734
 16240168, -0.06412221, -0.04034257, 0.0974741, 0.04824271, -0.03956147, 0.07140595, 0.09750088, 0.04822277
 16340961, -0.03689005, -0.04954146, 0.09743154, 0.0482575, -0.06412221, -0.04034257, 0.0974741, 0.04824271
 16440921, -0.03533805, 0.09013468, 0.09752375, 0.0482767, -0.03689005, -0.04954146, 0.09743154, 0.0482575
 16540881, 0.009824188, 0.03326771, 0.09740608, 0.04821233, -0.03533805, 0.09013468, 0.09752375, 0.0482767
 16640841, 0.05110769, -0.0419549, 0.09748468, 0.04817073, 0.009824188, 0.03326771, 0.09740608, 0.04821233
 16740801, -0.05883677, -0.04799162, 0.09746248, 0.04826711, 0.05110769, -0.0419549, 0.09748468, 0.04817073
 16840761, -0.02782074, 0.008499421, 0.0974144, 0.0481823, -0.05883677, -0.04799162, 0.09746248, 0.04826711
 16940721, 0.03090364, -0.004231186, 0.09741689, 0.04818195, -0.02782074, 0.008499421, 0.0974144, 0.0481823
 17040681, -0.02747001, 0.07708227, 0.09748335, 0.04825939, 0.03090364, -0.004231186, 0.09741689, 0.04818195
 17140641, 0.0128838, -0.03177249, 0.09741239, 0.04819857, -0.02747001, 0.07708227, 0.09748335, 0.04825939
 17240601, -0.02992231, -0.04303681, 0.09742023, 0.04824089, 0.0128838, -0.03177249, 0.09741239, 0.04819857
 17340561, -0.01058384, 0.02753326, 0.09740902, 0.04819405, -0.02992231, -0.04303681, 0.09742023, 0.04824089
 17440521, -0.006258504, -0.007519184, 0.0973989, 0.04818583, -0.01058384, 0.02753326, 0.09740902, 0.04819405
 17540481, -0.0560555, 0.0270424, 0.09748253, 0.04815656, -0.006258504, -0.007519184, 0.0973989, 0.04818583
 17640441, 0.063588, -0.01608607, 0.09749247, 0.04815235, -0.0560555, 0.0270424, 0.09748253, 0.04815656
 17740401, -0.01597475, -0.01023412, 0.09740286, 0.04818762, 0.063588, -0.01608607, 0.09749247, 0.04815235
 17840361, -0.03346531, 0.05404403, 0.09746286, 0.04820257, -0.01597475, -0.01023412, 0.09740286, 0.04818762
 17940321, 0.05398738, -0.06985969, 0.09753415, 0.04819734, -0.03346531, 0.05404403, 0.09746286, 0.04820257
 18040281, -0.04578888, 0.02966772, 0.0974602, 0.04816859, 0.05398738, -0.06985969, 0.09753415, 0.04819734
 18140241, -0.05458399, -0.02724267, 0.09745189, 0.04821298, -0.04578888, 0.02966772, 0.0974602, 0.04816859
 18240201, -0.07556283, -0.0467682, 0.09750277, 0.04826456, -0.05458399, -0.02724267, 0.09745189, 0.04821298
 18340161, -0.01247657, -0.03007693, 0.09740569, 0.04820783, -0.07556283, -0.0467682, 0.09750277, 0.04826456
 18440954, 0.08125889, 0.04052597, 0.09751903, 0.04824456, -0.01247657, -0.03007693, 0.09740569, 0.04820783
 18540914, -0.03042075, 0.05493542, 0.0974593, 0.04820618, 0.08125889, 0.04052597, 0.09751903, 0.04824456
 18640874, 0.06282295, 0.05602501, 0.09747685, 0.04828689, -0.03042075, 0.05493542, 0.0974593, 0.04820618
 18740834, 0.02179881, -0.03379644, 0.09742578, 0.04818784, 0.06282295, 0.05602501, 0.09747685, 0.04828689
 18840794, -0.03788212, 0.04756542, 0.09746488, 0.04818581, 0.02179881, -0.03379644, 0.09742578, 0.04818784
 18940754, -0.004152641, 0.06496673, 0.09743964, 0.04825678, -0.03788212, 0.04756542, 0.09746488, 0.04818581
 19040714, 0.009329047, 0.01560011, 0.09740181, 0.04818867, -0.004152641, 0.06496673, 0.09743964, 0.04825678
 19140674, 0.004978975, -0.058172, 0.09743234, 0.04824088, 0.009329047, 0.01560011, 0.09740181, 0.04818867
 19240634, 0.03161545, -0.07780677, 0.09749525, 0.04824859, 0.004978975, -0.058172, 0.09743234, 0.04824088
 19340594, 0.01181183, -0.05860441, 0.0974387, 0.04823416, 0.03161545, -0.07780677, 0.09749525, 0.04824859
 19440554, 0.0777507, 0.02790029, 0.09739204, 0.04844813, 0.01181183, -0.05860441, 0.0974387, 0.04823416
 19540514, 0.05057649, -0.00792749, 0.09719519, 0.04868808, 0.0777507, 0.02790029, 0.09739204, 0.04844813
 19640474, -0.02166084, 0.03301463, 0.09695947, 0.04911727, 0.05057649, -0.00792749, 0.09719519, 0.04868808
 19740434, 0.05923494, 0.02466232, 0.09673355, 0.04965273, -0.02166084, 0.03301463, 0.09695947, 0.04911727
 19840394, -0.003364877, -0.03779807, 0.09636129, 0.05027647, 0.05923494, 0.02466232, 0.09673355, 0.04965273
 19940354, 0.02008295, 0.06441102, 0.09601963, 0.05103485, -0.003364877, -0.03779807, 0.09636129, 0.05027647
 20040314, -0.03921508, -0.05700655, 0.09563201, 0.05176566, 0.02008295, 0.06441102, 0.09601963, 0.05103485
 20140274, -0.007909479, 0.04884936, 0.09519628, 0.05248323, -0.03921508, -0.05700655, 0.09563201, 0.05176566
 20240234, 0.05194516, 0.02015566, 0.09478936, 0.0532366, -0.007909479, 0.04884936, 0.09519628, 0.05248323
 20340194, -0.01731801, -0.0005016122, 0.09430086, 0.05400467, 0.05194516, 0.02015566, 0.09478936, 0.0532366
 20440154, 0.05574952, 0.06209095, 0.09391447, 0.05489081, -0.01731801, -0.0005016122, 0.09430086, 0.05400467
 20540947, 0.07243466, 0.01865103, 0.093511, 0.05553143, 0.05574952, 0.06209095, 0.09391447, 0.05489081
 20640907, -0.008296523, 0.04735775, 0.09299114, 0.05629369, 0.07243466, 0.01865103, 0.093511, 0.05553143
 20740867, 0.04378376, -0.0834986, 0.0926604, 0.05704252, -0.008296523, 0.04735775, 0.09299114, 0.05629369
 20840827, 0.3392579, -0.03013036, 0.09467622, 0.0570826, 0.04378376, -0.0834986, 0.0926604, 0.05704252
 20940787, 0.6096464, -0.1951822, 0.1004526, 0.05638701, 0.3392579, -0.03013036, 0.09467622, 0.0570826
 21040747, 0.9880143, -0.1925157, 0.1115987, 0.05449332, 0.6096464, -0.1951822, 0.1004526, 0.05638701
 21140707, 1.500789, -0.3397488, 0.1330106, 0.05065125, 0.9880143, -0.1925157, 0.1115987, 0.05449332
 21240667, 2.150982, -0.3889008, 0.1637452, 0.04520122, 1.500789, -0.3397488, 0.1330106, 0.05065125
 21340627, 2.997447, -0.5406127, 0.2085817, 0.03728944, 2.150982, -0.3889008, 0.1637452, 0.04520122
 21440587, 3.693847, -0.7345852, 0.2478305, 0.03090937, 2.997447, -0.5406127, 0.2085817, 0.03728944
 21540547, 4.728426, -0.8940392, 0.3063288, 0.02143536, 3.693847, -0.7345852, 0.2478305, 0.03090937
 21640507, 5.667853, -1.039962, 0.3602598, 0.01345459, 4.728426, -0.8940392, 0.3063288, 0.02143536
 21740467, 6.757704, -1.195827, 0.4232405, 0.004706845, 5.667853, -1.039962, 0.3602598, 0.01345459
 21840427, 7.811454, -1.309934, 0.4840759, -0.002913125, 6.757704, -1.195827, 0.4232405, 0.004706845
 21940387, 8.730293, -1.400325, 0.5371322, -0.008057542, 7.811454, -1.309934, 0.4840759, -0.002913125
 22040347, 9.644149, -1.469066, 0.589757, -0.01236334, 8.730293, -1.400325, 0.5371322, -0.008057542
 22140307, 10.60641, -1.590872, 0.6456707, -0.01590368, 9.644149, -1.469066, 0.589757, -0.01236334
 22240267, 11.31704, -1.598278, 0.6860723, -0.01664005, 10.60641, -1.590872, 0.6456707, -0.01590368
 22340227, 12.16641, -1.511659, 0.7329286, -0.01678592, 11.31704, -1.598278, 0.6860723, -0.01664005
 22440187, 12.99038, -1.667236, 0.7778845, -0.01566628, 12.16641, -1.511659, 0.7329286, -0.01678592
 22540147, 13.68283, -1.569092, 0.8146902, -0.01363251, 12.99038, -1.667236, 0.7778845, -0.01566628
 22640940, 14.19594, -1.557086, 0.8424969, -0.0107453, 13.68283, -1.569092, 0.8146902, -0.01363251
 22740900, 15.09845, -1.581463, 0.8911694, -0.009250358, 14.19594, -1.557086, 0.8424969, -0.0107453
 22840860, 15.88344, -1.551113, 0.9254357, -0.004474342, 15.09845, -1.581463, 0.8911694, -0.009250358
 22940820, 16.29266, -1.494809, 0.9302205, 0.004964694, 15.88344, -1.551113, 0.9254357, -0.004474342
 23040780, 16.56692, -1.442854, 0.9221422, 0.01838782, 16.29266, -1.494809, 0.9302205, 0.004964694
 23140740, 16.99586, -1.335171, 0.9209575, 0.03410336, 16.56692, -1.442854, 0.9221422, 0.01838782
 23240700, 17.65528, -1.21933, 0.9348442, 0.05274354, 16.99586, -1.335171, 0.9209575, 0.03410336
 23340660, 18.20872, -1.249928, 0.9490545, 0.07009149, 17.65528, -1.21933, 0.9348442, 0.05274354
 23440620, 18.93164, -1.381434, 0.9757851, 0.08758067, 18.20872, -1.249928, 0.9490545, 0.07009149
 23540580, 19.81278, -1.471604, 1.011346, 0.1077541, 18.93164, -1.381434, 0.9757851, 0.08758067
 23640540, 20.69184, -1.484021, 1.047084, 0.1262219, 19.81278, -1.471604, 1.011346, 0.1077541
 23740500, 21.48538, -1.311387, 1.078303, 0.1456796, 20.69184, -1.484021, 1.047084, 0.1262219
 23840460, 21.93469, -1.290599, 1.095299, 0.1672837, 21.48538, -1.311387, 1.078303, 0.1456796
 23940420, 22.60686, -1.457751, 1.124827, 0.1893362, 21.93469, -1.290599, 1.095299, 0.1672837
 24040380, 23.01628, -1.392892, 1.143434, 0.2107923, 22.60686, -1.457751, 1.124827, 0.1893362
 24140340, 23.59832, -1.868394, 1.172971, 0.2322116, 23.01628, -1.392892, 1.143434, 0.2107923
 24240300, 24.50385, -2.048709, 1.215744, 0.258611, 23.59832, -1.868394, 1.172971, 0.2322116
 24340260, 24.43109, -1.872275, 1.215478, 0.2905772, 24.50385, -2.048709, 1.215744, 0.258611
 24440220, 25.34172, -1.261621, 1.260638, 0.3196678, 24.43109, -1.872275, 1.215478, 0.2905772
 24540180, 25.9288, -1.744605, 1.298918, 0.3449108, 25.34172, -1.261621, 1.260638, 0.3196678
 24640973, 25.81672, -2.07596, 1.307614, 0.3745325, 25.9288, -1.744605, 1.298918, 0.3449108
 24740933, 25.86936, -1.889862, 1.32201, 0.4015096, 25.81672, -2.07596, 1.307614, 0.3745325
 24840893, 26.67971, -1.862897, 1.369412, 0.4271928, 25.86936, -1.889862, 1.32201, 0.4015096
 24940853, 26.32462, -2.321296, 1.369194, 0.4623654, 26.67971, -1.862897, 1.369412, 0.4271928
 25040813, 26.49668, -2.083587, 1.390777, 0.4967791, 26.32462, -2.321296, 1.369194, 0.4623654
 25140773, 27.43954, -1.885334, 1.444914, 0.5272408, 26.49668, -2.083587, 1.390777, 0.4967791
 25240733, 27.06651, -1.60774, 1.4471, 0.5608715, 27.43954, -1.885334, 1.444914, 0.5272408
 25340693, 27.67067, -2.787571, 1.494068, 0.5899711, 27.06651, -1.60774, 1.4471, 0.5608715
 25440653, 27.81045, -2.189157, 1.518524, 0.6201176, 27.67067, -2.787571, 1.494068, 0.5899711
 25540613, 27.54053, -2.155939, 1.531205, 0.6548862, 27.81045, -2.189157, 1.518524, 0.6201176
 25640573, 28.51463, -2.04479, 1.593322, 0.6869212, 27.54053, -2.155939, 1.531205, 0.6548862
 25740533, 28.56036, -1.806441, 1.622154, 0.7228565, 28.51463, -2.04479, 1.593322, 0.6869212
 25840493, 27.92557, -3.003748, 1.63182, 0.76013, 28.56036, -1.806441, 1.622154, 0.7228565
 25940453, 28.17542, -3.179977, 1.67266, 0.7917784, 27.92557, -3.003748, 1.63182, 0.76013
 26040413, 29.17054, -2.480302, 1.736215, 0.8218067, 28.17542, -3.179977, 1.67266, 0.7917784
 26140373, 28.27989, -2.977558, 1.736098, 0.85787, 29.17054, -2.480302, 1.736215, 0.8218067
 26240333, 29.13301, -2.419415, 1.794278, 0.8900256, 28.27989, -2.977558, 1.736098, 0.85787
 26340293, 29.4212, -2.875809, 1.834257, 0.9250151, 29.13301, -2.419415, 1.794278, 0.8900256
 26440253, 27.55412, -2.830141, 1.798194, 0.9666489, 29.4212, -2.875809, 1.834257, 0.9250151
 26540213, 29.34996, -1.73278, 1.886732, 0.9944501, 27.55412, -2.830141, 1.798194, 0.9666489
 26640173, 28.63603, -3.514038, 1.897539, 1.029581, 29.34996, -1.73278, 1.886732, 0.9944501
 26740966, 29.48908, -2.889449, 1.955317, 1.056515, 28.63603, -3.514038, 1.897539, 1.029581
 26840926, 28.0243, -2.844746, 1.936382, 1.092705, 29.48908, -2.889449, 1.955317, 1.056515
 26940886, 28.46872, -1.459076, 1.975661, 1.125004, 28.0243, -2.844746, 1.936382, 1.092705
 27040846, 28.56568, -1.375565, 2.007902, 1.154831, 28.46872, -1.459076, 1.975661, 1.125004
 27140806, 27.83121, -2.528038, 2.017596, 1.183215, 28.56568, -1.375565, 2.007902, 1.154831
 27240766, 27.83446, -3.557038, 2.049382, 1.212736, 27.83121, -2.528038, 2.017596, 1.183215
 27340726, 30.32989, -3.316831, 2.159397, 1.227606, 27.83446, -3.557038, 2.049382, 1.212736
 27440686, 28.87164, -1.640201, 2.135846, 1.261715, 30.32989, -3.316831, 2.159397, 1.227606
 27540646, 28.98802, -3.858713, 2.176525, 1.284115, 28.87164, -1.640201, 2.135846, 1.261715
 27640606, 30.53661, -2.724876, 2.252468, 1.302541, 28.98802, -3.858713, 2.176525, 1.284115
 27740566, 30.28383, -2.0524, 2.270822, 1.329389, 30.53661, -2.724876, 2.252468, 1.302541
 27840526, 29.05756, -1.618438, 2.261888, 1.356123, 30.28383, -2.0524, 2.270822, 1.329389
 27940486, 29.97904, -2.299327, 2.322703, 1.376961, 29.05756, -1.618438, 2.261888, 1.356123
 28040446, 27.52583, -4.509497, 2.287999, 1.407697, 29.97904, -2.299327, 2.322703, 1.376961
 28140406, 29.2915, -1.931976, 2.362123, 1.42667, 27.52583, -4.509497, 2.287999, 1.407697
 28240366, 29.75208, -2.708823, 2.409416, 1.446799, 29.2915, -1.931976, 2.362123, 1.42667
 28340326, 28.85654, -2.148013, 2.411946, 1.472816, 29.75208, -2.708823, 2.409416, 1.446799
 28440286, 30.46322, -3.543122, 2.494573, 1.4862, 28.85654, -2.148013, 2.411946, 1.472816
 28540246, 30.00154, -2.63259, 2.506821, 1.508826, 30.46322, -3.543122, 2.494573, 1.4862
 28640206, 29.74637, -3.369848, 2.518725, 1.533547, 30.00154, -2.63259, 2.506821, 1.508826
 28740166, 28.27974, -1.26554, 2.473338, 1.580599, 29.74637, -3.369848, 2.518725, 1.533547
 28840959, 27.16595, -0.5379598, 2.46095, 1.629347, 28.27974, -1.26554, 2.473338, 1.580599
 28940919, 29.22142, -1.363131, 2.57217, 1.671144, 27.16595, -0.5379598, 2.46095, 1.629347
 29040879, 30.14559, -4.107868, 2.675139, 1.72557, 29.22142, -1.363131, 2.57217, 1.671144
 29140839, 29.03265, -4.100135, 2.709773, 1.77781, 30.14559, -4.107868, 2.675139, 1.72557
 29240799, 27.63187, -5.410326, 2.713099, 1.815917, 29.03265, -4.100135, 2.709773, 1.77781
 29340759, 28.08337, -4.441901, 2.714665, 1.838045, 27.63187, -5.410326, 2.713099, 1.815917
 29440719, 27.04107, -5.375245, 2.662355, 1.856313, 28.08337, -4.441901, 2.714665, 1.838045
 29540679, 27.32194, -4.986441, 2.62859, 1.861156, 27.04107, -5.375245, 2.662355, 1.856313
 29640639, 28.07437, -3.718315, 2.608154, 1.859711, 27.32194, -4.986441, 2.62859, 1.861156
 29740599, 27.49564, -1.146927, 2.560525, 1.862879, 28.07437, -3.718315, 2.608154, 1.859711
 29840559, 27.78827, -3.850383, 2.54846, 1.877266, 27.49564, -1.146927, 2.560525, 1.862879
 29940519, 28.91201, -2.629422, 2.557181, 1.891664, 27.78827, -3.850383, 2.54846, 1.877266
 30040479, 29.74796, -1.733803, 2.567559, 1.905396, 28.91201, -2.629422, 2.557181, 1.891664
 30140439, 28.98249, -1.563753, 2.537457, 1.922301, 29.74796, -1.733803, 2.567559, 1.905396
 30240399, 29.65707, -0.6574284, 2.546458, 1.9406, 28.98249, -1.563753, 2.537457, 1.922301
 30340359, 27.78668, -0.1204786, 2.485032, 1.962345, 29.65707, -0.6574284, 2.546458, 1.9406
 30440319, 26.85004, -1.060443, 2.449753, 1.983829, 27.78668, -0.1204786, 2.485032, 1.962345
 30540279, 28.01165, -0.2467089, 2.469455, 2.003324, 26.85004, -1.060443, 2.449753, 1.983829
 30640239, 27.51816, 1.140952, 2.44344, 2.025756, 28.01165, -0.2467089, 2.469455, 2.003324
 30740199, 24.95612, -1.878148, 2.36821, 2.040752, 27.51816, 1.140952, 2.44344, 2.025756
 30840159, 27.69357, 0.6988602, 2.431979, 2.048532, 24.95612, -1.878148, 2.36821, 2.040752
 30940952, 25.8222, -1.123706, 2.37716, 2.053197, 27.69357, 0.6988602, 2.431979, 2.048532
 31040912, 25.5525, 1.038645, 2.367469, 2.052583, 25.8222, -1.123706, 2.37716, 2.053197
 31140872, 25.47305, 1.351117, 2.36343, 2.053323, 25.5525, 1.038645, 2.367469, 2.052583
 31240832, 27.28697, 0.7827086, 2.410064, 2.054013, 25.47305, 1.351117, 2.36343, 2.053323
 31340792, 23.93061, 1.346827, 2.31927, 2.053473, 27.28697, 0.7827086, 2.410064, 2.054013
 31440752, 27.32276, -1.456477, 2.404846, 2.056688, 23.93061, 1.346827, 2.31927, 2.053473
 31540712, 26.58261, 1.833155, 2.381435, 2.0557, 27.32276, -1.456477, 2.404846, 2.056688
 31640672, 27.02462, -0.9059063, 2.387729, 2.054868, 26.58261, 1.833155, 2.381435, 2.0557
 31740632, 24.56006, -0.2988102, 2.316405, 2.051041, 27.02462, -0.9059063, 2.387729, 2.054868
 31840592, 25.1766, -1.094197, 2.322476, 2.053129, 24.56006, -0.2988102, 2.316405, 2.051041
 31940552, 23.48978, 1.700782, 2.272163, 2.050203, 25.1766, -1.094197, 2.322476, 2.053129
 32040512, 23.27265, 0.2597463, 2.256334, 2.048328, 23.48978, 1.700782, 2.272163, 2.050203
 32140472, 25.35335, -0.9903624, 2.301214, 2.048457, 23.27265, 0.2597463, 2.256334, 2.048328
 32240432, 24.51518, 1.059597, 2.269172, 2.047172, 25.35335, -0.9903624, 2.301214, 2.048457
 32340392, 23.94662, 0.3414496, 2.243022, 2.045203, 24.51518, 1.059597, 2.269172, 2.047172
 32440352, 25.84113, 2.472382, 2.283809, 2.048105, 23.94662, 0.3414496, 2.243022, 2.045203
 32540312, 26.18565, 2.432772, 2.28165, 2.048667, 25.84113, 2.472382, 2.283809, 2.048105
 32640272, 23.36022, 1.314189, 2.194147, 2.042429, 26.18565, 2.432772, 2.28165, 2.048667
 32740232, 24.4354, 1.971236, 2.210899, 2.041644, 23.36022, 1.314189, 2.194147, 2.042429
 32840192, 27.10055, 0.8614727, 2.269822, 2.042184, 24.4354, 1.971236, 2.210899, 2.041644
 32940152, 25.11524, 2.575063, 2.206086, 2.035747, 27.10055, 0.8614727, 2.269822, 2.042184
 33040945, 26.43275, -0.3822039, 2.226475, 2.034302, 25.11524, 2.575063, 2.206086, 2.035747
 33140905, 26.56741, 0.6436529, 2.218489, 2.030048, 26.43275, -0.3822039, 2.226475, 2.034302
 33240865, 27.32848, 0.3291227, 2.227043, 2.028538, 26.56741, 0.6436529, 2.218489, 2.030048
 33340825, 26.51962, 0.4467008, 2.192104, 2.022634, 27.32848, 0.3291227, 2.227043, 2.028538
 33440785, 26.80297, -0.2906784, 2.186714, 2.020384, 26.51962, 0.4467008, 2.192104, 2.022634
 33540745, 26.39206, 2.824747, 2.168315, 2.014323, 26.80297, -0.2906784, 2.186714, 2.020384
 33640705, 25.54644, -0.01174676, 2.126629, 2.00924, 26.39206, 2.824747, 2.168315, 2.014323
 33740665, 25.07648, 1.512651, 2.107418, 1.999113, 25.54644, -0.01174676, 2.126629, 2.00924
 33840625, 26.17458, 0.8097392, 2.124959, 1.996748, 25.07648, 1.512651, 2.107418, 1.999113
 33940585, 27.24081, 0.6708938, 2.143713, 1.994666, 26.17458, 0.8097392, 2.124959, 1.996748
 34040545, 27.5917, 2.161341, 2.14825, 1.987285, 27.24081, 0.6708938, 2.143713, 1.994666
 34140505, 27.2873, 0.5688792, 2.127868, 1.978482, 27.5917, 2.161341, 2.14825, 1.987285
 34240465, 24.92396, 2.004874, 2.053439, 1.96513, 27.2873, 0.5688792, 2.127868, 1.978482
 34340425, 24.83638, 1.412245, 2.039632, 1.958305, 24.92396, 2.004874, 2.053439, 1.96513
 34440385, 26.57407, 1.664216, 2.078949, 1.956455, 24.83638, 1.412245, 2.039632, 1.958305
 34540345, 27.75286, 1.950384, 2.107611, 1.949766, 26.57407, 1.664216, 2.078949, 1.956455
 34640305, 25.33209, 1.744582, 2.028198, 1.934514, 27.75286, 1.950384, 2.107611, 1.949766
 34740265, 27.6094, 3.564688, 2.090482, 1.934071, 25.33209, 1.744582, 2.028198, 1.934514
 34840225, 27.43094, 0.5209426, 2.067512, 1.927502, 27.6094, 3.564688, 2.090482, 1.934071
 34940185, 26.65141, 2.972228, 2.041668, 1.917128, 27.43094, 0.5209426, 2.067512, 1.927502
 35040145, 25.32127, 0.8307843, 1.992265, 1.902041, 26.65141, 2.972228, 2.041668, 1.917128
 35140938, 27.15475, 3.551617, 2.048153, 1.896691, 25.32127, 0.8307843, 1.992265, 1.902041
 35240898, 27.34915, 1.296124, 2.040377, 1.889051, 27.15475, 3.551617, 2.048153, 1.896691
 35340858, 25.05582, 1.495427, 1.963826, 1.875688, 27.34915, 1.296124, 2.040377, 1.889051
 35440818, 26.54895, 3.367492, 2.004786, 1.873987, 25.05582, 1.495427, 1.963826, 1.875688
 35540778, 24.81727, 2.022106, 1.942125, 1.861262, 26.54895, 3.367492, 2.004786, 1.873987
 35640738, 25.69289, 1.424625, 1.959461, 1.855677, 24.81727, 2.022106, 1.942125, 1.861262
 35740698, 27.30165, 1.547433, 2.0039, 1.849874, 25.69289, 1.424625, 1.959461, 1.855677
 35840658, 25.79137, 1.137292, 1.9511, 1.836635, 27.30165, 1.547433, 2.0039, 1.849874
 35940618, 27.89067, 2.752963, 2.014931, 1.832355, 25.79137, 1.137292, 1.9511, 1.836635
 36040578, 27.95837, 1.006318, 2.004588, 1.826249, 27.89067, 2.752963, 2.014931, 1.832355
 36140538, 28.21968, 1.989548, 2.011329, 1.815518, 27.95837, 1.006318, 2.004588, 1.826249
 36240498, 27.38196, 0.7687229, 1.975569, 1.805203, 28.21968, 1.989548, 2.011329, 1.815518
 36340458, 26.12836, 3.127218, 1.937398, 1.792441, 27.38196, 0.7687229, 1.975569, 1.805203
 36440418, 26.56816, 1.738227, 1.941216, 1.786123, 26.12836, 3.127218, 1.937398, 1.792441
 36540378, 26.98353, 1.195877, 1.945595, 1.782255, 26.56816, 1.738227, 1.941216, 1.786123
 36640338, 26.17074, 3.835874, 1.92197, 1.772274, 26.98353, 1.195877, 1.945595, 1.782255
 36740298, 25.41277, 1.892358, 1.888801, 1.758456, 26.17074, 3.835874, 1.92197, 1.772274
 36840258, 26.05291, 3.196287, 1.906223, 1.752706, 25.41277, 1.892358, 1.888801, 1.758456
 36940218, 26.9335, 3.326917, 1.928544, 1.747616, 26.05291, 3.196287, 1.906223, 1.752706
 37040178, 26.78998, 1.852097, 1.915418, 1.737023, 26.9335, 3.326917, 1.928544, 1.747616
 37140971, 26.74195, 3.112787, 1.914272, 1.728687, 26.78998, 1.852097, 1.915418, 1.737023
 37240931, 26.45395, 2.688364, 1.900937, 1.718751, 26.74195, 3.112787, 1.914272, 1.728687
 37340891, 25.90131, 2.798292, 1.880982, 1.709026, 26.45395, 2.688364, 1.900937, 1.718751
 37440851, 28.39239, 1.718975, 1.955367, 1.709532, 25.90131, 2.798292, 1.880982, 1.709026
 37540811, 27.20183, 1.122515, 1.909603, 1.702237, 28.39239, 1.718975, 1.955367, 1.709532
 37640771, 25.8529, 3.512002, 1.867334, 1.694689, 27.20183, 1.122515, 1.909603, 1.702237
 37740731, 27.94456, 2.660513, 1.929839, 1.694103, 25.8529, 3.512002, 1.867334, 1.694689
 37840691, 28.6397, 2.715585, 1.95011, 1.689908, 27.94456, 2.660513, 1.929839, 1.694103
 37940651, 28.50379, 3.756026, 1.946197, 1.684026, 28.6397, 2.715585, 1.95011, 1.689908
 38040611, 27.10125, 2.11972, 1.891923, 1.671181, 28.50379, 3.756026, 1.946197, 1.684026
 38140571, 28.56937, 1.227762, 1.935086, 1.671383, 27.10125, 2.11972, 1.891923, 1.671181
 38240531, 26.95923, 0.8564101, 1.877623, 1.660916, 28.56937, 1.227762, 1.935086, 1.671383
 38340491, 28.41256, 2.185799, 1.925239, 1.65942, 26.95923, 0.8564101, 1.877623, 1.660916
 38440451, 27.96428, 1.304746, 1.902332, 1.65503, 28.41256, 2.185799, 1.925239, 1.65942
 38540411, 28.22511, 3.255405, 1.915186, 1.649003, 27.96428, 1.304746, 1.902332, 1.65503
 38640371, 27.13873, 2.76837, 1.875576, 1.637904, 28.22511, 3.255405, 1.915186, 1.649003
 38740331, 27.25052, 0.9862174, 1.870538, 1.634628, 27.13873, 2.76837, 1.875576, 1.637904
 38840291, 26.55569, 2.621994, 1.849422, 1.626865, 27.25052, 0.9862174, 1.870538, 1.634628
 38940251, 28.55615, 1.813873, 1.91427, 1.625803, 26.55569, 2.621994, 1.849422, 1.626865
 39040211, 27.46893, 2.798234, 1.877949, 1.617961, 28.55615, 1.813873, 1.91427, 1.625803
 39140171, 27.87695, 2.406695, 1.887784, 1.615297, 27.46893, 2.798234, 1.877949, 1.617961
 39240964, 27.44193, 3.081842, 1.87149, 1.610709, 27.87695, 2.406695, 1.887784, 1.615297
 39340924, 27.69356, 2.590129, 1.87777, 1.604964, 27.44193, 3.081842, 1.87149, 1.610709
 39440884, 27.69818, 1.81335, 1.87356, 1.599825, 27.69356, 2.590129, 1.87777, 1.604964
 39540844, 28.84585, 1.17474, 1.908182, 1.600952, 27.69818, 1.81335, 1.87356, 1.599825
 39640804, 26.7781, 2.058624, 1.836998, 1.590523, 28.84585, 1.17474, 1.908182, 1.600952
 39740764, 26.74579, 1.079962, 1.832688, 1.585326, 26.7781, 2.058624, 1.836998, 1.590523
 39840724, 27.5725, 2.026093, 1.861691, 1.583334, 26.74579, 1.079962, 1.832688, 1.585326
 39940684, 27.81919, 3.511141, 1.871587, 1.582278, 27.5725, 2.026093, 1.861691, 1.583334
 40040644, 26.37204, 1.461124, 1.815793, 1.570809, 27.81919, 3.511141, 1.871587, 1.582278
 40140604, 28.77942, 1.173557, 1.897115, 1.573087, 26.37204, 1.461124, 1.815793, 1.570809
 40240564, 27.70197, 1.578617, 1.85789, 1.566345, 28.77942, 1.173557, 1.897115, 1.573087
 40340524, 26.47961, 1.486504, 1.814015, 1.558445, 27.70197, 1.578617, 1.85789, 1.566345
 40440484, 26.66233, 0.7323029, 1.81688, 1.55541, 26.47961, 1.486504, 1.814015, 1.558445
 40540444, 28.59817, 2.230888, 1.887553, 1.555902, 26.66233, 0.7323029, 1.81688, 1.55541
 40640404, 27.48042, 1.125422, 1.845604, 1.550642, 28.59817, 2.230888, 1.887553, 1.555902
 40740364, 26.70558, 2.82128, 1.822643, 1.549223, 27.48042, 1.125422, 1.845604, 1.550642
 40840324, 26.72032, 2.091986, 1.822388, 1.549578, 26.70558, 2.82128, 1.822643, 1.549223
 40940284, 26.86708, 1.70476, 1.828781, 1.55112, 26.72032, 2.091986, 1.822388, 1.549578
 41040244, 28.72572, 1.327582, 1.894129, 1.55909, 26.86708, 1.70476, 1.828781, 1.55112
 41140204, 28.08568, 3.261475, 1.879677, 1.558948, 28.72572, 1.327582, 1.894129, 1.55909
 41240164, 27.82289, 1.075237, 1.866876, 1.559725, 28.08568, 3.261475, 1.879677, 1.558948
 41340957, 27.43655, 2.870086, 1.860741, 1.560397, 27.82289, 1.075237, 1.866876, 1.559725
 41440917, 29.11995, 1.315453, 1.915396, 1.569398, 27.43655, 2.870086, 1.860741, 1.560397
 41540877, 29.10128, 1.681722, 1.917019, 1.570897, 29.11995, 1.315453, 1.915396, 1.569398
 41640837, 28.15167, 2.184336, 1.887645, 1.569346, 29.10128, 1.681722, 1.917019, 1.570897
 41740797, 28.04678, 1.447201, 1.884585, 1.570923, 28.15167, 2.184336, 1.887645, 1.569346
 41840757, 27.21331, 1.841471, 1.858857, 1.570468, 28.04678, 1.447201, 1.884585, 1.570923
 41940717, 28.31435, 2.014365, 1.89913, 1.576308, 27.21331, 1.841471, 1.858857, 1.570468
 42040677, 28.9087, 2.308167, 1.923688, 1.580182, 28.31435, 2.014365, 1.89913, 1.576308
 42140637, 27.43641, 1.555411, 1.872463, 1.5795, 28.9087, 2.308167, 1.923688, 1.580182
 42240597, 28.84266, 2.917208, 1.927737, 1.587111, 27.43641, 1.555411, 1.872463, 1.5795
 42340557, 28.52556, 2.47523, 1.917695, 1.589698, 28.84266, 2.917208, 1.927737, 1.587111
 42440517, 27.76248, 3.417597, 1.896768, 1.591383, 28.52556, 2.47523, 1.917695, 1.589698
 42540477, 27.12714, 2.028627, 1.874906, 1.589736, 27.76248, 3.417597, 1.896768, 1.591383
 42640437, 26.98008, 2.643582, 1.872757, 1.594151, 27.12714, 2.028627, 1.874906, 1.589736
 42740397, 26.6372, 2.848446, 1.863583, 1.597408, 26.98008, 2.643582, 1.872757, 1.594151
 42840357, 27.31851, 2.989074, 1.889773, 1.602235, 26.6372, 2.848446, 1.863583, 1.597408
 42940317, 27.3028, 1.292202, 1.886395, 1.606464, 27.31851, 2.989074, 1.889773, 1.602235
 43040277, 27.18161, 1.693488, 1.886314, 1.609105, 27.3028, 1.292202, 1.886395, 1.606464
 43140237, 28.56359, 1.341181, 1.936163, 1.615661, 27.18161, 1.693488, 1.886314, 1.609105
 43240197, 28.09374, 3.29597, 1.928601, 1.618996, 28.56359, 1.341181, 1.936163, 1.615661
 43340157, 28.28184, 1.821316, 1.934053, 1.622331, 28.09374, 3.29597, 1.928601, 1.618996
 43440950, 28.79348, 0.9137378, 1.952584, 1.627351, 28.28184, 1.821316, 1.934053, 1.622331
 43540910, 27.85078, 2.112182, 1.925979, 1.62824, 28.79348, 0.9137378, 1.952584, 1.627351
 43640870, 29.60639, 1.347499, 1.986718, 1.638559, 27.85078, 2.112182, 1.925979, 1.62824
 43740830, 27.29338, 2.218454, 1.913473, 1.634812, 29.60639, 1.347499, 1.986718, 1.638559
 43840790, 27.00222, 1.534409, 1.905906, 1.637715, 27.29338, 2.218454, 1.913473, 1.634812
 43940750, 28.83009, 2.091972, 1.971778, 1.646488, 27.00222, 1.534409, 1.905906, 1.637715
 44040710, 26.81119, 2.595364, 1.90986, 1.642561, 28.83009, 2.091972, 1.971778, 1.646488
 44140670, 28.96718, 1.461019, 1.982217, 1.65256, 26.81119, 2.595364, 1.90986, 1.642561
 44240630, 27.26082, 3.0897, 1.928099, 1.658082, 28.96718, 1.461019, 1.982217, 1.65256
 44340590, 29.37066, 3.068815, 2.003132, 1.667627, 27.26082, 3.0897, 1.928099, 1.658082
 44440550, 29.35182, 2.990521, 2.004766, 1.674322, 29.37066, 3.068815, 2.003132, 1.667627
 44540510, 29.50928, 2.235256, 2.012188, 1.678818, 29.35182, 2.990521, 2.004766, 1.674322
 44640470, 27.83642, 1.544019, 1.959075, 1.678558, 29.50928, 2.235256, 2.012188, 1.678818
 44740430, 26.7447, 3.250833, 1.931143, 1.68283, 27.83642, 1.544019, 1.959075, 1.678558
 44840390, 27.69639, 1.084218, 1.96033, 1.690471, 26.7447, 3.250833, 1.931143, 1.68283
 44940350, 28.39223, 1.816777, 1.988092, 1.697662, 27.69639, 1.084218, 1.96033, 1.690471
 45040310, 27.12242, 3.190115, 1.953093, 1.700614, 28.39223, 1.816777, 1.988092, 1.697662
 45140270, 27.02523, 0.7555603, 1.949166, 1.703272, 27.12242, 3.190115, 1.953093, 1.700614
 45240230, 27.24685, 1.587619, 1.962631, 1.707179, 27.02523, 0.7555603, 1.949166, 1.703272
 45340190, 29.61549, 1.913488, 2.046659, 1.717699, 27.24685, 1.587619, 1.962631, 1.707179
 45440150, 29.83662, 1.826463, 2.057271, 1.724458, 29.61549, 1.913488, 2.046659, 1.717699
 45540943, 28.17591, 1.818737, 2.004381, 1.727134, 29.83662, 1.826463, 2.057271, 1.724458
 45640903, 29.26563, 3.385885, 2.050099, 1.734603, 28.17591, 1.818737, 2.004381, 1.727134
 45740863, 26.83247, 0.9498081, 1.96883, 1.733335, 29.26563, 3.385885, 2.050099, 1.734603
 45840823, 28.60976, 2.65751, 2.035316, 1.742907, 26.83247, 0.9498081, 1.96883, 1.733335
 45940783, 26.94798, 1.738783, 1.983001, 1.744577, 28.60976, 2.65751, 2.035316, 1.742907
 46040743, 27.3301, 2.735651, 2.003665, 1.749902, 26.94798, 1.738783, 1.983001, 1.744577
 46140703, 28.93201, 3.308373, 2.062191, 1.76031, 27.3301, 2.735651, 2.003665, 1.749902
 46240663, 28.98723, 1.389452, 2.064421, 1.76432, 28.93201, 3.308373, 2.062191, 1.76031
 46340623, 28.56812, 1.691506, 2.055983, 1.769326, 28.98723, 1.389452, 2.064421, 1.76432
 46440583, 28.29027, 2.320938, 2.053515, 1.773613, 28.56812, 1.691506, 2.055983, 1.769326
 46540543, 27.94429, 2.446244, 2.04892, 1.776583, 28.29027, 2.320938, 2.053515, 1.773613
 46640503, 28.34626, 0.5175523, 2.063747, 1.782196, 27.94429, 2.446244, 2.04892, 1.776583
 46740463, 27.92433, 0.7573971, 2.05609, 1.785736, 28.34626, 0.5175523, 2.063747, 1.782196
 46840423, 26.6527, 2.280719, 2.024127, 1.788067, 27.92433, 0.7573971, 2.05609, 1.785736
 46940383, 27.16539, 2.753482, 2.046684, 1.794899, 26.6527, 2.280719, 2.024127, 1.788067
 47040343, 28.60346, 2.000343, 2.0945, 1.804448, 27.16539, 2.753482, 2.046684, 1.794899
 47140303, 29.04473, 2.706492, 2.11673, 1.809965, 28.60346, 2.000343, 2.0945, 1.804448
 47240263, 28.21806, 1.694166, 2.09043, 1.8161, 29.04473, 2.706492, 2.11673, 1.809965
 47340223, 27.41408, 1.404045, 2.069222, 1.819807, 28.21806, 1.694166, 2.09043, 1.8161
 47440183, 28.26967, 1.119012, 2.102823, 1.82439, 27.41408, 1.404045, 2.069222, 1.819807
 47540976, 28.3976, 1.227066, 2.112599, 1.829032, 28.26967, 1.119012, 2.102823, 1.82439
 47640936, 29.92677, 2.503362, 2.168, 1.837942, 28.3976, 1.227066, 2.112599, 1.829032
 47740896, 28.04989, 2.377219, 2.109026, 1.839267, 29.92677, 2.503362, 2.168, 1.837942
 47840856, 27.07268, 0.08068907, 2.07646, 1.840338, 28.04989, 2.377219, 2.109026, 1.839267
 47940816, 28.39274, 0.8068911, 2.119639, 1.843263, 27.07268, 0.08068907, 2.07646, 1.840338
 48040776, 29.40884, 1.168107, 2.154865, 1.846124, 28.39274, 0.8068911, 2.119639, 1.843263
 48140736, 30.03113, 0.2532151, 2.175131, 1.848573, 29.40884, 1.168107, 2.154865, 1.846124
 48240696, 27.02956, 2.00966, 2.083237, 1.842346, 30.03113, 0.2532151, 2.175131, 1.848573
 48340656, 28.312, 0.01105869, 2.119596, 1.846708, 27.02956, 2.00966, 2.083237, 1.842346
 48440616, 29.78326, 0.1109545, 2.170682, 1.847537, 28.312, 0.01105869, 2.119596, 1.846708
 48540576, 30.10672, 1.801668, 2.186584, 1.845587, 29.78326, 0.1109545, 2.170682, 1.847537
 48640536, 29.55614, 2.907129, 2.1719, 1.844936, 30.10672, 1.801668, 2.186584, 1.845587
 48740496, 29.61025, 1.651432, 2.172298, 1.844532, 29.55614, 2.907129, 2.1719, 1.844936
 48840456, 29.34781, 2.239673, 2.165362, 1.846167, 29.61025, 1.651432, 2.172298, 1.844532
 48940416, 28.00946, 2.743467, 2.123687, 1.845588, 29.34781, 2.239673, 2.165362, 1.846167
 49040376, 28.33005, 0.9792336, 2.133708, 1.843988, 28.00946, 2.743467, 2.123687, 1.845588
 49140336, 28.82455, 2.13899, 2.153588, 1.844959, 28.33005, 0.9792336, 2.133708, 1.843988
 49240296, 29.76617, 3.100724, 2.185993, 1.848642, 28.82455, 2.13899, 2.153588, 1.844959
 49340256, 28.7234, 1.742305, 2.151361, 1.845524, 29.76617, 3.100724, 2.185993, 1.848642
 49440216, 27.56792, 1.378856, 2.117129, 1.842771, 28.7234, 1.742305, 2.151361, 1.845524
 49540176, 29.40273, 2.913712, 2.179661, 1.846375, 27.56792, 1.378856, 2.117129, 1.842771
 49640969, 27.56476, 1.621096, 2.119321, 1.84327, 29.40273, 2.913712, 2.179661, 1.846375
 49740929, 29.65453, 2.776427, 2.188907, 1.849236, 27.56476, 1.621096, 2.119321, 1.84327
 49840889, 27.74294, 2.410838, 2.130027, 1.844153, 29.65453, 2.776427, 2.188907, 1.849236
 49940849, 28.53903, 1.818047, 2.156648, 1.845851, 27.74294, 2.410838, 2.130027, 1.844153
 50040809, 28.75839, 2.998323, 2.165867, 1.849455, 28.53903, 1.818047, 2.156648, 1.845851
 50140769, 26.9661, 2.992345, 2.111373, 1.848086, 28.75839, 2.998323, 2.165867, 1.849455
 50240729, 28.66962, 2.236768, 2.16504, 1.849528, 26.9661, 2.992345, 2.111373, 1.848086
 50340689, 27.0661, 1.816412, 2.113566, 1.848588, 28.66962, 2.236768, 2.16504, 1.849528
 50440649, 30.2671, 0.8594178, 2.213937, 1.854432, 27.0661, 1.816412, 2.113566, 1.848588
 50540609, 30.06994, 3.082791, 2.212641, 1.856685, 30.2671, 0.8594178, 2.213937, 1.854432
 50640569, 27.85888, 2.695553, 2.142639, 1.852552, 30.06994, 3.082791, 2.212641, 1.856685
 50740529, 29.4655, -0.1998888, 2.192183, 1.85252, 27.85888, 2.695553, 2.142639, 1.852552
 50840489, 27.6207, 1.353719, 2.137569, 1.847716, 29.4655, -0.1998888, 2.192183, 1.85252
 50940449, 28.1181, 0.2102795, 2.152851, 1.850225, 27.6207, 1.353719, 2.137569, 1.847716
 51040409, 28.44588, 0.1477424, 2.162417, 1.85304, 28.1181, 0.2102795, 2.152851, 1.850225
 51140369, 27.23837, 1.43697, 2.127578, 1.85149, 28.44588, 0.1477424, 2.162417, 1.85304
 51240329, 27.06283, 2.832686, 2.124882, 1.851988, 27.23837, 1.43697, 2.127578, 1.85149
 51340289, 30.39787, 1.434644, 2.23084, 1.850721, 27.06283, 2.832686, 2.124882, 1.851988
 51440249, 28.26398, -0.3790107, 2.159571, 1.847262, 30.39787, 1.434644, 2.23084, 1.850721
 51540209, 29.71112, 1.356867, 2.208205, 1.843927, 28.26398, -0.3790107, 2.159571, 1.847262
 51640169, 30.02571, 0.4836374, 2.216554, 1.842381, 29.71112, 1.356867, 2.208205, 1.843927
 51740962, 28.83848, 1.662566, 2.177668, 1.839391, 30.02571, 0.4836374, 2.216554, 1.842381
 51840922, 28.95923, 2.726132, 2.182248, 1.836659, 28.83848, 1.662566, 2.177668, 1.839391
 51940882, 30.36731, 2.800593, 2.227213, 1.834777, 28.95923, 2.726132, 2.182248, 1.836659
 52040842, 28.13439, -0.3715663, 2.149632, 1.829001, 30.36731, 2.800593, 2.227213, 1.834777
 52140802, 29.83927, 2.247995, 2.206603, 1.827574, 28.13439, -0.3715663, 2.149632, 1.829001
 52240762, 28.93632, 0.1900747, 2.171564, 1.825806, 29.83927, 2.247995, 2.206603, 1.827574
 52340722, 28.54613, 1.783262, 2.162961, 1.818943, 28.93632, 0.1900747, 2.171564, 1.825806
 52440682, 30.04181, 1.603236, 2.213397, 1.815056, 28.54613, 1.783262, 2.162961, 1.818943
 52540642, 28.41511, 1.322708, 2.159685, 1.809873, 30.04181, 1.603236, 2.213397, 1.815056
 52640602, 27.84123, 1.456137, 2.140116, 1.807124, 28.41511, 1.322708, 2.159685, 1.809873
 52740562, 29.58327, 1.880536, 2.194203, 1.808723, 27.84123, 1.456137, 2.140116, 1.807124
 52840522, 29.05984, 0.5541403, 2.17424, 1.805512, 29.58327, 1.880536, 2.194203, 1.808723
 52940482, 28.38085, 0.557753, 2.151296, 1.80212, 29.05984, 0.5541403, 2.17424, 1.805512
 53040442, 28.32833, 0.5106056, 2.147947, 1.800343, 28.38085, 0.557753, 2.151296, 1.80212
 53140402, 27.67845, -0.2078249, 2.12701, 1.795892, 28.32833, 0.5106056, 2.147947, 1.800343
 53240362, 30.4017, 0.796086, 2.215303, 1.794978, 27.67845, -0.2078249, 2.12701, 1.795892
 53340322, 27.628, 0.9330027, 2.122752, 1.790642, 30.4017, 0.796086, 2.215303, 1.794978
 53440282, 29.26147, -0.3344102, 2.172259, 1.792443, 27.628, 0.9330027, 2.122752, 1.790642
 53540242, 29.34157, 0.003741145, 2.174249, 1.78925, 29.26147, -0.3344102, 2.172259, 1.792443
 53640202, 29.41031, 2.126301, 2.18234, 1.782251, 29.34157, 0.003741145, 2.174249, 1.78925
 53740162, 30.4769, -0.1503243, 2.213171, 1.782043, 29.41031, 2.126301, 2.18234, 1.782251
 53840955, 28.61753, 2.554291, 2.154499, 1.778086, 30.4769, -0.1503243, 2.213171, 1.782043
 53940915, 29.82825, 1.182019, 2.192972, 1.774817, 28.61753, 2.554291, 2.154499, 1.778086
 54040875, 30.25365, 0.6967573, 2.20595, 1.771805, 29.82825, 1.182019, 2.192972, 1.774817
 54140835, 30.16303, 2.440269, 2.202662, 1.771861, 30.25365, 0.6967573, 2.20595, 1.771805
 54240795, 27.7608, 1.941456, 2.123433, 1.766246, 30.16303, 2.440269, 2.202662, 1.771861
 54340755, 27.23253, 2.449402, 2.104844, 1.765238, 27.7608, 1.941456, 2.123433, 1.766246
 54440715, 27.86804, 0.9853516, 2.121115, 1.76217, 27.23253, 2.449402, 2.104844, 1.765238
 54540675, 28.25789, 2.119017, 2.13113, 1.763176, 27.86804, 0.9853516, 2.121115, 1.76217
 54640635, 28.87459, 0.3349599, 2.14966, 1.76076, 28.25789, 2.119017, 2.13113, 1.763176
 54740595, 27.69183, 1.132817, 2.115662, 1.756881, 28.87459, 0.3349599, 2.14966, 1.76076
 54840555, 28.83965, 0.498405, 2.154862, 1.75816, 27.69183, 1.132817, 2.115662, 1.756881
 54940515, 27.88517, 1.373464, 2.126374, 1.760519, 28.83965, 0.498405, 2.154862, 1.75816
 55040475, 28.03336, 1.347918, 2.134156, 1.762996, 27.88517, 1.373464, 2.126374, 1.760519
 55140435, 29.61668, -0.6647724, 2.185505, 1.769851, 28.03336, 1.347918, 2.134156, 1.762996
 55240395, 29.36203, 1.37767, 2.182258, 1.769936, 29.61668, -0.6647724, 2.185505, 1.769851
 55340355, 28.29478, 1.632147, 2.151788, 1.770192, 29.36203, 1.37767, 2.182258, 1.769936
 55440315, 27.66974, -0.4332137, 2.131006, 1.774857, 28.29478, 1.632147, 2.151788, 1.770192
 55540275, 30.36505, -0.3420461, 2.218626, 1.783558, 27.66974, -0.4332137, 2.131006, 1.774857
 55640235, 29.72548, 0.394197, 2.200904, 1.78451, 30.36505, -0.3420461, 2.218626, 1.783558
 55740195, 29.18677, 2.014238, 2.187111, 1.787794, 29.72548, 0.394197, 2.200904, 1.78451
 55840155, 28.29136, -0.4501671, 2.160336, 1.787538, 29.18677, 2.014238, 2.187111, 1.787794
 55940948, 29.48756, 2.603701, 2.205097, 1.792084, 28.29136, -0.4501671, 2.160336, 1.787538
 56040908, 28.40988, -0.5666438, 2.169342, 1.794956, 29.48756, 2.603701, 2.205097, 1.792084
 56140868, 28.5864, 2.055844, 2.181689, 1.796149, 28.40988, -0.5666438, 2.169342, 1.794956
 56240828, 27.88132, 2.232716, 2.16193, 1.800196, 28.5864, 2.055844, 2.181689, 1.796149
 56340788, 28.35095, 1.470178, 2.178959, 1.802323, 27.88132, 2.232716, 2.16193, 1.800196
 56440748, 27.15663, 0.1845025, 2.143169, 1.804785, 28.35095, 1.470178, 2.178959, 1.802323
 56540708, 27.7309, -0.3531526, 2.159787, 1.812624, 27.15663, 0.1845025, 2.143169, 1.804785
 56640668, 27.48373, 0.6742836, 2.154946, 1.814979, 27.7309, -0.3531526, 2.159787, 1.812624
 56740628, 29.68831, 1.513376, 2.229405, 1.818278, 27.48373, 0.6742836, 2.154946, 1.814979
 56840588, 27.95687, 1.714547, 2.178433, 1.817373, 29.68831, 1.513376, 2.229405, 1.818278
 56940548, 29.17088, 1.700662, 2.217622, 1.822138, 27.95687, 1.714547, 2.178433, 1.817373
 57040508, 29.44517, 0.5467566, 2.226334, 1.826106, 29.17088, 1.700662, 2.217622, 1.822138
 57140468, 27.3892, 2.072714, 2.165455, 1.828687, 29.44517, 0.5467566, 2.226334, 1.826106
 57240428, 27.17844, 1.111805, 2.162754, 1.828548, 27.3892, 2.072714, 2.165455, 1.828687
 57340388, 30.07665, 1.830515, 2.26007, 1.832961, 27.17844, 1.111805, 2.162754, 1.828548
 57440348, 29.31149, 2.643201, 2.238526, 1.838155, 30.07665, 1.830515, 2.26007, 1.832961
 57540308, 29.83204, -0.613475, 2.254642, 1.841891, 29.31149, 2.643201, 2.238526, 1.838155
 57640268, 27.48923, 2.337392, 2.184444, 1.845668, 29.83204, -0.613475, 2.254642, 1.841891
 57740228, 28.45685, 1.119371, 2.21672, 1.847991, 27.48923, 2.337392, 2.184444, 1.845668
 57840188, 27.92337, 0.7583385, 2.20285, 1.849596, 28.45685, 1.119371, 2.21672, 1.847991
 57940148, 29.6069, -0.2291697, 2.256706, 1.856153, 27.92337, 0.7583385, 2.20285, 1.849596
 58040941, 27.87797, 0.3295993, 2.207048, 1.855544, 29.6069, -0.2291697, 2.256706, 1.856153
 58140901, 29.65773, -0.4565638, 2.263925, 1.862454, 27.87797, 0.3295993, 2.207048, 1.855544
 58240861, 29.13774, -0.2018039, 2.249339, 1.865667, 29.65773, -0.4565638, 2.263925, 1.862454
 58340821, 27.67533, 0.1941551, 2.207611, 1.865131, 29.13774, -0.2018039, 2.249339, 1.865667
 58440781, 27.53429, 0.8570821, 2.207533, 1.865522, 27.67533, 0.1941551, 2.207611, 1.865131
 58540741, 29.4439, 1.755879, 2.270971, 1.869133, 27.53429, 0.8570821, 2.207533, 1.865522
 58640701, 28.73619, 1.277071, 2.248263, 1.87463, 29.4439, 1.755879, 2.270971, 1.869133
 58740661, 28.29134, 2.35866, 2.236734, 1.881027, 28.73619, 1.277071, 2.248263, 1.87463
 58840621, 30.31036, 2.567048, 2.302248, 1.887665, 28.29134, 2.35866, 2.236734, 1.881027
 58940581, 28.54709, 1.404803, 2.248076, 1.888704, 30.31036, 2.567048, 2.302248, 1.887665
 59040541, 29.441, 1.204086, 2.279432, 1.892255, 28.54709, 1.404803, 2.248076, 1.888704
 59140501, 27.78341, -0.4431145, 2.229234, 1.895004, 29.441, 1.204086, 2.279432, 1.892255
 59240461, 29.65983, 0.9552395, 2.291388, 1.897661, 27.78341, -0.4431145, 2.229234, 1.895004
 59340421, 28.0582, 2.344077, 2.245702, 1.900322, 29.65983, 0.9552395, 2.291388, 1.897661
 59440381, 30.15641, 1.144731, 2.313517, 1.902004, 28.0582, 2.344077, 2.245702, 1.900322
 59540341, 28.10168, 0.6431987, 2.249521, 1.905474, 30.15641, 1.144731, 2.313517, 1.902004
 59640301, 28.30466, 2.583491, 2.259758, 1.910892, 28.10168, 0.6431987, 2.249521, 1.905474
 59740261, 28.80348, 1.839283, 2.277282, 1.912256, 28.30466, 2.583491, 2.259758, 1.910892
 59840221, 29.35455, -0.2697296, 2.296241, 1.913105, 28.80348, 1.839283, 2.277282, 1.912256
 59940181, 29.89571, 1.198114, 2.319383, 1.912215, 29.35455, -0.2697296, 2.296241, 1.913105
 60040974, 28.51697, -0.973894, 2.278453, 1.914882, 29.89571, 1.198114, 2.319383, 1.912215
 60140934, 29.95558, 1.658131, 2.324475, 1.921286, 28.51697, -0.973894, 2.278453, 1.914882
 60240894, 29.57631, -0.8392209, 2.313149, 1.92563, 29.95558, 1.658131, 2.324475, 1.921286
 60340854, 30.4197, 2.712533, 2.346691, 1.928916, 29.57631, -0.8392209, 2.313149, 1.92563
 60440814, 28.52017, 1.740287, 2.289846, 1.928808, 30.4197, 2.712533, 2.346691, 1.928916
 60540774, 29.50008, -0.9305205, 2.32157, 1.932545, 28.52017, 1.740287, 2.289846, 1.928808
 60640734, 30.18514, 1.849387, 2.349357, 1.933296, 29.50008, -0.9305205, 2.32157, 1.932545
 60740694, 27.39519, 1.687954, 2.267401, 1.933416, 30.18514, 1.849387, 2.349357, 1.933296
 60840654, 29.94335, 0.01344734, 2.344925, 1.939312, 27.39519, 1.687954, 2.267401, 1.933416
 60940614, 30.43707, -0.6085867, 2.360179, 1.946556, 29.94335, 0.01344734, 2.344925, 1.939312
 61040574, 27.38138, 2.538522, 2.274019, 1.946181, 30.43707, -0.6085867, 2.360179, 1.946556
 61140534, 29.49952, 1.093461, 2.340346, 1.947147, 27.38138, 2.538522, 2.274019, 1.946181
 61240494, 30.56826, 1.228156, 2.377287, 1.950136, 29.49952, 1.093461, 2.340346, 1.947147
 61340454, 28.49453, 1.816739, 2.317225, 1.951793, 30.56826, 1.228156, 2.377287, 1.950136
 61440414, 29.01354, -0.2052147, 2.335033, 1.953877, 28.49453, 1.816739, 2.317225, 1.951793
 61540374, 28.07509, 1.43504, 2.309912, 1.955402, 29.01354, -0.2052147, 2.335033, 1.953877
 61640334, 28.2142, 1.271998, 2.313483, 1.957974, 28.07509, 1.43504, 2.309912, 1.955402
 61740294, 28.35804, 2.271993, 2.318105, 1.960945, 28.2142, 1.271998, 2.313483, 1.957974
 61840254, 28.13809, 2.152397, 2.302083, 1.973822, 28.35804, 2.271993, 2.318105, 1.960945
 61940214, 30.73955, 2.033889, 2.358651, 2.019399, 28.13809, 2.152397, 2.302083, 1.973822
 62040174, 30.03696, 2.744981, 2.328945, 2.086988, 30.73955, 2.033889, 2.358651, 2.019399
 62140967, 29.18912, 4.564425, 2.327302, 2.196321, 30.03696, 2.744981, 2.328945, 2.086988
 62240927, 30.81743, 3.612654, 2.416294, 2.363176, 29.18912, 4.564425, 2.327302, 2.196321
 62340887, 28.82783, 2.295556, 2.463748, 2.604472, 30.81743, 3.612654, 2.416294, 2.363176
 62440847, 27.58804, 1.33743, 2.63411, 3.019288, 28.82783, 2.295556, 2.463748, 2.604472
 62540807, 26.51735, 6.727722, 3.030282, 3.7643, 27.58804, 1.33743, 2.63411, 3.019288
 62640767, 31.11757, 3.42928, 3.33688, 4.44494, 26.51735, 6.727722, 3.030282, 3.7643
 62740727, 27.07388, 1.377399, 3.323006, 4.966311, 31.11757, 3.42928, 3.33688, 4.44494
 62840687, 24.31106, 9.915088, 3.033681, 5.196479, 27.07388, 1.377399, 3.323006, 4.966311
 62940647, 26.71993, 11.99536, 2.587071, 5.202896, 24.31106, 9.915088, 3.033681, 5.196479
 63040607, 23.47701, 5.512484, 2.065088, 5.109229, 26.71993, 11.99536, 2.587071, 5.202896
 63140567, 25.49557, 10.2164, 1.648241, 5.007098, 23.47701, 5.512484, 2.065088, 5.109229
 63240527, 22.5982, 12.41266, 1.274688, 4.921819, 25.49557, 10.2164, 1.648241, 5.007098
 63340487, 22.27164, 15.16676, 0.9743408, 4.876685, 22.5982, 12.41266, 1.274688, 4.921819
 63440447, 17.18281, 15.52727, 0.6904655, 4.849523, 22.27164, 15.16676, 0.9743408, 4.876685
 63540407, 20.19925, 18.35257, 0.4843721, 4.867652, 17.18281, 15.52727, 0.6904655, 4.849523
 63640367, 18.96455, 21.47964, 0.2716632, 4.886836, 20.19925, 18.35257, 0.4843721, 4.867652
 63740327, 16.98475, 17.11904, 0.0530436, 4.847152, 18.96455, 21.47964, 0.2716632, 4.886836
 63840287, 16.0982, 21.89383, -0.1382091, 4.846378, 16.98475, 17.11904, 0.0530436, 4.847152
 63940247, 16.62571, 21.12668, -0.3239677, 4.799435, 16.0982, 21.89383, -0.1382091, 4.846378
 64040207, 15.33534, 15.31304, -0.5456965, 4.738025, 16.62571, 21.12668, -0.3239677, 4.799435
 64140167, 11.89895, 18.92981, -0.7325263, 4.694442, 15.33534, 15.31304, -0.5456965, 4.738025
 64240960, 13.73686, 21.98878, -0.915235, 4.649768, 11.89895, 18.92981, -0.7325263, 4.694442
 64340920, 12.85672, 22.08153, -1.120701, 4.583169, 13.73686, 21.98878, -0.915235, 4.649768
