TimeUS,CGpN,CGpE,CGpD,CGpe,PGpN,PGpE,PGpD,PGpe
 8040949, 0, 0, 0, 2.5, 0, 0, 0, 0
 8220877, 0, 0, 0, 2.5, 0, 0, 0, 2.5
 8420797, 0, 0, 0, 2.5, 0, 0, 0, 2.5
 8620717, 0, 0, 0, 2.5, 0, 0, 0, 2.5
 8820637, 0, 0, 0, 2.5, 0, 0, 0, 2.5
 9020557, 0, 0, 0, 2.5, 0, 0, 0, 2.5
 9220477, 0, 0, 0, 2.5, 0, 0, 0, 2.5
 9420397, 0, 0, 0, 2.5, 0, 0, 0, 2.5
 9620317, 0, 0, 0, 2.5, 0, 0, 0, 2.5
 9820237, 0, 0, 0, 2.5, 0, 0, 0, 2.5
 10020157, 0, 0, 0, 2.5, 0, 0, 0, 2.5
 10220910, 0, 0, 0, 2.5, 0, 0, 0, 2.5
 10420830, 0, 0, 0, 2.5, 0, 0, 0, 2.5
 10620750, 0, 0, 0, 2.5, 0, 0, 0, 2.5
 10820670, 0, 0, 0, 2.5, 0, 0, 0, 2.5
 11020590, 0, 0, 0, 2.5, 0, 0, 0, 2.5
 11220510, 0, 0, 0, 2.5, 0, 0, 0, 2.5
 11420430, 0, 0, 0, 2.5, 0, 0, 0, 2.5
 11620350, 0, 0, 0, 2.5, 0, 0, 0, 2.5
 11820270, 0, 0, 0, 2.5, 0, 0, 0, 2.5
 12020190, 0, 0, 0, 2.5, 0, 0, 0, 2.5
 12220943, 0, 0, 0, 2.5, 0, 0, 0, 2.5
 12420863, 0, 0, 0, 2.5, 0, 0, 0, 2.5
 12620783, 0, 0, 0, 2.5, 0, 0, 0, 2.5
 12820703, 0, 0, 0, 2.5, 0, 0, 0, 2.5
 13020623, 0, 0, 0, 2.5, 0, 0, 0, 2.5
 13220543, 0, 0, 0, 2.5, 0, 0, 0, 2.5
 13420463, 0, 0, 0, 2.5, 0, 0, 0, 2.5
 13620383, 0, 0, 0, 2.5, 0, 0, 0, 2.5
 13820303, 0, 0, 0, 2.5, 0, 0, 0, 2.5
 14020223, 0, 0, 0, 2.5, 0, 0, 0, 2.5
 14220976, 0, 0, 0, 2.5, 0, 0, 0, 2.5
 14420896, 0, 0, 0, 2.5, 0, 0, 0, 2.5
 14620816, 0, 0, 0, 2.5, 0, 0, 0, 2.5
 14820736, 0, 0, 0, 2.5, 0, 0, 0, 2.5
 15020656, 0, 0, 0, 2.5, 0, 0, 0, 2.5
 15220576, 0, 0, 0, 2.5, 0, 0, 0, 2.5
 15420496, 0, 0, 0, 2.5, 0, 0, 0, 2.5
 15620416, 0, 0, 0, 2.5, 0, 0, 0, 2.5
 15820336, 0, 0, 0, 2.5, 0, 0, 0, 2.5
 16020256, 0, 0, 0, 2.5, 0, 0, 0, 2.5
 16220176, 0, 0, 0, 2.5, 0, 0, 0, 2.5
 16420929, 0, 0, 0, 2.5, 0, 0, 0, 2.5
 16620849, 0, 0, 0, 2.5, 0, 0, 0, 2.5
 16820769, 0, 0, 0, 2.5, 0, 0, 0, 2.5
 17020689, 0, 0, 0, 2.5, 0, 0, 0, 2.5
 17220609, 0, 0, 0, 2.5, 0, 0, 0, 2.5
 17420529, 0, 0, 0, 2.5, 0, 0, 0, 2.5
 17620449, 0, 0, 0, 2.5, 0, 0, 0, 2.5
 17820369, 0, 0, 0, 2.5, 0, 0, 0, 2.5
 18020289, 0, 0, 0, 2.5, 0, 0, 0, 2.5
 18220209, 0, 0, 0, 2.5, 0, 0, 0, 2.5
 18420962, 0, 0, 0, 2.5, 0, 0, 0, 2.5
 18620882, 0, 0, 0, 2.5, 0, 0, 0, 2.5
 18820802, 0, 0, 0, 2.5, 0, 0, 0, 2.5
 19020722, 0, 0, 0, 2.5, 0, 0, 0, 2.5
 19220642, 0, 0, 0, 2.5, 0, 0, 0, 2.5
 19420562, 0, 0, 0, 2.5, 0, 0, 0, 2.5
 19620482, 0, 0, 0, 2.5, 0, 0, 0, 2.5
 19820402, 0, 0, 0, 2.5, 0, 0, 0, 2.5
 20020322, 0, 0, 0, 2.5, 0, 0, 0, 2.5
 20220242, 0, 0, 0, 2.5, 0, 0, 0, 2.5
 20420162, 0, 0, 0, 2.5, 0, 0, 0, 2.5
 20620915, 0, 0, 0, 2.5, 0, 0, 0, 2.5
 20820835, 0.01, -0.001, 0, 2.5, 0, 0, 0, 2.5
 21020755, 0.251, -0.026, 0, 2.5, 0.01, -0.001, 0, 2.5
 21220675, 0.943, -0.09900001, 0.012, 2.5, 0.251, -0.026, 0, 2.5
 21420595, 2.108, -0.22, 0.038, 2.5, 0.943, -0.09900001, 0.012, 2.5
 21620515, 3.719, -0.391, 0.07600001, 2.5, 2.108, -0.22, 0.038, 2.5
 21820435, 5.726, -0.6020001, 0.126, 2.5, 3.719, -0.391, 0.07600001, 2.5
 22020355, 7.846, -0.8240001, 0.185, 2.5, 5.726, -0.6020001, 0.126, 2.5
 22220275, 9.822001, -1.033, 0.244, 2.5, 7.846, -0.8240001, 0.185, 2.5
 22420195, 11.589, -1.218, 0.278, 2.5, 9.822001, -1.033, 0.244, 2.5
 22620948, 13.135, -1.378, 0.207, 2.5, 11.589, -1.218, 0.278, 2.5
 22820868, 14.475, -1.522, 0.273, 2.5, 13.135, -1.378, 0.207, 2.5
 23020788, 16.232, -1.704, -0.396, 2.5, 14.475, -1.522, 0.273, 2.5
 23220708, 17.911, -1.886, -2.131, 2.5, 16.232, -1.704, -0.396, 2.5
 23420628, 19.269, -2.04, -2.875, 2.5, 17.911, -1.886, -2.131, 2.5
 23620548, 20.547, -2.179, -2.966, 2.5, 19.269, -2.04, -2.875, 2.5
 23820468, 21.757, -2.32, -3.073, 2.5, 20.547, -2.179, -2.966, 2.5
 24020388, 22.77, -2.439, -3.537, 2.5, 21.757, -2.32, -3.073, 2.5
 24220308, 23.608, -2.541, -4.076, 2.5, 22.77, -2.439, -3.537, 2.5
 24420228, 24.285, -2.8, -4.496, 2.5, 23.608, -2.541, -4.076, 2.5
 24620148, 24.745, -3.107, -4.884, 2.5, 24.285, -2.8, -4.496, 2.5
 24820901, 25.035, -3.322, -5.038, 2.5, 24.745, -3.107, -4.884, 2.5
 25020821, 25.19, -3.508, -5.139, 2.5, 25.035, -3.322, -5.038, 2.5
 25220741, 25.257, -3.768, -5.158, 2.5, 25.19, -3.508, -5.139, 2.5
 25420661, 25.283, -4.014, -5.154, 2.5, 25.257, -3.768, -5.158, 2.5
 25620581, 25.253, -4.251, -5.175, 2.5, 25.283, -4.014, -5.154, 2.5
 25820501, 25.19, -4.493, -5.199, 2.5, 25.253, -4.251, -5.175, 2.5
 26020421, 25.101, -4.708, -5.229, 2.5, 25.19, -4.493, -5.199, 2.5
 26220341, 25.011, -4.889, -5.21, 2.5, 25.101, -4.708, -5.229, 2.5
 26420261, 24.918, -5.067, -5.155, 2.5, 25.011, -4.889, -5.21, 2.5
 26620181, 24.811, -5.23, -5.075, 2.5, 24.918, -5.067, -5.155, 2.5
 26820934, 24.489, -5.34, -4.951, 2.5, 24.811, -5.23, -5.075, 2.5
 27020854, 23.804, -5.378, -4.724, 2.5, 24.489, -5.34, -4.951, 2.5
 27220774, 23.046, -5.376, -4.472, 2.5, 23.804, -5.378, -4.724, 2.5
 27420694, 22.435, -5.388, -4.282, 2.5, 23.046, -5.376, -4.472, 2.5
 27620614, 21.984, -5.409, -4.033, 2.5, 22.435, -5.388, -4.282, 2.5
 27820534, 21.615, -5.448, -3.825, 2.5, 21.984, -5.409, -4.033, 2.5
 28020454, 21.296, -5.486, -3.633, 2.5, 21.615, -5.448, -3.825, 2.5
 28220374, 21.004, -5.527, -3.542, 2.5, 21.296, -5.486, -3.633, 2.5
 28420294, 20.725, -5.557, -3.472, 2.5, 21.004, -5.527, -3.542, 2.5
 28620214, 20.475, -5.579, -3.407, 2.5, 20.725, -5.557, -3.472, 2.5
 28820967, 20.251, -5.588, -3.344, 2.5, 20.475, -5.579, -3.407, 2.5
 29020887, 20.118, -5.618, -3.266, 2.5, 20.251, -5.588, -3.344, 2.5
 29220807, 19.909, -5.62, -3.168, 2.5, 20.118, -5.618, -3.266, 2.5
 29420727, 19.669, -5.607, -3.101, 2.5, 19.909, -5.62, -3.168, 2.5
 29620647, 19.435, -5.584, -3.043, 2.5, 19.669, -5.607, -3.101, 2.5
 29820567, 19.221, -5.546, -2.964, 2.5, 19.435, -5.584, -3.043, 2.5
 30020487, 19.019, -5.512, -2.853, 2.5, 19.221, -5.546, -2.964, 2.5
 30220407, 18.82, -5.481, -2.798, 2.5, 19.019, -5.512, -2.853, 2.5
 30420327, 18.648, -5.452, -2.709, 2.5, 18.82, -5.481, -2.798, 2.5
 30620247, 18.785, -5.592, -0.751, 2.5, 18.648, -5.452, -2.709, 2.5
 30820167, 18.695, -5.86, 4.124, 2.5, 18.785, -5.592, -0.751, 2.5
 31020920, 18.43, -6.075, 7.644001, 2.5, 18.695, -5.86, 4.124, 2.5
 31220840, 19.669, -5.609, 7.578001, 2.5, 18.43, -6.075, 7.644001, 2.5
 31420760, 21.488, -4.763, 5.388, 2.5, 19.669, -5.609, 7.578001, 2.5
 31620680, 22.716, -4.184, 4.038, 2.5, 21.488, -4.763, 5.388, 2.5
 31820600, 23.475, -4.034, 4.483, 2.5, 22.716, -4.184, 4.038, 2.5
 32020520, 24.047, -4.07, 5.618, 2.5, 23.475, -4.034, 4.483, 2.5
 32220440, 24.717, -3.943, 6.099, 2.5, 24.047, -4.07, 5.618, 2.5
 32420360, 25.597, -3.56, 5.439, 2.5, 24.717, -3.943, 6.099, 2.5
 32620280, 26.493, -2.956, 3.931, 2.5, 25.597, -3.56, 5.439, 2.5
 32820200, 27.153, -2.389, 2.605, 2.5, 26.493, -2.956, 3.931, 2.5
 33020953, 27.636, -1.98, 1.746, 2.5, 27.153, -2.389, 2.605, 2.5
 33220873, 27.991, -1.716, 1.246, 2.5, 27.636, -1.98, 1.746, 2.5
 33420793, 28.283, -1.489, 0.8190001, 2.5, 27.991, -1.716, 1.246, 2.5
 33620713, 28.525, -1.243, 0.388, 2.5, 28.283, -1.489, 0.8190001, 2.5
 33820633, 28.723, -0.9770001, -0.044, 2.5, 28.525, -1.243, 0.388, 2.5
 34020553, 28.889, -0.714, -0.5100001, 2.5, 28.723, -0.9770001, -0.044, 2.5
 34220473, 29.047, -0.465, -0.929, 2.5, 28.889, -0.714, -0.5100001, 2.5
 34420393, 29.194, -0.308, -1.187, 2.5, 29.047, -0.465, -0.929, 2.5
 34620313, 29.315, -0.176, -1.403, 2.5, 29.194, -0.308, -1.187, 2.5
 34820233, 29.422, -0.03, -1.67, 2.5, 29.315, -0.176, -1.403, 2.5
 35020153, 29.511, 0.107, -1.973, 2.5, 29.422, -0.03, -1.67, 2.5
 35220906, 29.595, 0.265, -2.203, 2.5, 29.511, 0.107, -1.973, 2.5
 35420826, 29.661, 0.365, -2.417, 2.5, 29.595, 0.265, -2.203, 2.5
 35620746, 29.698, 0.458, -2.619, 2.5, 29.661, 0.365, -2.417, 2.5
 35820666, 29.729, 0.567, -2.708, 2.5, 29.698, 0.458, -2.619, 2.5
 36020586, 29.723, 0.654, -2.866, 2.5, 29.729, 0.567, -2.708, 2.5
 36220506, 29.722, 0.697, -2.892, 2.5, 29.723, 0.654, -2.866, 2.5
 36420426, 29.693, 0.7500001, -3.049, 2.5, 29.722, 0.697, -2.892, 2.5
 36620346, 29.66, 0.777, -3.045, 2.5, 29.693, 0.7500001, -3.049, 2.5
 36820266, 29.613, 0.817, -2.781, 2.5, 29.66, 0.777, -3.045, 2.5
 37020186, 29.477, 0.839, -2.477, 2.5, 29.613, 0.817, -2.781, 2.5
 37220939, 29.304, 0.862, -2.146, 2.5, 29.477, 0.839, -2.477, 2.5
 37420859, 29.113, 0.8700001, -1.871, 2.5, 29.304, 0.862, -2.146, 2.5
 37620779, 28.931, 0.853, -1.561, 2.5, 29.113, 0.8700001, -1.871, 2.5
 37820699, 28.749, 0.851, -1.235, 2.5, 28.931, 0.853, -1.561, 2.5
 38020619, 28.581, 0.874, -0.906, 2.5, 28.749, 0.851, -1.235, 2.5
 38220539, 28.427, 0.8930001, -0.648, 2.5, 28.581, 0.874, -0.906, 2.5
 38420459, 28.288, 0.8940001, -0.379, 2.5, 28.427, 0.8930001, -0.648, 2.5
 38620379, 28.172, 0.901, -0.12, 2.5, 28.288, 0.8940001, -0.379, 2.5
 38820299, 28.075, 0.9210001, -0.014, 2.5, 28.172, 0.901, -0.12, 2.5
 39020219, 27.997, 0.913, 0.07300001, 2.5, 28.075, 0.9210001, -0.014, 2.5
 39220972, 27.937, 0.9020001, 0.31, 2.5, 27.997, 0.913, 0.07300001, 2.5
 39420892, 27.882, 0.891, 0.456, 2.5, 27.937, 0.9020001, 0.31, 2.5
 39620812, 27.835, 0.8880001, 0.502, 2.5, 27.882, 0.891, 0.456, 2.5
 39820732, 27.795, 0.8850001, 0.628, 2.5, 27.835, 0.8880001, 0.502, 2.5
 40020652, 27.769, 0.8840001, 0.738, 2.5, 27.795, 0.8850001, 0.628, 2.5
 40220572, 27.759, 0.878, 0.771, 2.5, 27.769, 0.8840001, 0.738, 2.5
 40420492, 27.77, 0.848, 0.794, 2.5, 27.759, 0.878, 0.771, 2.5
 40620412, 27.789, 0.823, 0.7690001, 2.5, 27.77, 0.848, 0.794, 2.5
 40820332, 27.797, 0.79, 0.762, 2.5, 27.789, 0.823, 0.7690001, 2.5
 41020252, 27.809, 0.765, 0.747, 2.5, 27.797, 0.79, 0.762, 2.5
 41220172, 27.817, 0.7550001, 0.799, 2.5, 27.809, 0.765, 0.747, 2.5
 41420925, 27.834, 0.7460001, 0.89, 2.5, 27.817, 0.7550001, 0.799, 2.5
 41620845, 27.846, 0.725, 0.8660001, 2.5, 27.834, 0.7460001, 0.89, 2.5
 41820765, 27.859, 0.7220001, 0.8290001, 2.5, 27.846, 0.725, 0.8660001, 2.5
 42020685, 27.861, 0.701, 0.7270001, 2.5, 27.859, 0.7220001, 0.8290001, 2.5
 42220605, 27.859, 0.6720001, 0.686, 2.5, 27.861, 0.701, 0.7270001, 2.5
 42420525, 27.853, 0.655, 0.6760001, 2.5, 27.859, 0.6720001, 0.686, 2.5
 42620445, 27.853, 0.641, 0.743, 2.5, 27.853, 0.655, 0.6760001, 2.5
 42820365, 27.85, 0.62, 0.714, 2.5, 27.853, 0.641, 0.743, 2.5
 43020285, 27.865, 0.603, 0.678, 2.5, 27.85, 0.62, 0.714, 2.5
 43220205, 27.876, 0.611, 0.645, 2.5, 27.865, 0.603, 0.678, 2.5
 43420958, 27.883, 0.6020001, 0.604, 2.5, 27.876, 0.611, 0.645, 2.5
 43620878, 27.894, 0.585, 0.605, 2.5, 27.883, 0.6020001, 0.604, 2.5
 43820798, 27.903, 0.581, 0.59, 2.5, 27.894, 0.585, 0.605, 2.5
 44020718, 27.909, 0.587, 0.591, 2.5, 27.903, 0.581, 0.59, 2.5
 44220638, 27.92, 0.589, 0.538, 2.5, 27.909, 0.587, 0.591, 2.5
 44420558, 27.941, 0.576, 0.503, 2.5, 27.92, 0.589, 0.538, 2.5
 44620478, 27.962, 0.599, 0.479, 2.5, 27.941, 0.576, 0.503, 2.5
 44820398, 27.978, 0.619, 0.47, 2.5, 27.962, 0.599, 0.479, 2.5
 45020318, 28, 0.614, 0.491, 2.5, 27.978, 0.619, 0.47, 2.5
 45220238, 28.006, 0.618, 0.439, 2.5, 28, 0.614, 0.491, 2.5
 45420158, 28.015, 0.614, 0.412, 2.5, 28.006, 0.618, 0.439, 2.5
 45620911, 28.017, 0.61, 0.316, 2.5, 28.015, 0.614, 0.412, 2.5
 45820831, 28.021, 0.617, 0.27, 2.5, 28.017, 0.61, 0.316, 2.5
 46020751, 28.031, 0.608, 0.213, 2.5, 28.021, 0.617, 0.27, 2.5
 46220671, 28.047, 0.601, 0.21, 2.5, 28.031, 0.608, 0.213, 2.5
 46420591, 28.059, 0.591, 0.21, 2.5, 28.047, 0.601, 0.21, 2.5
 46620511, 28.076, 0.592, 0.271, 2.5, 28.059, 0.591, 0.21, 2.5
 46820431, 28.089, 0.59, 0.217, 2.5, 28.076, 0.592, 0.271, 2.5
 47020351, 28.097, 0.572, 0.14, 2.5, 28.089, 0.59, 0.217, 2.5
 47220271, 28.119, 0.558, 0.129, 2.5, 28.097, 0.572, 0.14, 2.5
 47420191, 28.145, 0.562, 0.174, 2.5, 28.119, 0.558, 0.129, 2.5
 47620944, 28.161, 0.5790001, 0.135, 2.5, 28.145, 0.562, 0.174, 2.5
 47820864, 28.178, 0.566, 0.049, 2.5, 28.161, 0.5790001, 0.135, 2.5
 48020784, 28.196, 0.577, -0.001, 2.5, 28.178, 0.566, 0.049, 2.5
 48220704, 28.214, 0.582, 0.019, 2.5, 28.196, 0.577, -0.001, 2.5
 48420624, 28.242, 0.587, 0.029, 2.5, 28.214, 0.582, 0.019, 2.5
 48620544, 28.261, 0.6020001, -0.057, 2.5, 28.242, 0.587, 0.029, 2.5
 48820464, 28.275, 0.5930001, -0.08400001, 2.5, 28.261, 0.6020001, -0.057, 2.5
 49020384, 28.29, 0.587, -0.135, 2.5, 28.275, 0.5930001, -0.08400001, 2.5
 49220304, 28.297, 0.597, -0.196, 2.5, 28.29, 0.587, -0.135, 2.5
 49420224, 28.304, 0.603, -0.111, 2.5, 28.297, 0.597, -0.196, 2.5
 49620977, 28.312, 0.61, -0.148, 2.5, 28.304, 0.603, -0.111, 2.5
 49820897, 28.331, 0.601, -0.222, 2.5, 28.312, 0.61, -0.148, 2.5
 50020817, 28.356, 0.6, -0.264, 2.5, 28.331, 0.601, -0.222, 2.5
 50220737, 28.369, 0.587, -0.258, 2.5, 28.356, 0.6, -0.264, 2.5
 50420657, 28.39, 0.594, -0.17, 2.5, 28.369, 0.587, -0.258, 2.5
 50620577, 28.411, 0.599, -0.192, 2.5, 28.39, 0.594, -0.17, 2.5
 50820497, 28.421, 0.612, -0.257, 2.5, 28.411, 0.599, -0.192, 2.5
 51020417, 28.437, 0.6070001, -0.322, 2.5, 28.421, 0.612, -0.257, 2.5
 51220337, 28.462, 0.594, -0.406, 2.5, 28.437, 0.6070001, -0.322, 2.5
 51420257, 28.467, 0.611, -0.397, 2.5, 28.462, 0.594, -0.406, 2.5
 51620177, 28.486, 0.601, -0.367, 2.5, 28.467, 0.611, -0.397, 2.5
 51820930, 28.499, 0.5790001, -0.318, 2.5, 28.486, 0.601, -0.367, 2.5
 52020850, 28.519, 0.573, -0.371, 2.5, 28.499, 0.5790001, -0.318, 2.5
 52220770, 28.525, 0.562, -0.406, 2.5, 28.519, 0.573, -0.371, 2.5
 52420690, 28.538, 0.573, -0.461, 2.5, 28.525, 0.562, -0.406, 2.5
 52620610, 28.565, 0.59, -0.46, 2.5, 28.538, 0.573, -0.461, 2.5
 52820530, 28.591, 0.565, -0.452, 2.5, 28.565, 0.59, -0.46, 2.5
 53020450, 28.603, 0.559, -0.463, 2.5, 28.591, 0.565, -0.452, 2.5
 53220370, 28.623, 0.555, -0.444, 2.5, 28.603, 0.559, -0.463, 2.5
 53420290, 28.639, 0.546, -0.487, 2.5, 28.623, 0.555, -0.444, 2.5
 53620210, 28.65, 0.544, -0.545, 2.5, 28.639, 0.546, -0.487, 2.5
 53820963, 28.657, 0.549, -0.546, 2.5, 28.65, 0.544, -0.545, 2.5
 54020883, 28.664, 0.528, -0.561, 2.5, 28.657, 0.549, -0.546, 2.5
 54220803, 28.67, 0.511, -0.539, 2.5, 28.664, 0.528, -0.561, 2.5
 54420723, 28.678, 0.5, -0.518, 2.5, 28.67, 0.511, -0.539, 2.5
 54620643, 28.692, 0.5100001, -0.45, 2.5, 28.678, 0.5, -0.518, 2.5
 54820563, 28.704, 0.538, -0.482, 2.5, 28.692, 0.5100001, -0.45, 2.5
 55020483, 28.727, 0.537, -0.497, 2.5, 28.704, 0.538, -0.482, 2.5
 55220403, 28.755, 0.5190001, -0.522, 2.5, 28.727, 0.537, -0.497, 2.5
 55420323, 28.778, 0.522, -0.479, 2.5, 28.755, 0.5190001, -0.522, 2.5
 55620243, 28.79, 0.52, -0.518, 2.5, 28.778, 0.522, -0.479, 2.5
 55820163, 28.807, 0.541, -0.477, 2.5, 28.79, 0.52, -0.518, 2.5
 56020916, 28.838, 0.555, -0.5560001, 2.5, 28.807, 0.541, -0.477, 2.5
 56220836, 28.856, 0.535, -0.609, 2.5, 28.838, 0.555, -0.5560001, 2.5
 56420756, 28.874, 0.524, -0.543, 2.5, 28.856, 0.535, -0.609, 2.5
 56620676, 28.903, 0.515, -0.471, 2.5, 28.874, 0.524, -0.543, 2.5
 56820596, 28.919, 0.5330001, -0.507, 2.5, 28.903, 0.515, -0.471, 2.5
 57020516, 28.922, 0.551, -0.523, 2.5, 28.919, 0.5330001, -0.507, 2.5
 57220436, 28.916, 0.5560001, -0.619, 2.5, 28.922, 0.551, -0.523, 2.5
 57420356, 28.919, 0.573, -0.673, 2.5, 28.916, 0.5560001, -0.619, 2.5
 57620276, 28.933, 0.554, -0.627, 2.5, 28.919, 0.573, -0.673, 2.5
 57820196, 28.948, 0.538, -0.576, 2.5, 28.933, 0.554, -0.627, 2.5
 58020949, 28.961, 0.55, -0.5330001, 2.5, 28.948, 0.538, -0.576, 2.5
 58220869, 28.974, 0.557, -0.514, 2.5, 28.961, 0.55, -0.5330001, 2.5
 58420789, 28.994, 0.563, -0.466, 2.5, 28.974, 0.557, -0.514, 2.5
 58620709, 29.008, 0.574, -0.539, 2.5, 28.994, 0.563, -0.466, 2.5
 58820629, 29.013, 0.566, -0.641, 2.5, 29.008, 0.574, -0.539, 2.5
 59020549, 29.012, 0.5790001, -0.573, 2.5, 29.013, 0.566, -0.641, 2.5
 59220469, 29.013, 0.61, -0.515, 2.5, 29.012, 0.5790001, -0.573, 2.5
 59420389, 29.005, 0.617, -0.447, 2.5, 29.013, 0.61, -0.515, 2.5
 59620309, 28.993, 0.622, -0.437, 2.5, 29.005, 0.617, -0.447, 2.5
 59820229, 28.994, 0.625, -0.45, 2.5, 28.993, 0.622, -0.437, 2.5
 60020149, 28.991, 0.636, -0.393, 2.5, 28.994, 0.625, -0.45, 2.5
 60220902, 28.986, 0.594, -0.442, 2.5, 28.991, 0.636, -0.393, 2.5
 60420822, 28.991, 0.5840001, -0.455, 2.5, 28.986, 0.594, -0.442, 2.5
 60620742, 29.001, 0.5840001, -0.364, 2.5, 28.991, 0.5840001, -0.455, 2.5
 60820662, 29.003, 0.5790001, -0.327, 2.5, 29.001, 0.5840001, -0.364, 2.5
 61020582, 28.999, 0.565, -0.359, 2.5, 29.003, 0.5790001, -0.327, 2.5
 61220502, 28.992, 0.574, -0.338, 2.5, 28.999, 0.565, -0.359, 2.5
 61420422, 28.988, 0.59, -0.352, 2.5, 28.992, 0.574, -0.338, 2.5
 61620342, 28.987, 0.581, -0.293, 2.5, 28.988, 0.59, -0.352, 2.5
 61820262, 28.993, 0.5700001, -0.23, 2.5, 28.987, 0.581, -0.293, 2.5
 62020182, 28.986, 0.585, -0.28, 2.5, 28.993, 0.5700001, -0.23, 2.5
 62220935, 28.968, 0.613, -0.317, 2.5, 28.986, 0.585, -0.28, 2.5
 62420855, 28.97, 0.642, -0.354, 2.5, 28.968, 0.613, -0.317, 2.5
 62620775, 28.965, 0.687, -0.404, 2.5, 28.97, 0.642, -0.354, 2.5
 62820695, 28.966, 0.543, -0.314, 2.5, 28.965, 0.687, -0.404, 2.5
 63020615, 28.971, -0.369, -0.141, 2.5, 28.966, 0.543, -0.314, 2.5
 63220535, 28.984, -1.795, 0.151, 2.5, 28.971, -0.369, -0.141, 2.5
 63420455, 28.975, -3.972, 0.536, 2.5, 28.984, -1.795, 0.151, 2.5
 63620375, 28.739, -7.07, 0.64, 2.5, 28.975, -3.972, 0.536, 2.5
 63820295, 27.857, -10.901, 0.098, 2.5, 28.739, -7.07, 0.64, 2.5
 64020215, 26.449, -14.435, -0.669, 2.5, 27.857, -10.901, 0.098, 2.5
 64220968, 24.987, -17.098, -1.164, 2.5, 26.449, -14.435, -0.669, 2.5
 64420888, 23.521, -19.063, -1.285, 2.5, 24.987, -17.098, -1.164, 2.5
 64620808, 21.996, -20.653, -1.259, 2.5, 23.521, -19.063, -1.285, 2.5
 64820728, 20.466, -21.981, -1.132, 2.5, 21.996, -20.653, -1.259, 2.5
 65020648, 18.922, -23.146, -0.983, 2.5, 20.466, -21.981, -1.132, 2.5
 65220568, 17.359, -24.175, -0.83, 2.5, 18.922, -23.146, -0.983, 2.5
 65420488, 15.804, -25.069, -0.654, 2.5, 17.359, -24.175, -0.83, 2.5
 65620408, 14.227, -25.854, -0.492, 2.5, 15.804, -25.069, -0.654, 2.5
 65820328, 12.677, -26.524, -0.321, 2.5, 14.227, -25.854, -0.492, 2.5
 66020248, 11.122, -27.105, -0.176, 2.5, 12.677, -26.524, -0.321, 2.5
 66220168, 9.574, -27.594, -0.045, 2.5, 11.122, -27.105, -0.176, 2.5
 66420921, 8.1, -27.968, 0.09200001, 2.5, 9.574, -27.594, -0.045, 2.5
 66620841, 6.666, -28.259, 0.219, 2.5, 8.1, -27.968, 0.09200001, 2.5
 66820761, 5.269, -28.465, 0.345, 2.5, 6.666, -28.259, 0.219, 2.5
 67020681, 3.914, -28.602, 0.48, 2.5, 5.269, -28.465, 0.345, 2.5
 67220601, 2.62, -28.672, 0.577, 2.5, 3.914, -28.602, 0.48, 2.5
 67420521, 1.357, -28.679, 0.6, 2.5, 2.62, -28.672, 0.577, 2.5
 67620441, 0.159, -28.628, 0.599, 2.5, 1.357, -28.679, 0.6, 2.5
 67820361, -0.937, -28.535, 0.624, 2.5, 0.159, -28.628, 0.599, 2.5
 68020281, -1.869, -28.413, 0.739, 2.5, -0.937, -28.535, 0.624, 2.5
 68220201, -2.752, -28.272, 0.804, 2.5, -1.869, -28.413, 0.739, 2.5
 68420954, -3.558, -28.129, 0.855, 2.5, -2.752, -28.272, 0.804, 2.5
 68620874, -4.326, -27.969, 0.751, 2.5, -3.558, -28.129, 0.855, 2.5
 68820794, -4.951, -27.82, 0.754, 2.5, -4.326, -27.969, 0.751, 2.5
 69020714, -5.485, -27.679, 0.728, 2.5, -4.951, -27.82, 0.754, 2.5
 69220634, -5.938, -27.551, 0.73, 2.5, -5.485, -27.679, 0.728, 2.5
 69420554, -6.301, -27.441, 0.827, 2.5, -5.938, -27.551, 0.73, 2.5
 69620474, -6.615, -27.35, 0.887, 2.5, -6.301, -27.441, 0.827, 2.5
 69820394, -6.882, -27.299, 0.8340001, 2.5, -6.615, -27.35, 0.887, 2.5
 70020314, -7.072001, -27.264, 0.804, 2.5, -6.882, -27.299, 0.8340001, 2.5
 70220234, -7.237, -27.229, 0.751, 2.5, -7.072001, -27.264, 0.804, 2.5
 70420154, -7.364, -27.21, 0.677, 2.5, -7.237, -27.229, 0.751, 2.5
 70620907, -7.416, -27.216, 0.633, 2.5, -7.364, -27.21, 0.677, 2.5
 70820827, -7.420001, -27.231, 0.585, 2.5, -7.416, -27.216, 0.633, 2.5
 71020747, -7.376, -27.269, 0.538, 2.5, -7.420001, -27.231, 0.585, 2.5
 71220667, -7.312, -27.316, 0.531, 2.5, -7.376, -27.269, 0.538, 2.5
 71420587, -7.23, -27.369, 0.5420001, 2.5, -7.312, -27.316, 0.531, 2.5
 71620507, -7.07, -27.439, 0.369, 2.5, -7.23, -27.369, 0.5420001, 2.5
 71820427, -6.887001, -27.507, 0.266, 2.5, -7.07, -27.439, 0.369, 2.5
 72020347, -6.713, -27.581, 0.285, 2.5, -6.887001, -27.507, 0.266, 2.5
 72220267, -6.558, -27.664, 0.292, 2.5, -6.713, -27.581, 0.285, 2.5
 72420187, -6.376, -27.748, 0.286, 2.5, -6.558, -27.664, 0.292, 2.5
 72620940, -6.144, -27.818, 0.214, 2.5, -6.376, -27.748, 0.286, 2.5
 72820860, -5.879, -27.897, 0.142, 2.5, -6.144, -27.818, 0.214, 2.5
 73020780, -5.602, -27.971, 0.097, 2.5, -5.879, -27.897, 0.142, 2.5
 73220700, -5.338, -28.04, 0.1, 2.5, -5.602, -27.971, 0.097, 2.5
 73420620, -5.072, -28.101, 0.051, 2.5, -5.338, -28.04, 0.1, 2.5
 73620540, -4.795, -28.162, 0.01, 2.5, -5.072, -28.101, 0.051, 2.5
 73820460, -4.518, -28.21, -0.04, 2.5, -4.795, -28.162, 0.01, 2.5
 74020380, -4.269, -28.261, -0.01, 2.5, -4.518, -28.21, -0.04, 2.5
 74220300, -4.012, -28.323, 0.001, 2.5, -4.269, -28.261, -0.01, 2.5
 74420220, -3.713, -28.377, -0.12, 2.5, -4.012, -28.323, 0.001, 2.5
 74620973, -3.456, -28.421, -0.181, 2.5, -3.713, -28.377, -0.12, 2.5
 74820893, -3.19, -28.465, -0.139, 2.5, -3.456, -28.421, -0.181, 2.5
 75020813, -2.944, -28.505, -0.116, 2.5, -3.19, -28.465, -0.139, 2.5
 75220733, -2.692, -28.536, -0.169, 2.5, -2.944, -28.505, -0.116, 2.5
 75420653, -2.43, -28.562, -0.243, 2.5, -2.692, -28.536, -0.169, 2.5
 75620573, -2.18, -28.601, -0.27, 2.5, -2.43, -28.562, -0.243, 2.5
 75820493, -1.965, -28.639, -0.192, 2.5, -2.18, -28.601, -0.27, 2.5
 76020413, -1.756, -28.679, -0.179, 2.5, -1.965, -28.639, -0.192, 2.5
 76220333, -1.544, -28.696, -0.272, 2.5, -1.756, -28.679, -0.179, 2.5
 76420253, -1.331, -28.713, -0.323, 2.5, -1.544, -28.696, -0.272, 2.5
 76620173, -1.173, -28.733, -0.315, 2.5, -1.331, -28.713, -0.323, 2.5
 76820926, -1.02, -28.737, -0.269, 2.5, -1.173, -28.733, -0.315, 2.5
 77020846, -0.8710001, -28.735, -0.244, 2.5, -1.02, -28.737, -0.269, 2.5
 77220766, -0.708, -28.734, -0.255, 2.5, -0.8710001, -28.735, -0.244, 2.5
 77420686, -0.545, -28.737, -0.298, 2.5, -0.708, -28.734, -0.255, 2.5
 77620606, -0.407, -28.743, -0.328, 2.5, -0.545, -28.737, -0.298, 2.5
 77820526, -0.305, -28.755, -0.34, 2.5, -0.407, -28.743, -0.328, 2.5
 78020446, -0.19, -28.765, -0.379, 2.5, -0.305, -28.755, -0.34, 2.5
 78220366, -0.082, -28.761, -0.388, 2.5, -0.19, -28.765, -0.379, 2.5
 78420286, 0.007, -28.747, -0.334, 2.5, -0.082, -28.761, -0.388, 2.5
 78620206, 0.085, -28.738, -0.299, 2.5, 0.007, -28.747, -0.334, 2.5
 78820959, 0.16, -28.744, -0.314, 2.5, 0.085, -28.738, -0.299, 2.5
 79020879, 0.243, -28.747, -0.355, 2.5, 0.16, -28.744, -0.314, 2.5
 79220799, 0.296, -28.743, -0.207, 2.5, 0.243, -28.747, -0.355, 2.5
 79420719, 0.352, -28.741, -0.241, 2.5, 0.296, -28.743, -0.207, 2.5
 79620639, 0.399, -28.74, -0.287, 2.5, 0.352, -28.741, -0.241, 2.5
 79820559, 0.444, -28.744, -0.3, 2.5, 0.399, -28.74, -0.287, 2.5
 80020479, 0.489, -28.743, -0.258, 2.5, 0.444, -28.744, -0.3, 2.5
 80220399, 0.501, -28.743, -0.265, 2.5, 0.489, -28.743, -0.258, 2.5
 80420319, 0.513, -28.753, -0.265, 2.5, 0.501, -28.743, -0.265, 2.5
 80620239, 0.541, -28.753, -0.295, 2.5, 0.513, -28.753, -0.265, 2.5
 80820159, 0.562, -28.745, -0.263, 2.5, 0.541, -28.753, -0.295, 2.5
 81020912, 0.563, -28.75, -0.261, 2.5, 0.562, -28.745, -0.263, 2.5
 81220832, 0.557, -28.742, -0.273, 2.5, 0.563, -28.75, -0.261, 2.5
 81420752, 0.561, -28.735, -0.341, 2.5, 0.557, -28.742, -0.273, 2.5
 81620672, 0.5470001, -28.729, -0.381, 2.5, 0.561, -28.735, -0.341, 2.5
 81820592, 0.5560001, -28.731, -0.286, 2.5, 0.5470001, -28.729, -0.381, 2.5
 82020512, 0.549, -28.727, -0.2, 2.5, 0.5560001, -28.731, -0.286, 2.5
 82220432, 0.527, -28.727, -0.132, 2.5, 0.549, -28.727, -0.2, 2.5
 82420352, 0.507, -28.729, -0.166, 2.5, 0.527, -28.727, -0.132, 2.5
 82620272, 0.487, -28.723, -0.171, 2.5, 0.507, -28.729, -0.166, 2.5
 82820192, 0.464, -28.742, -0.166, 2.5, 0.487, -28.723, -0.171, 2.5
 83020945, 0.456, -28.763, -0.174, 2.5, 0.464, -28.742, -0.166, 2.5
 83220865, 0.448, -28.77, -0.203, 2.5, 0.456, -28.763, -0.174, 2.5
 83420785, 0.435, -28.784, -0.218, 2.5, 0.448, -28.77, -0.203, 2.5
 83620705, 0.407, -28.791, -0.143, 2.5, 0.435, -28.784, -0.218, 2.5
 83820625, 0.354, -28.789, -0.102, 2.5, 0.407, -28.791, -0.143, 2.5
 84020545, 0.315, -28.798, -0.019, 2.5, 0.354, -28.789, -0.102, 2.5
 84220465, 0.272, -28.812, -0.061, 2.5, 0.315, -28.798, -0.019, 2.5
 84420385, 0.229, -28.807, -0.171, 2.5, 0.272, -28.812, -0.061, 2.5
 84620305, 0.18, -28.791, -0.185, 2.5, 0.229, -28.807, -0.171, 2.5
 84820225, 0.148, -28.779, -0.189, 2.5, 0.18, -28.791, -0.185, 2.5
 85020145, 0.118, -28.764, -0.127, 2.5, 0.148, -28.779, -0.189, 2.5
 85220898, 0.114, -28.762, -0.05, 2.5, 0.118, -28.764, -0.127, 2.5
 85420818, 0.107, -28.767, -0.123, 2.5, 0.114, -28.762, -0.05, 2.5
 85620738, 0.072, -28.778, -0.153, 2.5, 0.107, -28.767, -0.123, 2.5
 85820658, 0.063, -28.795, -0.09100001, 2.5, 0.072, -28.778, -0.153, 2.5
 86020578, 0.07300001, -28.798, -0.001, 2.5, 0.063, -28.795, -0.09100001, 2.5
 86220498, 0.066, -28.807, -0.039, 2.5, 0.07300001, -28.798, -0.001, 2.5
 86420418, 0.045, -28.824, -0.082, 2.5, 0.066, -28.807, -0.039, 2.5
 86620338, 0.017, -28.83, -0.114, 2.5, 0.045, -28.824, -0.082, 2.5
 86820258, -0.004, -28.843, -0.08000001, 2.5, 0.017, -28.83, -0.114, 2.5
 87020178, -0.016, -28.857, -0.019, 2.5, -0.004, -28.843, -0.08000001, 2.5
 87220931, -0.027, -28.87, -0.002, 2.5, -0.016, -28.857, -0.019, 2.5
 87420851, -0.027, -28.879, -0.027, 2.5, -0.027, -28.87, -0.002, 2.5
 87620771, -0.024, -28.88, -0.144, 2.5, -0.027, -28.879, -0.027, 2.5
 87820691, -0.034, -28.886, -0.081, 2.5, -0.024, -28.88, -0.144, 2.5
 88020611, -0.035, -28.886, -0.029, 2.5, -0.034, -28.886, -0.081, 2.5
 88220531, -0.024, -28.891, -0.035, 2.5, -0.035, -28.886, -0.029, 2.5
 88420451, -0.022, -28.901, -0.062, 2.5, -0.024, -28.891, -0.035, 2.5
 88620371, -0.006, -28.902, -0.094, 2.5, -0.022, -28.901, -0.062, 2.5
 88820291, -0.009000001, -28.901, -0.126, 2.5, -0.006, -28.902, -0.094, 2.5
 89020211, -0.012, -28.905, -0.124, 2.5, -0.009000001, -28.901, -0.126, 2.5
 89220964, -0.009000001, -28.905, -0.062, 2.5, -0.012, -28.905, -0.124, 2.5
 89420884, -0.014, -28.914, -0.027, 2.5, -0.009000001, -28.905, -0.062, 2.5
 89620804, -0.014, -28.919, -0.051, 2.5, -0.014, -28.914, -0.027, 2.5
 89820724, -0.029, -28.919, -0.054, 2.5, -0.014, -28.919, -0.051, 2.5
 90020644, -0.018, -28.921, -0.052, 2.5, -0.029, -28.919, -0.054, 2.5
 90220564, -0.019, -28.923, -0.036, 2.5, -0.018, -28.921, -0.052, 2.5
 90420484, -0.032, -28.927, -0.07300001, 2.5, -0.019, -28.923, -0.036, 2.5
 90620404, -0.037, -28.928, -0.058, 2.5, -0.032, -28.927, -0.07300001, 2.5
 90820324, -0.027, -28.931, -0.048, 2.5, -0.037, -28.928, -0.058, 2.5
 91020244, -0.016, -28.933, -0.085, 2.5, -0.027, -28.931, -0.048, 2.5
 91220164, -0.005, -28.932, -0.062, 2.5, -0.016, -28.933, -0.085, 2.5
 91420917, -0.005, -28.93, -0.054, 2.5, -0.005, -28.932, -0.062, 2.5
 91620837, -0.004, -28.933, -0.017, 2.5, -0.005, -28.93, -0.054, 2.5
 91820757, 0.02, -28.931, -0.081, 2.5, -0.004, -28.933, -0.017, 2.5
 92020677, 0.037, -28.932, -0.093, 2.5, 0.02, -28.931, -0.081, 2.5
 92220597, 0.046, -28.926, -0.116, 2.5, 0.037, -28.932, -0.093, 2.5
 92420517, 0.054, -28.921, -0.083, 2.5, 0.046, -28.926, -0.116, 2.5
 92620437, 0.051, -28.922, -0.061, 2.5, 0.054, -28.921, -0.083, 2.5
 92820357, 0.034, -28.923, -0.044, 2.5, 0.051, -28.922, -0.061, 2.5
 93020277, 0.062, -28.921, -0.096, 2.5, 0.034, -28.923, -0.044, 2.5
 93220197, 0.062, -28.92, -0.061, 2.5, 0.062, -28.921, -0.096, 2.5
 93420950, 0.09500001, -28.918, -0.07700001, 2.5, 0.062, -28.92, -0.061, 2.5
 93620870, 0.102, -28.922, -0.009000001, 2.5, 0.09500001, -28.918, -0.07700001, 2.5
 93820790, 0.114, -28.925, -0.025, 2.5, 0.102, -28.922, -0.009000001, 2.5
 94020710, -0.514, -28.92, -0.087, 2.5, 0.114, -28.925, -0.025, 2.5
 94220630, -1.71, -28.904, 0.118, 2.5, -0.514, -28.92, -0.087, 2.5
 94420550, -3.477, -28.876, 0.507, 2.5, -1.71, -28.904, 0.118, 2.5
 94620470, -6.046, -28.768, 0.9160001, 2.5, -3.477, -28.876, 0.507, 2.5
 94820390, -9.492001, -28.213, 0.7130001, 2.5, -6.046, -28.768, 0.9160001, 2.5
 95020310, -13.286, -26.958, -0.07700001, 2.5, -9.492001, -28.213, 0.7130001, 2.5
 95220230, -16.331, -25.46, -0.7410001, 2.5, -13.286, -26.958, -0.07700001, 2.5
 95420150, -18.622, -23.881, -1.106, 2.5, -16.331, -25.46, -0.7410001, 2.5
 95620903, -20.327, -22.322, -1.146, 2.5, -18.622, -23.881, -1.106, 2.5
 95820823, -21.744, -20.754, -1.071, 2.5, -20.327, -22.322, -1.146, 2.5
 96020743, -22.899, -19.261, -0.932, 2.5, -21.744, -20.754, -1.071, 2.5
 96220663, -23.909, -17.746, -0.77, 2.5, -22.899, -19.261, -0.932, 2.5
 96420583, -24.802, -16.204, -0.601, 2.5, -23.909, -17.746, -0.77, 2.5
 96620503, -25.609, -14.609, -0.477, 2.5, -24.802, -16.204, -0.601, 2.5
 96820423, -26.312, -13.013, -0.364, 2.5, -25.609, -14.609, -0.477, 2.5
 97020343, -26.877, -11.523, -0.203, 2.5, -26.312, -13.013, -0.364, 2.5
 97220263, -27.35, -10.045, -0.074, 2.5, -26.877, -11.523, -0.203, 2.5
 97420183, -27.714, -8.644, 0.114, 2.5, -27.35, -10.045, -0.074, 2.5
 97620936, -28.016, -7.224, 0.252, 2.5, -27.714, -8.644, 0.114, 2.5
 97820856, -28.244, -5.857, 0.404, 2.5, -28.016, -7.224, 0.252, 2.5
 98020776, -28.406, -4.52, 0.525, 2.5, -28.244, -5.857, 0.404, 2.5
 98220696, -28.508, -3.208, 0.598, 2.5, -28.406, -4.52, 0.525, 2.5
 98420616, -28.542, -1.993, 0.67, 2.5, -28.508, -3.208, 0.598, 2.5
 98620536, -28.532, -0.768, 0.673, 2.5, -28.542, -1.993, 0.67, 2.5
 98820456, -28.465, 0.335, 0.687, 2.5, -28.532, -0.768, 0.673, 2.5
 99020376, -28.359, 1.313, 0.72, 2.5, -28.465, 0.335, 0.687, 2.5
 99220296, -28.242, 2.176, 0.776, 2.5, -28.359, 1.313, 0.72, 2.5
 99420216, -28.117, 3.015, 0.781, 2.5, -28.242, 2.176, 0.776, 2.5
 99620969, -27.981, 3.735, 0.822, 2.5, -28.117, 3.015, 0.781, 2.5
 99820889, -27.836, 4.391, 0.8200001, 2.5, -27.981, 3.735, 0.822, 2.5
 100020809, -27.697, 4.948, 0.825, 2.5, -27.836, 4.391, 0.8200001, 2.5
 100220729, -27.582, 5.433, 0.8560001, 2.5, -27.697, 4.948, 0.825, 2.5
 100420649, -27.485, 5.846, 0.883, 2.5, -27.582, 5.433, 0.8560001, 2.5
 100620569, -27.403, 6.206, 0.868, 2.5, -27.485, 5.846, 0.883, 2.5
 100820489, -27.324, 6.526, 0.7590001, 2.5, -27.403, 6.206, 0.868, 2.5
 101020409, -27.243, 6.804, 0.6850001, 2.5, -27.324, 6.526, 0.7590001, 2.5
 101220329, -27.191, 6.992, 0.702, 2.5, -27.243, 6.804, 0.6850001, 2.5
 101420249, -27.176, 7.106, 0.715, 2.5, -27.191, 6.992, 0.702, 2.5
 101620169, -27.177, 7.146, 0.725, 2.5, -27.176, 7.106, 0.715, 2.5
 101820922, -27.192, 7.18, 0.679, 2.5, -27.177, 7.146, 0.725, 2.5
 102020842, -27.222, 7.190001, 0.614, 2.5, -27.192, 7.18, 0.679, 2.5
 102220762, -27.271, 7.172, 0.527, 2.5, -27.222, 7.190001, 0.614, 2.5
 102420682, -27.321, 7.123, 0.545, 2.5, -27.271, 7.172, 0.527, 2.5
 102620602, -27.383, 7.02, 0.576, 2.5, -27.321, 7.123, 0.545, 2.5
 102820522, -27.455, 6.884, 0.5100001, 2.5, -27.383, 7.02, 0.576, 2.5
 103020442, -27.537, 6.72, 0.43, 2.5, -27.455, 6.884, 0.5100001, 2.5
 103220362, -27.618, 6.535, 0.351, 2.5, -27.537, 6.72, 0.43, 2.5
 103420282, -27.706, 6.363, 0.305, 2.5, -27.618, 6.535, 0.351, 2.5
 103620202, -27.791, 6.141, 0.247, 2.5, -27.706, 6.363, 0.305, 2.5
 103820955, -27.878, 5.912, 0.201, 2.5, -27.791, 6.141, 0.247, 2.5
 104020875, -27.949, 5.657, 0.098, 2.5, -27.878, 5.912, 0.201, 2.5
 104220795, -28.014, 5.413, 0.137, 2.5, -27.949, 5.657, 0.098, 2.5
 104420715, -28.077, 5.16, 0.121, 2.5, -28.014, 5.413, 0.137, 2.5
 104620635, -28.145, 4.876, 0.06, 2.5, -28.077, 5.16, 0.121, 2.5
 104820555, -28.197, 4.617, 0.025, 2.5, -28.145, 4.876, 0.06, 2.5
 105020475, -28.249, 4.359, -0.055, 2.5, -28.197, 4.617, 0.025, 2.5
 105220395, -28.306, 4.111, -0.09900001, 2.5, -28.249, 4.359, -0.055, 2.5
 105420315, -28.35, 3.873, -0.07, 2.5, -28.306, 4.111, -0.09900001, 2.5
 105620235, -28.384, 3.63, -0.137, 2.5, -28.35, 3.873, -0.07, 2.5
 105820155, -28.423, 3.38, -0.19, 2.5, -28.384, 3.63, -0.137, 2.5
 106020908, -28.45, 3.151, -0.195, 2.5, -28.423, 3.38, -0.19, 2.5
 106220828, -28.483, 2.927, -0.158, 2.5, -28.45, 3.151, -0.195, 2.5
 106420748, -28.513, 2.694, -0.132, 2.5, -28.483, 2.927, -0.158, 2.5
 106620668, -28.548, 2.448, -0.133, 2.5, -28.513, 2.694, -0.132, 2.5
 106820588, -28.575, 2.198, -0.182, 2.5, -28.548, 2.448, -0.133, 2.5
 107020508, -28.61, 1.944, -0.229, 2.5, -28.575, 2.198, -0.182, 2.5
 107220428, -28.644, 1.75, -0.235, 2.5, -28.61, 1.944, -0.229, 2.5
 107420348, -28.659, 1.578, -0.28, 2.5, -28.644, 1.75, -0.235, 2.5
 107620268, -28.66, 1.411, -0.331, 2.5, -28.659, 1.578, -0.28, 2.5
 107820188, -28.658, 1.241, -0.366, 2.5, -28.66, 1.411, -0.331, 2.5
 108020941, -28.657, 1.103, -0.245, 2.5, -28.658, 1.241, -0.366, 2.5
 108220861, -28.666, 0.964, -0.232, 2.5, -28.657, 1.103, -0.245, 2.5
 108420781, -28.658, 0.791, -0.375, 2.5, -28.666, 0.964, -0.232, 2.5
 108620701, -28.654, 0.645, -0.44, 2.5, -28.658, 0.791, -0.375, 2.5
 108820621, -28.648, 0.553, -0.379, 2.5, -28.654, 0.645, -0.44, 2.5
 109020541, -28.65, 0.455, -0.272, 2.5, -28.648, 0.553, -0.379, 2.5
 109220461, -28.67, 0.345, -0.154, 2.5, -28.65, 0.455, -0.272, 2.5
 109420381, -28.682, 0.243, -0.194, 2.5, -28.67, 0.345, -0.154, 2.5
 109620301, -28.681, 0.124, -0.246, 2.5, -28.682, 0.243, -0.194, 2.5
 109820221, -28.69, 0.011, -0.275, 2.5, -28.681, 0.124, -0.246, 2.5
 110020974, -28.703, -0.074, -0.34, 2.5, -28.69, 0.011, -0.275, 2.5
 110220894, -28.717, -0.139, -0.281, 2.5, -28.703, -0.074, -0.34, 2.5
 110420814, -28.719, -0.217, -0.269, 2.5, -28.717, -0.139, -0.281, 2.5
 110620734, -28.714, -0.283, -0.243, 2.5, -28.719, -0.217, -0.269, 2.5
 110820654, -28.717, -0.317, -0.239, 2.5, -28.714, -0.283, -0.243, 2.5
 111020574, -28.713, -0.34, -0.265, 2.5, -28.717, -0.317, -0.239, 2.5
 111220494, -28.704, -0.351, -0.277, 2.5, -28.713, -0.34, -0.265, 2.5
 111420414, -28.702, -0.387, -0.295, 2.5, -28.704, -0.351, -0.277, 2.5
 111620334, -28.699, -0.419, -0.25, 2.5, -28.702, -0.387, -0.295, 2.5
 111820254, -28.693, -0.447, -0.253, 2.5, -28.699, -0.419, -0.25, 2.5
 112020174, -28.689, -0.5100001, -0.293, 2.5, -28.693, -0.447, -0.253, 2.5
 112220927, -28.691, -0.531, -0.27, 2.5, -28.689, -0.5100001, -0.293, 2.5
 112420847, -28.71, -0.539, -0.267, 2.5, -28.691, -0.531, -0.27, 2.5
 112620767, -28.727, -0.534, -0.25, 2.5, -28.71, -0.539, -0.267, 2.5
 112820687, -28.724, -0.549, -0.207, 2.5, -28.727, -0.534, -0.25, 2.5
 113020607, -28.719, -0.545, -0.249, 2.5, -28.724, -0.549, -0.207, 2.5
 113220527, -28.713, -0.532, -0.266, 2.5, -28.719, -0.545, -0.249, 2.5
 113420447, -28.71, -0.532, -0.274, 2.5, -28.713, -0.532, -0.266, 2.5
 113620367, -28.709, -0.54, -0.255, 2.5, -28.71, -0.532, -0.274, 2.5
 113820287, -28.716, -0.536, -0.197, 2.5, -28.709, -0.54, -0.255, 2.5
 114020207, -28.731, -0.511, -0.123, 2.5, -28.716, -0.536, -0.197, 2.5
 114220960, -28.731, -0.527, -0.193, 2.5, -28.731, -0.511, -0.123, 2.5
 114420880, -28.727, 0.118, -0.226, 2.5, -28.731, -0.527, -0.193, 2.5
 114620800, -28.733, 1.281, 0.085, 2.5, -28.727, 0.118, -0.226, 2.5
 114820720, -28.737, 3.114, 0.439, 2.5, -28.733, 1.281, 0.085, 2.5
 115020640, -28.66, 5.779, 0.781, 2.5, -28.737, 3.114, 0.439, 2.5
 115220560, -28.093, 9.363001, 0.552, 2.5, -28.66, 5.779, 0.781, 2.5
 115420480, -26.875, 13.144, -0.194, 2.5, -28.093, 9.363001, 0.552, 2.5
 115620400, -25.348, 16.284, -0.895, 2.5, -26.875, 13.144, -0.194, 2.5
 115820320, -23.823, 18.579, -1.27, 2.5, -25.348, 16.284, -0.895, 2.5
 116020240, -22.356, 20.238, -1.296, 2.5, -23.823, 18.579, -1.27, 2.5
 116220160, -20.919, 21.552, -1.124, 2.5, -22.356, 20.238, -1.296, 2.5
 116420913, -19.465, 22.703, -0.942, 2.5, -20.919, 21.552, -1.124, 2.5
 116620833, -17.967, 23.744, -0.788, 2.5, -19.465, 22.703, -0.942, 2.5
 116820753, -16.45, 24.666, -0.619, 2.5, -17.967, 23.744, -0.788, 2.5
 117020673, -14.87, 25.52, -0.477, 2.5, -16.45, 24.666, -0.619, 2.5
 117220593, -13.246, 26.274, -0.378, 2.5, -14.87, 25.52, -0.477, 2.5
 117420513, -11.625, 26.91, -0.309, 2.5, -13.246, 26.274, -0.378, 2.5
 117620433, -10.045, 27.429, -0.249, 2.5, -11.625, 26.91, -0.309, 2.5
 117820353, -8.582001, 27.821, -0.117, 2.5, -10.045, 27.429, -0.249, 2.5
 118020273, -7.153, 28.124, -0.015, 2.5, -8.582001, 27.821, -0.117, 2.5
 118220193, -5.832, 28.33, 0.116, 2.5, -7.153, 28.124, -0.015, 2.5
 118420946, -4.552, 28.461, 0.239, 2.5, -5.832, 28.33, 0.116, 2.5
 118620866, -3.38, 28.53, 0.403, 2.5, -4.552, 28.461, 0.239, 2.5
 118820786, -2.204, 28.567, 0.507, 2.5, -3.38, 28.53, 0.403, 2.5
 119020706, -1.038, 28.555, 0.539, 2.5, -2.204, 28.567, 0.507, 2.5
 119220626, 0.046, 28.504, 0.548, 2.5, -1.038, 28.555, 0.539, 2.5
 119420546, 1.03, 28.41, 0.5420001, 2.5, 0.046, 28.504, 0.548, 2.5
 119620466, 1.93, 28.29, 0.564, 2.5, 1.03, 28.41, 0.5420001, 2.5
 119820386, 2.695, 28.165, 0.643, 2.5, 1.93, 28.29, 0.564, 2.5
 120020306, 3.38, 28.048, 0.702, 2.5, 2.695, 28.165, 0.643, 2.5
 120220226, 3.983, 27.928, 0.761, 2.5, 3.38, 28.048, 0.702, 2.5
 120420146, 4.519, 27.821, 0.8430001, 2.5, 3.983, 27.928, 0.761, 2.5
 120620899, 5.005, 27.719, 0.84, 2.5, 4.519, 27.821, 0.8430001, 2.5
 120820819, 5.453, 27.622, 0.798, 2.5, 5.005, 27.719, 0.84, 2.5
 121020739, 5.829, 27.527, 0.738, 2.5, 5.453, 27.622, 0.798, 2.5
 121220659, 6.131001, 27.458, 0.71, 2.5, 5.829, 27.527, 0.738, 2.5
 121420579, 6.393, 27.402, 0.6760001, 2.5, 6.131001, 27.458, 0.71, 2.5
 121620499, 6.589, 27.358, 0.65, 2.5, 6.393, 27.402, 0.6760001, 2.5
 121820419, 6.701, 27.33, 0.6670001, 2.5, 6.589, 27.358, 0.65, 2.5
 122020339, 6.77, 27.316, 0.665, 2.5, 6.701, 27.33, 0.6670001, 2.5
 122220259, 6.814, 27.322, 0.609, 2.5, 6.77, 27.316, 0.665, 2.5
 122420179, 6.829, 27.335, 0.501, 2.5, 6.814, 27.322, 0.609, 2.5
 122620932, 6.785, 27.366, 0.455, 2.5, 6.829, 27.335, 0.501, 2.5
 122820852, 6.722, 27.405, 0.372, 2.5, 6.785, 27.366, 0.455, 2.5
 123020772, 6.625, 27.458, 0.395, 2.5, 6.722, 27.405, 0.372, 2.5
 123220692, 6.505, 27.51, 0.343, 2.5, 6.625, 27.458, 0.395, 2.5
 123420612, 6.362, 27.581, 0.318, 2.5, 6.505, 27.51, 0.343, 2.5
 123620532, 6.18, 27.663, 0.295, 2.5, 6.362, 27.581, 0.318, 2.5
 123820452, 5.99, 27.729, 0.175, 2.5, 6.18, 27.663, 0.295, 2.5
 124020372, 5.808, 27.791, 0.147, 2.5, 5.99, 27.729, 0.175, 2.5
 124220292, 5.611, 27.843, 0.184, 2.5, 5.808, 27.791, 0.147, 2.5
 124420212, 5.397, 27.911, 0.182, 2.5, 5.611, 27.843, 0.184, 2.5
 124620965, 5.173, 27.975, 0.151, 2.5, 5.397, 27.911, 0.182, 2.5
 124820885, 4.925, 28.049, 0.111, 2.5, 5.173, 27.975, 0.151, 2.5
 125020805, 4.703, 28.11, 0.085, 2.5, 4.925, 28.049, 0.111, 2.5
 125220725, 4.451, 28.17, 0.004, 2.5, 4.703, 28.11, 0.085, 2.5
 125420645, 4.198, 28.218, -0.103, 2.5, 4.451, 28.17, 0.004, 2.5
 125620565, 3.955, 28.262, -0.173, 2.5, 4.198, 28.218, -0.103, 2.5
 125820485, 3.745, 28.316, -0.09200001, 2.5, 3.955, 28.262, -0.173, 2.5
 126020405, 3.512, 28.364, -0.009000001, 2.5, 3.745, 28.316, -0.09200001, 2.5
 126220325, 3.251, 28.4, -0.1, 2.5, 3.512, 28.364, -0.009000001, 2.5
 126420245, 3.003, 28.443, -0.178, 2.5, 3.251, 28.4, -0.1, 2.5
 126620165, 2.787, 28.479, -0.215, 2.5, 3.003, 28.443, -0.178, 2.5
 126820918, 2.585, 28.507, -0.252, 2.5, 2.787, 28.479, -0.215, 2.5
 127020838, 2.377, 28.515, -0.245, 2.5, 2.585, 28.507, -0.252, 2.5
 127220758, 2.157, 28.541, -0.179, 2.5, 2.377, 28.515, -0.245, 2.5
 127420678, 1.926, 28.565, -0.196, 2.5, 2.157, 28.541, -0.179, 2.5
 127620598, 1.717, 28.572, -0.274, 2.5, 1.926, 28.565, -0.196, 2.5
 127820518, 1.547, 28.58, -0.291, 2.5, 1.717, 28.572, -0.274, 2.5
 128020438, 1.349, 28.589, -0.29, 2.5, 1.547, 28.58, -0.291, 2.5
 128220358, 1.179, 28.602, -0.287, 2.5, 1.349, 28.589, -0.29, 2.5
 128420278, 1.039, 28.611, -0.254, 2.5, 1.179, 28.602, -0.287, 2.5
 128620198, 0.886, 28.622, -0.218, 2.5, 1.039, 28.611, -0.254, 2.5
 128820951, 0.749, 28.638, -0.181, 2.5, 0.886, 28.622, -0.218, 2.5
 129020871, 0.627, 28.641, -0.288, 2.5, 0.749, 28.638, -0.181, 2.5
 129220791, 0.5190001, 28.637, -0.376, 2.5, 0.627, 28.641, -0.288, 2.5
 129420711, 0.438, 28.634, -0.319, 2.5, 0.5190001, 28.637, -0.376, 2.5
 129620631, 0.358, 28.643, -0.251, 2.5, 0.438, 28.634, -0.319, 2.5
 129820551, 0.283, 28.655, -0.216, 2.5, 0.358, 28.643, -0.251, 2.5
 130020471, 0.189, 28.662, -0.198, 2.5, 0.283, 28.655, -0.216, 2.5
 130220391, 0.094, 28.661, -0.293, 2.5, 0.189, 28.662, -0.198, 2.5
 130420311, 0.006, 28.656, -0.374, 2.5, 0.094, 28.661, -0.293, 2.5
 130620231, -0.056, 28.655, -0.306, 2.5, 0.006, 28.656, -0.374, 2.5
 130820151, -0.1, 28.658, -0.269, 2.5, -0.056, 28.655, -0.306, 2.5
 131020904, -0.14, 28.653, -0.272, 2.5, -0.1, 28.658, -0.269, 2.5
 131220824, -0.17, 28.651, -0.265, 2.5, -0.14, 28.653, -0.272, 2.5
 131420744, -0.221, 28.66, -0.243, 2.5, -0.17, 28.651, -0.265, 2.5
 131620664, -0.279, 28.659, -0.257, 2.5, -0.221, 28.66, -0.243, 2.5
 131820584, -0.307, 28.646, -0.247, 2.5, -0.279, 28.659, -0.257, 2.5
 132020504, -0.314, 28.633, -0.23, 2.5, -0.307, 28.646, -0.247, 2.5
 132220424, -0.318, 28.636, -0.2, 2.5, -0.314, 28.633, -0.23, 2.5
 132420344, -0.326, 28.636, -0.256, 2.5, -0.318, 28.636, -0.2, 2.5
 132620264, -0.342, 28.637, -0.28, 2.5, -0.326, 28.636, -0.256, 2.5
 132820184, -0.364, 28.645, -0.259, 2.5, -0.342, 28.637, -0.28, 2.5
 133020937, -0.367, 28.651, -0.161, 2.5, -0.364, 28.645, -0.259, 2.5
 133220857, -0.362, 28.661, -0.134, 2.5, -0.367, 28.651, -0.161, 2.5
 133420777, -0.368, 28.666, -0.193, 2.5, -0.362, 28.661, -0.134, 2.5
 133620697, -0.361, 28.669, -0.183, 2.5, -0.368, 28.666, -0.193, 2.5
 133820617, -0.351, 28.674, -0.17, 2.5, -0.361, 28.669, -0.183, 2.5
 134020537, -0.337, 28.682, -0.145, 2.5, -0.351, 28.674, -0.17, 2.5
 134220457, -0.329, 28.685, -0.158, 2.5, -0.337, 28.682, -0.145, 2.5
 134420377, -0.323, 28.689, -0.144, 2.5, -0.329, 28.685, -0.158, 2.5
 134620297, -0.333, 28.707, -0.114, 2.5, -0.323, 28.689, -0.144, 2.5
 134820217, -0.32, 28.715, -0.072, 2.5, -0.333, 28.707, -0.114, 2.5
 135020970, -0.33, 28.719, -0.109, 2.5, -0.32, 28.715, -0.072, 2.5
 135220890, -0.332, 28.724, -0.14, 2.5, -0.33, 28.719, -0.109, 2.5
 135420810, -0.32, 28.724, -0.156, 2.5, -0.332, 28.724, -0.14, 2.5
 135620730, -0.303, 28.724, -0.219, 2.5, -0.32, 28.724, -0.156, 2.5
 135820650, -0.29, 28.717, -0.22, 2.5, -0.303, 28.724, -0.219, 2.5
 136020570, -0.272, 28.717, -0.15, 2.5, -0.29, 28.717, -0.22, 2.5
 136220490, -0.252, 28.716, -0.104, 2.5, -0.272, 28.717, -0.15, 2.5
 136420410, -0.24, 28.718, -0.116, 2.5, -0.252, 28.716, -0.104, 2.5
 136620330, -0.225, 28.726, -0.039, 2.5, -0.24, 28.718, -0.116, 2.5
 136820250, -0.224, 28.734, -0.012, 2.5, -0.225, 28.726, -0.039, 2.5
 137020170, -0.24, 28.735, -0.04, 2.5, -0.224, 28.734, -0.012, 2.5
 137220923, -0.264, 28.749, -0.086, 2.5, -0.24, 28.735, -0.04, 2.5
 137420843, -0.252, 28.752, -0.049, 2.5, -0.264, 28.749, -0.086, 2.5
 137620763, -0.219, 28.758, 0.017, 2.5, -0.252, 28.752, -0.049, 2.5
 137820683, -0.201, 28.764, -0.009000001, 2.5, -0.219, 28.758, 0.017, 2.5
 138020603, -0.192, 28.762, -0.119, 2.5, -0.201, 28.764, -0.009000001, 2.5
 138220523, -0.187, 28.772, -0.155, 2.5, -0.192, 28.762, -0.119, 2.5
 138420443, -0.177, 28.766, -0.148, 2.5, -0.187, 28.772, -0.155, 2.5
 138620363, -0.158, 28.764, -0.107, 2.5, -0.177, 28.766, -0.148, 2.5
 138820283, -0.139, 28.766, -0.047, 2.5, -0.158, 28.764, -0.107, 2.5
 139020203, -0.119, 28.763, -0.103, 2.5, -0.139, 28.766, -0.047, 2.5
 139220956, -0.12, 28.758, -0.066, 2.5, -0.119, 28.763, -0.103, 2.5
 139420876, -0.138, 28.757, 0.03, 2.5, -0.12, 28.758, -0.066, 2.5
 139620796, -0.132, 28.766, -0.031, 2.5, -0.138, 28.757, 0.03, 2.5
 139820716, -0.144, 28.783, -0.104, 2.5, -0.132, 28.766, -0.031, 2.5
 140020636, -0.134, 28.792, -0.119, 2.5, -0.144, 28.783, -0.104, 2.5
 140220556, -0.113, 28.809, -0.086, 2.5, -0.134, 28.792, -0.119, 2.5
 140420476, -0.093, 28.806, -0.025, 2.5, -0.113, 28.809, -0.086, 2.5
 140620396, -0.098, 28.817, 0.024, 2.5, -0.093, 28.806, -0.025, 2.5
 140820316, -0.09, 28.822, 0.023, 2.5, -0.098, 28.817, 0.024, 2.5
 141020236, -0.075, 28.817, 0.038, 2.5, -0.09, 28.822, 0.023, 2.5
 141220156, -0.068, 28.808, -0.075, 2.5, -0.075, 28.817, 0.038, 2.5
 141420909, -0.055, 28.82, -0.109, 2.5, -0.068, 28.808, -0.075, 2.5
 141620829, -0.027, 28.834, -0.067, 2.5, -0.055, 28.82, -0.109, 2.5
 141820749, -0.005, 28.854, -0.009000001, 2.5, -0.027, 28.834, -0.067, 2.5
 142020669, 0.017, 28.857, -0.002, 2.5, -0.005, 28.854, -0.009000001, 2.5
 142220589, 0.046, 28.869, -0.031, 2.5, 0.017, 28.857, -0.002, 2.5
 142420509, 0.059, 28.881, -0.011, 2.5, 0.046, 28.869, -0.031, 2.5
 142620429, 0.058, 28.89, 0.022, 2.5, 0.059, 28.881, -0.011, 2.5
 142820349, 0.058, 28.887, -0.006, 2.5, 0.058, 28.89, 0.022, 2.5
 143020269, 0.053, 28.881, -0.072, 2.5, 0.058, 28.887, -0.006, 2.5
 143220189, 0.034, 28.884, -0.086, 2.5, 0.053, 28.881, -0.072, 2.5
 143420942, 0.02, 28.871, -0.08000001, 2.5, 0.034, 28.884, -0.086, 2.5
 143620862, 0.039, 28.855, -0.052, 2.5, 0.02, 28.871, -0.08000001, 2.5
 143820782, 0.03, 28.858, -0.067, 2.5, 0.039, 28.855, -0.052, 2.5
 144020702, 0.037, 28.859, -0.049, 2.5, 0.03, 28.858, -0.067, 2.5
 144220622, 0.02, 28.868, -0.024, 2.5, 0.037, 28.859, -0.049, 2.5
 144420542, 0.019, 28.877, -0.053, 2.5, 0.02, 28.868, -0.024, 2.5
 144620462, -0.025, 28.885, -0.081, 2.5, 0.019, 28.877, -0.053, 2.5
 144820382, 0.144, 28.87, -0.082, 2.5, -0.025, 28.885, -0.081, 2.5
 145020302, 1.071, 28.851, 0.013, 2.5, 0.144, 28.87, -0.082, 2.5
 145220222, 2.486, 28.822, 0.319, 2.5, 1.071, 28.851, 0.013, 2.5
 145420975, 4.632, 28.778, 0.742, 2.5, 2.486, 28.822, 0.319, 2.5
 145620895, 7.634, 28.519, 0.863, 2.5, 4.632, 28.778, 0.742, 2.5
 145820815, 11.345, 27.63, 0.354, 2.5, 7.634, 28.519, 0.863, 2.5
 146020735, 14.836, 26.214, -0.448, 2.5, 11.345, 27.63, 0.354, 2.5
 146220655, 17.486, 24.679, -0.9720001, 2.5, 14.836, 26.214, -0.448, 2.5
 146420575, 19.362, 23.184, -1.131, 2.5, 17.486, 24.679, -0.9720001, 2.5
 146620495, 20.809, 21.724, -1.123, 2.5, 19.362, 23.184, -1.131, 2.5
 146820415, 22.027, 20.274, -0.9720001, 2.5, 20.809, 21.724, -1.123, 2.5
 147020335, 23.097, 18.82, -0.784, 2.5, 22.027, 20.274, -0.9720001, 2.5
 147220255, 24.1, 17.294, -0.659, 2.5, 23.097, 18.82, -0.784, 2.5
 147420175, 25.01, 15.697, -0.561, 2.5, 24.1, 17.294, -0.659, 2.5
 147620928, 25.786, 14.139, -0.438, 2.5, 25.01, 15.697, -0.561, 2.5
 147820848, 26.473, 12.552, -0.326, 2.5, 25.786, 14.139, -0.438, 2.5
 148020768, 27.039, 11.011, -0.21, 2.5, 26.473, 12.552, -0.326, 2.5
 148220688, 27.49, 9.534, -0.07300001, 2.5, 27.039, 11.011, -0.21, 2.5
 148420608, 27.848, 8.077001, 0.038, 2.5, 27.49, 9.534, -0.07300001, 2.5
 148620528, 28.101, 6.712, 0.174, 2.5, 27.848, 8.077001, 0.038, 2.5
 148820448, 28.31, 5.318, 0.269, 2.5, 28.101, 6.712, 0.174, 2.5
 149020368, 28.434, 4.039, 0.4, 2.5, 28.31, 5.318, 0.269, 2.5
 149220288, 28.494, 2.817, 0.479, 2.5, 28.434, 4.039, 0.4, 2.5
 149420208, 28.49, 1.61, 0.508, 2.5, 28.494, 2.817, 0.479, 2.5
 149620961, 28.439, 0.512, 0.5700001, 2.5, 28.49, 1.61, 0.508, 2.5
 149820881, 28.366, -0.517, 0.632, 2.5, 28.439, 0.512, 0.5700001, 2.5
 150020801, 28.269, -1.473, 0.7, 2.5, 28.366, -0.517, 0.632, 2.5
 150220721, 28.142, -2.363, 0.708, 2.5, 28.269, -1.473, 0.7, 2.5
 150420641, 28, -3.15, 0.684, 2.5, 28.142, -2.363, 0.708, 2.5
 150620561, 27.86, -3.822, 0.743, 2.5, 28, -3.15, 0.684, 2.5
 150820481, 27.732, -4.412, 0.802, 2.5, 27.86, -3.822, 0.743, 2.5
 151020401, 27.611, -4.936, 0.804, 2.5, 27.732, -4.412, 0.802, 2.5
 151220321, 27.5, -5.374, 0.8280001, 2.5, 27.611, -4.936, 0.804, 2.5
 151420241, 27.417, -5.767, 0.836, 2.5, 27.5, -5.374, 0.8280001, 2.5
 151620161, 27.347, -6.116, 0.79, 2.5, 27.417, -5.767, 0.836, 2.5
 151820914, 27.279, -6.399, 0.7690001, 2.5, 27.347, -6.116, 0.79, 2.5
 152020834, 27.222, -6.624001, 0.728, 2.5, 27.279, -6.399, 0.7690001, 2.5
 152220754, 27.195, -6.8, 0.693, 2.5, 27.222, -6.624001, 0.728, 2.5
 152420674, 27.184, -6.906, 0.6900001, 2.5, 27.195, -6.8, 0.693, 2.5
 152620594, 27.182, -7.004, 0.642, 2.5, 27.184, -6.906, 0.6900001, 2.5
 152820514, 27.189, -7.034, 0.6350001, 2.5, 27.182, -7.004, 0.642, 2.5
 153020434, 27.22, -7.014, 0.612, 2.5, 27.189, -7.034, 0.6350001, 2.5
 153220354, 27.261, -6.962, 0.561, 2.5, 27.22, -7.014, 0.612, 2.5
 153420274, 27.312, -6.871, 0.577, 2.5, 27.261, -6.962, 0.561, 2.5
 153620194, 27.38, -6.765, 0.578, 2.5, 27.312, -6.871, 0.577, 2.5
 153820947, 27.448, -6.637, 0.489, 2.5, 27.38, -6.765, 0.578, 2.5
 154020867, 27.529, -6.462, 0.383, 2.5, 27.448, -6.637, 0.489, 2.5
 154220787, 27.616, -6.281, 0.419, 2.5, 27.529, -6.462, 0.383, 2.5
 154420707, 27.713, -6.05, 0.313, 2.5, 27.616, -6.281, 0.419, 2.5
 154620627, 27.792, -5.805, 0.226, 2.5, 27.713, -6.05, 0.313, 2.5
 154820547, 27.858, -5.564, 0.178, 2.5, 27.792, -5.805, 0.226, 2.5
 155020467, 27.914, -5.36, 0.138, 2.5, 27.858, -5.564, 0.178, 2.5
 155220387, 27.987, -5.141, 0.135, 2.5, 27.914, -5.36, 0.138, 2.5
 155420307, 28.057, -4.902, 0.114, 2.5, 27.987, -5.141, 0.135, 2.5
 155620227, 28.125, -4.646, 0.081, 2.5, 28.057, -4.902, 0.114, 2.5
 155820147, 28.183, -4.381, 0.021, 2.5, 28.125, -4.646, 0.081, 2.5
 156020900, 28.235, -4.098, -0.089, 2.5, 28.183, -4.381, 0.021, 2.5
 156220820, 28.282, -3.844, -0.103, 2.5, 28.235, -4.098, -0.089, 2.5
 156420740, 28.326, -3.588, -0.112, 2.5, 28.282, -3.844, -0.103, 2.5
 156620660, 28.373, -3.357, -0.08400001, 2.5, 28.326, -3.588, -0.112, 2.5
 156820580, 28.419, -3.133, -0.078, 2.5, 28.373, -3.357, -0.08400001, 2.5
 157020500, 28.462, -2.888, -0.06500001, 2.5, 28.419, -3.133, -0.078, 2.5
 157220420, 28.504, -2.644, -0.102, 2.5, 28.462, -2.888, -0.06500001, 2.5
 157420340, 28.525, -2.426, -0.118, 2.5, 28.504, -2.644, -0.102, 2.5
 157620260, 28.552, -2.213, -0.112, 2.5, 28.525, -2.426, -0.118, 2.5
 157820180, 28.578, -2.002, -0.178, 2.5, 28.552, -2.213, -0.112, 2.5
 158020933, 28.598, -1.788, -0.206, 2.5, 28.578, -2.002, -0.178, 2.5
 158220853, 28.606, -1.594, -0.242, 2.5, 28.598, -1.788, -0.206, 2.5
 158420773, 28.616, -1.432, -0.21, 2.5, 28.606, -1.594, -0.242, 2.5
 158620693, 28.626, -1.267, -0.172, 2.5, 28.616, -1.432, -0.21, 2.5
 158820613, 28.628, -1.107, -0.232, 2.5, 28.626, -1.267, -0.172, 2.5
 159020533, 28.64, -0.9670001, -0.21, 2.5, 28.628, -1.107, -0.232, 2.5
 159220453, 28.655, -0.84, -0.264, 2.5, 28.64, -0.9670001, -0.21, 2.5
 159420373, 28.653, -0.721, -0.35, 2.5, 28.655, -0.84, -0.264, 2.5
 159620293, 28.652, -0.619, -0.28, 2.5, 28.653, -0.721, -0.35, 2.5
 159820213, 28.658, -0.494, -0.242, 2.5, 28.652, -0.619, -0.28, 2.5
 160020966, 28.661, -0.392, -0.267, 2.5, 28.658, -0.494, -0.242, 2.5
 160220886, 28.656, -0.291, -0.299, 2.5, 28.661, -0.392, -0.267, 2.5
 160420806, 28.655, -0.211, -0.289, 2.5, 28.656, -0.291, -0.299, 2.5
 160620726, 28.65, -0.143, -0.283, 2.5, 28.655, -0.211, -0.289, 2.5
 160820646, 28.628, -0.07600001, -0.312, 2.5, 28.65, -0.143, -0.283, 2.5
 161020566, 28.62, -0.011, -0.387, 2.5, 28.628, -0.07600001, -0.312, 2.5
 161220486, 28.617, 0.063, -0.325, 2.5, 28.62, -0.011, -0.387, 2.5
 161420406, 28.619, 0.111, -0.232, 2.5, 28.617, 0.063, -0.325, 2.5
 161620326, 28.638, 0.154, -0.15, 2.5, 28.619, 0.111, -0.232, 2.5
 161820246, 28.652, 0.18, -0.168, 2.5, 28.638, 0.154, -0.15, 2.5
 162020166, 28.658, 0.212, -0.177, 2.5, 28.652, 0.18, -0.168, 2.5
 162220919, 28.666, 0.258, -0.201, 2.5, 28.658, 0.212, -0.177, 2.5
 162420839, 28.676, 0.314, -0.167, 2.5, 28.666, 0.258, -0.201, 2.5
 162620759, 28.679, 0.33, -0.198, 2.5, 28.676, 0.314, -0.167, 2.5
 162820679, 28.674, 0.328, -0.233, 2.5, 28.679, 0.33, -0.198, 2.5
 163020599, 28.687, 0.341, -0.242, 2.5, 28.674, 0.328, -0.233, 2.5
 163220519, 28.701, 0.356, -0.131, 2.5, 28.687, 0.341, -0.242, 2.5
 163420439, 28.711, 0.366, -0.131, 2.5, 28.701, 0.356, -0.131, 2.5
 163620359, 28.267, 0.364, -0.203, 2.5, 28.711, 0.366, -0.131, 2.5
 163820279, 26.664, 0.499, -0.226, 2.5, 28.267, 0.364, -0.203, 2.5
 164020199, 24.903, 1.206, -0.032, 2.5, 26.664, 0.499, -0.226, 2.5
 164220952, 23.257, 2.166, 0.408, 2.5, 24.903, 1.206, -0.032, 2.5
 164420872, 21.702, 3.468, 0.9710001, 2.5, 23.257, 2.166, 0.408, 2.5
