TimeUS,CAN,CAE,CAD,CAe,NAN,NAE,NAD,NAe,m10,m00,Gye
 8040949, -0.01083339, -0.003921081, -0.05424276, 1.495416, -0.01529053, -0.008586386, -0.07605818, 1.491887, -0.3201157, 0.9473785, 11.1826
 8220877, -0.01541763, -0.008620534, -0.07823353, 1.529077, 9.41327E-05, -0.0001234065, -0.001013341, 0.03347886, -0.3201112, 0.94738, 3601.934
 8420797, 0.0002229193, -0.0002085789, -0.003370386, 0.07439747, 0.0001911634, 0.0002294642, -0.0008661619, 0.03719873, -0.3201211, 0.9473766, 5.563381
 8620717, 6.204499E-05, 0.0006384594, -0.003089012, 0.07811734, 0.0001918166, 6.073991E-05, -0.0009713101, 0.03719873, -0.3201395, 0.9473704, 5.84155
 8820637, -3.944215E-05, 0.0004507747, -0.003304561, 0.07811734, 0.000253286, -0.0001112646, -0.0009816056, 0.03719873, -0.3201652, 0.9473618, 5.84155
 9020557, 7.318091E-05, 0.0003944707, -0.003252587, 0.07811734, -0.0002426329, 0.0002112303, -0.001037373, 0.03719873, -0.3202031, 0.9473489, 5.84155
 9220477, -0.0003416819, 0.000679074, -0.003257039, 0.07810804, -0.0001124374, 0.0005058524, -0.001390187, 0.03718013, -0.320234, 0.9473385, 5.840384
 9420397, -0.000292153, 0.001073542, -0.003784763, 0.07807828, -0.0002733419, 0.000208635, -0.001004961, 0.03718013, -0.3202462, 0.9473344, 5.838631
 9620317, -0.0006220869, 0.0006688899, -0.003370281, 0.07807828, 7.043013E-05, 0.0003686706, -0.001078746, 0.03718013, -0.320246, 0.9473345, 5.838631
 9820237, -4.209649E-05, 0.0007192793, -0.003612655, 0.07807828, -0.0003315001, 0.0002051226, -0.001099242, 0.03718013, -0.3202395, 0.9473367, 5.838631
 10020157, -0.0004077002, 0.0006589745, -0.003259232, 0.07807828, 1.718848E-06, -2.521446E-05, -0.001062635, 0.03718013, -0.3202352, 0.9473382, 5.838631
 10220910, -0.0002748821, 0.0001708553, -0.003398313, 0.0782332, 0.0001351466, 2.713715E-06, -0.0008829811, 0.03733505, -0.3202523, 0.9473324, 5.850215
 10420830, -9.195467E-05, 0.0004613046, -0.003118024, 0.0782332, -8.335261E-07, 0.0001242394, -0.00120582, 0.03718013, -0.3202608, 0.9473295, 5.850215
 10620750, -3.578064E-05, 0.0005852109, -0.003629167, 0.07807828, -2.729441E-05, 0.0001003143, -0.0009977163, 0.03718013, -0.3202598, 0.9473298, 5.838631
 10820670, -0.0003002178, 0.0005648995, -0.003302292, 0.07807828, 0.0004141476, 0.0002549682, -0.001217355, 0.03718013, -0.3202408, 0.9473362, 5.838631
 11020590, 0.0005894823, 0.0006272485, -0.00347051, 0.07807828, -6.823145E-05, -0.0001756043, -0.00112193, 0.03718013, -0.3202166, 0.9473444, 5.838631
 11220510, -0.0003563079, 8.31965E-05, -0.003533409, 0.07808758, 0.0001048953, 0.0002570527, -0.001192093, 0.03719873, -0.3202035, 0.9473488, 5.839798
 11420430, -9.849323E-05, 0.0005774089, -0.003564534, 0.07811734, 4.613742E-06, -4.071999E-06, -0.0009230735, 0.03719873, -0.3202013, 0.9473496, 5.84155
 11620350, -0.000128379, 0.000167555, -0.003367821, 0.07811734, -0.0003606882, 5.770528E-05, -0.001546908, 0.03719873, -0.3202021, 0.9473493, 5.84155
 11820270, -0.0004828383, 0.0002016678, -0.003952228, 0.07811734, -0.0001295785, 0.0003700661, -0.001161206, 0.03719873, -0.3202079, 0.9473474, 5.84155
 12020190, -0.0003173315, 0.0008860752, -0.003569481, 0.07811734, 0.0002659035, -0.0002101757, -0.0009317484, 0.03719873, -0.3202232, 0.9473422, 5.84155
 12220943, 0.0002083919, 0.0002003941, -0.003307045, 0.07826295, 0.000155185, 6.133191E-05, -0.0009889504, 0.03733505, -0.3202263, 0.9473411, 5.851971
 12420863, 4.09513E-05, 0.0006513346, -0.003331439, 0.0782332, -3.87101E-05, 0.0003151562, -0.001046716, 0.03718013, -0.3202156, 0.9473447, 5.850215
 12620783, -0.0001316852, 0.0005808903, -0.003327002, 0.07807828, -2.54511E-05, 7.222876E-05, -0.001168832, 0.03718013, -0.3202007, 0.9473497, 5.838631
 12820703, -0.0001137363, 0.0002384707, -0.003706279, 0.07807828, 8.942356E-05, 0.0001717182, -0.001209443, 0.03718013, -0.3201753, 0.9473583, 5.838631
 13020623, -9.967729E-05, 0.0003608268, -0.003408069, 0.07807828, -0.000322181, 2.538856E-05, -0.001245763, 0.03718013, -0.3201615, 0.9473631, 5.838631
 13220543, -0.0006073989, 0.0004100588, -0.003530043, 0.07808758, -0.0002156948, 0.0001148979, -0.001115734, 0.03719873, -0.3201579, 0.9473643, 5.839798
 13420463, -0.0004123671, 0.0004506539, -0.003414246, 0.07811734, -0.000353237, 0.0001640579, -0.0008231684, 0.03719873, -0.3201765, 0.947358, 5.84155
 13620383, -0.000586203, 0.0007209759, -0.003061805, 0.07811734, -0.0001184155, 0.0002603415, -0.0008620627, 0.03719873, -0.3201922, 0.9473526, 5.84155
 13820303, -0.0002334015, 0.0006414068, -0.003365009, 0.07811734, -0.000233163, 8.597221E-05, -0.001035371, 0.03719873, -0.3201909, 0.9473531, 5.84155
 14020223, -0.0006892707, 0.0001839618, -0.003437555, 0.07811734, 1.462069E-06, 0.0002213462, -0.001047955, 0.03719873, -0.3201864, 0.9473546, 5.84155
 14220976, -0.0003340013, 0.0008637551, -0.003208924, 0.07826295, -0.0003278471, -0.0001075497, -0.0008582496, 0.03718013, -0.320195, 0.9473516, 5.851971
 14420896, -0.000672347, 0.000379954, -0.0030892, 0.0782332, 5.717516E-05, 0.0003338819, -0.001121723, 0.03733505, -0.3202212, 0.9473429, 5.850215
 14620816, -6.796289E-05, 0.001088822, -0.003512448, 0.0782332, -0.000193707, 0.0005463581, -0.001250148, 0.03718013, -0.3202637, 0.9473285, 5.850215
 14820736, -0.0001793257, 0.0008525135, -0.003708481, 0.07807828, -0.0001446461, 0.000187003, -0.000893426, 0.03718013, -0.3202786, 0.9473234, 5.838631
 15020656, -0.0004796063, 0.0004898596, -0.003423217, 0.07807828, -0.0002067986, 8.653163E-05, -0.001305058, 0.03718013, -0.3202701, 0.9473263, 5.838631
 15220576, -0.0004083085, 0.0006075814, -0.003915393, 0.07807828, -0.0001373697, -3.301579E-05, -0.001247193, 0.03718013, -0.320269, 0.9473267, 5.838631
 15420496, -0.0002546615, 0.0005294732, -0.003752895, 0.07807828, -0.000268059, 0.0001273236, -0.001236516, 0.03718013, -0.3202755, 0.9473245, 5.838631
 15620416, -0.0003239441, 0.0004327761, -0.003547832, 0.07807828, -0.0005332723, 0.0004229413, -0.0009659716, 0.03718013, -0.3202686, 0.9473267, 5.838631
 15820336, -0.0006305591, 0.0008896456, -0.003271225, 0.07807828, 0.0001412206, 0.000160889, -0.001081701, 0.03718013, -0.3202624, 0.9473288, 5.838631
 16020256, 8.354165E-06, 0.0006282555, -0.003636612, 0.07807828, 0.0001177146, 0.0001187694, -0.001063494, 0.03718013, -0.3202575, 0.9473306, 5.838631
 16220176, -0.0001510403, 0.0005407372, -0.003378451, 0.07808758, -0.000180377, 3.630933E-05, -0.0009961911, 0.03719873, -0.3202491, 0.9473334, 5.839798
 16420929, -2.25463E-05, 0.0005398608, -0.003401214, 0.07827234, 3.028406E-05, 0.0002978384, -0.0006781265, 0.03735373, -0.3202382, 0.947337, 5.853141
 16620849, -0.0002658791, 0.0006965769, -0.002881835, 0.07827234, -0.0002746227, 2.618034E-05, -0.001183322, 0.03719873, -0.3202187, 0.9473436, 5.853141
 16820769, -0.0005626527, 0.0004445223, -0.003530225, 0.07811734, -0.000394682, 0.0004227797, -0.001103151, 0.03719873, -0.3202011, 0.9473495, 5.84155
 17020689, -0.0009428627, 0.001046048, -0.003449166, 0.07811734, -8.33766E-05, -8.560946E-06, -0.001199338, 0.03719873, -0.3202085, 0.9473471, 5.84155
 17220609, -0.0005801116, 0.0005570503, -0.003430472, 0.07810804, -0.0001022353, 0.0005830342, -0.00123337, 0.03718013, -0.3202173, 0.9473441, 5.840384
 17420529, -0.0004461193, 0.001031271, -0.003617308, 0.07807828, -0.0002991076, 0.0002828715, -0.001250148, 0.03718013, -0.3202438, 0.9473351, 5.838631
 17620449, -0.0005846081, 0.0007998568, -0.003725506, 0.07807828, -0.0002277581, 0.0002752992, -0.001314019, 0.03718013, -0.3202509, 0.9473328, 5.838631
 17820369, -0.0004943779, 0.0008885937, -0.003604067, 0.07807828, -0.0002312219, 0.0002012503, -0.0008072484, 0.03718013, -0.3202438, 0.9473352, 5.838631
 18020289, -0.0006795362, 0.0006205125, -0.003034341, 0.07807828, 4.950682E-05, 0.0002199584, -0.0009924732, 0.03718013, -0.3202331, 0.9473388, 5.838631
 18220209, -0.0001366972, 0.0007779432, -0.003141663, 0.07808758, -0.0002145842, 0.000258937, -0.001059871, 0.03719873, -0.3202333, 0.9473386, 5.839798
 18420962, -0.000804662, 0.0006851834, -0.003612467, 0.07827234, 0.0002023027, 0.0004470283, -0.0009894291, 0.03735373, -0.3202462, 0.9473343, 5.853141
 18620882, -6.327078E-05, 0.001202649, -0.003522109, 0.07827234, -0.0004345865, 0.0002577727, -0.001190377, 0.03719873, -0.3202646, 0.9473281, 5.853141
 18820802, -0.001001468, 0.0006449014, -0.003648852, 0.07811734, 1.847416E-05, 0.0001649482, -0.00101316, 0.03719873, -0.3202722, 0.9473256, 5.84155
 19020722, -0.0002900207, 0.0005586238, -0.003452645, 0.07811734, -0.0005453397, 0.0003486777, -0.001018212, 0.03719873, -0.3202677, 0.947327, 5.84155
 19220642, -0.001169309, 0.0008113442, -0.003603457, 0.07810804, -7.574882E-05, 0.0002030892, -0.001199052, 0.03718013, -0.3202646, 0.9473281, 5.840384
 19420562, -0.000674472, 0.0005717904, -0.003499567, 0.07807828, -0.0004386254, 0.0002810566, -0.000791233, 0.03718013, -0.3202718, 0.9473257, 5.838631
 19620482, -0.0008271704, 0.0008327663, -0.003261834, 0.07807828, -0.0001510867, 0.0001667212, -0.0009194509, 0.03718013, -0.2920759, 0.9563951, 5.838631
 19820402, -0.0008761457, 0.0009515384, -0.003317583, 0.07807828, -0.0002918878, 0.0002382026, -0.001167974, 0.03718013, -0.2458722, 0.9693022, 5.838631
 20020322, -0.0006340547, 0.0009531279, -0.003421768, 0.07807828, -9.204341E-05, 0.0005538044, -0.0007529107, 0.03718013, -0.2108375, 0.9775211, 5.838631
 20220242, -0.0003107277, 0.001325424, -0.003182663, 0.07807828, 0.0001673602, 0.0004148215, -0.001198575, 0.03718013, -0.1951298, 0.9807774, 5.838631
 20420162, -0.000236359, 0.001343005, -0.004092763, 0.07807828, -0.0003853194, 0.000149149, -0.0008837978, 0.03718013, -0.1920997, 0.9813754, 5.838631
 20620915, 0.01295285, -0.001648332, -0.00328843, 0.0782332, 0.02514755, -0.004236735, -0.0008717811, 0.03733505, -0.1891597, 0.9819463, 5.850215
 20820835, 0.2885409, -0.05361797, -0.002193999, 0.0782332, 0.2092009, -0.03943552, 0.0001460445, 0.03718013, -0.1867453, 0.9824075, 5.850215
 21020755, 0.9494367, -0.1770411, 0.008594278, 0.07807828, 0.4409934, -0.08712552, 0.005366943, 0.03718013, -0.185637, 0.9825982, 5.838631
 21220675, 1.678489, -0.3217741, 0.01557367, 0.07808758, 0.6560084, -0.1243138, 0.003446154, 0.03719873, -0.1852722, 0.9824995, 5.839798
 21420595, 2.34421, -0.4425548, -0.007402148, 0.07811734, 0.8620671, -0.1522441, -0.01299472, 0.03719873, -0.1848681, 0.9819795, 5.84155
 21620515, 2.931826, -0.5373455, -0.07040591, 0.07811734, 0.9929935, -0.1826636, -0.03803991, 0.03719873, -0.1844014, 0.9807422, 5.84155
 21820435, 3.134166, -0.5817968, -0.1492325, 0.07811734, 0.9400655, -0.1802375, -0.06022275, 0.03719873, -0.1837402, 0.9786474, 5.84155
 22020355, 2.865007, -0.5412785, -0.2147912, 0.07811734, 0.8130135, -0.1478945, -0.07651948, 0.03719873, -0.1830362, 0.9757613, 5.84155
 22220275, 2.443867, -0.4502941, -0.2823292, 0.07810804, 0.6725923, -0.1296572, -0.1267496, 0.03718013, -0.1823613, 0.9723336, 5.840384
 22420195, 2.001482, -0.3757034, -0.4424785, 0.07807828, 0.5354561, -0.09555613, -0.1121755, 0.03718013, -0.1818078, 0.9687183, 5.838631
 22620948, 1.611053, -0.2990584, -0.2730795, 0.0782332, 0.4408464, -0.08889133, -0.05054789, 0.03733505, -0.1814509, 0.9651219, 5.850215
 22820868, 1.726259, -0.3248182, -1.117865, 0.0782332, 0.5607244, -0.1012435, -0.9747888, 0.03718013, -0.1795392, 0.9559076, 5.850215
 23020788, 1.498163, -0.2884133, -3.140358, 0.07807828, 0.3787958, -0.08206002, -0.8094745, 0.03718013, -0.1770644, 0.9381759, 5.838631
 23220708, 1.173612, -0.251989, -1.891053, 0.07808758, 0.3577468, -0.06553696, -0.2851243, 0.03719873, -0.1761944, 0.9314837, 5.839798
 23420628, 1.19941, -0.2348071, -0.6475261, 0.07811734, 0.3855968, -0.08265863, -0.1233292, 0.03719873, -0.1787935, 0.9314139, 5.84155
 23620548, 1.115233, -0.2413171, -0.504896, 0.07811734, 0.2656259, -0.05346521, -0.2408327, 0.03719873, -0.1788459, 0.9275424, 5.84155
 23820468, 0.6618108, -0.1474706, -0.9541764, 0.07811734, 0.1163263, -0.04043214, -0.3383562, 0.03719873, -0.1842876, 0.9173437, 5.84155
 24020388, 0.2699878, -0.108064, -1.095808, 0.07811734, 0.03553242, -0.03015821, -0.3207794, 0.03719873, -0.1954385, 0.9074062, 5.84155
 24220308, 0.01841631, -0.2610953, -0.9182684, 0.07810804, -0.06048922, -0.1395315, -0.2426461, 0.03718013, -0.2072222, 0.8999188, 5.840384
 24420228, -0.3143937, -0.4016514, -0.740659, 0.07807828, -0.1537119, -0.0893408, -0.1806616, 0.03718013, -0.210288, 0.894702, 5.838631
 24620148, -0.50189, -0.2394858, -0.384784, 0.07807828, -0.1728726, -0.04730614, -0.04455576, 0.03718013, -0.2202032, 0.8929847, 5.838631
 24820901, -0.6236612, -0.147935, -0.156785, 0.0782332, -0.2422979, -0.05978902, -0.0394217, 0.03733505, -0.2336703, 0.8904834, 5.850215
 25020821, -0.7628077, -0.2240547, -0.04452622, 0.0782332, -0.2272726, -0.07455151, 0.04204364, 0.03718013, -0.2399827, 0.8916962, 5.850215
 25220741, -0.7814786, -0.2081925, 0.07906923, 0.07807828, -0.2607934, -0.05783536, 0.004941107, 0.03718013, -0.2479044, 0.8921265, 5.838631
 25420661, -0.8550045, -0.1706685, 0.02365201, 0.07807828, -0.268271, -0.05031612, 0.01480959, 0.03718013, -0.2592207, 0.892032, 5.838631
 25620581, -0.8678783, -0.1607009, 0.03523616, 0.07807828, -0.2614326, -0.03935497, 0.01018469, 0.03718013, -0.2696056, 0.8921329, 5.838631
 25820501, -0.8693923, -0.1089611, 0.02385983, 0.07807828, -0.2788733, -0.02419669, -0.008374201, 0.03718013, -0.2794894, 0.8916858, 5.838631
 26020421, -0.8522133, -0.06819555, 0.05139798, 0.07807828, -0.2557072, -0.01060401, 0.04136776, 0.03718013, -0.2903078, 0.8920857, 5.838631
 26220341, -0.806225, -0.04900978, 0.1428493, 0.07808758, -0.2503791, -0.01436654, 0.04997247, 0.03719873, -0.3005023, 0.8928053, 5.839798
 26420261, -0.7935299, -0.03813944, 0.1725342, 0.07811734, -0.2521548, 0.008198372, 0.07703998, 0.03719873, -0.3084779, 0.8940212, 5.84155
 26620181, -0.9744483, 0.06995341, 0.298291, 0.07811734, -0.4007102, 0.05119345, 0.1329808, 0.03719873, -0.3176294, 0.8947632, 5.84155
 26820934, -1.456332, 0.2317804, 0.5367854, 0.07827234, -0.523473, 0.09859071, 0.1986398, 0.03735373, -0.3265392, 0.897112, 5.853141
 27020854, -1.6221, 0.3205436, 0.6184499, 0.07827234, -0.4563417, 0.1003264, 0.1816251, 0.03719873, -0.3343155, 0.9011896, 5.853141
 27220774, -1.369552, 0.2864893, 0.4941756, 0.07810804, -0.3726241, 0.07239636, 0.1274254, 0.03718013, -0.3424058, 0.9044423, 5.840384
 27420694, -1.076566, 0.2126972, 0.4568779, 0.07807828, -0.2887758, 0.05299023, 0.1516777, 0.03718013, -0.3513685, 0.9073107, 5.838631
 27620614, -0.8866384, 0.164126, 0.426104, 0.07807828, -0.2543282, 0.04249861, 0.1152183, 0.03718013, -0.3597865, 0.9085635, 5.838631
 27820534, -0.7851274, 0.1466735, 0.3579668, 0.07807828, -0.2287555, 0.0486152, 0.09335034, 0.03718013, -0.3675665, 0.9090306, 5.838631
 28020454, -0.7193851, 0.1475051, 0.2231007, 0.07807828, -0.2143913, 0.04559286, 0.06245679, 0.03718013, -0.3738753, 0.9086991, 5.838631
 28220374, -0.6675113, 0.1548211, 0.1650551, 0.07808758, -0.19411, 0.0503468, 0.03833896, 0.03719873, -0.3792721, 0.9082441, 5.839798
 28420294, -0.5344691, 0.1393616, 0.1117518, 0.07811734, -0.1210714, 0.02674116, 0.02567313, 0.03719873, -0.3844418, 0.9076756, 5.84155
 28620214, -0.4427732, 0.1341659, 0.09135334, 0.07811734, -0.1625847, 0.05726462, 0.04590744, 0.03719873, -0.3894864, 0.9067573, 5.84155
 28820967, -0.5243337, 0.1877297, 0.1555755, 0.07827234, -0.1566799, 0.05711422, 0.05587, 0.03735373, -0.3940496, 0.9061288, 5.853141
 29020887, -0.4795434, 0.1882253, 0.1810073, 0.07827234, -0.1417553, 0.05901189, 0.05512464, 0.03719873, -0.3982167, 0.9058176, 5.853141
 29220807, -0.4437127, 0.1918313, 0.1533087, 0.07810804, -0.1310127, 0.05969586, 0.04599352, 0.03718013, -0.4008318, 0.9058451, 5.840384
 29420727, -0.4094462, 0.194827, 0.1298274, 0.07807828, -0.1199838, 0.05845598, 0.03228174, 0.03718013, -0.4028673, 0.905934, 5.838631
 29620647, -0.3689223, 0.2052911, 0.1311156, 0.07807828, -0.1082054, 0.06086665, 0.05667869, 0.03718013, -0.4038681, 0.9066118, 5.838631
 29820567, -0.3347113, 0.195209, 0.1971068, 0.07807828, -0.1016137, 0.05915292, 0.05769109, 0.03718013, -0.4062109, 0.9067054, 5.838631
 30020487, -0.2022836, 0.09174917, 0.6849202, 0.07807828, 0.04126003, -0.08311042, 0.8021056, 0.03718013, -0.4063303, 0.9127466, 5.838631
 30220407, 0.1914877, -0.4222755, 4.831416, 0.07807828, -0.02849595, -0.1911508, 2.478545, 0.03718013, -0.3978605, 0.8959492, 5.838631
 30420327, -0.4407204, -0.6415138, 7.587718, 0.07807828, -0.212041, -0.1774101, 1.913704, 0.03718013, -0.4323567, 0.8243902, 5.838631
 30620247, 0.2368392, -0.136399, 3.896381, 0.07807828, 0.6114004, 0.2052478, 0.04278083, 0.03718013, -0.4451022, 0.8228389, 5.838631
 30820167, 2.476078, 1.048337, -1.591905, 0.07807828, 0.8833598, 0.471993, -1.160359, 0.03718013, -0.3997211, 0.8867781, 5.838631
 31020920, 2.434167, 1.389746, -3.369457, 0.0782332, 0.5469559, 0.3258846, -0.7094386, 0.03733505, -0.350297, 0.9243187, 5.850215
 31220840, 1.484495, 0.7415749, -1.161065, 0.0782332, 0.3553461, 0.09340756, 0.1600274, 0.03718013, -0.329987, 0.9324319, 5.850215
 31420760, 1.016449, 0.1236827, 1.036072, 0.07807828, 0.2639613, -0.02168802, 0.5028847, 0.03718013, -0.3235089, 0.9301887, 5.838631
 31620680, 0.8351989, -0.0145286, 1.41047, 0.07807828, 0.2624932, 0.02376642, 0.3045016, 0.03718013, -0.3146072, 0.9316974, 5.838631
 31820600, 0.8627272, 0.219515, 0.4056686, 0.07807828, 0.3041837, 0.1558004, -0.2109982, 0.03718013, -0.2986036, 0.9415609, 5.838631
 32020520, 0.9348876, 0.6791414, -1.321574, 0.07807828, 0.26817, 0.2980102, -0.6898029, 0.03718013, -0.276366, 0.9561641, 5.838631
 32220440, 0.7304522, 0.9721084, -2.331275, 0.07807828, 0.1725542, 0.3147701, -0.7532039, 0.03718013, -0.253828, 0.966626, 5.838631
 32420360, 0.4170573, 0.9339247, -2.165826, 0.07807828, 0.07800489, 0.238602, -0.5095421, 0.03718013, -0.2356759, 0.9717877, 5.838631
 32620280, 0.1866599, 0.6478221, -1.255049, 0.07807828, 0.04023173, 0.1513214, -0.2271977, 0.03718013, -0.2222117, 0.9745815, 5.838631
 32820200, 0.08082654, 0.4383934, -0.6768915, 0.07807828, -0.0007038511, 0.1179657, -0.2088695, 0.03718013, -0.2101726, 0.976779, 5.838631
 33020953, -0.04391507, 0.3812529, -0.6740105, 0.0782332, -0.02950715, 0.1280432, -0.2446992, 0.03733505, -0.2000684, 0.9781419, 5.850215
 33220873, -0.1259723, 0.414964, -0.7938088, 0.0782332, -0.05850305, 0.1379079, -0.2537445, 0.03718013, -0.1894758, 0.9792167, 5.850215
 33420793, -0.1883157, 0.436785, -0.7303278, 0.07807828, -0.05144962, 0.123453, -0.180228, 0.03718013, -0.1807773, 0.9799384, 5.838631
 33620713, -0.1776823, 0.403301, -0.5276266, 0.07807828, -0.05931108, 0.1289232, -0.1416756, 0.03718013, -0.1709709, 0.9810246, 5.838631
 33820633, -0.1973778, 0.3834391, -0.4677618, 0.07807828, -0.07338017, 0.1127383, -0.1609199, 0.03718013, -0.1633887, 0.9816136, 5.838631
 34020553, -0.2105864, 0.3515214, -0.4827383, 0.07807828, -0.05519843, 0.1071387, -0.100934, 0.03718013, -0.1541863, 0.9824866, 5.838631
 34220473, -0.1836567, 0.2601841, -0.3054296, 0.07807828, -0.06561173, 0.05746747, -0.09855065, 0.03718013, -0.146969, 0.9832604, 5.838631
 34420393, -0.2073089, 0.1914867, -0.3000145, 0.07807828, -0.07796399, 0.06981108, -0.09689602, 0.03718013, -0.1368396, 0.9843826, 5.838631
 34620313, -0.2379443, 0.2152633, -0.3626976, 0.07807828, -0.08870714, 0.05836994, -0.1404093, 0.03718013, -0.1301792, 0.9845446, 5.838631
 34820233, -0.284667, 0.1947817, -0.4455433, 0.07807828, -0.07589056, 0.06841134, -0.1581585, 0.03718013, -0.1203766, 0.9851183, 5.838631
 35020153, -0.252271, 0.224254, -0.3888295, 0.07807828, -0.07501341, 0.06477834, -0.09275234, 0.03718013, -0.1138873, 0.9854622, 5.838631
 35220906, -0.272305, 0.1512325, -0.3064774, 0.0782332, -0.09700633, 0.03878058, -0.05872475, 0.03733505, -0.1074604, 0.985843, 5.850215
 35420826, -0.3381053, 0.1138343, -0.2519211, 0.0782332, -0.1133737, 0.03506061, -0.08602076, 0.03718013, -0.09873627, 0.9864332, 5.850215
 35620746, -0.3310294, 0.1251429, -0.1815914, 0.07807828, -0.09607868, 0.04149404, -0.007437496, 0.03718013, -0.0907556, 0.9874079, 5.838631
 35820666, -0.3395627, 0.1041984, -0.1576963, 0.07807828, -0.106178, 0.02597105, -0.04143345, 0.03718013, -0.08559579, 0.9877015, 5.838631
 36020586, -0.3278743, 0.0459101, -0.05313286, 0.07807828, -0.1092844, 0.01875639, 0.003120509, 0.03718013, -0.07938643, 0.9886762, 5.838631
 36220506, -0.3877592, 0.03999268, -0.006571258, 0.07807828, -0.1381836, 0.001153094, 0.01097497, 0.03718013, -0.0750306, 0.9895301, 5.838631
 36420426, -0.4574093, -0.002368406, 0.2689316, 0.07807828, -0.1525629, -0.002905938, 0.1811263, 0.03718013, -0.07011313, 0.9915365, 5.838631
 36620346, -0.4830631, 0.01701511, 0.6534993, 0.07807828, -0.1461344, 0.003964514, 0.2491114, 0.03718013, -0.06431706, 0.994006, 5.838631
 36820266, -0.489551, 0.008089217, 0.6779098, 0.07807828, -0.1568256, 0.002795123, 0.1896971, 0.03718013, -0.06060559, 0.9957035, 5.838631
 37020186, -0.5005179, 0.008342542, 0.5744456, 0.07807828, -0.1607458, 0.01015213, 0.1487296, 0.03718013, -0.05672905, 0.9970017, 5.838631
 37220939, -0.5023875, -0.0004000086, 0.4555906, 0.0782332, -0.1458995, -0.01147542, 0.1438655, 0.03733505, -0.05454961, 0.9978434, 5.850215
 37420859, -0.4433153, -0.05093161, 0.4728667, 0.0782332, -0.1180096, -0.02246149, 0.1458794, 0.03718013, -0.05147776, 0.9984771, 5.850215
 37620779, -0.3818722, -0.04958947, 0.4888701, 0.07807828, -0.1181014, 0.0005496076, 0.1699104, 0.03718013, -0.04612416, 0.9989317, 5.838631
 37820699, -0.3534117, 0.0001018601, 0.5184596, 0.07807828, -0.1067992, 0.009074012, 0.1482018, 0.03718013, -0.04204496, 0.9990326, 5.838631
 38020619, -0.3096183, 0.003962978, 0.415498, 0.07807828, -0.08684545, -0.01316107, 0.1099375, 0.03718013, -0.03964382, 0.998884, 5.838631
 38220539, -0.2684079, -0.04333272, 0.3840916, 0.07807828, -0.08525283, -0.01396108, 0.151357, 0.03718013, -0.03600298, 0.9985752, 5.838631
 38420459, -0.2380332, -0.03837482, 0.4147772, 0.07807828, -0.05681413, -0.01071179, 0.07742759, 0.03718013, -0.03086418, 0.9982781, 5.838631
 38620379, -0.1876477, -0.03453395, 0.1613102, 0.07807828, -0.05387475, -0.02293016, 0.009728449, 0.03718013, -0.02925583, 0.9981019, 5.838631
 38820299, -0.1676057, -0.07779014, 0.04793023, 0.07807828, -0.05011448, -0.02509001, 0.06566405, 0.03718013, -0.02582373, 0.9979073, 5.838631
 39020219, -0.1412747, -0.0856881, 0.2622348, 0.07807828, -0.03921562, -0.03365126, 0.07699337, 0.03718013, -0.02402946, 0.9974187, 5.838631
 39220972, -0.1124501, -0.09730451, 0.185034, 0.0782332, -0.03076815, -0.02153703, 0.01974403, 0.03718013, -0.02054336, 0.9972402, 5.850215
 39420892, -0.09286905, -0.07457873, 0.03336396, 0.0782332, -0.02980055, -0.02732309, 0.007303931, 0.03733505, -0.01924029, 0.9971249, 5.850215
 39620812, -0.08378167, -0.07197332, 0.09920041, 0.0782332, -0.01658334, -0.009532966, 0.02994846, 0.03718013, -0.01599476, 0.996886, 5.850215
 39820732, -0.06427957, -0.05308172, 0.1206132, 0.07807828, -0.01160862, -0.02393463, 0.02446483, 0.03718013, -0.01513226, 0.9965952, 5.838631
 40020652, -0.04392666, -0.08043357, 0.03585966, 0.07807828, -0.03076953, -0.02127382, 0.01688215, 0.03718013, -0.01374517, 0.9965422, 5.838631
 40220572, -0.06391241, -0.09292056, 0.007697953, 0.07807828, -0.01319634, -0.03172732, -0.0217775, 0.03718013, -0.01264667, 0.9966061, 5.838631
 40420492, -0.0430071, -0.1040679, -0.07446288, 0.07807828, -0.01422492, -0.04262884, -0.02113107, 0.03718013, -0.0122059, 0.9967059, 5.838631
 40620412, -0.02993287, -0.1261745, -0.0421413, 0.07807828, -0.01264057, -0.04216924, -0.011295, 0.03718013, -0.01231001, 0.9967417, 5.838631
 40820332, -0.02185581, -0.1079139, -0.02867096, 0.07807828, -0.008446978, -0.02650223, 0.01078956, 0.03718013, -0.0107768, 0.9967143, 5.838631
 41020252, -0.02436039, -0.07181741, 0.06297244, 0.07807828, -0.004185802, -0.01104325, 0.02594968, 0.03718013, -0.01034069, 0.9965606, 5.838631
 41220172, -0.02103053, -0.05145619, 0.1159663, 0.07807828, -0.004207984, -0.01820672, 0.04829181, 0.03718013, -0.0105028, 0.9962891, 5.838631
 41420925, -0.01889659, -0.06606034, 0.02519641, 0.0782332, -0.006603351, -0.01188151, -0.02400964, 0.03733505, -0.009293372, 0.9964344, 5.850215
 41620845, -0.01894774, -0.03918224, -0.07952265, 0.0782332, -0.01150461, -0.01166652, -0.03877785, 0.03718013, -0.009059024, 0.9966154, 5.850215
 41820765, -0.04071129, -0.0526842, -0.1638364, 0.07807828, -0.00682283, -0.03010687, -0.0442081, 0.03718013, -0.009570905, 0.9969032, 5.838631
 42020685, -0.03532002, -0.08415953, -0.08707522, 0.07807828, -0.01077421, -0.0157872, -0.01519682, 0.03718013, -0.008935311, 0.9969459, 5.838631
 42220605, -0.04285978, -0.04434958, -0.002022306, 0.07807828, -0.0130286, -0.008255824, 0.0457877, 0.03718013, -0.008764703, 0.9967482, 5.838631
 42420525, -0.0209143, -0.02843628, 0.1489239, 0.07807828, -0.003231562, -0.007862329, 0.01247603, 0.03718013, -0.008766482, 0.9965389, 5.838631
 42620445, -0.0290431, -0.03828651, -0.01439245, 0.07807828, -0.01242088, -0.02464128, -0.02271506, 0.03718013, -0.008907152, 0.9966065, 5.838631
 42820365, -0.02921872, -0.05175922, -0.08137331, 0.07807828, -0.0004824734, -0.006176522, -0.0185527, 0.03718013, -0.008215923, 0.9967311, 5.838631
 43020285, -0.0001191198, -0.007103045, -0.08907573, 0.07807828, -0.005497622, 0.003758323, -0.05459537, 0.03718013, -0.007065443, 0.9969496, 5.838631
 43220205, -0.01423131, -0.009333182, -0.12179, 0.07807828, -0.00962202, -0.01226585, 0.01101463, 0.03718013, -0.00762775, 0.9969941, 5.838631
 43420958, -0.02991152, -0.03801411, 0.006886767, 0.0782332, -0.004749865, -0.01314533, -0.05565911, 0.03733505, -0.006794896, 0.9970662, 5.850215
 43620878, -0.02184317, -0.02145685, -0.0735194, 0.0782332, -0.01236968, 0.003151656, 0.01115953, 0.03718013, -0.005587305, 0.9969962, 5.850215
 43820798, -0.03309077, 0.01053654, 0.01543836, 0.07807828, 0.002278328, -0.007621973, -0.02429057, 0.03718013, -0.00555122, 0.9970185, 5.838631
 44020718, -0.004020371, -0.008184955, -0.07997056, 0.07807828, 0.005534795, -0.01783892, -0.01391503, 0.03718013, -0.005845527, 0.9970943, 5.838631
 44220638, 0.001942074, -0.03944163, -0.06605975, 0.07807828, 1.083775E-05, 0.007394489, -0.02587075, 0.03718013, -0.002982107, 0.9972492, 5.838631
 44420558, -0.005611209, 0.02862486, -0.06087687, 0.07807828, -0.002834318, 0.009956954, -0.009886601, 0.03718013, -0.00135579, 0.9972991, 5.838631
 44620478, -0.01342912, 0.02727757, -0.02607891, 0.07807828, -0.006701124, -0.009103015, 0.01175153, 0.03718013, -0.001428498, 0.9972821, 5.838631
 44820398, -0.006689443, -0.02423059, 0.03707905, 0.07807828, -0.0003573001, -0.0005934818, -0.005650071, 0.03718013, -0.0006380168, 0.9972555, 5.838631
 45020318, -0.01047445, -0.0004765767, -0.05001464, 0.07807828, -0.01147624, -0.005370769, -0.02005375, 0.03718013, 0.0005076114, 0.9973623, 5.838631
 45220238, -0.02655437, -0.01758041, -0.05545124, 0.07807828, -0.006989615, -0.004978276, -0.04708876, 0.03718013, 6.976195E-06, 0.9974692, 5.838631
 45420158, -0.02413738, -0.01507676, -0.1547603, 0.07807828, -0.01037864, -0.0003930693, -0.03526078, 0.03718013, 0.0006652132, 0.9976592, 5.838631
 45620911, -0.01684089, 0.006012462, -0.08911785, 0.0782332, 0.006993921, -0.007547535, -0.0228077, 0.03733505, 0.001319471, 0.997732, 5.850215
 45820831, -0.01032156, -0.0181253, -0.09877941, 0.0782332, -0.00863072, -0.005262834, -0.03075942, 0.03718013, 0.001714723, 0.9979099, 5.850215
 46020751, -0.0212215, -0.01470723, -0.04918146, 0.07807828, -0.005655404, -0.007018565, -0.001282656, 0.03718013, 0.001928066, 0.9978679, 5.838631
 46220671, -0.0212498, -0.01098453, -0.005210299, 0.07807828, 0.01283987, -4.060087E-05, -0.008086211, 0.03718013, 0.002416393, 0.9978572, 5.838631
 46420591, 0.01956722, 0.01093264, 0.06036498, 0.07807828, 0.01124845, 0.006786983, 0.004095727, 0.03718013, 0.002625393, 0.9977055, 5.838631
 46620511, 0.007146053, 0.01275801, -0.04907687, 0.07807828, 0.001805954, -0.001770278, -0.02354519, 0.03718013, 0.001886852, 0.9978538, 5.838631
 46820431, -0.005386319, -0.007873788, -0.1280213, 0.07807828, -0.002852211, -0.006551767, -0.05445056, 0.03718013, 0.002273469, 0.9980924, 5.838631
 47020351, 0.001250121, -0.01375698, -0.08984219, 0.07807828, 0.004168243, 0.008394009, 0.04087596, 0.03718013, 0.003482294, 0.9980385, 5.838631
 47220271, 0.006934898, 0.02476374, 0.0806718, 0.07807828, 0.001125041, 0.02416919, -0.02026167, 0.03718013, 0.004090437, 0.9980256, 5.838631
 47420191, -0.006799087, 0.05830159, -0.06359406, 0.07807828, -0.0147761, 0.01210065, -0.04775673, 0.03718013, 0.00413394, 0.9981663, 5.838631
 47620944, -0.02822801, 0.007210859, -0.1339186, 0.0782332, 0.0004899999, 0.003709005, -0.006085142, 0.03733505, 0.004446726, 0.9982595, 5.850215
 47820864, 0.006675215, 0.02734993, -0.05435513, 0.0782332, 0.004550549, 0.006160848, -0.009697371, 0.03718013, 0.006097381, 0.9983073, 5.850215
 48020784, 0.01004797, 0.01561666, 0.01470463, 0.07807828, -0.001028907, 0.0008424491, 0.01788864, 0.03718013, 0.007598408, 0.9982474, 5.838631
 48220704, -0.001696496, 0.01173421, 0.01960246, 0.07807828, -0.003051365, 0.001083383, -0.0135645, 0.03718013, 0.00848685, 0.9982861, 5.838631
 48420624, 0.001063044, 0.02165988, -0.1084614, 0.07807828, -0.007973759, 0.0008724137, -0.03184398, 0.03718013, 0.009175815, 0.9984356, 5.838631
 48620544, -0.01528166, -0.007564403, -0.06879842, 0.07807828, 0.0001817155, 0.001655501, -0.03717394, 0.03718013, 0.008851992, 0.9984936, 5.838631
 48820464, -0.01115873, 0.003416253, -0.09853071, 0.07807828, 0.003605684, 0.01619084, -0.02324547, 0.03718013, 0.01030035, 0.9985806, 5.838631
 49020384, -0.009628655, 0.03792045, -0.08943868, 0.07807828, -0.002789457, 0.004723308, 0.02258227, 0.03718013, 0.01121539, 0.9985988, 5.838631
 49220304, -0.01597214, 0.02112355, 0.1097051, 0.07807828, -0.009125492, 0.004907099, 0.01674125, 0.03718013, 0.01191386, 0.9984455, 5.838631
 49420224, -0.01912475, 0.02421436, -0.02865319, 0.07807828, -0.007709255, 0.01178818, -0.05150698, 0.03718013, 0.01278665, 0.9985678, 5.838631
 49620977, -0.008569022, 0.01994304, -0.1373857, 0.0782332, -0.006715912, -0.002443361, -0.03556326, 0.03718013, 0.01357412, 0.9986649, 5.850215
 49820897, -0.00634118, 0.009085149, -0.09318816, 0.0782332, 0.003181186, 0.003329768, 0.03237814, 0.03733505, 0.01405683, 0.9986778, 5.850215
 50020817, -0.0008067465, 0.002331353, 0.03559386, 0.0782332, -0.0058083, 0.005617292, -0.001157011, 0.03718013, 0.01480827, 0.9986845, 5.850215
 50220737, 0.007573175, 0.02732453, 0.09912415, 0.07807828, 0.00137242, 0.00706279, 0.06924061, 0.03718013, 0.01538405, 0.9984635, 5.838631
 50420657, 0.007367595, 0.02890186, 0.06764407, 0.07807828, -0.003434374, 0.01225501, -0.02607018, 0.03718013, 0.01753435, 0.9985076, 5.838631
 50620577, -0.009160087, 0.03391979, -0.09880264, 0.07807828, 0.00271639, 0.01450776, -0.02866838, 0.03718013, 0.01878225, 0.9986249, 5.838631
 50820497, 0.01254104, 0.02050757, -0.09586344, 0.07807828, 0.004705852, -0.01046754, -0.0423957, 0.03718013, 0.01821353, 0.9987236, 5.838631
 51020417, 0.01530544, -0.01743059, -0.1430778, 0.07807828, -0.001928318, -0.002753041, -0.02945313, 0.03718013, 0.01962486, 0.9988208, 5.838631
 51220337, -0.002180625, 0.02105257, -0.02860591, 0.07807828, -0.002290137, -0.004067134, 0.03738395, 0.03718013, 0.02086026, 0.9987389, 5.838631
 51420257, -0.0005895377, -0.01787159, 0.07184008, 0.07807828, 0.001542213, -0.02043833, -0.0167424, 0.03718013, 0.01983526, 0.9987471, 5.838631
 51620177, -0.002992004, -0.04971065, 0.0237906, 0.07807828, -0.01595475, -0.01808512, 0.02198284, 0.03718013, 0.01967036, 0.9986778, 5.838631
 51820930, -0.02087464, -0.0249023, -0.03679273, 0.0782332, -0.002990873, 0.0004346806, -0.01588935, 0.03733505, 0.02083718, 0.9987642, 5.850215
 52020850, -0.01741727, -0.006178395, -0.05299522, 0.0782332, 0.0002315399, -0.009631927, -0.01134523, 0.03718013, 0.02078339, 0.9987971, 5.850215
 52220770, 0.001248591, 0.005351577, -0.06790289, 0.07807828, 0.003262731, 0.01604893, -0.008424821, 0.03718013, 0.02212528, 0.9988393, 5.838631
 52420690, 0.01530139, 0.03870386, -0.009761597, 0.07807828, 0.01207969, 0.001635499, 0.02112974, 0.03718013, 0.01967139, 0.9988497, 5.838631
 52620610, 0.02249149, -0.0201552, 0.03120266, 0.07807828, 0.004717831, 0.0005271584, -0.02800479, 0.03718013, 0.01999494, 0.9988729, 5.838631
 52820530, 0.0102944, 0.002199782, -0.04329712, 0.07807828, -0.002623051, -0.004117429, 0.01591847, 0.03718013, 0.02108318, 0.9988446, 5.838631
 53020450, -0.005365013, -0.002481654, 0.03565729, 0.07807828, 0.00087809, -0.008752143, -0.0316682, 0.03718013, 0.0215548, 0.9988256, 5.838631
 53220370, 0.0001965002, -0.007915224, -0.09365329, 0.07807828, -0.0009316531, -0.006475544, -0.02673567, 0.03718013, 0.02063709, 0.9989405, 5.838631
 53420290, -0.01272777, -0.0009089229, -0.09426865, 0.07807828, -0.008764753, 0.00778487, 0.0007432824, 0.03718013, 0.02215035, 0.9989603, 5.838631
 53620210, -0.02318925, 0.01962877, 0.004313392, 0.07807828, -0.003564848, -0.008304091, 0.03439738, 0.03718013, 0.02045303, 0.9989647, 5.838631
 53820963, -0.01499452, -0.03085556, 0.02999002, 0.0782332, -0.010743, -0.0002539285, -0.03613024, 0.03733505, 0.021226, 0.9989915, 5.850215
 54020883, -0.02075158, -0.01415783, -0.009314852, 0.0782332, -0.0007447273, -0.01010221, 0.06104859, 0.03718013, 0.01993757, 0.9989196, 5.850215
 54220803, -0.001048242, -0.02130822, 0.09255309, 0.07807828, 0.00107504, -0.003111362, 0.04049302, 0.03718013, 0.02042655, 0.9988529, 5.838631
 54420723, 0.008706748, 0.01194324, 0.1162644, 0.07807828, -0.001547638, 0.009109462, 0.0486371, 0.03718013, 0.0212573, 0.9987295, 5.838631
 54620643, -0.007757803, 0.04061124, 0.01760191, 0.07807828, 0.001628209, 0.01955107, -0.03327945, 0.03718013, 0.02215798, 0.9987939, 5.838631
 54820563, 0.009372049, 0.02350334, -0.07042464, 0.07807828, 0.003986528, -0.01346897, -0.02553052, 0.03718013, 0.0200197, 0.9988979, 5.838631
 55020483, 0.01472403, -0.03019112, -0.06252456, 0.07807828, 0.01309754, 0.0008078669, 0.01631789, 0.03718013, 0.02062796, 0.9988897, 5.838631
 55220403, 0.02396314, 0.0109015, 0.0573382, 0.07807828, -0.0004268518, 0.01210087, 0.01587423, 0.03718013, 0.02069179, 0.9988582, 5.838631
 55420323, -0.007304283, 0.0190215, -0.01400432, 0.07807828, 0.004435722, -0.0004805169, 0.004496778, 0.03718013, 0.0206947, 0.9988778, 5.838631
 55620243, 0.006281062, 0.03619941, 0.03926582, 0.07807828, 0.006288515, 0.01946261, -0.007899842, 0.03718013, 0.02242763, 0.9988111, 5.838631
 55820163, 0.009029686, 0.05206291, -0.1032862, 0.07807828, 0.007253394, 0.01267095, -0.05718365, 0.03718013, 0.02178324, 0.9989754, 5.838631
 56020916, 0.02372251, 0.01404108, -0.1225678, 0.0782332, 0.005853684, -0.005259653, 0.012638, 0.03733505, 0.02192168, 0.9989883, 5.850215
 56220836, 0.01737276, -0.006821332, 0.08722126, 0.0782332, 0.01163589, -0.002420639, 0.07584216, 0.03718013, 0.02170821, 0.9988586, 5.850215
 56420756, 0.03301953, -0.0008101179, 0.1497566, 0.07807828, 0.01278581, 0.003056935, -0.0005675906, 0.03718013, 0.02189069, 0.9988199, 5.838631
 56620676, 0.01050337, 0.03277349, -0.04917649, 0.07807828, -0.005797218, 0.02169335, -0.04012142, 0.03718013, 0.024645, 0.9988512, 5.838631
 56820596, -0.02077856, 0.04861027, -0.06841849, 0.07807828, -0.0005336652, 0.0007340526, 0.02157712, 0.03718013, 0.023348, 0.9988807, 5.838631
 57020516, -0.01408145, 0.02251863, -0.08150674, 0.07807828, 0.00405145, 0.0134357, -0.08169729, 0.03718013, 0.02477399, 0.9990243, 5.838631
 57220436, -0.006071502, 0.04630183, -0.1535265, 0.07807828, -0.002493993, -0.005838711, -0.00439039, 0.03718013, 0.02472286, 0.9990351, 5.838631
 57420356, -0.009118057, -0.01455677, 0.03999987, 0.07807828, 0.001739506, -0.0007566322, 0.03024569, 0.03718013, 0.02386496, 0.9989708, 5.838631
 57620276, -0.0004409956, -0.00325885, 0.1005285, 0.07807828, -0.01001761, -0.0005241249, 0.04947809, 0.03718013, 0.02546043, 0.9988116, 5.838631
 57820196, -0.02206931, 0.02376845, 0.08859929, 0.07807828, -0.001191318, 0.01086726, -0.009112145, 0.03718013, 0.02544071, 0.9987993, 5.838631
 58020949, -0.002686793, 0.02991769, -0.005011132, 0.0782332, -0.002262866, 0.01225294, 0.02322822, 0.03733505, 0.02553859, 0.9987624, 5.850215
 58220869, 0.001619281, 0.03436167, 0.062433, 0.0782332, -0.01025525, 0.01351186, -0.009681451, 0.03718013, 0.02647959, 0.9987072, 5.850215
 58420789, -0.01384303, 0.02946659, -0.08437482, 0.07807828, -0.006404602, 0.001605626, -0.06030559, 0.03718013, 0.02566103, 0.9988552, 5.838631
 58620709, -0.02270361, -0.006914261, -0.163442, 0.07807828, 0.001620461, -0.009147551, -0.01565612, 0.03718013, 0.02628254, 0.9989234, 5.838631
 58820629, -0.01040725, 0.002273918, 0.05356634, 0.07807828, -0.004788599, 0.01288578, 0.03063321, 0.03718013, 0.02855196, 0.9987415, 5.838631
 59020549, -0.01052304, 0.05109468, 0.09322242, 0.07807828, -0.002823233, 0.008263145, 0.06262629, 0.03718013, 0.02894522, 0.9986018, 5.838631
 59220469, -0.00610444, 0.02024855, 0.1275907, 0.07807828, -0.01509097, -0.0002153327, -0.01536022, 0.03718013, 0.02893834, 0.9985523, 5.838631
 59420389, -0.04003741, 0.004686228, -0.01273532, 0.07807828, -0.01456836, -0.0005717648, 0.02992882, 0.03718013, 0.02857294, 0.9985301, 5.838631
 59620309, -0.02810442, 0.0001107152, 0.0103044, 0.07807828, -0.001385376, 0.01512071, 0.01093227, 0.03718013, 0.03001804, 0.9984808, 5.838631
 59820229, -0.002476777, 0.03550187, 0.0648575, 0.07807828, -0.003771763, -0.002877275, -0.006390113, 0.03718013, 0.02941769, 0.9984422, 5.838631
 60020149, -0.0263415, -0.03827231, -0.05673581, 0.07807828, -0.01202259, -0.02560121, -0.0533069, 0.03718013, 0.02749503, 0.9985862, 5.838631
 60220902, -0.03640131, -0.02874956, -0.0746327, 0.0782332, 0.004669155, 0.002922691, 0.03891923, 0.03733505, 0.02996329, 0.9984577, 5.850215
 60420822, -0.01184069, 0.01244486, 0.125318, 0.0782332, 0.00133982, 0.004044568, 0.04334632, 0.03718013, 0.02983138, 0.9983249, 5.850215
 60620742, -0.01415533, 0.009017638, 0.07640451, 0.07807828, -0.008347747, -0.0002044709, 0.01544878, 0.03718013, 0.02855767, 0.9983212, 5.838631
 60820662, -0.02779912, -0.005150613, -0.01471225, 0.07807828, -0.001366995, -0.003147965, -0.01922553, 0.03718013, 0.02844453, 0.9983554, 5.838631
 61020582, -0.01619469, 0.01339313, 0.007195072, 0.07807828, -0.01895428, 0.02026155, 0.04305995, 0.03718013, 0.0294824, 0.9982262, 5.838631
 61220502, -0.03762163, 0.03947146, 0.0546702, 0.07807828, -0.0001443762, 0.004066869, -0.02837629, 0.03718013, 0.02856592, 0.9982745, 5.838631
 61420422, -0.003597074, -0.001580787, 0.04875761, 0.07807828, 0.009310081, -0.003499965, 0.09991081, 0.03718013, 0.02795966, 0.9980313, 5.838631
 61620342, 0.008452579, -0.008590939, 0.1811475, 0.07807828, 0.005450753, 0.0008520576, 0.01294514, 0.03718013, 0.02898888, 0.9979277, 5.838631
 61820262, 0.002760109, 0.02377695, -0.0449749, 0.07807828, -0.0007780181, 0.0248577, -0.04040046, 0.03718013, 0.03017195, 0.9980302, 5.838631
 62020182, -0.01495252, 0.06817295, -0.08855937, 0.07807828, -0.006237699, 0.02704775, 0.003469891, 0.03718013, 0.03115708, 0.9980425, 5.838631
 62220935, -0.0177828, 0.0664279, -0.04642818, 0.0782332, 0.004464358, 0.01790594, -0.02583706, 0.03733505, 0.03106888, 0.9981499, 5.850215
 62420855, -0.006677871, 0.07563289, -0.07826296, 0.0782332, -0.007632462, 0.07300177, -0.002295148, 0.03718013, 0.02975971, 0.9982138, 5.850215
 62620775, -0.01410072, -0.1084408, 0.09130725, 0.07807828, 0.002027571, -0.2848425, 0.05678699, 0.03718013, 0.01227148, 0.9981111, 5.838631
 62820695, 0.01312167, -1.300297, 0.2560996, 0.07807828, 0.001920724, -0.5782967, 0.1192675, 0.03718013, 0.002948734, 0.9977212, 5.838631
 63020615, 0.03418234, -2.128224, 0.4369659, 0.07807828, 0.01367027, -0.8298915, 0.1433052, 0.03718013, -0.02175179, 0.9976476, 5.838631
 63220535, 0.02301554, -3.133138, 0.4572223, 0.07807828, -0.008690557, -1.205745, 0.1205452, 0.03718013, -0.07946935, 0.9957569, 5.838631
 63420455, -0.2352225, -4.372542, -0.04208373, 0.07807828, -0.2185429, -1.650143, -0.2742198, 0.03718013, -0.1782352, 0.9839569, 5.838631
 63620375, -1.130805, -5.461255, -1.367913, 0.07807828, -0.5736733, -1.747154, -0.6499919, 0.03718013, -0.3027552, 0.9523311, 5.838631
 63820295, -2.062193, -5.14543, -2.105082, 0.07807828, -0.7165805, -1.342363, -0.6197002, 0.03718013, -0.4118609, 0.9079114, 5.838631
 64020215, -2.258892, -3.774751, -1.732652, 0.07807828, -0.6791625, -0.922913, -0.4012161, 0.03718013, -0.4943404, 0.8632042, 5.838631
 64220968, -2.204507, -2.621833, -1.034333, 0.0782332, -0.70675, -0.6510421, -0.2225954, 0.03733505, -0.5585995, 0.8211964, 5.850215
 64420888, -2.270568, -1.890967, -0.6413006, 0.0782332, -0.6966669, -0.4872681, -0.1623162, 0.03718013, -0.6130557, 0.7797748, 5.850215
 64620808, -2.22481, -1.410407, -0.4481861, 0.07807828, -0.695025, -0.3691802, -0.1165853, 0.03718013, -0.6605921, 0.738943, 5.838631
 64820728, -2.197876, -1.098166, -0.365721, 0.07807828, -0.6747594, -0.2895011, -0.1012684, 0.03718013, -0.7054139, 0.6957843, 5.838631
 65020648, -2.134405, -0.8447994, -0.3339083, 0.07807828, -0.6483027, -0.2070455, -0.08002856, 0.03718013, -0.7450465, 0.6525744, 5.838631
 65220568, -2.049771, -0.6067059, -0.2842123, 0.07807828, -0.6541336, -0.1659747, -0.09253423, 0.03718013, -0.78207, 0.6073862, 5.838631
 65420488, -2.03655, -0.4373211, -0.2967379, 0.07807828, -0.6086457, -0.09446526, -0.08896415, 0.03718013, -0.8148765, 0.5621608, 5.838631
 65620408, -1.921683, -0.2381584, -0.2759806, 0.07807828, -0.5913764, -0.03621004, -0.09032106, 0.03718013, -0.844884, 0.5155539, 5.838631
 65820328, -1.880279, -0.07660886, -0.3055241, 0.07807828, -0.5594646, 0.0160948, -0.08132999, 0.03718013, -0.8715017, 0.4683881, 5.838631
 66020248, -1.826213, 0.09110883, -0.3419698, 0.07807828, -0.5544519, 0.04167913, -0.1100394, 0.03718013, -0.8953907, 0.4194889, 5.838631
 66220168, -1.710492, 0.2249338, -0.3494077, 0.07807828, -0.4980863, 0.1055845, -0.1096084, 0.03718013, -0.9152173, 0.3730271, 5.838631
 66420921, -1.57683, 0.3859591, -0.3512876, 0.0782332, -0.4733485, 0.1464311, -0.1141388, 0.03733505, -0.9324986, 0.3259768, 5.850215
 66620841, -1.470196, 0.5139402, -0.3330096, 0.0782332, -0.4370562, 0.1790973, -0.08950781, 0.03718013, -0.9473206, 0.2792503, 5.850215
 66820761, -1.34491, 0.6064193, -0.2734221, 0.07807828, -0.388813, 0.2122945, -0.08072417, 0.03718013, -0.9591817, 0.2349175, 5.838631
 67020681, -1.187829, 0.7131997, -0.2837795, 0.07807828, -0.335226, 0.2461216, -0.09265625, 0.03718013, -0.9683802, 0.1919329, 5.838631
 67220601, -1.045034, 0.8187722, -0.3442104, 0.07807828, -0.29997, 0.266213, -0.1063792, 0.03718013, -0.9754381, 0.1494512, 5.838631
 67420521, -0.9120126, 0.8858156, -0.3627438, 0.07807828, -0.2502894, 0.2910588, -0.09885141, 0.03718013, -0.9803396, 0.1087652, 5.838631
 67620441, -0.746206, 0.9456539, -0.3052732, 0.07807828, -0.1841866, 0.2995382, -0.0395301, 0.03718013, -0.9838762, 0.07072692, 5.838631
 67820361, -0.5218781, 0.9438132, -0.1157965, 0.07807828, -0.1359247, 0.2920122, -0.03559243, 0.03718013, -0.9864031, 0.03469132, 5.838631
 68020281, -0.3858055, 0.9376121, -0.1350165, 0.07807828, -0.1009473, 0.2909564, -0.04398903, 0.03718013, -0.9875551, -0.0002247278, 5.838631
 68220201, -0.2373795, 0.9135696, -0.1215467, 0.07807828, -0.04187994, 0.2887888, -0.05890606, 0.03718013, -0.9875475, -0.03157058, 5.838631
 68420954, -0.06367193, 0.9360187, -0.2532718, 0.0782332, 0.02874088, 0.2857815, -0.07502574, 0.03733505, -0.9861679, -0.06092602, 5.850215
 68620874, 0.1311977, 0.8692216, -0.1234638, 0.0782332, 0.06360471, 0.2652233, -0.01882887, 0.03718013, -0.9849287, -0.08753116, 5.850215
 68820794, 0.2665868, 0.8301439, -0.08041376, 0.07807828, 0.1101118, 0.252241, -0.03817804, 0.03718013, -0.9830201, -0.111629, 5.838631
 69020714, 0.3865882, 0.7770426, -0.05661723, 0.07807828, 0.13767, 0.2150354, 0.04412478, 0.03718013, -0.9812737, -0.133662, 5.838631
 69220634, 0.4678972, 0.6773685, 0.1514315, 0.07807828, 0.1485292, 0.1996191, 0.04490696, 0.03718013, -0.9792934, -0.1547913, 5.838631
 69420554, 0.5358848, 0.6245357, 0.1322654, 0.07807828, 0.1905116, 0.1966668, 0.007867526, 0.03718013, -0.9773624, -0.1712977, 5.838631
 69620474, 0.6688243, 0.5829117, 0.002106186, 0.07807828, 0.2398682, 0.1661024, 0.02210782, 0.03718013, -0.9757947, -0.1834088, 5.838631
 69820394, 0.780485, 0.5106543, 0.07328577, 0.07807828, 0.2443848, 0.1348419, 0.04757856, 0.03718013, -0.9740182, -0.1961383, 5.838631
 70020314, 0.8015748, 0.4594449, 0.07831421, 0.07807828, 0.2706328, 0.1568226, -0.02612308, 0.03718013, -0.972148, -0.2067869, 5.838631
 70220234, 0.8638443, 0.4581908, -0.0192372, 0.07807828, 0.2752969, 0.1260298, 0.02679211, 0.03718013, -0.9711988, -0.2136201, 5.838631
 70420154, 0.9148675, 0.380954, 0.08212932, 0.07807828, 0.2754958, 0.1065176, 0.04099674, 0.03718013, -0.9703889, -0.2197851, 5.838631
 70620907, 0.9321851, 0.3382177, 0.1038918, 0.0782332, 0.2936508, 0.09473196, 0.05979852, 0.03733505, -0.970166, -0.2232033, 5.850215
 70820827, 0.9763649, 0.2898272, 0.12557, 0.0782332, 0.3136871, 0.08739676, 0.02777829, 0.03718013, -0.9702833, -0.2246277, 5.850215
 71020747, 0.9822961, 0.2648355, 0.1350946, 0.07807828, 0.2905538, 0.08071745, 0.07081145, 0.03718013, -0.9701186, -0.2279347, 5.838631
 71220667, 0.9561657, 0.255072, 0.1800525, 0.07807828, 0.3382597, 0.08966722, -0.009146464, 0.03718013, -0.9709963, -0.2258522, 5.838631
 71420587, 1.120485, 0.2796252, -0.07878708, 0.07807828, 0.3613636, 0.07853078, -0.02012516, 0.03718013, -0.9723572, -0.2202547, 5.838631
 71620507, 1.126851, 0.2451938, -0.01412917, 0.07807828, 0.3431319, 0.0717191, 0.02808277, 0.03718013, -0.9735395, -0.2164689, 5.838631
 71820427, 1.036915, 0.2130858, 0.1613302, 0.07807828, 0.2961039, 0.06079075, 0.07253291, 0.03718013, -0.9746912, -0.2137696, 5.838631
 72020347, 0.9419245, 0.1866152, 0.1828417, 0.07807828, 0.2812423, 0.05507062, 0.05858709, 0.03718013, -0.9757841, -0.2105955, 5.838631
 72220267, 0.93258, 0.1650934, 0.145526, 0.07807828, 0.300566, 0.05293286, 0.01624545, 0.03718013, -0.9773836, -0.2044399, 5.838631
 72420187, 0.9854785, 0.1682111, 0.039895, 0.07807828, 0.324857, 0.0504535, -0.02049723, 0.03718013, -0.9792322, -0.1961952, 5.838631
 72620940, 1.020632, 0.1601321, 0.004091607, 0.0782332, 0.310411, 0.04939215, 0.0242794, 0.03733505, -0.9809864, -0.1884155, 5.850215
 72820860, 0.9927537, 0.1639391, 0.05394125, 0.0782332, 0.2935274, 0.05514146, 0.0356155, 0.03718013, -0.9826388, -0.180567, 5.850215
 73020780, 0.9225665, 0.1663074, 0.1099579, 0.07807828, 0.3014893, 0.05117525, 0.004409647, 0.03718013, -0.984343, -0.1721285, 5.838631
 73220700, 0.9223287, 0.1698004, 0.02226353, 0.07807828, 0.2690937, 0.05302032, 0.01449243, 0.03718013, -0.9858578, -0.1640653, 5.838631
 73420620, 0.8641905, 0.1668783, 0.04127044, 0.07807828, 0.2606762, 0.04053529, 0.0272229, 0.03718013, -0.9875842, -0.1541985, 5.838631
 73620540, 0.8275844, 0.1549253, 0.03723212, 0.07807828, 0.244517, 0.05162021, 0.023247, 0.03718013, -0.9887655, -0.1470863, 5.838631
 73820460, 0.7507004, 0.1469164, 0.1136596, 0.07807828, 0.2202741, 0.03441351, 0.03954831, 0.03718013, -0.9899375, -0.1399974, 5.838631
 74020380, 0.7269541, 0.1216121, 0.08273274, 0.07807828, 0.2359564, 0.03968539, 0.02445025, 0.03718013, -0.9913051, -0.1304986, 5.838631
 74220300, 0.780439, 0.1387316, -0.08098558, 0.07807828, 0.2466202, 0.05039977, -0.06149616, 0.03718013, -0.9923282, -0.1220526, 5.838631
 74420220, 0.7214856, 0.1585899, -0.1033258, 0.07807828, 0.1939847, 0.0469444, 0.03615516, 0.03718013, -0.9934071, -0.1134283, 5.838631
 74620973, 0.642989, 0.1448212, 0.1082071, 0.0782332, 0.2014658, 0.03491851, 0.03355581, 0.03718013, -0.9943973, -0.1050573, 5.850215
 74820893, 0.6135237, 0.1307954, 0.08855318, 0.0782332, 0.1831569, 0.04357053, -0.002958714, 0.03733505, -0.9951212, -0.09832532, 5.850215
 75020813, 0.5772852, 0.1459064, -0.03350675, 0.0782332, 0.164237, 0.04706478, 0.01574277, 0.03718013, -0.9958686, -0.09059282, 5.850215
 75220733, 0.5502433, 0.1436748, -0.03708539, 0.07807828, 0.1747905, 0.0391987, -0.0259718, 0.03718013, -0.9965443, -0.08286569, 5.838631
 75420653, 0.5237421, 0.1236707, -0.04488166, 0.07807828, 0.1486741, 0.04028241, 0.02692347, 0.03718013, -0.9969906, -0.07746436, 5.838631
 75620573, 0.4569362, 0.1216734, 0.1127559, 0.07807828, 0.1406671, 0.03488099, 0.008881639, 0.03718013, -0.9974398, -0.0714946, 5.838631
 75820493, 0.4299401, 0.1147928, 0.01693081, 0.07807828, 0.1219982, 0.03510982, -0.0157137, 0.03718013, -0.9978347, -0.06571281, 5.838631
 76020413, 0.397531, 0.1310236, -0.1155282, 0.07807828, 0.1341721, 0.0472867, -0.01020166, 0.03718013, -0.9982327, -0.05937983, 5.838631
 76220333, 0.3977375, 0.1416192, -0.05793317, 0.07807828, 0.1044619, 0.04780452, 0.008041121, 0.03718013, -0.9984773, -0.05506238, 5.838631
 76420253, 0.2953001, 0.1403929, 0.02044068, 0.07807828, 0.07371633, 0.03132487, 0.01669016, 0.03718013, -0.9985749, -0.05303586, 5.838631
 76620173, 0.2459752, 0.1155343, 0.05975646, 0.07807828, 0.0873752, 0.04192487, -0.01108718, 0.03718013, -0.9987918, -0.04835423, 5.838631
 76820926, 0.2554795, 0.1192707, 0.01602051, 0.0782332, 0.06596018, 0.03767749, 0.03078191, 0.03733505, -0.9988831, -0.0456071, 5.850215
 77020846, 0.2405329, 0.1249846, 0.01176556, 0.0782332, 0.07578622, 0.05368359, -0.01137116, 0.03718013, -0.9990677, -0.04127032, 5.850215
 77220766, 0.2401157, 0.1632516, -0.07044925, 0.07807828, 0.06406912, 0.04489215, -0.04465357, 0.03718013, -0.9991847, -0.03842936, 5.838631
 77420686, 0.1831188, 0.1324436, -0.08728418, 0.07807828, 0.04488103, 0.0350595, 0.01765622, 0.03718013, -0.999203, -0.03735328, 5.838631
 77620606, 0.1305841, 0.1142103, 0.0006509554, 0.07807828, 0.032861, 0.0411135, -0.05282758, 0.03718013, -0.9992825, -0.035039, 5.838631
 77820526, 0.1211507, 0.1143023, -0.09767555, 0.07807828, 0.04219443, 0.03215035, -0.003519176, 0.03718013, -0.999319, -0.03328322, 5.838631
 78020446, 0.1261325, 0.116178, -0.01008038, 0.07807828, 0.03915602, 0.0398264, 0.01259071, 0.03718013, -0.999375, -0.03057849, 5.838631
 78220366, 0.1070396, 0.125492, 0.0811493, 0.07807828, 0.01598106, 0.02734072, 0.03343274, 0.03718013, -0.999331, -0.02911874, 5.838631
 78420286, 0.06816255, 0.0906065, 0.08141157, 0.07807828, 0.03200616, 0.0311582, -0.01044609, 0.03718013, -0.9993112, -0.02764692, 5.838631
 78620206, 0.07838035, 0.1046764, -0.02230805, 0.07807828, 0.01038813, 0.0203629, 0.004279236, 0.03718013, -0.9992952, -0.0268992, 5.838631
 78820959, 0.05486799, 0.07455779, -0.0329096, 0.0782332, 0.02207118, 0.02677392, 0.01886329, 0.03733505, -0.9992946, -0.0254678, 5.850215
 79020879, 0.04198841, 0.0820867, 0.1692218, 0.0782332, 0.01261967, 0.02399017, 0.03773353, 0.03718013, -0.999129, -0.0249309, 5.850215
 79220799, 0.03230143, 0.08772783, -0.006843571, 0.07807828, 0.01668281, 0.0276298, -0.04911117, 0.03718013, -0.9992045, -0.02327049, 5.838631
 79420719, 0.03135964, 0.08920947, -0.1060075, 0.07807828, 0.003983681, 0.02134078, -0.02192354, 0.03718013, -0.9992086, -0.02300433, 5.838631
 79620639, 0.01864445, 0.06443135, -0.02712227, 0.07807828, 0.004496317, 0.02277694, 0.02735226, 0.03718013, -0.9991402, -0.02231036, 5.838631
 79820559, 0.02129843, 0.06266008, 0.09659392, 0.07807828, -0.0009009091, 0.01025439, 0.04198245, 0.03718013, -0.9990051, -0.02180122, 5.838631
 80020479, -0.01839999, 0.0480989, 0.06083879, 0.07807828, -0.02181343, 0.02091983, -0.02713825, 0.03718013, -0.9989306, -0.02360593, 5.838631
 80220399, -0.04810133, 0.06221486, -0.037748, 0.07807828, -0.004630676, 0.02118249, -0.01230005, 0.03718013, -0.9989086, -0.02307231, 5.838631
 80420319, 0.0003510714, 0.06505877, -0.04939698, 0.07807828, 0.009817348, 0.02468013, -0.02563624, 0.03718013, -0.9989566, -0.02074016, 5.838631
 80620239, 0.005243788, 0.05355118, 0.01973636, 0.07807828, -0.01401657, 0.004956065, 0.04171057, 0.03718013, -0.9987732, -0.02182776, 5.838631
 80820159, -0.04174424, 0.02478443, 0.05636691, 0.07807828, -0.01776691, 0.02489973, -0.03511674, 0.03718013, -0.9987721, -0.02179035, 5.838631
 81020912, -0.04902418, 0.06121543, -0.04432119, 0.0782332, -0.01853991, 0.01487566, 0.0112673, 0.03733505, -0.998696, -0.02193261, 5.850215
 81220832, -0.04360383, 0.05072106, -0.05831005, 0.0782332, -0.006458444, 0.02121458, -0.06127519, 0.03718013, -0.9987889, -0.02239397, 5.850215
 81420752, -0.04626491, 0.06261006, -0.09777904, 0.07807828, -0.009034646, 0.01527531, 0.01738692, 0.03718013, -0.9987307, -0.02217481, 5.838631
 81620672, -0.02405193, 0.02966627, 0.1191562, 0.07807828, -0.004973156, 0.000848097, 0.07277676, 0.03718013, -0.9984591, -0.02297238, 5.838631
 81820592, -0.0366034, 0.01437934, 0.1702599, 0.07807828, -0.02164789, 0.00845106, 0.0106479, 0.03718013, -0.9982924, -0.02352615, 5.838631
 82020512, -0.06182607, 0.02575135, 0.0862103, 0.07807828, -0.01666924, 0.003898616, 0.02761156, 0.03718013, -0.998087, -0.02417802, 5.838631
 82220432, -0.05552772, 0.002083188, 0.002568517, 0.07807828, -0.01221465, -0.01162659, -0.05778175, 0.03718013, -0.9981657, -0.02463594, 5.838631
 82420352, -0.04710525, -0.0149819, -0.05112438, 0.07807828, -0.00803301, 0.003079345, 0.01143103, 0.03718013, -0.998039, -0.02524935, 5.838631
 82620272, -0.03335846, -0.008706147, 0.02118145, 0.07807828, -0.01071302, -0.005507668, 0.01587814, 0.03718013, -0.9979859, -0.02544, 5.838631
 82820192, -0.0160371, 0.0002392305, -0.01474332, 0.07807828, -0.007126117, 0.008061659, -0.06143906, 0.03718013, -0.9981222, -0.02405425, 5.838631
 83020945, -0.014721, 0.02999364, -0.1325242, 0.0782332, -0.01290904, 0.008923175, -0.03800457, 0.03733505, -0.9981733, -0.02513361, 5.850215
 83220865, -0.02041093, 0.01757604, -0.08317199, 0.07823878, 0.004020116, -0.0002045528, -0.004460171, 0.03719873, -0.9981665, -0.02455435, 5.8508
 83420785, -0.01340873, 0.01373812, 0.07462144, 0.07811734, -0.02252879, -0.0006939793, 0.03037877, 0.03719873, -0.9979439, -0.0251817, 5.84155
 83620705, -0.06431179, 0.01066672, 0.08829129, 0.07811734, -0.01890507, 0.01676383, 0.02371087, 0.03719873, -0.9977898, -0.02531712, 5.84155
 83820625, -0.0446497, 0.03145386, 0.1231522, 0.07811734, -0.009440816, -0.002030204, 0.04120332, 0.03719873, -0.997539, -0.02554092, 5.84155
 84020545, -0.03499771, -0.01895563, 0.008806046, 0.07811734, 0.00140059, -0.003789399, -0.04843919, 0.03719873, -0.997641, -0.025495, 5.84155
 84220465, -0.01306495, -0.004814199, -0.1482618, 0.07811176, -0.0151214, 0.00915204, -0.07243624, 0.03718013, -0.9978063, -0.02631569, 5.840967
 84420385, -0.03724111, 0.03105889, -0.102233, 0.07807828, -0.01734567, 0.01006452, 0.002948725, 0.03718013, -0.9977627, -0.02693753, 5.838631
 84620305, -0.02642467, 0.02574841, -0.01835272, 0.07807828, 0.01137534, 0.007723614, 0.00656895, 0.03718013, -0.9977692, -0.02569292, 5.838631
 84820225, 0.008425003, 0.02194424, 0.05124158, 0.07807828, 0.002303521, 0.004151978, 0.04385586, 0.03718013, -0.9975773, -0.02595551, 5.838631
 85020145, 0.01972471, 0.007109754, 0.1131773, 0.07807828, 0.0225064, -0.002984569, 0.007062184, 0.03718013, -0.9974965, -0.02400484, 5.838631
 85220898, 0.04134976, -0.002856554, -0.0620544, 0.0782332, -0.000604675, -0.007100548, -0.01356234, 0.03733505, -0.997591, -0.02454522, 5.850215
 85420818, -0.01168413, -0.02483789, -0.0301985, 0.0782332, -0.01327715, -0.01793522, 0.02615369, 0.03718013, -0.9975624, -0.0243653, 5.850215
 85620738, -0.00473094, -0.04542336, 0.1019552, 0.07807828, 0.01886538, -0.0183962, 0.03986022, 0.03718013, -0.9974117, -0.02203327, 5.838631
 85820658, 0.05285706, -0.04007975, 0.137692, 0.07807828, 0.01589927, -0.006160411, 0.03974735, 0.03718013, -0.997234, -0.02099204, 5.838631
 86020578, 0.03767458, -0.02414638, 0.001485347, 0.07807828, 0.02364156, -0.00562239, -0.02904083, 0.03718013, -0.9974064, -0.01949988, 5.838631
 86220498, 0.03631931, -0.02750404, -0.08898644, 0.07807828, 0.001114678, -0.005582435, -0.01422513, 0.03718013, -0.9975104, -0.01954993, 5.838631
 86420418, 0.00503991, -0.01140592, -0.04954146, 0.07807828, -0.004891866, -0.006614357, 0.02029989, 0.03718013, -0.9975356, -0.01851414, 5.838631
 86620338, 0.001751469, -0.03126232, 0.05121998, 0.07807828, 0.003552538, 0.002265703, 0.02854483, 0.03718013, -0.9974478, -0.01744416, 5.838631
 86820258, 0.01608119, -0.01661528, 0.09673342, 0.07807828, 0.00519454, -0.006062335, 0.006499265, 0.03718013, -0.9973293, -0.01616291, 5.838631
 87020178, 0.01671867, -0.02033527, 0.001932221, 0.07807828, 0.004282249, -0.006554401, -0.01014895, 0.03718013, -0.9973564, -0.01535121, 5.838631
 87220931, 0.02238941, -0.01412492, -0.07027868, 0.0782332, 0.01050809, -0.008601259, -0.07008395, 0.03733505, -0.9975979, -0.0142083, 5.850215
 87420851, 0.02881796, -0.01561255, -0.1972969, 0.0782332, 0.008976723, -0.005734873, -0.03893343, 0.03718013, -0.9977348, -0.01436344, 5.850215
 87620771, 0.01171909, -0.02365207, 0.0275976, 0.07807828, 0.002882844, -0.004371831, 0.04739114, 0.03718013, -0.9974808, -0.01349908, 5.838631
 87820691, 0.01571463, -0.01284108, 0.105865, 0.07807828, 0.009860071, 0.00292444, -0.02992882, 0.03718013, -0.9974156, -0.01299778, 5.838631
 88020611, 0.0340181, -0.01395786, -0.03106282, 0.07807828, 0.02589185, -0.005052065, 0.04750697, 0.03718013, -0.9973174, -0.01074765, 5.838631
 88220531, 0.0463788, -0.03060171, 0.02232784, 0.07808387, -0.002775247, -0.01041974, -0.04984892, 0.03719873, -0.9974979, -0.01044325, 5.839214
 88420451, 0.0234552, -0.01430613, -0.1008386, 0.07811734, 0.005153404, 0.00267435, -0.01456307, 0.03719873, -0.9975629, -0.00908699, 5.84155
 88620371, 0.00710368, -0.004266168, -0.06133084, 0.07811734, 0.007759415, -0.003155846, -0.03098974, 0.03719873, -0.9976338, -0.007841419, 5.84155
 88820291, 0.01755116, -0.01655491, -0.02024154, 0.07811734, 0.005370963, -0.01213941, 0.008794698, 0.03719873, -0.9975206, -0.007149825, 5.84155
 89020211, 0.02202326, -0.03176801, 0.09146533, 0.07811734, 0.01417218, -0.006099686, 0.04813976, 0.03719873, -0.9972728, -0.005760498, 5.84155
 89220964, 0.02416673, -0.02987257, 0.09785186, 0.07826667, 0.005904665, -0.01369136, 0.02018422, 0.03733505, -0.9971735, -0.006409812, 5.852556
 89420884, 0.01636918, -0.03894792, -0.01547423, 0.0782332, 0.007234949, -0.008909659, -0.01220501, 0.03718013, -0.9973045, -0.005649241, 5.850215
 89620804, 0.006674324, -0.02534013, -0.04402788, 0.07807828, 0.005032709, 0.003733441, 0.002072554, 0.03718013, -0.9973654, -0.003885548, 5.838631
 89820724, 0.0291125, -0.01290952, -0.02061697, 0.07807828, 0.01487919, -0.004732265, 0.002199532, 0.03718013, -0.9973998, -0.002422433, 5.838631
 90020644, 0.02593123, -0.02685082, 0.01133084, 0.07807828, 0.0004886516, -0.003519456, -0.0043065, 0.03718013, -0.9973607, -0.002052655, 5.838631
 90220564, -0.006114868, -0.01893685, -0.0331181, 0.07807828, -0.003097884, -0.01145088, 0.005870568, 0.03718013, -0.9973719, -0.002268281, 5.838631
 90420484, -0.007054963, -0.01704762, 0.03383335, 0.07807828, -0.0001339724, -0.009788454, -0.013595, 0.03718013, -0.9973403, -0.0009361107, 5.838631
 90620404, 0.006327627, -0.03134224, -0.001275877, 0.07807828, -0.002497448, -0.009632149, 0.04175861, 0.03718013, -0.9972483, 0.0001259585, 5.838631
 90820324, 0.007787569, -0.0316945, 0.004192539, 0.07807828, -0.005044279, -0.005914658, -0.04287558, 0.03718013, -0.997396, 0.0004767604, 5.838631
 91020244, -0.001776372, -0.01976801, -0.03452661, 0.07807828, 0.00647165, -0.004748918, 0.02681222, 0.03718013, -0.99729, 0.001127602, 5.838631
 91220164, 0.004326456, -0.0150955, 0.03311968, 0.07807828, 0.008883406, -0.01720809, 0.02213937, 0.03718013, -0.9972417, 0.001171368, 5.838631
 91420917, 0.009217707, -0.03979763, 0.05839773, 0.0782332, 0.007761477, -0.01413771, 0.0150438, 0.03733505, -0.997187, 0.002624786, 5.850215
 91620837, 0.03660913, -0.0369562, -0.03949589, 0.0782332, 0.01129355, -0.008053841, 0.0148115, 0.03718013, -0.9972879, 0.003559479, 5.850215
 91820757, 0.03400899, -0.02437675, 0.00496825, 0.07807828, 0.008593395, -0.006779246, -0.01648424, 0.03718013, -0.997329, 0.004161028, 5.838631
