TimeUS,COFN,COFE,CNe,CEe,POFN,POFE,PNe,PEe
 8040949, 0.03954163, 0.0236364, 0.09728408, 0.04849193, 0, 0, 0, 0
 8220877, -0.006434309, 0.006648168, 0.09739286, 0.04819769, 0.03954163, 0.0236364, 0.09728408, 0.04849193
 8420797, 0.03769812, 0.002086445, 0.09741965, 0.04819313, -0.006434309, 0.006648168, 0.09739286, 0.04819769
 8620717, 0.03032751, -0.0006435309, 0.09741046, 0.04819303, 0.03769812, 0.002086445, 0.09741965, 0.04819313
 8820637, 0.04969921, -0.0160656, 0.09745217, 0.04817558, 0.03032751, -0.0006435309, 0.09741046, 0.04819303
 9020557, 0.0002767295, -0.04030844, 0.09740798, 0.0482241, 0.04969921, -0.0160656, 0.09745217, 0.04817558
 9220477, -0.04996216, 0.002063199, 0.09744712, 0.04817738, 0.0002767295, -0.04030844, 0.09740798, 0.0482241
 9420397, 0.02350826, -0.03506364, 0.0974265, 0.04819249, -0.04996216, 0.002063199, 0.09744712, 0.04817738
 9620317, -0.01804456, -0.01122489, 0.09740388, 0.04818894, 0.02350826, -0.03506364, 0.0974265, 0.04819249
 9820237, -0.03103259, 0.006042566, 0.09741983, 0.04817702, -0.01804456, -0.01122489, 0.09740388, 0.04818894
 10020157, 0.01777956, 0.06497129, 0.09743181, 0.04828366, -0.03103259, 0.006042566, 0.09741983, 0.04817702
 10220910, -0.0267322, 0.02415234, 0.09742301, 0.04818163, 0.01777956, 0.06497129, 0.09743181, 0.04828366
 10420830, 0.03656962, -0.02771936, 0.09744124, 0.04817467, -0.0267322, 0.02415234, 0.09742301, 0.04818163
 10620750, 0.05959442, 0.02351568, 0.09746403, 0.04820256, 0.03656962, -0.02771936, 0.09744124, 0.04817467
 10820670, -0.003861173, 0.03989255, 0.09741469, 0.04820988, 0.05959442, 0.02351568, 0.09746403, 0.04820256
 11020590, 0.01114811, 0.01257255, 0.09740099, 0.04818856, -0.003861173, 0.03989255, 0.09741469, 0.04820988
 11220510, 0.03217082, -0.07623551, 0.09749176, 0.04824796, 0.01114811, 0.01257255, 0.09740099, 0.04818856
 11420430, -0.002797179, 0.01322106, 0.09739814, 0.04819062, 0.03217082, -0.07623551, 0.09749176, 0.04824796
 11620350, -0.03851396, 0.04449806, 0.09745897, 0.04818908, -0.002797179, 0.01322106, 0.09739814, 0.04819062
 11820270, -0.03930953, -0.02946215, 0.09742501, 0.04821885, -0.03851396, 0.04449806, 0.09745897, 0.04818908
 12020190, -0.01991663, -0.01628918, 0.09740353, 0.04819747, -0.03930953, -0.02946215, 0.09742501, 0.04821885
 12220943, 0.007900821, 0.01969255, 0.0974, 0.04819675, -0.01991663, -0.01628918, 0.09740353, 0.04819747
 12420863, 0.03449216, -0.02979753, 0.09743845, 0.04817925, 0.007900821, 0.01969255, 0.0974, 0.04819675
 12620783, 0.04327349, 0.008703567, 0.09743249, 0.04818652, 0.03449216, -0.02979753, 0.09743845, 0.04817925
 12820703, -0.01808055, 0.04089917, 0.09742423, 0.04820511, 0.04327349, 0.008703567, 0.09743249, 0.04818652
 13020623, -0.0201923, 0.01024337, 0.09740607, 0.04818679, -0.01808055, 0.04089917, 0.09742423, 0.04820511
 13220543, -0.06667311, -0.01891348, 0.09747709, 0.048202, -0.0201923, 0.01024337, 0.09740607, 0.04818679
 13420463, 0.005993212, -0.05749573, 0.09742686, 0.04824945, -0.06667311, -0.01891348, 0.09747709, 0.048202
 13620383, 0.004543804, 0.06800494, 0.09743299, 0.04828528, 0.005993212, -0.05749573, 0.09742686, 0.04824945
 13820303, -0.01238269, -0.01974778, 0.09739953, 0.04820114, 0.004543804, 0.06800494, 0.09743299, 0.04828528
 14020223, -0.04920838, -0.05188633, 0.09744646, 0.04827539, -0.01238269, -0.01974778, 0.09739953, 0.04820114
 14220976, -0.04595136, 0.06072786, 0.09749585, 0.04820096, -0.04920838, -0.05188633, 0.09744646, 0.04827539
 14420896, -0.009280308, -0.0102666, 0.09739707, 0.04819311, -0.04595136, 0.06072786, 0.09749585, 0.04820096
 14620816, -0.04498403, 0.002284789, 0.09743854, 0.04817729, -0.009280308, -0.0102666, 0.09739707, 0.04819311
 14820736, -0.04809083, 0.02687044, 0.09746343, 0.04816416, -0.04498403, 0.002284789, 0.09743854, 0.04817729
 15020656, -0.04761813, -0.05107975, 0.09744783, 0.04826388, -0.04809083, 0.02687044, 0.09746343, 0.04816416
 15220576, 0.03961936, -0.08042234, 0.0975175, 0.04823998, -0.04761813, -0.05107975, 0.09744783, 0.04826388
 15420496, 0.07805178, 0.04806111, 0.09751149, 0.0482656, 0.03961936, -0.08042234, 0.0975175, 0.04823998
 15620416, -0.01876058, -0.0004119142, 0.09740654, 0.04817991, 0.07805178, 0.04806111, 0.09751149, 0.0482656
 15820336, -0.06254432, 0.007034698, 0.09748389, 0.0481571, -0.01876058, -0.0004119142, 0.09740654, 0.04817991
 16020256, -0.03295692, 0.07464485, 0.09749265, 0.0482392, -0.06254432, 0.007034698, 0.09748389, 0.0481571
 16220176, -0.01683199, -0.04923777, 0.09741888, 0.04824213, -0.03295692, 0.07464485, 0.09749265, 0.0482392
 16420929, 0.01572842, -0.06296074, 0.09744756, 0.04823982, -0.01683199, -0.04923777, 0.09741888, 0.04824213
 16620849, -0.06213895, -0.04101275, 0.09746952, 0.04824467, 0.01572842, -0.06296074, 0.09744756, 0.04823982
 16820769, -0.03205011, 0.08599329, 0.09750848, 0.04827242, -0.06213895, -0.04101275, 0.09746952, 0.04824467
 17020689, 0.04310196, -0.04239391, 0.09746617, 0.04818162, -0.03205011, 0.08599329, 0.09750848, 0.04827242
 17220609, -0.02354437, 0.00757248, 0.09740946, 0.04818361, 0.04310196, -0.04239391, 0.09746617, 0.04818162
 17420529, -0.02453115, 0.0691555, 0.09746635, 0.04824522, -0.02354437, 0.00757248, 0.09740946, 0.04818361
 17620449, -0.02851463, -0.03789748, 0.09741732, 0.04822831, -0.02453115, 0.0691555, 0.09746635, 0.04824522
 17820369, -0.00988478, -0.005002364, 0.09740003, 0.04818454, -0.02851463, -0.03789748, 0.09741732, 0.04822831
 18020289, 0.05779425, -0.01565975, 0.09747676, 0.0481576, -0.00988478, -0.005002364, 0.09740003, 0.04818454
 18220209, -0.02709725, 0.04502113, 0.09744152, 0.04819838, 0.05779425, -0.01565975, 0.09747676, 0.0481576
 18420962, -0.04642937, 0.02552343, 0.09745778, 0.0481672, -0.02709725, 0.04502113, 0.09744152, 0.04819838
 18620882, -0.07096912, -0.04555231, 0.09749091, 0.04825947, -0.04642937, 0.02552343, 0.09745778, 0.0481672
 18820802, 0.07312668, 0.04157455, 0.09749679, 0.04824628, -0.07096912, -0.04555231, 0.09749091, 0.04825947
 19020722, 0.05983586, 0.04948383, 0.09746841, 0.04826489, 0.07312668, 0.04157455, 0.09749679, 0.04824628
 19220642, -0.03542604, 0.04883249, 0.09746152, 0.04819045, 0.05983586, 0.04948383, 0.09746841, 0.04826489
 19420562, 0.009012252, 0.010228, 0.09740084, 0.04818524, -0.03542604, 0.04883249, 0.09746152, 0.04819045
 19620482, 0.03017326, -0.07640847, 0.09749019, 0.04824753, 0.009012252, 0.010228, 0.09740084, 0.04818524
 19820402, 0.07569607, 0.02550153, 0.09724505, 0.04872628, 0.03017326, -0.07640847, 0.09749019, 0.04824753
 20020322, -0.01593432, 0.03229795, 0.09668716, 0.04964175, 0.07569607, 0.02550153, 0.09724505, 0.04872628
 20220242, -0.001406834, -0.03037655, 0.09599584, 0.05095274, -0.01593432, 0.03229795, 0.09668716, 0.04964175
 20420162, -0.03650796, -0.04958957, 0.095205, 0.05251304, -0.001406834, -0.03037655, 0.09599584, 0.05095274
 20620915, 0.04674518, 0.01904907, 0.0943363, 0.05401701, -0.03650796, -0.04958957, 0.095205, 0.05251304
 20820835, 0.05650099, 0.0593405, 0.09347223, 0.05563252, 0.04674518, 0.01904907, 0.0943363, 0.05401701
 21020755, -0.00483371, 0.03776969, 0.09255758, 0.05697678, 0.05650099, 0.0593405, 0.09347223, 0.05563252
 21220675, 0.3591352, -0.03996718, 0.09460806, 0.05764897, -0.00483371, 0.03776969, 0.09255758, 0.05697678
 21420595, 1.026531, -0.1974112, 0.1126664, 0.05490791, 0.3591352, -0.03996718, 0.09460806, 0.05764897
 21620515, 2.215218, -0.3883914, 0.1666722, 0.04554773, 1.026531, -0.1974112, 0.1126664, 0.05490791
 21820435, 3.774985, -0.7275572, 0.2519394, 0.03153709, 2.215218, -0.3883914, 0.1666722, 0.04554773
 22020355, 5.758294, -1.021199, 0.3648745, 0.01484854, 3.774985, -0.7275572, 0.2519394, 0.03153709
 22220275, 7.896735, -1.269201, 0.4881566, -0.0001847669, 5.758294, -1.021199, 0.3648745, 0.01484854
 22420195, 9.739573, -1.412691, 0.5941996, -0.008422114, 7.896735, -1.269201, 0.4881566, -0.0001847669
 22620948, 11.45627, -1.518935, 0.6919451, -0.01155974, 9.739573, -1.412691, 0.5941996, -0.008422114
 22820868, 13.15772, -1.584968, 0.7846026, -0.01006977, 11.45627, -1.518935, 0.6919451, -0.01155974
 23020788, 14.39495, -1.483021, 0.8502375, -0.005099483, 13.15772, -1.584968, 0.7846026, -0.01006977
 23220708, 16.78874, -1.548807, 0.95809, 0.002451524, 14.39495, -1.483021, 0.8502375, -0.005099483
 23420628, 18.48349, -1.530237, 1.000037, 0.02759793, 16.78874, -1.548807, 0.95809, 0.002451524
 23620548, 19.81662, -1.331531, 1.030135, 0.06410091, 18.48349, -1.530237, 1.000037, 0.02759793
 23820468, 20.94112, -1.45316, 1.066648, 0.1037428, 19.81662, -1.331531, 1.030135, 0.06410091
 24020388, 22.6478, -1.594104, 1.134996, 0.1411234, 20.94112, -1.45316, 1.066648, 0.1037428
 24220308, 23.85977, -1.403964, 1.183097, 0.1842118, 22.6478, -1.594104, 1.134996, 0.1411234
 24420228, 24.92469, -1.597143, 1.232157, 0.2265799, 23.85977, -1.403964, 1.183097, 0.1842118
 24620148, 26.3308, -2.127487, 1.29981, 0.2834266, 24.92469, -1.597143, 1.232157, 0.2265799
 24820901, 26.94449, -1.407432, 1.34164, 0.3400639, 26.3308, -2.127487, 1.29981, 0.2834266
 25020821, 26.961, -2.211436, 1.370115, 0.3942662, 26.94449, -1.407432, 1.34164, 0.3400639
 25220741, 27.39162, -1.929202, 1.414168, 0.4504863, 26.961, -2.211436, 1.370115, 0.3942662
 25420661, 26.7093, -2.091365, 1.417633, 0.5157945, 27.39162, -1.929202, 1.414168, 0.4504863
 25620581, 26.75074, -1.644428, 1.456388, 0.5731847, 26.7093, -2.091365, 1.417633, 0.5157945
 25820501, 26.94905, -1.975026, 1.506302, 0.625161, 26.75074, -1.644428, 1.456388, 0.5731847
 26020421, 27.34571, -1.728614, 1.564531, 0.6794451, 26.94905, -1.975026, 1.506302, 0.625161
 26220341, 26.50234, -2.677985, 1.578658, 0.7325177, 27.34571, -1.728614, 1.564531, 0.6794451
 26420261, 27.40241, -2.181515, 1.654521, 0.7773743, 26.50234, -2.677985, 1.578658, 0.7325177
 26620181, 27.17619, -2.110933, 1.688596, 0.8274635, 27.40241, -2.181515, 1.654521, 0.7773743
 26820934, 25.53906, -2.458628, 1.674651, 0.8782636, 27.17619, -2.110933, 1.688596, 0.8274635
 27020854, 25.8838, -3.094852, 1.734845, 0.9185181, 25.53906, -2.458628, 1.674651, 0.8782636
 27220774, 24.39079, -2.383063, 1.725188, 0.9613129, 25.8838, -3.094852, 1.734845, 0.9185181
 27420694, 23.86015, -1.265872, 1.747209, 0.9973261, 24.39079, -2.383063, 1.725188, 0.9613129
 27620614, 22.64755, -3.063291, 1.756447, 1.028271, 23.86015, -1.265872, 1.747209, 0.9973261
 27820534, 22.79992, -1.559411, 1.798754, 1.055221, 22.64755, -3.063291, 1.756447, 1.028271
 28020454, 23.66488, -2.296205, 1.871233, 1.073618, 22.79992, -1.559411, 1.798754, 1.055221
 28220374, 22.10834, -1.463165, 1.860557, 1.1014, 23.66488, -2.296205, 1.871233, 1.073618
 28420294, 20.52742, -3.659563, 1.863899, 1.125307, 22.10834, -1.463165, 1.860557, 1.1014
 28620214, 21.96882, -2.366588, 1.942466, 1.138713, 20.52742, -3.659563, 1.863899, 1.125307
 28820967, 22.42876, -3.058295, 1.999439, 1.154674, 21.96882, -2.366588, 1.942466, 1.138713
 29020887, 21.78569, -3.210893, 2.021268, 1.174787, 22.42876, -3.058295, 1.999439, 1.154674
 29220807, 19.84186, -2.06732, 2.00222, 1.203451, 21.78569, -3.210893, 2.021268, 1.174787
 29420727, 21.83438, -4.350557, 2.103412, 1.213809, 19.84186, -2.06732, 2.00222, 1.203451
 29620647, 20.30237, -4.520106, 2.098434, 1.241318, 21.83438, -4.350557, 2.103412, 1.213809
 29820567, 19.54216, -4.640994, 2.113086, 1.268158, 20.30237, -4.520106, 2.098434, 1.241318
 30020487, 19.86708, -3.845226, 2.15207, 1.285236, 19.54216, -4.640994, 2.113086, 1.268158
 30220407, 19.30486, -4.633251, 2.174339, 1.308918, 19.86708, -3.845226, 2.15207, 1.285236
 30420327, 20.71834, -3.682781, 2.237758, 1.322793, 19.30486, -4.633251, 2.174339, 1.308918
 30620247, 20.53107, -3.080801, 2.259006, 1.347234, 20.71834, -3.682781, 2.237758, 1.322793
 30820167, 18.28965, -3.424172, 2.235945, 1.375651, 20.53107, -3.080801, 2.259006, 1.347234
 31020920, 19.17585, -2.218233, 2.278694, 1.391352, 18.28965, -3.424172, 2.235945, 1.375651
 31220840, 19.68962, -2.822628, 2.316569, 1.407551, 19.17585, -2.218233, 2.278694, 1.391352
 31420760, 18.27805, -2.215223, 2.306079, 1.431366, 19.68962, -2.822628, 2.316569, 1.407551
 31620680, 19.64641, -2.801491, 2.363525, 1.440771, 18.27805, -2.215223, 2.306079, 1.431366
 31820600, 19.50104, -4.775347, 2.391705, 1.456906, 19.64641, -2.801491, 2.363525, 1.440771
 32020520, 19.12469, -4.469989, 2.40442, 1.473534, 19.50104, -4.775347, 2.391705, 1.456906
 32220440, 17.35068, -4.250752, 2.38575, 1.498077, 19.12469, -4.469989, 2.40442, 1.473534
 32420360, 15.8485, -3.032868, 2.37311, 1.518179, 17.35068, -4.250752, 2.38575, 1.498077
 32620280, 16.77382, -2.521061, 2.409517, 1.531131, 15.8485, -3.032868, 2.37311, 1.518179
 32820200, 18.18577, -1.495022, 2.453424, 1.5442, 16.77382, -2.521061, 2.409517, 1.531131
 33020953, 15.32885, -2.170196, 2.419711, 1.565333, 18.18577, -1.495022, 2.453424, 1.5442
 33220873, 18.47307, -3.442094, 2.505065, 1.566189, 15.32885, -2.170196, 2.419711, 1.565333
 33420793, 17.42133, -4.738508, 2.50765, 1.582662, 18.47307, -3.442094, 2.505065, 1.566189
 33620713, 18.17064, -4.448414, 2.539308, 1.592025, 17.42133, -4.738508, 2.50765, 1.582662
 33820633, 17.3237, -4.870679, 2.54075, 1.608576, 18.17064, -4.448414, 2.539308, 1.592025
 34020553, 15.76525, -4.523169, 2.527398, 1.625073, 17.3237, -4.870679, 2.54075, 1.608576
 34220473, 16.47197, -4.042271, 2.554905, 1.63403, 15.76525, -4.523169, 2.527398, 1.625073
 34420393, 18.00468, -3.146397, 2.598173, 1.63715, 16.47197, -4.042271, 2.554905, 1.63403
 34620313, 14.77895, -2.497071, 2.554656, 1.656402, 18.00468, -3.146397, 2.598173, 1.63715
 34820233, 16.39812, -3.435487, 2.600016, 1.661831, 14.77895, -2.497071, 2.554656, 1.656402
 35020153, 15.32611, -2.576912, 2.614617, 1.745634, 16.39812, -3.435487, 2.600016, 1.661831
 35220906, 18.59984, -5.091262, 3.005852, 1.883702, 15.32611, -2.576912, 2.614617, 1.745634
 35420826, 15.9266, -5.22642, 3.315384, 1.902968, 18.59984, -5.091262, 3.005852, 1.883702
 35620746, 18.28244, -5.536376, 2.946613, 1.849314, 15.9266, -5.22642, 3.315384, 1.902968
 35820666, 19.18361, -1.752162, 2.5447, 1.834251, 18.28244, -5.536376, 2.946613, 1.849314
 36020586, 19.17904, -2.866026, 2.37924, 1.84083, 19.18361, -1.752162, 2.5447, 1.834251
 36220506, 20.00139, -2.909747, 2.348186, 1.811826, 19.17904, -2.866026, 2.37924, 1.84083
 36420426, 22.80472, -3.568601, 2.350582, 1.765965, 20.00139, -2.909747, 2.348186, 1.811826
 36620346, 22.53966, -3.253725, 2.246884, 1.720916, 22.80472, -3.568601, 2.350582, 1.765965
 36820266, 22.57162, -1.8251, 2.13864, 1.679772, 22.53966, -3.253725, 2.246884, 1.720916
 37020186, 22.97294, 0.6725609, 2.059929, 1.635527, 22.57162, -1.8251, 2.13864, 1.679772
 37220939, 23.45996, 0.3427954, 1.999575, 1.585784, 22.97294, 0.6725609, 2.059929, 1.635527
 37420859, 24.49428, -0.8280106, 1.962538, 1.531523, 23.45996, 0.3427954, 1.999575, 1.585784
 37620779, 24.70709, 0.2707748, 1.898429, 1.479739, 24.49428, -0.8280106, 1.962538, 1.531523
 37820699, 26.94092, -0.3078123, 1.898264, 1.444733, 24.70709, 0.2707748, 1.898429, 1.479739
 38020619, 25.50136, 1.848581, 1.791226, 1.416739, 26.94092, -0.3078123, 1.898264, 1.444733
 38220539, 28.14601, 1.514726, 1.836994, 1.395587, 25.50136, 1.848581, 1.791226, 1.416739
 38420459, 27.20097, 1.234678, 1.768242, 1.373596, 28.14601, 1.514726, 1.836994, 1.395587
 38620379, 27.3398, 0.6442004, 1.742456, 1.362212, 27.20097, 1.234678, 1.768242, 1.373596
 38820299, 28.35579, 1.368095, 1.755391, 1.358577, 27.3398, 0.6442004, 1.742456, 1.362212
 39020219, 27.89303, 2.658353, 1.720865, 1.353977, 28.35579, 1.368095, 1.755391, 1.358577
 39220972, 27.70988, 2.801952, 1.699966, 1.353072, 27.89303, 2.658353, 1.720865, 1.353977
 39420892, 28.47029, 3.233158, 1.71644, 1.361741, 27.70988, 2.801952, 1.699966, 1.353072
 39620812, 28.53328, 3.667095, 1.709832, 1.371069, 28.47029, 3.233158, 1.71644, 1.361741
 39820732, 28.86376, 2.865732, 1.710471, 1.384734, 28.53328, 3.667095, 1.709832, 1.371069
 40020652, 28.04212, 3.15741, 1.676099, 1.392926, 28.86376, 2.865732, 1.710471, 1.384734
 40220572, 28.69475, 3.500163, 1.697626, 1.412908, 28.04212, 3.15741, 1.676099, 1.392926
 40420492, 27.80798, 2.963879, 1.662743, 1.422215, 28.69475, 3.500163, 1.697626, 1.412908
 40620412, 28.62513, 3.226542, 1.695857, 1.44712, 27.80798, 2.963879, 1.662743, 1.422215
 40820332, 27.89112, 2.629217, 1.670264, 1.465092, 28.62513, 3.226542, 1.695857, 1.44712
 41020252, 28.36601, 3.113777, 1.695385, 1.490787, 27.89112, 2.629217, 1.670264, 1.465092
 41220172, 27.66692, 3.835381, 1.681296, 1.508949, 28.36601, 3.113777, 1.695385, 1.490787
 41420925, 29.39375, 3.440466, 1.750683, 1.539895, 27.66692, 3.835381, 1.681296, 1.508949
 41620845, 28.54888, 3.191919, 1.726432, 1.557251, 29.39375, 3.440466, 1.750683, 1.539895
 41820765, 29.68781, 3.462037, 1.77432, 1.588996, 28.54888, 3.191919, 1.726432, 1.557251
 42020685, 28.70197, 4.151977, 1.752542, 1.605206, 29.68781, 3.462037, 1.77432, 1.588996
 42220605, 27.83892, 3.870647, 1.730071, 1.624002, 28.70197, 4.151977, 1.752542, 1.605206
 42420525, 29.20013, 4.368757, 1.792257, 1.655466, 27.83892, 3.870647, 1.730071, 1.624002
 42620445, 29.1147, 4.994651, 1.804139, 1.680489, 29.20013, 4.368757, 1.792257, 1.655466
 42820365, 27.95634, 5.323605, 1.779559, 1.697619, 29.1147, 4.994651, 1.804139, 1.680489
 43020285, 27.20323, 4.656246, 1.761863, 1.718169, 27.95634, 5.323605, 1.779559, 1.697619
 43220205, 27.4987, 4.903471, 1.785633, 1.744238, 27.20323, 4.656246, 1.761863, 1.718169
 43420958, 27.5232, 3.655605, 1.795028, 1.763402, 27.4987, 4.903471, 1.785633, 1.744238
 43620878, 28.25684, 5.272502, 1.840326, 1.788391, 27.5232, 3.655605, 1.795028, 1.763402
 43820798, 29.0796, 3.084676, 1.86893, 1.808886, 28.25684, 5.272502, 1.840326, 1.788391
 44020718, 29.79582, 3.529974, 1.908888, 1.834491, 29.0796, 3.084676, 1.86893, 1.808886
 44220638, 27.38614, 3.543309, 1.843745, 1.846949, 29.79582, 3.529974, 1.908888, 1.834491
 44420558, 27.07785, 4.515929, 1.854929, 1.869471, 27.38614, 3.543309, 1.843745, 1.846949
 44620478, 27.41679, 5.139561, 1.879277, 1.900504, 27.07785, 4.515929, 1.854929, 1.869471
 44820398, 29.382, 5.105837, 1.955835, 1.933254, 27.41679, 5.139561, 1.879277, 1.900504
 45020318, 27.62703, 3.610164, 1.907834, 1.943413, 29.382, 5.105837, 1.955835, 1.933254
 45220238, 27.52477, 3.030577, 1.911875, 1.964821, 27.62703, 3.610164, 1.907834, 1.943413
 45420158, 26.57957, 4.962326, 1.904004, 1.978347, 27.52477, 3.030577, 1.911875, 1.964821
 45620911, 26.88163, 3.470434, 1.917752, 1.992801, 26.57957, 4.962326, 1.904004, 1.978347
 45820831, 29.22743, 3.878635, 2.000373, 2.020093, 26.88163, 3.470434, 1.917752, 1.992801
 46020751, 28.34439, 5.309759, 1.989633, 2.030416, 29.22743, 3.878635, 2.000373, 2.020093
 46220671, 27.66646, 4.589208, 1.973851, 2.039569, 28.34439, 5.309759, 1.989633, 2.030416
 46420591, 26.44157, 4.703454, 1.946995, 2.044451, 27.66646, 4.589208, 1.973851, 2.039569
 46620511, 28.12824, 3.335108, 1.99968, 2.060983, 26.44157, 4.703454, 1.946995, 2.044451
 46820431, 27.24501, 4.255325, 1.985374, 2.063316, 28.12824, 3.335108, 1.99968, 2.060983
 47020351, 27.40254, 2.34843, 1.989621, 2.06869, 27.24501, 4.255325, 1.985374, 2.063316
 47220271, 25.50085, 4.147808, 1.947651, 2.066691, 27.40254, 2.34843, 1.989621, 2.06869
 47420191, 27.59759, 3.997544, 2.014115, 2.081133, 25.50085, 4.147808, 1.947651, 2.066691
 47620944, 27.06961, 3.574255, 1.99943, 2.087533, 27.59759, 3.997544, 2.014115, 2.081133
 47820864, 27.20018, 3.009037, 2.009696, 2.091097, 27.06961, 3.574255, 1.99943, 2.087533
 48020784, 28.67278, 4.610562, 2.063912, 2.108182, 27.20018, 3.009037, 2.009696, 2.091097
 48220704, 25.9964, 1.889121, 1.978231, 2.105632, 28.67278, 4.610562, 2.063912, 2.108182
 48420624, 28.31651, 3.080938, 2.05685, 2.120742, 25.9964, 1.889121, 1.978231, 2.105632
 48620544, 25.75634, 3.734141, 1.988089, 2.119306, 28.31651, 3.080938, 2.05685, 2.120742
 48820464, 28.7435, 2.200454, 2.077604, 2.135319, 25.75634, 3.734141, 1.988089, 2.119306
 49020384, 28.27498, 4.982383, 2.079769, 2.141317, 28.7435, 2.200454, 2.077604, 2.135319
 49220304, 27.97608, 4.393998, 2.071705, 2.148955, 28.27498, 4.982383, 2.079769, 2.141317
 49420224, 27.13781, 3.017431, 2.050008, 2.151415, 27.97608, 4.393998, 2.071705, 2.148955
 49620977, 28.39029, 5.245154, 2.099915, 2.167599, 27.13781, 3.017431, 2.050008, 2.151415
 49820897, 26.34039, 3.455484, 2.041274, 2.16349, 28.39029, 5.245154, 2.099915, 2.167599
 50020817, 26.34409, 3.717583, 2.046701, 2.174143, 26.34039, 3.455484, 2.041274, 2.16349
 50220737, 26.37992, 4.461235, 2.058993, 2.183008, 26.34409, 3.717583, 2.046701, 2.174143
 50420657, 27.22363, 5.242222, 2.09103, 2.198529, 26.37992, 4.461235, 2.058993, 2.183008
 50620577, 27.1946, 4.408085, 2.092101, 2.207904, 27.22363, 5.242222, 2.09103, 2.198529
 50820497, 29.19527, 3.238847, 2.1508, 2.223735, 27.1946, 4.408085, 2.092101, 2.207904
 51020417, 26.54898, 4.643124, 2.087868, 2.220736, 29.19527, 3.238847, 2.1508, 2.223735
 51220337, 26.31776, 3.328833, 2.078514, 2.219735, 26.54898, 4.643124, 2.087868, 2.220736
 51420257, 27.22273, 2.272223, 2.097064, 2.225492, 26.31776, 3.328833, 2.078514, 2.219735
 51620177, 25.82574, 4.905337, 2.070876, 2.218875, 27.22273, 2.272223, 2.097064, 2.225492
 51820930, 27.26338, 1.746249, 2.101288, 2.221327, 25.82574, 4.905337, 2.070876, 2.218875
 52020850, 28.90162, 2.843789, 2.150071, 2.225747, 27.26338, 1.746249, 2.101288, 2.221327
 52220770, 27.72809, 5.145484, 2.125213, 2.221211, 28.90162, 2.843789, 2.150071, 2.225747
 52420690, 27.10836, 1.864044, 2.095108, 2.217441, 27.72809, 5.145484, 2.125213, 2.221211
 52620610, 27.80611, 2.433964, 2.118014, 2.218765, 27.10836, 1.864044, 2.095108, 2.217441
 52820530, 28.83605, 4.033644, 2.159189, 2.220332, 27.80611, 2.433964, 2.118014, 2.218765
 53020450, 26.66749, 3.77382, 2.094318, 2.21563, 28.83605, 4.033644, 2.159189, 2.220332
 53220370, 27.91773, 2.817998, 2.126314, 2.220546, 26.66749, 3.77382, 2.094318, 2.21563
 53420290, 27.12774, 2.626075, 2.105988, 2.218987, 27.91773, 2.817998, 2.126314, 2.220546
 53620210, 29.24709, 3.274133, 2.168933, 2.229512, 27.12774, 2.626075, 2.105988, 2.218987
 53820963, 28.32049, 1.892265, 2.137791, 2.230363, 29.24709, 3.274133, 2.168933, 2.229512
 54020883, 28.3749, 4.54578, 2.155785, 2.229988, 28.32049, 1.892265, 2.137791, 2.230363
 54220803, 27.4563, 5.021793, 2.134085, 2.230206, 28.3749, 4.54578, 2.155785, 2.229988
 54420723, 29.41002, 3.370846, 2.187285, 2.239707, 27.4563, 5.021793, 2.134085, 2.230206
 54620643, 26.39101, 4.454506, 2.105269, 2.235427, 29.41002, 3.370846, 2.187285, 2.239707
 54820563, 26.69407, 3.442806, 2.106566, 2.238741, 26.39101, 4.454506, 2.105269, 2.235427
 55020483, 27.88669, 2.715803, 2.139612, 2.236755, 26.69407, 3.442806, 2.106566, 2.238741
 55220403, 27.91683, 2.999963, 2.14024, 2.233963, 27.88669, 2.715803, 2.139612, 2.236755
 55420323, 27.17323, 3.675622, 2.119967, 2.229398, 27.91683, 2.999963, 2.14024, 2.233963
 55620243, 28.47106, 4.018074, 2.158822, 2.231203, 27.17323, 3.675622, 2.119967, 2.229398
 55820163, 27.05255, 1.854377, 2.104609, 2.229251, 28.47106, 4.018074, 2.158822, 2.231203
 56020916, 29.03155, 3.100625, 2.165031, 2.236252, 27.05255, 1.854377, 2.104609, 2.229251
 56220836, 27.64018, 2.139684, 2.124014, 2.228853, 29.03155, 3.100625, 2.165031, 2.236252
 56420756, 27.72538, 1.979259, 2.126507, 2.228965, 27.64018, 2.139684, 2.124014, 2.228853
 56620676, 26.90411, 4.821402, 2.112808, 2.227578, 27.72538, 1.979259, 2.126507, 2.228965
 56820596, 26.30652, 2.530739, 2.083767, 2.22736, 26.90411, 4.821402, 2.112808, 2.227578
 57020516, 26.74182, 3.174668, 2.097975, 2.227362, 26.30652, 2.530739, 2.083767, 2.22736
 57220436, 27.08814, 4.363828, 2.11175, 2.22895, 26.74182, 3.174668, 2.097975, 2.227362
 57420356, 28.6281, 3.328949, 2.150306, 2.237377, 27.08814, 4.363828, 2.11175, 2.22895
 57620276, 26.49054, 3.668529, 2.095711, 2.225833, 28.6281, 3.328949, 2.150306, 2.237377
 57820196, 28.55114, 5.290776, 2.160619, 2.239555, 26.49054, 3.668529, 2.095711, 2.225833
 58020949, 26.63434, 4.920681, 2.102072, 2.235181, 28.55114, 5.290776, 2.160619, 2.239555
 58220869, 27.34928, 3.301338, 2.117269, 2.23782, 26.63434, 4.920681, 2.102072, 2.235181
 58420789, 27.34967, 2.854936, 2.121264, 2.2459, 27.34928, 3.301338, 2.117269, 2.23782
 58620709, 28.50633, 2.463561, 2.15834, 2.261272, 27.34967, 2.854936, 2.121264, 2.2459
 58820629, 26.92406, 3.535003, 2.127225, 2.264616, 28.50633, 2.463561, 2.15834, 2.261272
 59020549, 28.01269, 4.170563, 2.161899, 2.28741, 26.92406, 3.535003, 2.127225, 2.264616
 59220469, 29.51966, 5.564394, 2.215889, 2.310491, 28.01269, 4.170563, 2.161899, 2.28741
 59420389, 28.71696, 3.944862, 2.193605, 2.316692, 29.51966, 5.564394, 2.215889, 2.310491
 59620309, 28.99279, 3.960502, 2.208539, 2.329721, 28.71696, 3.944862, 2.193605, 2.316692
 59820229, 29.51112, 4.131367, 2.228739, 2.344917, 28.99279, 3.960502, 2.208539, 2.329721
 60020149, 27.53063, 5.490493, 2.183822, 2.352495, 29.51112, 4.131367, 2.228739, 2.344917
 60220902, 29.02457, 2.630002, 2.226575, 2.362519, 27.53063, 5.490493, 2.183822, 2.352495
 60420822, 28.25874, 1.970893, 2.205447, 2.376368, 29.02457, 2.630002, 2.226575, 2.362519
 60620742, 29.39326, 2.278706, 2.246084, 2.393619, 28.25874, 1.970893, 2.205447, 2.376368
 60820662, 27.98311, 4.647438, 2.220956, 2.403095, 29.39326, 2.278706, 2.246084, 2.393619
 61020582, 29.69393, 4.316718, 2.317242, 2.387093, 27.98311, 4.647438, 2.220956, 2.403095
 61220502, 30.21102, 2.042748, 2.33789, 2.452734, 29.69393, 4.316718, 2.317242, 2.387093
 61420422, 26.73306, 5.080262, 2.27319, 2.47928, 30.21102, 2.042748, 2.33789, 2.452734
 61620342, 29.89262, 4.171126, 2.3749, 2.456971, 26.73306, 5.080262, 2.27319, 2.47928
 61820262, 28.39486, 2.188749, 2.362264, 2.406951, 29.89262, 4.171126, 2.3749, 2.456971
 62020182, 27.58381, 3.273116, 2.376963, 2.377387, 28.39486, 2.188749, 2.362264, 2.406951
 62220935, 27.76467, 3.360989, 2.411923, 2.362566, 27.58381, 3.273116, 2.376963, 2.377387
 62420855, 29.59335, 2.360751, 2.487398, 2.356297, 27.76467, 3.360989, 2.411923, 2.362566
 62620775, 30.19771, 2.455606, 2.533284, 2.347309, 29.59335, 2.360751, 2.487398, 2.356297
 62820695, 27.69241, 0.2558972, 2.483, 2.342595, 30.19771, 2.455606, 2.533284, 2.347309
 63020615, 29.78352, 0.4983871, 2.569409, 2.332977, 27.69241, 0.2558972, 2.483, 2.342595
 63220535, 28.1318, 3.09253, 2.553662, 2.321956, 29.78352, 0.4983871, 2.569409, 2.332977
 63420455, 27.1816, -1.095415, 2.549058, 2.312268, 28.1318, 3.09253, 2.553662, 2.321956
 63620375, 28.14944, 0.5021324, 2.596938, 2.306273, 27.1816, -1.095415, 2.549058, 2.312268
 63820295, 26.76591, 2.060855, 2.585103, 2.302542, 28.14944, 0.5021324, 2.596938, 2.306273
 64020215, 30.49233, 2.506919, 2.708081, 2.299577, 26.76591, 2.060855, 2.585103, 2.302542
 64220968, 30.2778, 2.486099, 2.718939, 2.302234, 30.49233, 2.506919, 2.708081, 2.299577
 64420888, 27.01698, -1.246914, 2.654716, 2.294551, 30.2778, 2.486099, 2.718939, 2.302234
 64620808, 30.40345, 0.5568416, 2.762525, 2.291586, 27.01698, -1.246914, 2.654716, 2.294551
 64820728, 30.54677, -1.942538, 2.784064, 2.29357, 30.40345, 0.5568416, 2.762525, 2.291586
 65020648, 30.0625, -1.234053, 2.787989, 2.293167, 30.54677, -1.942538, 2.784064, 2.29357
 65220568, 29.81058, -0.5914291, 2.797457, 2.294453, 30.0625, -1.234053, 2.787989, 2.293167
 65420488, 26.61818, 0.001491457, 2.727199, 2.293326, 29.81058, -0.5914291, 2.797457, 2.294453
 65620408, 27.42751, 0.7533838, 2.754437, 2.292591, 26.61818, 0.001491457, 2.727199, 2.293326
 65820328, 27.22099, 1.786678, 2.756626, 2.291679, 27.42751, 0.7533838, 2.754437, 2.292591
 66020248, 29.60143, -1.738219, 2.825333, 2.288514, 27.22099, 1.786678, 2.756626, 2.291679
 66220168, 29.4033, 0.1542425, 2.825885, 2.286184, 29.60143, -1.738219, 2.825333, 2.288514
 66420921, 30.88725, -0.6469622, 2.868001, 2.287446, 29.4033, 0.1542425, 2.825885, 2.286184
 66620841, 27.81604, -0.8390318, 2.790781, 2.290081, 30.88725, -0.6469622, 2.868001, 2.287446
 66820761, 28.65374, 1.502062, 2.814846, 2.292096, 27.81604, -0.8390318, 2.790781, 2.290081
 67020681, 30.89588, -2.822476, 2.881155, 2.288754, 28.65374, 1.502062, 2.814846, 2.292096
 67220601, 28.88127, 1.156516, 2.826813, 2.292838, 30.89588, -2.822476, 2.881155, 2.288754
 67420521, 27.30527, -1.83447, 2.789951, 2.292903, 28.88127, 1.156516, 2.826813, 2.292838
 67620441, 27.44377, 1.429987, 2.791634, 2.298963, 27.30527, -1.83447, 2.789951, 2.292903
 67820361, 27.37482, 1.09287, 2.790452, 2.298991, 27.44377, 1.429987, 2.791634, 2.298963
 68020281, 29.515, 1.149247, 2.847746, 2.299635, 27.37482, 1.09287, 2.790452, 2.298991
 68220201, 30.29986, -2.075276, 2.873988, 2.298112, 29.515, 1.149247, 2.847746, 2.299635
 68420954, 30.56744, -0.2801113, 2.881205, 2.297365, 30.29986, -2.075276, 2.873988, 2.298112
 68620874, 27.89133, 0.475656, 2.805513, 2.306931, 30.56744, -0.2801113, 2.881205, 2.297365
 68820794, 28.30337, -1.715239, 2.822074, 2.30672, 27.89133, 0.475656, 2.805513, 2.306931
 69020714, 30.31777, -2.224879, 2.87492, 2.315323, 28.30337, -1.715239, 2.822074, 2.30672
 69220634, 27.24393, -0.6761042, 2.797224, 2.322472, 30.31777, -2.224879, 2.87492, 2.315323
 69420554, 27.36207, -2.356422, 2.80558, 2.329639, 27.24393, -0.6761042, 2.797224, 2.322472
 69620474, 28.10268, 0.9569033, 2.825359, 2.334345, 27.36207, -2.356422, 2.80558, 2.329639
 69820394, 28.94471, -1.401204, 2.844493, 2.340529, 28.10268, 0.9569033, 2.825359, 2.334345
 70020314, 28.39834, -1.28926, 2.824582, 2.344354, 28.94471, -1.401204, 2.844493, 2.340529
 70220234, 28.71694, 0.2261699, 2.827574, 2.338711, 28.39834, -1.28926, 2.824582, 2.344354
 70420154, 25.50443, -1.398922, 2.739594, 2.332753, 28.71694, 0.2261699, 2.827574, 2.338711
 70620907, 28.77099, -0.08143756, 2.800909, 2.320793, 25.50443, -1.398922, 2.739594, 2.332753
 70820827, 26.15323, -1.965528, 2.718188, 2.308031, 28.77099, -0.08143756, 2.800909, 2.320793
 71020747, 26.44815, -0.3923139, 2.699655, 2.289074, 26.15323, -1.965528, 2.718188, 2.308031
 71220667, 29.44292, -1.467214, 2.750113, 2.263474, 26.44815, -0.3923139, 2.699655, 2.289074
 71420587, 26.84566, -0.02130282, 2.658589, 2.237208, 29.44292, -1.467214, 2.750113, 2.263474
 71620507, 26.08361, -2.067679, 2.605044, 2.213444, 26.84566, -0.02130282, 2.658589, 2.237208
 71820427, 29.12813, 1.739017, 2.652685, 2.188669, 26.08361, -2.067679, 2.605044, 2.213444
 72020347, 25.63218, -1.517346, 2.539172, 2.164703, 29.12813, 1.739017, 2.652685, 2.188669
 72220267, 28.22564, -1.164747, 2.585642, 2.137804, 25.63218, -1.517346, 2.539172, 2.164703
 72420187, 26.39078, -1.267448, 2.515323, 2.120116, 28.22564, -1.164747, 2.585642, 2.137804
 72620940, 26.25257, 0.2596894, 2.491434, 2.102497, 26.39078, -1.267448, 2.515323, 2.120116
 72820860, 29.57677, -0.9797418, 2.563173, 2.08808, 26.25257, 0.2596894, 2.491434, 2.102497
 73020780, 28.14981, -1.087808, 2.506981, 2.076044, 29.57677, -0.9797418, 2.563173, 2.08808
 73220700, 27.21246, 1.824508, 2.468868, 2.067512, 28.14981, -1.087808, 2.506981, 2.076044
 73420620, 28.84712, 1.88982, 2.505413, 2.056986, 27.21246, 1.824508, 2.468868, 2.067512
 73620540, 28.77747, -0.108755, 2.491578, 2.050896, 28.84712, 1.88982, 2.505413, 2.056986
 73820460, 30.13015, -1.773912, 2.527009, 2.044676, 28.77747, -0.108755, 2.491578, 2.050896
 74020380, 27.37695, -0.6047932, 2.443283, 2.039195, 30.13015, -1.773912, 2.527009, 2.044676
 74220300, 28.42891, 0.6592282, 2.468852, 2.03684, 27.37695, -0.6047932, 2.443283, 2.039195
 74420220, 29.37332, 0.7403027, 2.492454, 2.036371, 28.42891, 0.6592282, 2.468852, 2.03684
 74620973, 27.13152, -1.727731, 2.429435, 2.034841, 29.37332, 0.7403027, 2.492454, 2.036371
 74820893, 30.36584, 0.4215573, 2.519244, 2.040806, 27.13152, -1.727731, 2.429435, 2.034841
 75020813, 29.80793, -1.133525, 2.505455, 2.044158, 30.36584, 0.4215573, 2.519244, 2.040806
 75220733, 28.22086, -1.520583, 2.461661, 2.046812, 29.80793, -1.133525, 2.505455, 2.044158
 75420653, 28.36214, 0.3254202, 2.466345, 2.050351, 28.22086, -1.520583, 2.461661, 2.046812
 75620573, 27.4043, 1.69103, 2.44246, 2.057045, 28.36214, 0.3254202, 2.466345, 2.050351
 75820493, 29.57109, 0.3175483, 2.506837, 2.064752, 27.4043, 1.69103, 2.44246, 2.057045
 76020413, 27.25092, 0.4941342, 2.444079, 2.066794, 29.57109, 0.3175483, 2.506837, 2.064752
 76220333, 29.39561, -1.302422, 2.506032, 2.069953, 27.25092, 0.4941342, 2.444079, 2.066794
 76420253, 28.78014, -1.339164, 2.486398, 2.077765, 29.39561, -1.302422, 2.506032, 2.069953
 76620173, 29.83216, 1.470081, 2.525735, 2.076052, 28.78014, -1.339164, 2.486398, 2.077765
 76820926, 29.39924, 1.572589, 2.514894, 2.081903, 29.83216, 1.470081, 2.525735, 2.076052
 77020846, 30.12376, -0.3118459, 2.540343, 2.081617, 29.39924, 1.572589, 2.514894, 2.081903
 77220766, 28.13502, 1.524987, 2.482061, 2.088244, 30.12376, -0.3118459, 2.540343, 2.081617
 77420686, 28.31973, 0.4388387, 2.48513, 2.087204, 28.13502, 1.524987, 2.482061, 2.088244
 77620606, 28.74602, 1.539093, 2.493995, 2.08239, 28.31973, 0.4388387, 2.48513, 2.087204
 77820526, 26.34482, 1.568935, 2.421098, 2.074299, 28.74602, 1.539093, 2.493995, 2.08239
 78020446, 26.89803, -1.669821, 2.422799, 2.06318, 26.34482, 1.568935, 2.421098, 2.074299
 78220366, 28.10984, 2.048081, 2.441714, 2.047471, 26.89803, -1.669821, 2.422799, 2.06318
 78420286, 28.76073, -0.5927686, 2.44174, 2.028889, 28.10984, 2.048081, 2.441714, 2.047471
 78620206, 26.619, -1.408185, 2.364091, 2.00754, 28.76073, -0.5927686, 2.44174, 2.028889
 78820959, 27.84996, -0.8635852, 2.378196, 1.978889, 26.619, -1.408185, 2.364091, 2.00754
 79020879, 28.72126, 1.984545, 2.381599, 1.953174, 27.84996, -0.8635852, 2.378196, 1.978889
 79220799, 27.87688, 1.744964, 2.337843, 1.925398, 28.72126, 1.984545, 2.381599, 1.953174
 79420719, 26.44396, -1.226443, 2.273575, 1.896589, 27.87688, 1.744964, 2.337843, 1.925398
 79620639, 29.61042, 1.873164, 2.345752, 1.86754, 26.44396, -1.226443, 2.273575, 1.896589
 79820559, 27.13223, -0.4034171, 2.249035, 1.837044, 29.61042, 1.873164, 2.345752, 1.86754
 80020479, 27.58908, -1.284588, 2.240852, 1.812889, 27.13223, -0.4034171, 2.249035, 1.837044
 80220399, 29.45133, 0.4609526, 2.282277, 1.781127, 27.58908, -1.284588, 2.240852, 1.812889
 80420319, 29.78462, 0.9623257, 2.275395, 1.75641, 29.45133, 0.4609526, 2.282277, 1.781127
 80620239, 28.0888, 1.304727, 2.203322, 1.735925, 29.78462, 0.9623257, 2.275395, 1.75641
 80820159, 27.83523, 0.6700206, 2.180887, 1.715399, 28.0888, 1.304727, 2.203322, 1.735925
 81020912, 29.77657, -0.4390517, 2.230828, 1.696861, 27.83523, 0.6700206, 2.180887, 1.715399
 81220832, 28.45022, 0.8174658, 2.176635, 1.680671, 29.77657, -0.4390517, 2.230828, 1.696861
 81420752, 29.17698, 0.4500278, 2.189031, 1.66558, 28.45022, 0.8174658, 2.176635, 1.680671
 81620672, 28.04331, 0.3709027, 2.145274, 1.650338, 29.17698, 0.4500278, 2.189031, 1.66558
 81820592, 29.6596, -0.6761833, 2.18878, 1.643595, 28.04331, 0.3709027, 2.145274, 1.650338
 82020512, 28.8833, 0.1203222, 2.15823, 1.631617, 29.6596, -0.6761833, 2.18878, 1.643595
 82220432, 29.85624, -0.07605714, 2.185615, 1.622024, 28.8833, 0.1203222, 2.15823, 1.631617
 82420352, 28.99772, -1.160649, 2.150881, 1.615305, 29.85624, -0.07605714, 2.185615, 1.622024
 82620272, 29.82161, -0.1354591, 2.174484, 1.604929, 28.99772, -1.160649, 2.150881, 1.615305
 82820192, 27.84139, 0.6743565, 2.104827, 1.598109, 29.82161, -0.1354591, 2.174484, 1.604929
 83020945, 29.21212, 0.2491005, 2.145944, 1.597382, 27.84139, 0.6743565, 2.104827, 1.598109
 83220865, 29.12926, 0.8676434, 2.142203, 1.597439, 29.21212, 0.2491005, 2.145944, 1.597382
 83420785, 28.53837, -0.8726196, 2.120883, 1.598639, 29.12926, 0.8676434, 2.142203, 1.597439
 83620705, 29.13628, 1.417751, 2.14289, 1.601081, 28.53837, -0.8726196, 2.120883, 1.598639
 83820625, 31.10753, 1.015409, 2.217144, 1.605583, 29.13628, 1.417751, 2.14289, 1.601081
 84020545, 29.65098, 0.5450565, 2.173233, 1.618079, 31.10753, 1.015409, 2.217144, 1.605583
 84220465, 31.28833, 0.3510953, 2.241108, 1.633467, 29.65098, 0.5450565, 2.173233, 1.618079
 84420385, 31.76457, -0.2416184, 2.271905, 1.651829, 31.28833, 0.3510953, 2.241108, 1.633467
 84620305, 31.64474, 1.718922, 2.285605, 1.675263, 31.76457, -0.2416184, 2.271905, 1.651829
 84820225, 29.4126, -0.3739854, 2.226958, 1.702375, 31.64474, 1.718922, 2.285605, 1.675263
 85020145, 30.84083, 1.666676, 2.295724, 1.731024, 29.4126, -0.3739854, 2.226958, 1.702375
 85220898, 29.12686, 0.2257217, 2.258703, 1.764146, 30.84083, 1.666676, 2.295724, 1.731024
 85420818, 29.95826, -1.265746, 2.307819, 1.795576, 29.12686, 0.2257217, 2.258703, 1.764146
 85620738, 30.76363, 1.420201, 2.358459, 1.822994, 29.95826, -1.265746, 2.307819, 1.795576
 85820658, 29.01952, -0.7994822, 2.323165, 1.851773, 30.76363, 1.420201, 2.358459, 1.822994
 86020578, 31.15904, 0.4288242, 2.409653, 1.880775, 29.01952, -0.7994822, 2.323165, 1.851773
 86220498, 31.73617, 0.3214408, 2.445466, 1.906676, 31.15904, 0.4288242, 2.409653, 1.880775
 86420418, 31.3215, 0.2495684, 2.44957, 1.929658, 31.73617, 0.3214408, 2.445466, 1.906676
 86620338, 31.08274, -0.452071, 2.458233, 1.952379, 31.3215, 0.2495684, 2.44957, 1.929658
 86820258, 31.24309, 1.196689, 2.479046, 1.973317, 31.08274, -0.452071, 2.458233, 1.952379
 87020178, 28.17949, -0.2054496, 2.399641, 1.992457, 31.24309, 1.196689, 2.479046, 1.973317
 87220931, 28.44873, 1.19013, 2.422019, 2.008174, 28.17949, -0.2054496, 2.399641, 1.992457
 87420851, 29.25877, 0.9494362, 2.455999, 2.023702, 28.44873, 1.19013, 2.422019, 2.008174
 87620771, 30.21505, -1.068058, 2.493975, 2.036502, 29.25877, 0.9494362, 2.455999, 2.023702
 87820691, 30.91549, -0.03920048, 2.524872, 2.047533, 30.21505, -1.068058, 2.493975, 2.036502
 88020611, 28.12029, -0.7848971, 2.451854, 2.056686, 30.91549, -0.03920048, 2.524872, 2.047533
 88220531, 28.33137, 0.09701425, 2.463272, 2.066203, 28.12029, -0.7848971, 2.451854, 2.056686
 88420451, 29.29436, -1.087745, 2.498991, 2.072688, 28.33137, 0.09701425, 2.463272, 2.066203
 88620371, 27.59378, 0.5396886, 2.453668, 2.080377, 29.29436, -1.087745, 2.498991, 2.072688
 88820291, 27.97838, -1.273125, 2.470082, 2.085888, 27.59378, 0.5396886, 2.453668, 2.080377
 89020211, 28.44332, 1.948834, 2.488017, 2.090803, 27.97838, -1.273125, 2.470082, 2.085888
 89220964, 28.4524, 1.579779, 2.490337, 2.097566, 28.44332, 1.948834, 2.488017, 2.090803
 89420884, 26.8907, 1.630764, 2.454995, 2.09668, 28.4524, 1.579779, 2.490337, 2.097566
 89620804, 28.94382, 1.76176, 2.515089, 2.100794, 26.8907, 1.630764, 2.454995, 2.09668
 89820724, 28.93967, -0.6330242, 2.520963, 2.102141, 28.94382, 1.76176, 2.515089, 2.100794
 90020644, 29.24143, 1.462646, 2.532858, 2.109997, 28.93967, -0.6330242, 2.520963, 2.102141
 90220564, 28.32677, 0.6634306, 2.51272, 2.11323, 29.24143, 1.462646, 2.532858, 2.109997
 90420484, 30.43744, -1.539963, 2.579717, 2.116817, 28.32677, 0.6634306, 2.51272, 2.11323
 90620404, 26.95589, -1.124761, 2.487159, 2.120605, 30.43744, -1.539963, 2.579717, 2.116817
 90820324, 29.23258, 2.135873, 2.554723, 2.126946, 26.95589, -1.124761, 2.487159, 2.120605
 91020244, 28.66942, -1.660159, 2.543592, 2.128764, 29.23258, 2.135873, 2.554723, 2.126946
 91220164, 27.54762, -0.837756, 2.517177, 2.130707, 28.66942, -1.660159, 2.543592, 2.128764
 91420917, 26.66308, -1.447353, 2.499629, 2.132041, 27.54762, -0.837756, 2.517177, 2.130707
 91620837, 27.29741, 1.660146, 2.520762, 2.136458, 26.66308, -1.447353, 2.499629, 2.132041
 91820757, 27.03527, 1.644822, 2.514459, 2.142581, 27.29741, 1.660146, 2.520762, 2.136458
 92020677, 30.27111, -1.944858, 2.609215, 2.145246, 27.03527, 1.644822, 2.514459, 2.142581
 92220597, 27.3878, 2.170584, 2.532639, 2.150192, 30.27111, -1.944858, 2.609215, 2.145246
 92420517, 26.79736, -1.262157, 2.521103, 2.151614, 27.3878, 2.170584, 2.532639, 2.150192
 92620437, 29.09656, 0.1044661, 2.588799, 2.151922, 26.79736, -1.262157, 2.521103, 2.151614
 92820357, 27.32025, 1.92054, 2.546134, 2.155509, 29.09656, 0.1044661, 2.588799, 2.151922
 93020277, 30.51598, 2.026532, 2.633319, 2.165029, 27.32025, 1.92054, 2.546134, 2.155509
 93220197, 29.7125, -1.245714, 2.618908, 2.163886, 30.51598, 2.026532, 2.633319, 2.165029
 93420950, 27.54749, 2.039312, 2.556766, 2.179587, 29.7125, -1.245714, 2.618908, 2.163886
 93620870, 30.12809, 2.005384, 2.637582, 2.183475, 27.54749, 2.039312, 2.556766, 2.179587
 93820790, 29.24394, -1.475923, 2.626124, 2.189929, 30.12809, 2.005384, 2.637582, 2.183475
 94020710, 30.81133, 0.02540563, 2.682966, 2.207613, 29.24394, -1.475923, 2.626124, 2.189929
 94220630, 27.89473, -1.527116, 2.621897, 2.230592, 30.81133, 0.02540563, 2.682966, 2.207613
 94420550, 30.33997, 1.445972, 2.713102, 2.255502, 27.89473, -1.527116, 2.621897, 2.230592
 94620470, 31.58084, -0.4845269, 2.778997, 2.278644, 30.33997, 1.445972, 2.713102, 2.255502
 94820390, 29.25359, 1.487327, 2.738874, 2.315774, 31.58084, -0.4845269, 2.778997, 2.278644
 95020310, 28.65488, -1.335854, 2.75159, 2.350988, 29.25359, 1.487327, 2.738874, 2.315774
 95220230, 31.69326, -2.051911, 2.86738, 2.383984, 28.65488, -1.335854, 2.75159, 2.350988
 95420150, 32.32381, 1.801166, 2.913938, 2.423628, 31.69326, -2.051911, 2.86738, 2.383984
 95620903, 28.15613, -0.296943, 2.839958, 2.456068, 32.32381, 1.801166, 2.913938, 2.423628
 95820823, 29.27515, -0.1554421, 2.901333, 2.491642, 28.15613, -0.296943, 2.839958, 2.456068
 96020743, 28.41763, -0.1898423, 2.906017, 2.531932, 29.27515, -0.1554421, 2.901333, 2.491642
 96220663, 29.27141, -2.465727, 2.956425, 2.569221, 28.41763, -0.1898423, 2.906017, 2.531932
 96420583, 27.39231, 0.7844118, 2.93788, 2.594071, 29.27141, -2.465727, 2.956425, 2.569221
 96620503, 27.20177, -1.54448, 2.951704, 2.618369, 27.39231, 0.7844118, 2.93788, 2.594071
 96820423, 30.85998, 1.82046, 3.05616, 2.639627, 27.20177, -1.54448, 2.951704, 2.618369
 97020343, 29.6708, 0.9849129, 3.035737, 2.662767, 30.85998, 1.82046, 3.05616, 2.639627
 97220263, 30.53604, 0.1240367, 3.068693, 2.679418, 29.6708, 0.9849129, 3.035737, 2.662767
 97420183, 27.92385, -0.507222, 3.016073, 2.693757, 30.53604, 0.1240367, 3.068693, 2.679418
 97620936, 27.69493, -0.01147104, 3.021159, 2.703264, 27.92385, -0.507222, 3.016073, 2.693757
 97820856, 26.56641, -1.07318, 3.003678, 2.712773, 27.69493, -0.01147104, 3.021159, 2.703264
 98020776, 28.86321, 2.147921, 3.062228, 2.722456, 26.56641, -1.07318, 3.003678, 2.712773
 98220696, 26.26187, -1.873954, 3.006619, 2.729786, 28.86321, 2.147921, 3.062228, 2.722456
 98420616, 29.65389, -1.05604, 3.084704, 2.738541, 26.26187, -1.873954, 3.006619, 2.729786
 98620536, 26.93993, 2.383411, 3.030373, 2.736592, 29.65389, -1.05604, 3.084704, 2.738541
 98820456, 29.32117, -1.718287, 3.08152, 2.744335, 26.93993, 2.383411, 3.030373, 2.736592
 99020376, 27.78032, 2.245189, 3.044424, 2.751052, 29.32117, -1.718287, 3.08152, 2.744335
 99220296, 27.26487, 1.587254, 3.031973, 2.752893, 27.78032, 2.245189, 3.044424, 2.751052
 99420216, 27.20388, 0.05313382, 3.034206, 2.748153, 27.26487, 1.587254, 3.031973, 2.752893
 99620969, 27.019, 1.6645, 3.031245, 2.755848, 27.20388, 0.05313382, 3.034206, 2.748153
 99820889, 26.62257, -0.6636097, 3.023995, 2.758854, 27.019, 1.6645, 3.031245, 2.755848
 100020809, 29.29312, -0.2330978, 3.085468, 2.769815, 26.62257, -0.6636097, 3.023995, 2.758854
 100220729, 27.95852, 1.705624, 3.061491, 2.777247, 29.29312, -0.2330978, 3.085468, 2.769815
 100420649, 29.4685, 2.20826, 3.095486, 2.781382, 27.95852, 1.705624, 3.061491, 2.777247
 100620569, 25.16535, 0.003700584, 2.998784, 2.779299, 29.4685, 2.20826, 3.095486, 2.781382
 100820489, 26.04674, -1.220315, 3.00969, 2.771088, 25.16535, 0.003700584, 2.998784, 2.779299
 101020409, 26.38365, -0.8263685, 3.008341, 2.754027, 26.04674, -1.220315, 3.00969, 2.771088
 101220329, 27.77563, -1.673772, 3.023319, 2.737657, 26.38365, -0.8263685, 3.008341, 2.754027
 101420249, 25.40604, 1.596997, 2.952767, 2.717748, 27.77563, -1.673772, 3.023319, 2.737657
 101620169, 27.86489, -2.021904, 2.975483, 2.692959, 25.40604, 1.596997, 2.952767, 2.717748
 101820922, 28.07144, 0.5321151, 2.953329, 2.655, 27.86489, -2.021904, 2.975483, 2.692959
 102020842, 29.04183, -0.4769355, 2.949528, 2.620068, 28.07144, 0.5321151, 2.953329, 2.655
 102220762, 24.78042, -1.792135, 2.829531, 2.588584, 29.04183, -0.4769355, 2.949528, 2.620068
 102420682, 27.24068, -1.452669, 2.861981, 2.559042, 24.78042, -1.792135, 2.829531, 2.588584
 102620602, 27.06186, 2.237184, 2.834314, 2.536903, 27.24068, -1.452669, 2.861981, 2.559042
 102820522, 25.07552, -1.43206, 2.767523, 2.508611, 27.06186, 2.237184, 2.834314, 2.536903
 103020442, 26.53953, 0.2449235, 2.779247, 2.481415, 25.07552, -1.43206, 2.767523, 2.508611
 103220362, 26.39182, 2.022962, 2.754745, 2.463838, 26.53953, 0.2449235, 2.779247, 2.481415
 103420282, 29.60931, -0.6006953, 2.820425, 2.439958, 26.39182, 2.022962, 2.754745, 2.463838
 103620202, 26.18765, -0.3879143, 2.717432, 2.424489, 29.60931, -0.6006953, 2.820425, 2.439958
 103820955, 28.30368, -1.594205, 2.753442, 2.404776, 26.18765, -0.3879143, 2.717432, 2.424489
 104020875, 27.19529, 1.381187, 2.708949, 2.38438, 28.30368, -1.594205, 2.753442, 2.404776
 104220795, 30.0936, 0.6651469, 2.771172, 2.365358, 27.19529, 1.381187, 2.708949, 2.38438
 104420715, 28.17723, 0.4021653, 2.709008, 2.348581, 30.0936, 0.6651469, 2.771172, 2.365358
 104620635, 30.24194, 1.518578, 2.750242, 2.337158, 28.17723, 0.4021653, 2.709008, 2.348581
 104820555, 26.34937, 0.9712099, 2.642474, 2.319059, 30.24194, 1.518578, 2.750242, 2.337158
 105020475, 28.40211, 1.532896, 2.688218, 2.306765, 26.34937, 0.9712099, 2.642474, 2.319059
 105220395, 30.66186, -1.309514, 2.742713, 2.296203, 28.40211, 1.532896, 2.688218, 2.306765
 105420315, 27.94499, -1.911334, 2.666598, 2.286211, 30.66186, -1.309514, 2.742713, 2.296203
 105620235, 30.34246, 1.894328, 2.72882, 2.274434, 27.94499, -1.911334, 2.666598, 2.286211
 105820155, 27.29608, 0.2340939, 2.643861, 2.265533, 30.34246, 1.894328, 2.72882, 2.274434
 106020908, 28.90643, -0.148093, 2.683952, 2.257295, 27.29608, 0.2340939, 2.643861, 2.265533
 106220828, 26.90029, 0.6870225, 2.627652, 2.254256, 28.90643, -0.148093, 2.683952, 2.257295
 106420748, 30.26618, 1.683687, 2.714349, 2.251734, 26.90029, 0.6870225, 2.627652, 2.254256
 106620668, 27.10388, 0.9126497, 2.626177, 2.247285, 30.26618, 1.683687, 2.714349, 2.251734
 106820588, 29.5948, -0.9949722, 2.687365, 2.24531, 27.10388, 0.9126497, 2.626177, 2.247285
 107020508, 28.29682, -0.3667926, 2.645229, 2.246845, 29.5948, -0.9949722, 2.687365, 2.24531
 107220428, 26.89738, -0.6519274, 2.605283, 2.236543, 28.29682, -0.3667926, 2.645229, 2.246845
 107420348, 30.59644, -1.620248, 2.698837, 2.228545, 26.89738, -0.6519274, 2.605283, 2.236543
 107620268, 30.80654, -0.6728909, 2.698436, 2.219693, 30.59644, -1.620248, 2.698837, 2.228545
 107820188, 27.38357, 0.984758, 2.596958, 2.214453, 30.80654, -0.6728909, 2.698436, 2.219693
 108020941, 28.58022, 1.013796, 2.621696, 2.20858, 27.38357, 0.984758, 2.596958, 2.214453
 108220861, 29.80756, 1.048001, 2.648319, 2.197635, 28.58022, 1.013796, 2.621696, 2.20858
 108420781, 28.16579, -1.211668, 2.588529, 2.186502, 29.80756, 1.048001, 2.648319, 2.197635
 108620701, 25.98352, -0.2035543, 2.515084, 2.169548, 28.16579, -1.211668, 2.588529, 2.186502
 108820621, 28.61912, -1.666668, 2.569405, 2.147398, 25.98352, -0.2035543, 2.515084, 2.169548
 109020541, 28.64617, 0.4677708, 2.546597, 2.125092, 28.61912, -1.666668, 2.569405, 2.147398
 109220461, 26.09032, -0.6309374, 2.45326, 2.099296, 28.64617, 0.4677708, 2.546597, 2.125092
 109420381, 26.45508, -0.07959292, 2.436054, 2.062344, 26.09032, -0.6309374, 2.45326, 2.099296
 109620301, 27.46701, 1.526859, 2.427479, 2.030586, 26.45508, -0.07959292, 2.436054, 2.062344
 109820221, 28.23907, 1.213282, 2.416615, 1.989924, 27.46701, 1.526859, 2.427479, 2.030586
 110020974, 27.77087, 1.320699, 2.372568, 1.946555, 28.23907, 1.213282, 2.416615, 1.989924
 110220894, 27.44084, -0.8944501, 2.331411, 1.90884, 27.77087, 1.320699, 2.372568, 1.946555
 110420814, 26.45665, 0.1063078, 2.273121, 1.87463, 27.44084, -0.8944501, 2.331411, 1.90884
 110620734, 27.48379, 1.135365, 2.274786, 1.842106, 26.45665, 0.1063078, 2.273121, 1.87463
 110820654, 29.35273, -1.480583, 2.310714, 1.812729, 27.48379, 1.135365, 2.274786, 1.842106
 111020574, 28.24547, -0.6303405, 2.258219, 1.783603, 29.35273, -1.480583, 2.310714, 1.812729
 111220494, 29.3611, -0.3485967, 2.276422, 1.756437, 28.24547, -0.6303405, 2.258219, 1.783603
 111420414, 29.21312, -0.8604982, 2.254532, 1.735329, 29.3611, -0.3485967, 2.276422, 1.756437
 111620334, 29.61247, 0.8403682, 2.254543, 1.713773, 29.21312, -0.8604982, 2.254532, 1.735329
 111820254, 26.89427, 0.1681229, 2.157536, 1.694924, 29.61247, 0.8403682, 2.254543, 1.713773
 112020174, 28.01629, 0.8573762, 2.179809, 1.681042, 26.89427, 0.1681229, 2.157536, 1.694924
 112220927, 28.22595, -1.275912, 2.1773, 1.667213, 28.01629, 0.8573762, 2.179809, 1.681042
 112420847, 28.937, -0.9767757, 2.191724, 1.654485, 28.22595, -1.275912, 2.1773, 1.667213
 112620767, 28.60641, -0.3234983, 2.174628, 1.64203, 28.937, -0.9767757, 2.191724, 1.654485
 112820687, 27.92595, 1.091687, 2.145405, 1.635217, 28.60641, -0.3234983, 2.174628, 1.64203
 113020607, 27.87222, 0.3111146, 2.139354, 1.624742, 27.92595, 1.091687, 2.145405, 1.635217
 113220527, 29.75444, 0.7427698, 2.196801, 1.618841, 27.87222, 0.3111146, 2.139354, 1.624742
 113420447, 28.64003, -0.1401699, 2.155139, 1.614445, 29.75444, 0.7427698, 2.196801, 1.618841
 113620367, 29.4818, -1.301785, 2.17918, 1.614388, 28.64003, -0.1401699, 2.155139, 1.614445
 113820287, 30.09734, -0.3870285, 2.198549, 1.608525, 29.4818, -1.301785, 2.17918, 1.614388
 114020207, 27.69973, 0.6659377, 2.116493, 1.605623, 30.09734, -0.3870285, 2.198549, 1.608525
 114220960, 29.06918, -1.347187, 2.15871, 1.608649, 27.69973, 0.6659377, 2.116493, 1.605623
 114420880, 28.20569, 0.9367145, 2.131428, 1.605845, 29.06918, -1.347187, 2.15871, 1.608649
 114620800, 29.47935, -0.758676, 2.174672, 1.608739, 28.20569, 0.9367145, 2.131428, 1.605845
 114820720, 29.75478, -0.8304708, 2.181051, 1.612028, 29.47935, -0.758676, 2.174672, 1.608739
 115020640, 27.44567, -0.261665, 2.102708, 1.608684, 29.75478, -0.8304708, 2.181051, 1.612028
 115220560, 29.59429, 1.368449, 2.168359, 1.603971, 27.44567, -0.261665, 2.102708, 1.608684
 115420480, 28.26771, 0.5077156, 2.116271, 1.595048, 29.59429, 1.368449, 2.168359, 1.603971
 115620400, 26.90273, -0.1234366, 2.061111, 1.579688, 28.26771, 0.5077156, 2.116271, 1.595048
 115820320, 27.85563, 0.3256362, 2.072808, 1.567182, 26.90273, -0.1234366, 2.061111, 1.579688
 116020240, 26.90842, -1.17454, 2.026394, 1.547608, 27.85563, 0.3256362, 2.072808, 1.567182
 116220160, 27.80982, 0.7260222, 2.039731, 1.522537, 26.90842, -1.17454, 2.026394, 1.547608
 116420913, 26.66337, -1.024158, 1.981179, 1.50004, 27.80982, 0.7260222, 2.039731, 1.522537
 116620833, 27.03991, 0.2306867, 1.97209, 1.471915, 26.66337, -1.024158, 1.981179, 1.50004
 116820753, 27.5032, -1.006433, 1.968056, 1.443062, 27.03991, 0.2306867, 1.97209, 1.471915
 117020673, 29.15604, -0.1337913, 2.007407, 1.411241, 27.5032, -1.006433, 1.968056, 1.443062
 117220593, 28.89953, 0.7639208, 1.981773, 1.385364, 29.15604, -0.1337913, 2.007407, 1.411241
 117420513, 27.90072, 1.337232, 1.929492, 1.363744, 28.89953, 0.7639208, 1.981773, 1.385364
 117620433, 27.4229, -0.1472465, 1.89718, 1.340566, 27.90072, 1.337232, 1.929492, 1.363744
 117820353, 28.13565, 0.488576, 1.909806, 1.318089, 27.4229, -0.1472465, 1.89718, 1.340566
 118020273, 27.58913, 1.173076, 1.878142, 1.298528, 28.13565, 0.488576, 1.909806, 1.318089
 118220193, 29.28234, -0.3572754, 1.928453, 1.281391, 27.58913, 1.173076, 1.878142, 1.298528
 118420946, 27.54783, 0.3459277, 1.855683, 1.263646, 29.28234, -0.3572754, 1.928453, 1.281391
 118620866, 29.69278, 0.3118229, 1.926373, 1.251513, 27.54783, 0.3459277, 1.855683, 1.263646
 118820786, 28.78937, -0.08610269, 1.885681, 1.236545, 29.69278, 0.3118229, 1.926373, 1.251513
 119020706, 29.21804, 0.7387909, 1.894924, 1.227048, 28.78937, -0.08610269, 1.885681, 1.236545
 119220626, 28.07689, -0.8116939, 1.845095, 1.218702, 29.21804, 0.7387909, 1.894924, 1.227048
 119420546, 28.53568, 0.2163873, 1.857579, 1.210965, 28.07689, -0.8116939, 1.845095, 1.218702
 119620466, 29.06638, -0.1182015, 1.876273, 1.203101, 28.53568, 0.2163873, 1.857579, 1.210965
 119820386, 29.81691, 0.4696651, 1.903332, 1.199185, 29.06638, -0.1182015, 1.876273, 1.203101
 120020306, 29.23443, 0.7205493, 1.877951, 1.197483, 29.81691, 0.4696651, 1.903332, 1.199185
 120220226, 29.02745, -0.2683147, 1.867352, 1.196035, 29.23443, 0.7205493, 1.877951, 1.197483
 120420146, 30.24001, -0.2918967, 1.914435, 1.192445, 29.02745, -0.2683147, 1.867352, 1.196035
 120620899, 28.95888, -0.639648, 1.871999, 1.178297, 30.24001, -0.2918967, 1.914435, 1.192445
 120820819, 29.9102, 0.09598881, 1.92605, 1.148997, 28.95888, -0.639648, 1.871999, 1.178297
 121020739, 27.9128, -2.175659, 1.855321, 1.198988, 29.9102, 0.09598881, 1.92605, 1.148997
 121220659, 28.02841, -1.152042, 1.906604, 1.371473, 27.9128, -2.175659, 1.855321, 1.198988
