TimeUS,COFN,COFE,CNe,CEe,POFN,POFE,PNe,PEe
 1920898, 0.03954163, 0.0236364, 0.09728408, 0.04849193, 0, 0, 0, 0
 1940890, -0.06015116, 0.01034272, 0.0973365, 0.04844565, 0.03954163, 0.0236364, 0.09728408, 0.04849193
 2040850, -0.0466357, 0.05738559, 0.09735626, 0.04847008, -0.06015116, 0.01034272, 0.0973365, 0.04844565
 2140810, 0.0693895, 0.05694862, 0.09735733, 0.04856318, -0.0466357, 0.05738559, 0.09735626, 0.04847008
 2240770, 0.02455873, 0.02850538, 0.09728568, 0.04846266, 0.0693895, 0.05694862, 0.09735733, 0.04856318
 2340730, -0.01388769, 0.01671005, 0.09728968, 0.04841987, 0.02455873, 0.02850538, 0.09728568, 0.04846266
 2440690, -0.0007730946, -0.0295585, 0.09729813, 0.04841769, -0.01388769, 0.01671005, 0.09728968, 0.04841987
 2540650, -0.06298292, 0.03242078, 0.09740889, 0.04834762, -0.0007730946, -0.0295585, 0.09729813, 0.04841769
 2640610, 0.03975889, -0.01237896, 0.09734762, 0.04834986, -0.06298292, 0.03242078, 0.09740889, 0.04834762
 2740570, 0.05591579, 0.02258874, 0.09737596, 0.04836298, 0.03975889, -0.01237896, 0.09734762, 0.04834986
 2840530, -0.04535958, -0.01094157, 0.09736561, 0.04832997, 0.05591579, 0.02258874, 0.09737596, 0.04836298
 2940490, 0.04126953, 0.0430842, 0.09737013, 0.04837189, -0.04535958, -0.01094157, 0.09736561, 0.04832997
 3040450, 0.0114157, -0.06232406, 0.09738462, 0.0483595, 0.04126953, 0.0430842, 0.09737013, 0.04837189
 3140410, 0.04402137, -0.02086678, 0.0973987, 0.0482705, 0.0114157, -0.06232406, 0.09738462, 0.0483595
 3240370, 0.01468283, -0.06398147, 0.09740126, 0.04833684, 0.04402137, -0.02086678, 0.0973987, 0.0482705
 3340330, 0.0407072, -0.001881741, 0.09739147, 0.04825874, 0.01468283, -0.06398147, 0.09740126, 0.04833684
 3440290, -0.06596764, 0.008326983, 0.09745565, 0.04823121, 0.0407072, -0.001881741, 0.09739147, 0.04825874
 3540250, 0.03580651, -0.02839672, 0.09740717, 0.04824289, -0.06596764, 0.008326983, 0.09745565, 0.04823121
 3640210, -0.04361824, 0.02494833, 0.09742211, 0.04822885, 0.03580651, -0.02839672, 0.09740717, 0.04824289
 3740170, 0.04987118, 0.05193241, 0.09742263, 0.04832607, -0.04361824, 0.02494833, 0.09742211, 0.04822885
 3840963, 0.06246472, 0.03381601, 0.09744398, 0.04827788, 0.04987118, 0.05193241, 0.09742263, 0.04832607
 3940923, 0.07634085, 0.05262671, 0.09748279, 0.04833075, 0.06246472, 0.03381601, 0.09744398, 0.04827788
 4040883, 0.05179339, 0.02598514, 0.09742476, 0.04825429, 0.07634085, 0.05262671, 0.09748279, 0.04833075
 4140843, -0.05210128, 0.06452478, 0.09749932, 0.04823382, 0.05179339, 0.02598514, 0.09742476, 0.04825429
 4240803, -0.03877478, 0.06994446, 0.09747653, 0.04826207, -0.05210128, 0.06452478, 0.09749932, 0.04823382
 4340763, 0.04948512, 0.02873357, 0.09742427, 0.0482522, -0.03877478, 0.06994446, 0.09747653, 0.04826207
 4440723, -0.03973648, 0.03899751, 0.09743994, 0.04821411, 0.04948512, 0.02873357, 0.09742427, 0.0482522
 4540683, 0.02227764, -0.02403282, 0.09740134, 0.0482171, -0.03973648, 0.03899751, 0.09743994, 0.04821411
 4640643, 0.08124856, 0.02952707, 0.09750402, 0.04824636, 0.02227764, -0.02403282, 0.09740134, 0.0482171
 4740603, 0.01047713, -0.04690319, 0.09740904, 0.04824728, 0.08124856, 0.02952707, 0.09750402, 0.04824636
 4840563, 0.0339134, -0.02952351, 0.09742352, 0.04820739, 0.01047713, -0.04690319, 0.09740904, 0.04824728
 4940523, -0.03830919, 0.07454967, 0.09748846, 0.04826121, 0.0339134, -0.02952351, 0.09742352, 0.04820739
 5040483, -0.01644444, -0.03043321, 0.09739324, 0.04823804, -0.03830919, 0.07454967, 0.09748846, 0.04826121
 5140443, -0.009602817, 0.0445398, 0.09740739, 0.048242, -0.01644444, -0.03043321, 0.09739324, 0.04823804
 5240403, 0.04172175, -0.05194729, 0.09746295, 0.04821713, -0.009602817, 0.0445398, 0.09740739, 0.048242
 5340363, 0.06223864, 0.00497886, 0.097461, 0.04820107, 0.04172175, -0.05194729, 0.09746295, 0.04821713
 5440323, 0.03855089, -0.06400883, 0.09747318, 0.0482388, 0.06223864, 0.00497886, 0.097461, 0.04820107
 5540283, -0.03125719, 0.02846594, 0.09742012, 0.04820558, 0.03855089, -0.06400883, 0.09747318, 0.0482388
 5640243, -0.02621726, 0.005652735, 0.09740156, 0.04820356, -0.03125719, 0.02846594, 0.09742012, 0.04820558
 5740203, 0.022492, 0.009633901, 0.09739608, 0.04821018, -0.02621726, 0.005652735, 0.09740156, 0.04820356
 5840163, -0.05454539, 0.01977127, 0.09746162, 0.04818011, 0.022492, 0.009633901, 0.09739608, 0.04821018
 5940956, 0.03884806, -0.03864961, 0.09744574, 0.04819877, -0.05454539, 0.01977127, 0.09746162, 0.04818011
 6040916, 0.02091915, -0.01022931, 0.09740041, 0.04819932, 0.03884806, -0.03864961, 0.09744574, 0.04819877
 6140876, 0.01599568, 0.02641968, 0.09739661, 0.04822222, 0.02091915, -0.01022931, 0.09740041, 0.04819932
 6240836, 0.02261427, 0.01572479, 0.09739866, 0.04821087, 0.01599568, 0.02641968, 0.09739661, 0.04822222
 6340796, -0.05329059, 0.05753476, 0.0975043, 0.04819683, 0.02261427, 0.01572479, 0.09739866, 0.04821087
 6440756, -0.02606918, -0.03781867, 0.09740802, 0.04824195, -0.05329059, 0.05753476, 0.0975043, 0.04819683
 6540716, -0.04209223, 0.03161923, 0.0974475, 0.04818667, -0.02606918, -0.03781867, 0.09740802, 0.04824195
 6640676, 0.03330881, 0.06391171, 0.09743135, 0.04830888, -0.04209223, 0.03161923, 0.0974475, 0.04818667
 6740636, -0.01182086, -0.07022172, 0.0974309, 0.04830519, 0.03330881, 0.06391171, 0.09743135, 0.04830888
 6840596, -0.07909179, -0.02802662, 0.09750742, 0.04822349, -0.01182086, -0.07022172, 0.0974309, 0.04830519
 6940556, -0.01872794, 0.02206923, 0.09740742, 0.04819607, -0.07909179, -0.02802662, 0.09750742, 0.04822349
 7040516, -0.07039333, -0.05083001, 0.09748572, 0.04828575, -0.01872794, 0.02206923, 0.09740742, 0.04819607
 7140476, 0.01652784, 0.04460325, 0.09740995, 0.04824369, -0.07039333, -0.05083001, 0.09748572, 0.04828575
 7240436, -0.05379092, -0.007703066, 0.09744954, 0.04818925, 0.01652784, 0.04460325, 0.09740995, 0.04824369
 7340396, 0.06820735, 0.05757042, 0.09748368, 0.04830565, -0.05379092, -0.007703066, 0.09744954, 0.04818925
 7440356, 0.06965271, 0.01607579, 0.09748521, 0.04819693, 0.06820735, 0.05757042, 0.09748368, 0.04830565
 7540316, -0.03489351, -0.05983734, 0.09743159, 0.04829373, 0.06965271, 0.01607579, 0.09748521, 0.04819693
 7640276, -0.03978672, 0.05930138, 0.09747749, 0.04821218, -0.03489351, -0.05983734, 0.09743159, 0.04829373
 7740236, -0.07551123, 0.008955814, 0.09751597, 0.04815957, -0.03978672, 0.05930138, 0.09747749, 0.04821218
 7840196, 3.176928E-05, -0.04935532, 0.09741388, 0.04824218, -0.07551123, 0.008955814, 0.09751597, 0.04815957
 7940156, -0.01807427, 0.04507902, 0.09742378, 0.04821932, 3.176928E-05, -0.04935532, 0.09741388, 0.04824218
 8040949, 0.003025366, 0.0204889, 0.09739479, 0.0482065, -0.01807427, 0.04507902, 0.09742378, 0.04821932
 8140909, 0.03769813, 0.002086398, 0.09741971, 0.04819301, 0.003025366, 0.0204889, 0.09739479, 0.0482065
 8240869, 0.03712897, 0.003965658, 0.09741831, 0.04819469, 0.03769813, 0.002086398, 0.09741971, 0.04819301
 8340829, -0.05627161, -0.05932753, 0.09745823, 0.04830974, 0.03712897, 0.003965658, 0.09741831, 0.04819469
 8440789, 0.05345029, -0.02227978, 0.09746525, 0.04817228, -0.05627161, -0.05932753, 0.09745823, 0.04830974
 8540749, 0.001941545, 0.06306195, 0.09742667, 0.04827344, 0.05345029, -0.02227978, 0.09746525, 0.04817228
 8640709, 0.003543037, -0.04803053, 0.09741509, 0.04823542, 0.001941545, 0.06306195, 0.09742667, 0.04827344
 8740669, -0.04130318, 0.05801275, 0.09747953, 0.04820703, 0.003543037, -0.04803053, 0.09741509, 0.04823542
 8840629, -0.05007657, -0.0003964575, 0.09744534, 0.04818126, -0.04130318, 0.05801275, 0.09747953, 0.04820703
 8940589, -0.04850523, 0.03336865, 0.09746745, 0.04817202, -0.05007657, -0.0003964575, 0.09744534, 0.04818126
 9040549, 0.02624585, -0.03455228, 0.09742884, 0.04819148, -0.04850523, 0.03336865, 0.09746745, 0.04817202
 9140509, -0.01134006, -0.04156853, 0.09741081, 0.04822694, 0.02624585, -0.03455228, 0.09742884, 0.04819148
 9240469, -0.02278749, -0.004849879, 0.09740739, 0.04818524, -0.01134006, -0.04156853, 0.09741081, 0.04822694
 9340429, 0.04234484, -0.09239623, 0.09754531, 0.04826852, -0.02278749, -0.004849879, 0.09740739, 0.04818524
 9440389, -0.02644728, 0.009150544, 0.09741529, 0.0481782, 0.04234484, -0.09239623, 0.09754531, 0.04826852
 9540349, -0.08941477, -0.03352976, 0.09754545, 0.04822347, -0.02644728, 0.009150544, 0.09741529, 0.0481782
 9640309, 0.01732413, 0.07418074, 0.0974419, 0.04831006, -0.08941477, -0.03352976, 0.09754545, 0.04822347
 9740269, 0.02358089, -0.05228766, 0.09744456, 0.04821178, 0.01732413, 0.07418074, 0.0974419, 0.04831006
 9840229, -0.03261517, 0.02782891, 0.09743438, 0.04817864, 0.02358089, -0.05228766, 0.09744456, 0.04821178
 9940189, 0.04817346, -0.02265761, 0.09745923, 0.04816524, -0.03261517, 0.02782891, 0.09743438, 0.04817864
 10040149, 0.03485405, -0.02889221, 0.09743881, 0.04817749, 0.04817346, -0.02265761, 0.09745923, 0.04816524
 10140942, 0.05841638, -0.01278195, 0.09747599, 0.0481588, 0.03485405, -0.02889221, 0.09743881, 0.04817749
 10240902, 0.06459924, 0.01909476, 0.0974763, 0.04819378, 0.05841638, -0.01278195, 0.09747599, 0.0481588
 10340862, -0.004130198, 0.07980905, 0.09745879, 0.04829754, 0.06459924, 0.01909476, 0.0974763, 0.04819378
 10440822, -0.0005899295, 0.04057133, 0.09741373, 0.04821331, -0.004130198, 0.07980905, 0.09745879, 0.04829754
 10540782, -0.04551199, 0.03125011, 0.09746253, 0.04816649, -0.0005899295, 0.04057133, 0.09741373, 0.04821331
 10640742, 0.006009545, 0.01059545, 0.09739984, 0.04818589, -0.04551199, 0.03125011, 0.09746253, 0.04816649
 10740702, 0.07657542, 0.03774521, 0.09750561, 0.04823633, 0.006009545, 0.01059545, 0.09739984, 0.04818589
 10840662, 0.03249033, -0.07677894, 0.09749392, 0.04824746, 0.07657542, 0.03774521, 0.09750561, 0.04823633
 10940622, 0.02809043, -0.06932156, 0.09747329, 0.04823898, 0.03249033, -0.07677894, 0.09749392, 0.04824746
 11040582, -0.005170672, 0.01475827, 0.09739962, 0.04818988, 0.02809043, -0.06932156, 0.09747329, 0.04823898
 11140542, 0.02742452, -0.006350845, 0.09741341, 0.04818232, -0.005170672, 0.01475827, 0.09739962, 0.04818988
 11240502, -0.0363911, 0.04918033, 0.09746038, 0.04819656, 0.02742452, -0.006350845, 0.09741341, 0.04818232
 11340462, -0.06554186, -0.01511761, 0.09747709, 0.0481917, -0.0363911, 0.04918033, 0.09746038, 0.04819656
 11440422, -0.04026156, -0.02966502, 0.0974263, 0.04821947, -0.06554186, -0.01511761, 0.09747709, 0.0481917
 11540382, -0.02718763, -0.02687947, 0.09741097, 0.04821203, -0.04026156, -0.02966502, 0.0974263, 0.04821947
 11640342, -0.02622543, -0.01744643, 0.09740858, 0.04819948, -0.02718763, -0.02687947, 0.09741097, 0.04821203
 11740302, 0.06040991, -0.001555288, 0.09747152, 0.04817065, -0.02622543, -0.01744643, 0.09740858, 0.04819948
 11840262, 0.008019947, 0.0186676, 0.09739929, 0.04819676, 0.06040991, -0.001555288, 0.09747152, 0.04817065
 11940222, 0.006381917, 0.03274353, 0.0974052, 0.04821078, 0.008019947, 0.0186676, 0.09739929, 0.04819676
 12040182, 0.03776342, -0.03384798, 0.09744765, 0.04817893, 0.006381917, 0.03274353, 0.0974052, 0.04821078
 12140975, -0.007157471, 0.02177584, 0.09740373, 0.04819199, 0.03776342, -0.03384798, 0.09744765, 0.04817893
 12240935, 0.04109458, 0.0063359, 0.09742966, 0.04818413, -0.007157471, 0.02177584, 0.09740373, 0.04819199
 12340895, 0.07101662, 0.03884717, 0.09748922, 0.04824222, 0.04109458, 0.0063359, 0.09742966, 0.04818413
 12440855, -0.0246932, 0.04180344, 0.09743363, 0.04819936, 0.07101662, 0.03884717, 0.09748922, 0.04824222
 12540815, 0.06611815, 0.02938798, 0.09747621, 0.04821978, -0.0246932, 0.04180344, 0.09743363, 0.04819936
 12640775, -0.01866643, 0.01556673, 0.09740748, 0.04818684, 0.06611815, 0.02938798, 0.09747621, 0.04821978
 12740735, -0.03961759, -0.05753253, 0.09743652, 0.0482868, -0.01866643, 0.01556673, 0.09740748, 0.04818684
 12840695, -0.07099721, -0.02108961, 0.09748839, 0.04820443, -0.03961759, -0.05753253, 0.09743652, 0.0482868
 12940655, -0.01161921, 0.008801519, 0.0973983, 0.04819139, -0.07099721, -0.02108961, 0.09748839, 0.04820443
 13040615, -0.0001577511, -0.063959, 0.09743011, 0.04827058, -0.01161921, 0.008801519, 0.0973983, 0.04819139
 13140575, 0.0843077, 0.02479725, 0.09752624, 0.04821065, -0.0001577511, -0.063959, 0.09743011, 0.04827058
 13240535, 0.006065285, 0.07389905, 0.09743914, 0.04830433, 0.0843077, 0.02479725, 0.09752624, 0.04821065
 13340495, -0.01483594, -0.007040865, 0.09739807, 0.04819399, 0.006065285, 0.07389905, 0.09743914, 0.04830433
 13440455, -0.01602776, -0.01865866, 0.09740034, 0.04820179, -0.01483594, -0.007040865, 0.09739807, 0.04819399
 13540415, 0.03403001, -0.03361683, 0.09743899, 0.04818596, -0.01602776, -0.01865866, 0.09740034, 0.04820179
 13640375, -0.04786285, -0.05737276, 0.09744737, 0.04829087, 0.03403001, -0.03361683, 0.09743899, 0.04818596
 13740335, -0.06633944, 0.01796848, 0.09749892, 0.0481549, -0.04786285, -0.05737276, 0.09744737, 0.04829087
 13840295, -0.04907598, 0.06753384, 0.0975145, 0.04820655, -0.06633944, 0.01796848, 0.09749892, 0.0481549
 13940255, -0.006164731, -0.02592652, 0.0974004, 0.04820555, -0.04907598, 0.06753384, 0.0975145, 0.04820655
 14040215, -0.0105014, -0.01004681, 0.09739725, 0.04819346, -0.006164731, -0.02592652, 0.0974004, 0.04820555
 14140175, 0.006267603, -0.01306556, 0.09739825, 0.04819139, -0.0105014, -0.01004681, 0.09739725, 0.04819346
 14240968, -0.04471406, -0.004031061, 0.09743509, 0.04818376, 0.006267603, -0.01306556, 0.09739825, 0.04819139
 14340928, -0.04842081, 0.0826943, 0.09754049, 0.04823587, -0.04471406, -0.004031061, 0.09743509, 0.04818376
 14440888, -0.05511289, 0.02714618, 0.09747909, 0.04815993, -0.04842081, 0.0826943, 0.09754049, 0.04823587
 14540848, 0.04130852, 0.02334298, 0.09742951, 0.04820375, -0.05511289, 0.02714618, 0.09747909, 0.04815993
 14640808, -0.05386423, -0.06031089, 0.09746228, 0.0482961, 0.04130852, 0.02334298, 0.09742951, 0.04820375
 14740768, 0.03191762, 0.06644784, 0.09744109, 0.04829806, -0.05386423, -0.06031089, 0.09746228, 0.0482961
 14840728, 0.04307428, -0.09257258, 0.09754933, 0.04826389, 0.03191762, 0.06644784, 0.09744109, 0.04829806
 14940688, -0.004374625, 0.07427716, 0.09745198, 0.04827985, 0.04307428, -0.09257258, 0.09754933, 0.04826389
 15040648, 0.08739755, 0.04997918, 0.09753946, 0.04827318, -0.004374625, 0.07427716, 0.09745198, 0.04827985
 15140608, -0.04094107, 0.02363756, 0.09744706, 0.04816768, 0.08739755, 0.04997918, 0.09753946, 0.04827318
 15240568, -0.02471269, -0.001127196, 0.09741153, 0.04817945, -0.04094107, 0.02363756, 0.09744706, 0.04816768
 15340528, 0.05702408, 0.00869439, 0.09746232, 0.04817726, -0.02471269, -0.001127196, 0.09741153, 0.04817945
 15440488, -0.06422028, 0.006718556, 0.09748824, 0.04815599, 0.05702408, 0.00869439, 0.09746232, 0.04817726
 15540448, -0.04120501, 0.01106187, 0.09743933, 0.04816796, -0.06422028, 0.006718556, 0.09748824, 0.04815599
 15640408, -0.03671926, 0.07952303, 0.09750898, 0.04824367, -0.04120501, 0.01106187, 0.09743933, 0.04816796
 15740368, 0.01495104, 0.01253576, 0.09740327, 0.04818757, -0.03671926, 0.07952303, 0.09750898, 0.04824367
 15840328, -0.01660527, -0.05039381, 0.09741979, 0.04824428, 0.01495104, 0.01253576, 0.09740327, 0.04818757
 15940288, -0.01972011, -0.03451812, 0.09741134, 0.04821565, -0.01660527, -0.05039381, 0.09741979, 0.04824428
 16040248, 0.02007055, -0.07351395, 0.09746809, 0.04825734, -0.01972011, -0.03451812, 0.09741134, 0.04821565
 16140208, -0.03956147, 0.07140595, 0.09750088, 0.04822277, 0.02007055, -0.07351395, 0.09746809, 0.04825734
 16240168, -0.06412221, -0.04034257, 0.0974741, 0.04824271, -0.03956147, 0.07140595, 0.09750088, 0.04822277
 16340961, -0.03689005, -0.04954146, 0.09743154, 0.0482575, -0.06412221, -0.04034257, 0.0974741, 0.04824271
 16440921, -0.03533805, 0.09013468, 0.09752375, 0.0482767, -0.03689005, -0.04954146, 0.09743154, 0.0482575
 16540881, 0.009824188, 0.03326771, 0.09740608, 0.04821233, -0.03533805, 0.09013468, 0.09752375, 0.0482767
 16640841, 0.05110769, -0.0419549, 0.09748468, 0.04817073, 0.009824188, 0.03326771, 0.09740608, 0.04821233
 16740801, -0.05883677, -0.04799162, 0.09746248, 0.04826711, 0.05110769, -0.0419549, 0.09748468, 0.04817073
 16840761, -0.02782074, 0.008499421, 0.0974144, 0.0481823, -0.05883677, -0.04799162, 0.09746248, 0.04826711
 16940721, 0.03090364, -0.004231186, 0.09741689, 0.04818195, -0.02782074, 0.008499421, 0.0974144, 0.0481823
 17040681, -0.02747001, 0.07708227, 0.09748335, 0.04825939, 0.03090364, -0.004231186, 0.09741689, 0.04818195
 17140641, 0.0128838, -0.03177249, 0.09741239, 0.04819857, -0.02747001, 0.07708227, 0.09748335, 0.04825939
 17240601, -0.02992231, -0.04303681, 0.09742023, 0.04824089, 0.0128838, -0.03177249, 0.09741239, 0.04819857
 17340561, -0.01058384, 0.02753326, 0.09740902, 0.04819405, -0.02992231, -0.04303681, 0.09742023, 0.04824089
 17440521, -0.006258504, -0.007519184, 0.0973989, 0.04818583, -0.01058384, 0.02753326, 0.09740902, 0.04819405
 17540481, -0.0560555, 0.0270424, 0.09748253, 0.04815656, -0.006258504, -0.007519184, 0.0973989, 0.04818583
 17640441, 0.063588, -0.01608607, 0.09749247, 0.04815235, -0.0560555, 0.0270424, 0.09748253, 0.04815656
 17740401, -0.01597475, -0.01023412, 0.09740286, 0.04818762, 0.063588, -0.01608607, 0.09749247, 0.04815235
 17840361, -0.03346531, 0.05404403, 0.09746286, 0.04820257, -0.01597475, -0.01023412, 0.09740286, 0.04818762
 17940321, 0.05398738, -0.06985969, 0.09753415, 0.04819734, -0.03346531, 0.05404403, 0.09746286, 0.04820257
 18040281, -0.04578888, 0.02966772, 0.0974602, 0.04816859, 0.05398738, -0.06985969, 0.09753415, 0.04819734
 18140241, -0.05458399, -0.02724267, 0.09745189, 0.04821298, -0.04578888, 0.02966772, 0.0974602, 0.04816859
 18240201, -0.07556283, -0.0467682, 0.09750277, 0.04826456, -0.05458399, -0.02724267, 0.09745189, 0.04821298
 18340161, -0.01247657, -0.03007693, 0.09740569, 0.04820783, -0.07556283, -0.0467682, 0.09750277, 0.04826456
 18440954, 0.08125889, 0.04052597, 0.09751903, 0.04824456, -0.01247657, -0.03007693, 0.09740569, 0.04820783
 18540914, -0.03042075, 0.05493542, 0.0974593, 0.04820618, 0.08125889, 0.04052597, 0.09751903, 0.04824456
 18640874, 0.06282295, 0.05602501, 0.09747685, 0.04828689, -0.03042075, 0.05493542, 0.0974593, 0.04820618
 18740834, 0.02179881, -0.03379644, 0.09742578, 0.04818784, 0.06282295, 0.05602501, 0.09747685, 0.04828689
 18840794, -0.03788212, 0.04756542, 0.09746488, 0.04818581, 0.02179881, -0.03379644, 0.09742578, 0.04818784
 18940754, -0.004152641, 0.06496673, 0.09743964, 0.04825678, -0.03788212, 0.04756542, 0.09746488, 0.04818581
 19040714, 0.009329047, 0.01560011, 0.09740181, 0.04818867, -0.004152641, 0.06496673, 0.09743964, 0.04825678
 19140674, 0.004978975, -0.058172, 0.09743234, 0.04824088, 0.009329047, 0.01560011, 0.09740181, 0.04818867
 19240634, 0.03161545, -0.07780677, 0.09749525, 0.04824859, 0.004978975, -0.058172, 0.09743234, 0.04824088
 19340594, 0.01181183, -0.05860441, 0.0974387, 0.04823416, 0.03161545, -0.07780677, 0.09749525, 0.04824859
 19440554, 0.0777507, 0.02790029, 0.09739204, 0.04844813, 0.01181183, -0.05860441, 0.0974387, 0.04823416
 19540514, 0.05057649, -0.00792749, 0.09719519, 0.04868808, 0.0777507, 0.02790029, 0.09739204, 0.04844813
 19640474, -0.02166084, 0.03301463, 0.09695947, 0.04911727, 0.05057649, -0.00792749, 0.09719519, 0.04868808
 19740434, 0.05923494, 0.02466232, 0.09673355, 0.04965273, -0.02166084, 0.03301463, 0.09695947, 0.04911727
 19840394, -0.003364877, -0.03779807, 0.09636129, 0.05027647, 0.05923494, 0.02466232, 0.09673355, 0.04965273
 19940354, 0.02008295, 0.06441102, 0.09601963, 0.05103485, -0.003364877, -0.03779807, 0.09636129, 0.05027647
 20040314, -0.03921508, -0.05700655, 0.09563201, 0.05176566, 0.02008295, 0.06441102, 0.09601963, 0.05103485
 20140274, -0.007909479, 0.04884936, 0.09519628, 0.05248323, -0.03921508, -0.05700655, 0.09563201, 0.05176566
 20240234, 0.05194516, 0.02015566, 0.09478936, 0.0532366, -0.007909479, 0.04884936, 0.09519628, 0.05248323
 20340194, -0.01731801, -0.0005016122, 0.09430086, 0.05400467, 0.05194516, 0.02015566, 0.09478936, 0.0532366
 20440154, 0.05574952, 0.06209095, 0.09391447, 0.05489081, -0.01731801, -0.0005016122, 0.09430086, 0.05400467
 20540947, 0.07243466, 0.01865103, 0.093511, 0.05553143, 0.05574952, 0.06209095, 0.09391447, 0.05489081
 20640907, -0.008296523, 0.04735775, 0.09299114, 0.05629369, 0.07243466, 0.01865103, 0.093511, 0.05553143
 20740867, 0.04378376, -0.0834986, 0.0926604, 0.05704252, -0.008296523, 0.04735775, 0.09299114, 0.05629369
 20840827, 0.3392579, -0.03013036, 0.09467622, 0.0570826, 0.04378376, -0.0834986, 0.0926604, 0.05704252
 20940787, 0.6096464, -0.1951822, 0.1004526, 0.05638701, 0.3392579, -0.03013036, 0.09467622, 0.0570826
 21040747, 0.9880143, -0.1925157, 0.1115987, 0.05449332, 0.6096464, -0.1951822, 0.1004526, 0.05638701
 21140707, 1.500789, -0.3397488, 0.1330106, 0.05065125, 0.9880143, -0.1925157, 0.1115987, 0.05449332
 21240667, 2.150982, -0.3889008, 0.1637452, 0.04520122, 1.500789, -0.3397488, 0.1330106, 0.05065125
 21340627, 2.997447, -0.5406127, 0.2085817, 0.03728944, 2.150982, -0.3889008, 0.1637452, 0.04520122
 21440587, 3.693847, -0.7345852, 0.2478305, 0.03090937, 2.997447, -0.5406127, 0.2085817, 0.03728944
 21540547, 4.728426, -0.8940392, 0.3063288, 0.02143536, 3.693847, -0.7345852, 0.2478305, 0.03090937
 21640507, 5.667853, -1.039962, 0.3602598, 0.01345459, 4.728426, -0.8940392, 0.3063288, 0.02143536
 21740467, 6.757704, -1.195827, 0.4232405, 0.004706845, 5.667853, -1.039962, 0.3602598, 0.01345459
 21840427, 7.811454, -1.309934, 0.4840759, -0.002913125, 6.757704, -1.195827, 0.4232405, 0.004706845
 21940387, 8.730293, -1.400325, 0.5371322, -0.008057542, 7.811454, -1.309934, 0.4840759, -0.002913125
 22040347, 9.644149, -1.469066, 0.589757, -0.01236334, 8.730293, -1.400325, 0.5371322, -0.008057542
 22140307, 10.60641, -1.590872, 0.6456707, -0.01590368, 9.644149, -1.469066, 0.589757, -0.01236334
 22240267, 11.31704, -1.598278, 0.6860723, -0.01664005, 10.60641, -1.590872, 0.6456707, -0.01590368
 22340227, 12.16641, -1.511659, 0.7329286, -0.01678592, 11.31704, -1.598278, 0.6860723, -0.01664005
 22440187, 12.99038, -1.667236, 0.7778845, -0.01566628, 12.16641, -1.511659, 0.7329286, -0.01678592
 22540147, 13.68283, -1.569092, 0.8146902, -0.01363251, 12.99038, -1.667236, 0.7778845, -0.01566628
 22640940, 14.19594, -1.557086, 0.8424969, -0.0107453, 13.68283, -1.569092, 0.8146902, -0.01363251
 22740900, 15.09845, -1.581463, 0.8911694, -0.009250358, 14.19594, -1.557086, 0.8424969, -0.0107453
 22840860, 15.88344, -1.551113, 0.9254357, -0.004474342, 15.09845, -1.581463, 0.8911694, -0.009250358
 22940820, 16.29266, -1.494809, 0.9302205, 0.004964694, 15.88344, -1.551113, 0.9254357, -0.004474342
 23040780, 16.56692, -1.442854, 0.9221422, 0.01838785, 16.29266, -1.494809, 0.9302205, 0.004964694
 23140740, 16.98213, -1.334245, 0.9202318, 0.0341583, 16.56692, -1.442854, 0.9221422, 0.01838785
 23240700, 17.58972, -1.216237, 0.9314955, 0.052938, 16.98213, -1.334245, 0.9202318, 0.0341583
 23340660, 18.1666, -1.247604, 0.947001, 0.07020133, 17.58972, -1.216237, 0.9314955, 0.052938
 23440620, 18.8163, -1.37305, 0.9702754, 0.08792502, 18.1666, -1.247604, 0.947001, 0.07020133
 23540580, 19.69362, -1.464, 1.005961, 0.108011, 18.8163, -1.37305, 0.9702754, 0.08792502
 23640540, 20.62051, -1.479425, 1.044276, 0.1262606, 19.69362, -1.464, 1.005961, 0.108011
 23740500, 21.40335, -1.306257, 1.075135, 0.1451497, 20.62051, -1.479425, 1.044276, 0.1262606
 23840460, 21.85291, -1.285595, 1.092161, 0.1666635, 21.40335, -1.306257, 1.075135, 0.1451497
 23940420, 22.47542, -1.448515, 1.119277, 0.1882448, 21.85291, -1.285595, 1.092161, 0.1666635
 24040380, 22.93076, -1.386035, 1.139898, 0.2095793, 22.47542, -1.448515, 1.119277, 0.1882448
 24140340, 23.52157, -1.859537, 1.169735, 0.2310732, 22.93076, -1.386035, 1.139898, 0.2095793
 24240300, 24.39936, -2.037532, 1.211136, 0.2573807, 23.52157, -1.859537, 1.169735, 0.2310732
 24340260, 24.30437, -1.859999, 1.209803, 0.2890742, 24.39936, -2.037532, 1.211136, 0.2573807
 24440220, 25.12532, -1.24031, 1.250816, 0.3178224, 24.30437, -1.859999, 1.209803, 0.2890742
 24540180, 25.59072, -1.698747, 1.283869, 0.3433704, 25.12532, -1.24031, 1.250816, 0.3178224
 24640973, 25.32154, -2.012925, 1.286004, 0.372111, 25.59072, -1.698747, 1.283869, 0.3433704
 24740933, 25.29733, -1.822659, 1.29838, 0.3992, 25.32154, -2.012925, 1.286004, 0.372111
 24840893, 25.95166, -1.791117, 1.340301, 0.423909, 25.29733, -1.822659, 1.29838, 0.3992
 24940853, 25.38431, -2.246753, 1.332, 0.4569371, 25.95166, -1.791117, 1.340301, 0.423909
 25040813, 25.39244, -2.008278, 1.347318, 0.4894045, 25.38431, -2.246753, 1.332, 0.4569371
 25140773, 26.13326, -1.77846, 1.393304, 0.5176504, 25.39244, -2.008278, 1.347318, 0.4894045
 25240733, 25.58479, -1.459367, 1.389123, 0.5494455, 26.13326, -1.77846, 1.393304, 0.5176504
 25340693, 26.00924, -2.527424, 1.429583, 0.5754717, 25.58479, -1.459367, 1.389123, 0.5494455
 25440653, 25.96193, -1.874683, 1.44651, 0.6014483, 26.00924, -2.527424, 1.429583, 0.5754717
 25540613, 25.5406, -1.791112, 1.450714, 0.6296998, 25.96193, -1.874683, 1.44651, 0.6014483
 25640573, 26.37079, -1.652505, 1.504351, 0.6550122, 25.5406, -1.791112, 1.450714, 0.6296998
 25740533, 26.32219, -1.419742, 1.524049, 0.6833173, 26.37079, -1.652505, 1.504351, 0.6550122
 25840493, 25.67678, -2.542252, 1.524213, 0.7110409, 26.32219, -1.419742, 1.524049, 0.6833173
 25940453, 25.87319, -2.694404, 1.55494, 0.7346404, 25.67678, -2.542252, 1.524213, 0.7110409
 26040413, 26.70741, -2.052846, 1.606074, 0.7562683, 25.87319, -2.694404, 1.55494, 0.7346404
 26140373, 25.80585, -2.511092, 1.595878, 0.7825326, 26.70741, -2.052846, 1.606074, 0.7562683
 26240333, 26.45826, -2.016886, 1.640461, 0.8049494, 25.80585, -2.511092, 1.595878, 0.7825326
 26340293, 26.61544, -2.441983, 1.668927, 0.8290865, 26.45826, -2.016886, 1.640461, 0.8049494
 26440253, 24.8264, -2.420968, 1.625853, 0.8591108, 26.61544, -2.441983, 1.668927, 0.8290865
 26540213, 26.22419, -1.439434, 1.696003, 0.8775387, 24.8264, -2.420968, 1.625853, 0.8591108
 26640173, 25.30834, -3.015912, 1.690769, 0.9013407, 26.22419, -1.439434, 1.696003, 0.8775387
 26740966, 25.66368, -2.444669, 1.724829, 0.9189436, 25.30834, -3.015912, 1.690769, 0.9013407
 26840926, 23.94381, -2.397208, 1.687913, 0.9442113, 25.66368, -2.444669, 1.724829, 0.9189436
 26940886, 23.88111, -1.207452, 1.704148, 0.964911, 23.94381, -2.397208, 1.687913, 0.9442113
 27040846, 23.5355, -1.129799, 1.714139, 0.9830925, 23.88111, -1.207452, 1.704148, 0.964911
 27140806, 22.51399, -2.090187, 1.705439, 1.000069, 23.5355, -1.129799, 1.714139, 0.9830925
 27240766, 22.19154, -2.975446, 1.719656, 1.017488, 22.51399, -2.090187, 1.705439, 1.000069
 27340726, 23.98913, -2.747362, 1.799444, 1.023278, 22.19154, -2.975446, 1.719656, 1.017488
 27440686, 22.48244, -1.343516, 1.766283, 1.044225, 23.98913, -2.747362, 1.799444, 1.023278
 27540646, 22.32091, -3.182568, 1.789155, 1.055808, 22.48244, -1.343516, 1.766283, 1.044225
 27640606, 23.38413, -2.238872, 1.841274, 1.063555, 22.32091, -3.182568, 1.789155, 1.055808
 27740566, 22.96724, -1.708637, 1.846667, 1.07725, 23.38413, -2.238872, 1.841274, 1.063555
 27840526, 21.78754, -1.335255, 1.829636, 1.092436, 22.96724, -1.708637, 1.846667, 1.07725
 27940486, 22.35055, -1.926898, 1.869696, 1.099358, 21.78754, -1.335255, 1.829636, 1.092436
 28040446, 20.18451, -3.697565, 1.832705, 1.116812, 22.35055, -1.926898, 1.869696, 1.099358
 28140406, 21.52455, -1.658487, 1.885601, 1.122874, 20.18451, -3.697565, 1.832705, 1.116812
 28240366, 21.7747, -2.30472, 1.91605, 1.130363, 21.52455, -1.658487, 1.885601, 1.122874
 28340326, 21.00045, -1.860858, 1.912046, 1.143491, 21.7747, -2.30472, 1.91605, 1.130363
 28440286, 22.20856, -3.011538, 1.972519, 1.146334, 21.00045, -1.860858, 1.912046, 1.143491
 28540246, 21.83869, -2.307089, 1.978882, 1.158244, 22.20856, -3.011538, 1.972519, 1.146334
 28640206, 21.63832, -3.190607, 1.996767, 1.166355, 21.83869, -2.307089, 1.978882, 1.158244
 28740166, 20.48817, -2.162208, 1.980203, 1.181698, 21.63832, -3.190607, 1.996767, 1.166355
 28840959, 19.52568, -1.947719, 1.972965, 1.195698, 20.48817, -2.162208, 1.980203, 1.181698
 28940919, 21.05518, -2.597124, 2.03742, 1.197472, 19.52568, -1.947719, 1.972965, 1.195698
 29040879, 21.67386, -4.308742, 2.080894, 1.204134, 21.05518, -2.597124, 2.03742, 1.197472
 29140839, 21.01696, -3.840344, 2.078255, 1.217401, 21.67386, -4.308742, 2.080894, 1.204134
 29240799, 20.09614, -4.496774, 2.074758, 1.232225, 21.01696, -3.840344, 2.078255, 1.217401
 29340759, 20.37616, -3.788378, 2.097063, 1.240543, 20.09614, -4.496774, 2.074758, 1.232225
 29440719, 19.36175, -4.583274, 2.090498, 1.256952, 20.37616, -3.788378, 2.097063, 1.240543
 29540679, 19.3327, -4.550318, 2.107339, 1.268983, 19.36175, -4.583274, 2.090498, 1.256952
 29640639, 19.73909, -3.908871, 2.13165, 1.277174, 19.3327, -4.550318, 2.107339, 1.268983
 29740599, 19.271, -2.122686, 2.130001, 1.289684, 19.73909, -3.908871, 2.13165, 1.277174
 29840559, 19.08339, -4.625709, 2.152862, 1.298541, 19.271, -2.122686, 2.130001, 1.289684
 29940519, 19.94049, -4.061106, 2.187633, 1.30562, 19.08339, -4.625709, 2.152862, 1.298541
 30040479, 20.60538, -3.636544, 2.218469, 1.31327, 19.94049, -4.061106, 2.187633, 1.30562
 30140439, 19.89932, -3.595093, 2.216736, 1.326406, 20.60538, -3.636544, 2.218469, 1.31327
 30240399, 20.48547, -3.092953, 2.242355, 1.334161, 19.89932, -3.595093, 2.216736, 1.326406
 30340359, 19.02914, -2.412142, 2.208753, 1.358107, 20.48547, -3.092953, 2.242355, 1.334161
 30440319, 18.42109, -2.839396, 2.208488, 1.397211, 19.02914, -2.412142, 2.208753, 1.358107
 30540279, 20.03825, -2.377383, 2.301159, 1.432755, 18.42109, -2.839396, 2.208488, 1.397211
 30640239, 20.50609, -1.831285, 2.417156, 1.461039, 20.03825, -2.377383, 2.301159, 1.432755
 30740199, 18.21865, -5.275438, 2.49874, 1.462325, 20.50609, -1.831285, 2.417156, 1.461039
 30840159, 22.11773, -4.405211, 2.58336, 1.429931, 18.21865, -5.275438, 2.49874, 1.462325
 30940952, 20.86324, -6.054061, 2.492934, 1.415989, 22.11773, -4.405211, 2.58336, 1.429931
 31040912, 21.91899, -3.843353, 2.373466, 1.39156, 20.86324, -6.054061, 2.492934, 1.415989
 31140872, 22.55993, -3.065106, 2.255203, 1.370904, 21.91899, -3.843353, 2.373466, 1.39156
 31240832, 24.46863, -3.210162, 2.205573, 1.350145, 22.55993, -3.065106, 2.255203, 1.370904
 31340792, 22.31535, -1.985214, 2.076444, 1.346033, 24.46863, -3.210162, 2.205573, 1.350145
 31440752, 25.01851, -4.228868, 2.110445, 1.323454, 22.31535, -1.985214, 2.076444, 1.346033
 31540712, 25.09599, -1.600255, 2.071321, 1.306517, 25.01851, -4.228868, 2.110445, 1.323454
 31640672, 25.52104, -3.665412, 2.064229, 1.285219, 25.09599, -1.600255, 2.071321, 1.306517
 31740632, 24.13331, -3.007273, 1.995018, 1.267933, 25.52104, -3.665412, 2.064229, 1.285219
 31840592, 24.89165, -3.554428, 1.988086, 1.247802, 24.13331, -3.007273, 1.995018, 1.267933
 31940552, 24.32308, -1.376969, 1.931237, 1.227402, 24.89165, -3.554428, 1.988086, 1.247802
 32040512, 24.49225, -2.228911, 1.901537, 1.204798, 24.32308, -1.376969, 1.931237, 1.227402
 32140472, 26.19336, -3.04536, 1.92207, 1.178781, 24.49225, -2.228911, 1.901537, 1.204798
 32240432, 26.16877, -1.443283, 1.880423, 1.160889, 26.19336, -3.04536, 1.92207, 1.178781
 32340392, 26.10933, -1.695825, 1.845653, 1.143963, 26.16877, -1.443283, 1.880423, 1.160889
 32440352, 27.65983, -0.3194315, 1.86986, 1.128801, 26.10933, -1.695825, 1.845653, 1.143963
 32540312, 28.04083, -0.2475542, 1.860312, 1.115976, 27.65983, -0.3194315, 1.86986, 1.128801
 32640272, 26.45214, -0.7347254, 1.783501, 1.104506, 28.04083, -0.2475542, 1.860312, 1.115976
 32740232, 27.24565, -0.3590887, 1.797395, 1.091504, 26.45214, -0.7347254, 1.783501, 1.104506
 32840192, 28.86337, -1.063607, 1.847582, 1.080043, 27.24565, -0.3590887, 1.797395, 1.091504
 32940152, 27.87973, 0.01511276, 1.799722, 1.070428, 28.86337, -1.063607, 1.847582, 1.080043
 33040945, 28.62597, -1.676918, 1.821329, 1.063377, 27.87973, 0.01511276, 1.799722, 1.070428
 33140905, 28.83764, -1.027808, 1.820778, 1.057684, 28.62597, -1.676918, 1.821329, 1.063377
 33240865, 29.34765, -1.181841, 1.833812, 1.054467, 28.83764, -1.027808, 1.820778, 1.057684
 33340825, 28.98062, -1.05058, 1.812621, 1.052328, 29.34765, -1.181841, 1.833812, 1.054467
 33440785, 29.17581, -1.436075, 1.814299, 1.052756, 28.98062, -1.05058, 1.812621, 1.052328
 33540745, 29.1297, 0.4033608, 1.805821, 1.05324, 29.17581, -1.436075, 1.814299, 1.052756
 33640705, 28.58009, -1.112273, 1.778491, 1.057347, 29.1297, 0.4033608, 1.805821, 1.05324
 33740665, 28.42757, -0.224749, 1.769435, 1.057747, 28.58009, -1.112273, 1.778491, 1.057347
 33840625, 29.07476, -0.6011684, 1.790791, 1.064705, 28.42757, -0.224749, 1.769435, 1.057747
 33940585, 29.72985, -0.6437981, 1.812955, 1.072959, 29.07476, -0.6011684, 1.790791, 1.064705
 34040545, 30.00577, 0.2366776, 1.82248, 1.077405, 29.72985, -0.6437981, 1.812955, 1.072959
 34140505, 29.81144, -0.6532071, 1.81372, 1.083398, 30.00577, 0.2366776, 1.82248, 1.077405
 34240465, 28.49951, 0.350519, 1.760135, 1.089943, 29.81144, -0.6532071, 1.81372, 1.083398
 34340425, 28.47169, 0.100939, 1.757143, 1.100033, 28.49951, 0.350519, 1.760135, 1.089943
 34440385, 29.54982, 0.3098578, 1.797627, 1.112873, 28.47169, 0.100939, 1.757143, 1.100033
 34540345, 30.3225, 0.4898301, 1.829264, 1.122204, 29.54982, 0.3098578, 1.797627, 1.112873
 34640305, 28.85872, 0.4971258, 1.770574, 1.129886, 30.3225, 0.4898301, 1.829264, 1.122204
 34740265, 30.34538, 1.66169, 1.830101, 1.145427, 28.85872, 0.4971258, 1.770574, 1.129886
 34840225, 30.16434, -0.1265138, 1.819452, 1.159782, 30.34538, 1.66169, 1.830101, 1.145427
 34940185, 29.7655, 1.519546, 1.806188, 1.171835, 30.16434, -0.1265138, 1.819452, 1.159782
 35040145, 28.87623, 0.180108, 1.7732, 1.179967, 29.7655, 1.519546, 1.806188, 1.171835
 35140938, 30.12377, 1.920944, 1.827722, 1.193072, 28.87623, 0.180108, 1.7732, 1.179967
 35240898, 30.19838, 0.5353925, 1.829912, 1.207965, 30.12377, 1.920944, 1.827722, 1.193072
 35340858, 28.67327, 0.8010677, 1.772174, 1.219705, 30.19838, 0.5353925, 1.829912, 1.207965
 35440818, 29.71921, 2.104497, 1.817317, 1.238338, 28.67327, 0.8010677, 1.772174, 1.219705
 35540778, 28.46401, 1.298412, 1.770052, 1.250262, 29.71921, 2.104497, 1.817317, 1.238338
 35640738, 29.02396, 0.9055114, 1.794485, 1.266348, 28.46401, 1.298412, 1.770052, 1.250262
 35740698, 30.14748, 0.9636556, 1.843244, 1.282128, 29.02396, 0.9055114, 1.794485, 1.266348
 35840658, 29.01966, 0.728264, 1.804879, 1.293375, 30.14748, 0.9636556, 1.843244, 1.282128
 35940618, 30.55458, 1.880635, 1.871732, 1.309863, 29.01966, 0.728264, 1.804879, 1.293375
 36040578, 30.53664, 0.6580849, 1.87195, 1.327277, 30.55458, 1.880635, 1.871732, 1.309863
 36140538, 30.72119, 1.383047, 1.887263, 1.33934, 30.53664, 0.6580849, 1.87195, 1.327277
 36240498, 30.04596, 0.487803, 1.865613, 1.353511, 30.72119, 1.383047, 1.887263, 1.33934
 36340458, 29.09192, 2.337812, 1.841025, 1.364835, 30.04596, 0.487803, 1.865613, 1.353511
 36440418, 29.33146, 1.275983, 1.853652, 1.380159, 29.09192, 2.337812, 1.841025, 1.364835
 36540378, 29.57755, 0.8675564, 1.867435, 1.397109, 29.33146, 1.275983, 1.853652, 1.380159
 36640338, 28.88726, 3.000575, 1.854344, 1.408238, 29.57755, 0.8675564, 1.867435, 1.397109
 36740298, 28.11542, 1.432287, 1.830572, 1.415745, 28.88726, 3.000575, 1.854344, 1.408238
 36840258, 28.54532, 2.505407, 1.855202, 1.429145, 28.11542, 1.432287, 1.830572, 1.415745
 36940218, 29.15806, 2.608839, 1.883814, 1.441871, 28.54532, 2.505407, 1.855202, 1.429145
 37040178, 28.89068, 1.344938, 1.87852, 1.449332, 29.15806, 2.608839, 1.883814, 1.441871
 37140971, 28.75044, 2.398081, 1.882915, 1.455897, 28.89068, 1.344938, 1.87852, 1.449332
 37240931, 28.35607, 2.026105, 1.874774, 1.461188, 28.75044, 2.398081, 1.882915, 1.455897
 37340891, 27.73335, 2.122816, 1.858912, 1.464872, 28.35607, 2.026105, 1.874774, 1.461188
 37440851, 29.78802, 1.111122, 1.936011, 1.476444, 27.73335, 2.122816, 1.858912, 1.464872
 37540811, 28.60304, 0.5931969, 1.895378, 1.480995, 29.78802, 1.111122, 1.936011, 1.476444
 37640771, 27.34797, 2.749457, 1.858125, 1.484726, 28.60304, 0.5931969, 1.895378, 1.480995
 37740731, 29.09355, 1.910884, 1.922066, 1.490862, 27.34797, 2.749457, 1.858125, 1.484726
 37840691, 29.60903, 1.922273, 1.944314, 1.495027, 29.09355, 1.910884, 1.922066, 1.490862
 37940651, 29.41252, 2.856126, 1.94337, 1.497619, 29.60903, 1.922273, 1.944314, 1.495027
 38040611, 27.98759, 1.369523, 1.8933, 1.49493, 29.41252, 2.856126, 1.94337, 1.497619
 38140571, 29.24857, 0.4777013, 1.939574, 1.501067, 27.98759, 1.369523, 1.8933, 1.49493
 38240531, 27.67048, 0.1460905, 1.88652, 1.499208, 29.24857, 0.4777013, 1.939574, 1.501067
 38340491, 29.007, 1.322052, 1.937155, 1.502673, 27.67048, 0.1460905, 1.88652, 1.499208
 38440451, 28.50878, 0.4834539, 1.918269, 1.504575, 29.007, 1.322052, 1.937155, 1.502673
 38540411, 28.76132, 2.282252, 1.933803, 1.502619, 28.50878, 0.4834539, 1.918269, 1.504575
 38640371, 27.67547, 1.824521, 1.897774, 1.496927, 28.76132, 2.282252, 1.933803, 1.502619
 38740331, 27.65635, 0.09422827, 1.89455, 1.496153, 27.67547, 1.824521, 1.897774, 1.496927
 38840291, 27.00219, 1.650103, 1.875617, 1.491578, 27.65635, 0.09422827, 1.89455, 1.496153
 38940251, 28.85868, 0.7804185, 1.942189, 1.490616, 27.00219, 1.650103, 1.875617, 1.491578
 39040211, 27.82436, 1.736398, 1.908759, 1.48628, 28.85868, 0.7804185, 1.942189, 1.490616
 39140171, 28.15006, 1.31699, 1.919074, 1.483283, 27.82436, 1.736398, 1.908759, 1.48628
 39240964, 27.73155, 1.957245, 1.904734, 1.479968, 28.15006, 1.31699, 1.919074, 1.483283
 39340924, 27.91134, 1.443389, 1.911512, 1.473889, 27.73155, 1.957245, 1.904734, 1.479968
 39440884, 27.85508, 0.6642843, 1.908451, 1.468906, 27.91134, 1.443389, 1.911512, 1.473889
 39540844, 28.91716, -0.02739966, 1.944005, 1.468246, 27.85508, 0.6642843, 1.908451, 1.468906
 39640804, 26.91598, 0.8906808, 1.873527, 1.459824, 28.91716, -0.02739966, 1.944005, 1.468246
 39740764, 26.81361, -0.07366902, 1.869333, 1.453992, 26.91598, 0.8906808, 1.873527, 1.459824
 39840724, 27.63006, 0.7830267, 1.89799, 1.449394, 26.81361, -0.07366902, 1.869333, 1.453992
 39940684, 27.92099, 2.183929, 1.908471, 1.446564, 27.63006, 0.7830267, 1.89799, 1.449394
 40040644, 26.42544, 0.2443197, 1.854072, 1.436229, 27.92099, 2.183929, 1.908471, 1.446564
 40140604, 28.7267, -0.1673107, 1.934324, 1.432901, 26.42544, 0.2443197, 1.854072, 1.436229
 40240564, 27.69074, 0.2554088, 1.895594, 1.425702, 28.7267, -0.1673107, 1.934324, 1.432901
 40340524, 26.5064, 0.2058396, 1.852853, 1.417886, 27.69074, 0.2554088, 1.895594, 1.425702
 40440484, 26.63284, -0.5501009, 1.855566, 1.412562, 26.5064, 0.2058396, 1.852853, 1.417886
 40540444, 28.55264, 0.7775067, 1.923979, 1.406517, 26.63284, -0.5501009, 1.855566, 1.412562
 40640404, 27.45256, -0.2493947, 1.883085, 1.399229, 28.55264, 0.7775067, 1.923979, 1.406517
 40740364, 26.83664, 1.398636, 1.860755, 1.393924, 27.45256, -0.2493947, 1.883085, 1.399229
 40840324, 26.82352, 0.6800544, 1.858026, 1.387305, 26.83664, 1.398636, 1.860755, 1.393924
 40940284, 26.9545, 0.2850266, 1.861494, 1.381029, 26.82352, 0.6800544, 1.858026, 1.387305
 41040244, 28.69543, -0.184899, 1.922035, 1.377924, 26.9545, 0.2850266, 1.861494, 1.381029
 41140204, 28.18333, 1.651863, 1.903928, 1.370334, 28.69543, -0.184899, 1.922035, 1.377924
 41240164, 27.83414, -0.4090996, 1.88869, 1.363922, 28.18333, 1.651863, 1.903928, 1.370334
 41340957, 27.55736, 1.259606, 1.87861, 1.35596, 27.83414, -0.4090996, 1.88869, 1.363922
 41440917, 28.96011, -0.2966612, 1.926042, 1.354716, 27.55736, 1.259606, 1.87861, 1.35596
 41540877, 28.93119, 0.02829659, 1.925219, 1.351446, 28.96011, -0.2966612, 1.926042, 1.354716
 41640837, 28.04471, 0.5273335, 1.894602, 1.347248, 28.93119, 0.02829659, 1.925219, 1.351446
 41740797, 27.87957, -0.1630426, 1.889724, 1.344844, 28.04471, 0.5273335, 1.894602, 1.347248
 41840757, 27.10512, 0.2299915, 1.863368, 1.34226, 27.87957, -0.1630426, 1.889724, 1.344844
 41940717, 28.11289, 0.3111827, 1.900561, 1.341649, 27.10512, 0.2299915, 1.863368, 1.34226
 42040677, 28.65829, 0.5283687, 1.922647, 1.340258, 28.11289, 0.3111827, 1.900561, 1.341649
 42140637, 27.2656, -0.09617466, 1.873742, 1.339645, 28.65829, 0.5283687, 1.922647, 1.340258
 42240597, 28.61208, 1.049512, 1.924615, 1.33954, 27.2656, -0.09617466, 1.873742, 1.339645
 42340557, 28.27922, 0.6452419, 1.913831, 1.339036, 28.61208, 1.049512, 1.924615, 1.33954
 42440517, 27.63288, 1.527589, 1.893547, 1.338982, 28.27922, 0.6452419, 1.913831, 1.339036
 42540477, 26.966, 0.2812998, 1.871636, 1.335358, 27.63288, 1.527589, 1.893547, 1.338982
 42640437, 26.84898, 0.8310356, 1.86812, 1.33573, 26.966, 0.2812998, 1.871636, 1.335358
 42740397, 26.53996, 1.021646, 1.85794, 1.335312, 26.84898, 0.8310356, 1.86812, 1.33573
 42840357, 27.17483, 1.092001, 1.882461, 1.335126, 26.53996, 1.021646, 1.85794, 1.335312
 42940317, 27.0534, -0.4528553, 1.87815, 1.335235, 27.17483, 1.092001, 1.882461, 1.335126
 43040277, 26.94801, -0.09846935, 1.875989, 1.333408, 27.0534, -0.4528553, 1.87815, 1.335235
 43140237, 28.16662, -0.5124048, 1.921899, 1.332866, 26.94801, -0.09846935, 1.875989, 1.333408
 43240197, 27.85772, 1.258316, 1.913347, 1.332872, 28.16662, -0.5124048, 1.921899, 1.332866
 43340157, 27.93009, -0.08920643, 1.91719, 1.331831, 27.85772, 1.258316, 1.913347, 1.332872
 43440950, 28.33799, -0.951086, 1.934679, 1.332609, 27.93009, -0.08920643, 1.91719, 1.331831
 43540910, 27.55911, 0.1605057, 1.908115, 1.331459, 28.33799, -0.951086, 1.934679, 1.332609
 43640870, 29.07319, -0.6469083, 1.964318, 1.333857, 27.55911, 0.1605057, 1.908115, 1.331459
 43740830, 27.04027, 0.2518838, 1.893473, 1.331779, 29.07319, -0.6469083, 1.964318, 1.333857
 43840790, 26.73139, -0.3631395, 1.885168, 1.331325, 27.04027, 0.2518838, 1.893473, 1.331779
 43940750, 28.37819, -0.006370474, 1.94568, 1.331505, 26.73139, -0.3631395, 1.885168, 1.331325
 44040710, 26.62877, 0.5522842, 1.887075, 1.329721, 28.37819, -0.006370474, 1.94568, 1.331505
 44140670, 28.45137, -0.5978382, 1.953321, 1.330534, 26.62877, 0.5522842, 1.887075, 1.329721
 44240630, 27.07006, 0.9485566, 1.903163, 1.335951, 28.45137, -0.5978382, 1.953321, 1.330534
 44340590, 28.93586, 0.7817882, 1.972453, 1.336203, 27.07006, 0.9485566, 1.903163, 1.335951
 44440550, 28.91469, 0.6859635, 1.973155, 1.337317, 28.93586, 0.7817882, 1.972453, 1.336203
 44540510, 29.015, -0.04061022, 1.980307, 1.335978, 28.91469, 0.6859635, 1.973155, 1.337317
 44640470, 27.48648, -0.6114703, 1.930223, 1.333566, 29.015, -0.04061022, 1.980307, 1.335978
 44740430, 26.65481, 0.8263912, 1.905773, 1.332046, 27.48648, -0.6114703, 1.930223, 1.333566
 44840390, 27.32998, -1.534556, 1.940872, 1.325244, 26.65481, 0.8263912, 1.905773, 1.332046
 44940350, 27.95469, -1.24563, 1.970223, 1.327591, 27.32998, -1.534556, 1.940872, 1.325244
 45040310, 26.89153, 0.7536345, 1.923887, 1.348856, 27.95469, -1.24563, 1.970223, 1.327591
 45140270, 26.63622, -0.5827556, 1.905928, 1.356279, 26.89153, 0.7536345, 1.923887, 1.348856
 45240230, 26.94191, 0.3969519, 1.915988, 1.350892, 26.63622, -0.5827556, 1.905928, 1.356279
 45340190, 29.05741, 0.3037302, 1.999421, 1.342916, 26.94191, 0.3969519, 1.915988, 1.350892
 45440150, 29.25472, -0.2451528, 2.016398, 1.337232, 29.05741, 0.3037302, 1.999421, 1.342916
 45540943, 27.79354, -0.5782129, 1.973877, 1.334882, 29.25472, -0.2451528, 2.016398, 1.337232
 45640903, 28.84, 0.3624716, 2.018046, 1.32998, 27.79354, -0.5782129, 1.973877, 1.334882
 45740863, 26.50958, -1.697115, 1.941539, 1.330165, 28.84, 0.3624716, 2.018046, 1.32998
 45840823, 28.18103, -0.3709172, 1.998325, 1.329771, 26.50958, -1.697115, 1.941539, 1.330165
 45940783, 26.69338, -0.9107747, 1.94442, 1.337556, 28.18103, -0.3709172, 1.998325, 1.329771
 46040743, 27.10769, 0.08507308, 1.956017, 1.343933, 26.69338, -0.9107747, 1.94442, 1.337556
 46140703, 28.5187, 0.64387, 2.003123, 1.353524, 27.10769, 0.08507308, 1.956017, 1.343933
 46240663, 28.44208, -0.8387687, 1.999093, 1.360705, 28.5187, 0.64387, 2.003123, 1.353524
 46340623, 28.10097, -0.4457188, 1.986129, 1.3679, 28.44208, -0.8387687, 1.999093, 1.360705
 46440583, 27.9143, 0.170889, 1.979991, 1.373244, 28.10097, -0.4457188, 1.986129, 1.3679
 46540543, 27.62816, 0.3200762, 1.97208, 1.376312, 27.9143, 0.170889, 1.979991, 1.373244
 46640503, 27.86395, -1.335278, 1.983191, 1.379983, 27.62816, 0.3200762, 1.97208, 1.376312
 46740463, 27.52281, -1.09627, 1.972701, 1.383275, 27.86395, -1.335278, 1.983191, 1.379983
 46840423, 26.54125, 0.2879692, 1.939494, 1.387349, 27.52281, -1.09627, 1.972701, 1.383275
 46940383, 26.99959, 0.6801795, 1.956378, 1.391965, 26.54125, 0.2879692, 1.939494, 1.387349
 47040343, 28.18124, 0.0001031756, 1.997488, 1.397919, 26.99959, 0.6801795, 1.956378, 1.391965
 47140303, 28.59891, 0.5988563, 2.014518, 1.402407, 28.18124, 0.0001031756, 1.997488, 1.397919
 47240263, 27.85465, -0.15744, 1.987431, 1.410233, 28.59891, 0.5988563, 2.014518, 1.402407
 47340223, 27.15575, -0.3109878, 1.963943, 1.415764, 27.85465, -0.15744, 1.987431, 1.410233
 47440183, 27.86222, -0.5578941, 1.991084, 1.419175, 27.15575, -0.3109878, 1.963943, 1.415764
 47540976, 27.9727, -0.4342684, 1.996311, 1.423575, 27.86222, -0.5578941, 1.991084, 1.419175
 47640936, 29.29607, 0.5995487, 2.043443, 1.429848, 27.9727, -0.4342684, 1.996311, 1.423575
 47740896, 27.68045, 0.629265, 1.986563, 1.436747, 29.29607, 0.5995487, 2.043443, 1.429848
 47840856, 26.73562, -1.215081, 1.955799, 1.443772, 27.68045, 0.629265, 1.986563, 1.436747
 47940816, 27.87623, -0.6359818, 1.99595, 1.449447, 26.73562, -1.215081, 1.955799, 1.443772
 48040776, 28.73671, -0.3515229, 2.027609, 1.454606, 27.87623, -0.6359818, 1.99595, 1.449447
 48140736, 29.23345, -1.120089, 2.046911, 1.461135, 28.73671, -0.3515229, 2.027609, 1.454606
 48240696, 26.784, 0.5230436, 1.963261, 1.465266, 29.23345, -1.120089, 2.046911, 1.461135
 48340656, 27.79004, -1.185105, 1.99802, 1.473449, 26.784, 0.5230436, 1.963261, 1.465266
 48440616, 29.03277, -1.137946, 2.044641, 1.477253, 27.79004, -1.185105, 1.99802, 1.473449
 48540576, 29.41301, 0.3047127, 2.060712, 1.479658, 29.03277, -1.137946, 2.044641, 1.477253
 48640536, 29.03318, 1.293104, 2.049068, 1.484125, 29.41301, 0.3047127, 2.060712, 1.479658
 48740496, 29.03502, 0.25769, 2.048347, 1.486669, 29.03318, 1.293104, 2.049068, 1.484125
 48840456, 28.85234, 0.8034506, 2.041781, 1.491335, 29.03502, 0.25769, 2.048347, 1.486669
 48940416, 27.73301, 1.315273, 2.002429, 1.495094, 28.85234, 0.8034506, 2.041781, 1.491335
 49040376, 27.948, -0.1772855, 2.010949, 1.49624, 27.73301, 1.315273, 2.002429, 1.495094
 49140336, 28.40283, 0.8125404, 2.027965, 1.498314, 27.948, -0.1772855, 2.010949, 1.49624
 49240296, 29.25215, 1.621634, 2.058175, 1.503227, 28.40283, 0.8125404, 2.027965, 1.498314
 49340256, 28.30262, 0.5203009, 2.024539, 1.503337, 29.25215, 1.621634, 2.058175, 1.503227
 49440216, 27.31516, 0.2688752, 1.992387, 1.504521, 28.30262, 0.5203009, 2.024539, 1.503337
 49540176, 28.94113, 1.537144, 2.049955, 1.507559, 27.31516, 0.2688752, 1.992387, 1.504521
 49640969, 27.33695, 0.512721, 1.994267, 1.509168, 28.94113, 1.537144, 2.049955, 1.507559
 49740929, 29.14265, 1.455452, 2.057073, 1.513282, 27.33695, 0.512721, 1.994267, 1.509168
 49840889, 27.50298, 1.218524, 2.002496, 1.512928, 29.14265, 1.455452, 2.057073, 1.513282
 49940849, 28.15548, 0.6970547, 2.026349, 1.514977, 27.50298, 1.218524, 2.002496, 1.512928
 50040809, 28.39559, 1.717732, 2.035663, 1.519799, 28.15548, 0.6970547, 2.026349, 1.514977
 50140769, 26.8467, 1.781294, 1.984469, 1.521999, 28.39559, 1.717732, 2.035663, 1.519799
 50240729, 28.29677, 1.089352, 2.034961, 1.523567, 26.8467, 1.781294, 1.984469, 1.521999
 50340689, 26.93126, 0.7947941, 1.988491, 1.526811, 28.29677, 1.089352, 2.034961, 1.523567
 50440649, 29.65834, -0.1117089, 2.082036, 1.53072, 26.93126, 0.7947941, 1.988491, 1.526811
 50540609, 29.56261, 1.818086, 2.081178, 1.534532, 29.65834, -0.1117089, 2.082036, 1.53072
 50640569, 27.64105, 1.560734, 2.015879, 1.534607, 29.56261, 1.818086, 2.081178, 1.534532
 50740529, 28.95374, -0.9804837, 2.062762, 1.535344, 27.64105, 1.560734, 2.015879, 1.534607
 50840489, 27.42233, 0.4202096, 2.012914, 1.535114, 28.95374, -0.9804837, 2.062762, 1.535344
 50940449, 27.81929, -0.5713124, 2.02732, 1.538477, 27.42233, 0.4202096, 2.012914, 1.535114
 51040409, 28.10662, -0.6236119, 2.037522, 1.543207, 27.81929, -0.5713124, 2.02732, 1.538477
 51140369, 27.08201, 0.5325111, 2.005227, 1.54522, 28.10662, -0.6236119, 2.037522, 1.543207
 51240329, 26.95277, 1.754614, 2.003978, 1.54924, 27.08201, 0.5325111, 2.005227, 1.54522
 51340289, 29.81607, 0.442965, 2.105312, 1.549261, 26.95277, 1.754614, 2.003978, 1.54924
 51440249, 27.90232, -1.074375, 2.041036, 1.552292, 29.81607, 0.442965, 2.105312, 1.549261
 51540209, 29.21933, 0.4046217, 2.089578, 1.553, 27.90232, -1.074375, 2.041036, 1.552292
 51640169, 29.46961, -0.3634425, 2.099895, 1.555803, 29.21933, 0.4046217, 2.089578, 1.553
 51740962, 28.45771, 0.714335, 2.066229, 1.558781, 29.46961, -0.3634425, 2.099895, 1.555803
 51840922, 28.59297, 1.652864, 2.073843, 1.561473, 28.45771, 0.714335, 2.066229, 1.558781
 51940882, 29.83911, 1.686069, 2.11931, 1.563739, 28.59297, 1.652864, 2.073843, 1.561473
 52040842, 27.80117, -1.058884, 2.050513, 1.565754, 29.83911, 1.686069, 2.11931, 1.563739
 52140802, 29.43136, 1.226, 2.108254, 1.566819, 27.80117, -1.058884, 2.050513, 1.565754
 52240762, 28.6088, -0.572408, 2.07848, 1.569168, 29.43136, 1.226, 2.108254, 1.566819
 52340722, 28.32355, 0.8529161, 2.07231, 1.565503, 28.6088, -0.572408, 2.07848, 1.569168
 52440682, 29.66209, 0.638271, 2.121268, 1.561987, 28.32355, 0.8529161, 2.07231, 1.565503
 52540642, 28.19126, 0.4226719, 2.0707, 1.559145, 29.66209, 0.638271, 2.121268, 1.561987
 52640602, 27.6859, 0.5589657, 2.053126, 1.558208, 28.19126, 0.4226719, 2.0707, 1.559145
 52740562, 29.24756, 0.8990717, 2.10518, 1.559633, 27.6859, 0.5589657, 2.053126, 1.558208
 52840522, 28.7489, -0.2700482, 2.087687, 1.559033, 29.24756, 0.8990717, 2.10518, 1.559633
 52940482, 28.14785, -0.2482877, 2.067541, 1.558248, 28.7489, -0.2700482, 2.087687, 1.559033
 53040442, 28.10211, -0.2905878, 2.065901, 1.558203, 28.14785, -0.2482877, 2.067541, 1.558248
 53140402, 27.50585, -0.9258043, 2.047637, 1.556301, 28.10211, -0.2905878, 2.065901, 1.558203
 53240362, 29.9936, -0.1045443, 2.13363, 1.554867, 27.50585, -0.9258043, 2.047637, 1.556301
 53340322, 27.50023, 0.09745957, 2.04756, 1.555531, 29.9936, -0.1045443, 2.13363, 1.554867
 53440282, 28.93896, -1.094474, 2.096146, 1.557044, 27.50023, 0.09745957, 2.04756, 1.555531
 53540242, 29.02081, -0.795359, 2.099548, 1.555862, 28.93896, -1.094474, 2.096146, 1.557044
 53640202, 29.14811, 1.107141, 2.108865, 1.55122, 29.02081, -0.795359, 2.099548, 1.555862
 53740162, 30.07562, -0.9862537, 2.141405, 1.552947, 29.14811, 1.107141, 2.108865, 1.55122
 53840955, 28.47123, 1.520088, 2.087394, 1.553112, 30.07562, -0.9862537, 2.141405, 1.552947
 53940915, 29.54249, 0.2344445, 2.125538, 1.550192, 28.47123, 1.520088, 2.087394, 1.553112
 54040875, 29.91237, -0.2238765, 2.139461, 1.548936, 29.54249, 0.2344445, 2.125538, 1.550192
 54140835, 29.8871, 1.366865, 2.138293, 1.5509, 29.91237, -0.2238765, 2.139461, 1.548936
 54240795, 27.67009, 0.9796242, 2.063151, 1.549204, 29.8871, 1.366865, 2.138293, 1.5509
 54340755, 27.19742, 1.459336, 2.046966, 1.550678, 27.67009, 0.9796242, 2.063151, 1.549204
 54440715, 27.74592, 0.1020958, 2.064868, 1.549417, 27.19742, 1.459336, 2.046966, 1.550678
 54540675, 28.13356, 1.130043, 2.076522, 1.552203, 27.74592, 0.1020958, 2.064868, 1.549417
 54640635, 28.71167, -0.5282832, 2.097274, 1.549978, 28.13356, 1.130043, 2.076522, 1.552203
 54740595, 27.69644, 0.2268766, 2.065491, 1.546363, 28.71167, -0.5282832, 2.097274, 1.549978
 54840555, 28.74709, -0.395466, 2.102618, 1.544297, 27.69644, 0.2268766, 2.065491, 1.546363
 54940515, 27.9257, 0.4337633, 2.074463, 1.544831, 28.74709, -0.395466, 2.102618, 1.544297
 55040475, 28.06785, 0.4022124, 2.08007, 1.543717, 27.9257, 0.4337633, 2.074463, 1.544831
 55140435, 29.45488, -1.479155, 2.127517, 1.545248, 28.06785, 0.4022124, 2.08007, 1.543717
 55240395, 29.2906, 0.3821915, 2.122595, 1.542472, 29.45488, -1.479155, 2.127517, 1.545248
 55340355, 28.33632, 0.6343454, 2.091581, 1.540507, 29.2906, 0.3821915, 2.122595, 1.542472
 55440315, 27.71497, -1.220911, 2.070076, 1.542272, 28.33632, 0.6343454, 2.091581, 1.540507
 55540275, 30.14208, -1.218185, 2.152256, 1.545014, 27.71497, -1.220911, 2.070076, 1.542272
 55640235, 29.56715, -0.5382705, 2.134337, 1.545544, 30.14208, -1.218185, 2.152256, 1.545014
 55740195, 29.11168, 0.9401072, 2.120559, 1.548661, 29.56715, -0.5382705, 2.134337, 1.545544
 55840155, 28.23209, -1.26855, 2.095263, 1.549206, 29.11168, 0.9401072, 2.120559, 1.548661
 55940948, 29.42497, 1.450283, 2.139624, 1.552645, 28.23209, -1.26855, 2.095263, 1.549206
 56040908, 28.35782, -1.384022, 2.105916, 1.556277, 29.42497, 1.450283, 2.139624, 1.552645
 56140868, 28.61299, 0.9729702, 2.118954, 1.557267, 28.35782, -1.384022, 2.105916, 1.556277
 56240828, 27.98863, 1.150399, 2.100933, 1.561675, 28.61299, 0.9729702, 2.118954, 1.557267
 56340788, 28.39873, 0.4405437, 2.118388, 1.563538, 27.98863, 1.150399, 2.100933, 1.561675
 56440748, 27.26828, -0.691448, 2.084125, 1.567076, 28.39873, 0.4405437, 2.118388, 1.563538
 56540708, 27.77009, -1.19121, 2.100933, 1.574123, 27.26828, -0.691448, 2.084125, 1.567076
 56640668, 27.57608, -0.2551154, 2.097108, 1.57731, 27.77009, -1.19121, 2.100933, 1.574123
 56740628, 29.59995, 0.4251114, 2.169425, 1.578682, 27.57608, -0.2551154, 2.097108, 1.57731
 56840588, 28.03024, 0.6546643, 2.120971, 1.58019, 29.59995, 0.4251114, 2.169425, 1.578682
 56940548, 29.12606, 0.6035311, 2.159368, 1.584166, 28.03024, 0.6546643, 2.120971, 1.58019
 57040508, 29.34581, -0.4543428, 2.169223, 1.588924, 29.12606, 0.6035311, 2.159368, 1.584166
 57140468, 27.53356, 0.9989273, 2.111603, 1.594049, 29.34581, -0.4543428, 2.169223, 1.588924
 57240428, 27.31998, 0.1232818, 2.110082, 1.595047, 27.53356, 0.9989273, 2.111603, 1.594049
 57340388, 29.9858, 0.6735548, 2.204303, 1.596312, 27.31998, 0.1232818, 2.110082, 1.595047
 57440348, 29.33025, 1.440939, 2.184869, 1.602622, 29.9858, 0.6735548, 2.204303, 1.596312
 57540308, 29.70427, -1.547135, 2.201153, 1.606214, 29.33025, 1.440939, 2.184869, 1.602622
 57640268, 27.68263, 1.228065, 2.134733, 1.612738, 29.70427, -1.547135, 2.201153, 1.606214
 57740228, 28.53117, 0.08312853, 2.166605, 1.614539, 27.68263, 1.228065, 2.134733, 1.612738
 57840188, 28.04333, -0.2295448, 2.154339, 1.617654, 28.53117, 0.08312853, 2.166605, 1.614539
 57940148, 29.55334, -1.188184, 2.206832, 1.622134, 28.04333, -0.2295448, 2.154339, 1.617654
 58040941, 27.99079, -0.6274851, 2.15911, 1.623538, 29.55334, -1.188184, 2.206832, 1.622134
 58140901, 29.59085, -1.406162, 2.214198, 1.628035, 27.99079, -0.6274851, 2.15911, 1.623538
 58240861, 29.12594, -1.154836, 2.200442, 1.631905, 29.59085, -1.406162, 2.214198, 1.628035
 58340821, 27.8077, -0.7473158, 2.160865, 1.633928, 29.12594, -1.154836, 2.200442, 1.631905
 58440781, 27.7048, -0.1394898, 2.161364, 1.635264, 27.8077, -0.7473158, 2.160865, 1.633928
 58540741, 29.49026, 0.6199065, 2.223632, 1.637682, 27.7048, -0.1394898, 2.161364, 1.635264
 58640701, 28.82553, 0.2155892, 2.202066, 1.644529, 29.49026, 0.6199065, 2.223632, 1.637682
 58740661, 28.45924, 1.229035, 2.191833, 1.652006, 28.82553, 0.2155892, 2.202066, 1.644529
 58840621, 30.31023, 1.356224, 2.255291, 1.6567, 28.45924, 1.229035, 2.191833, 1.652006
 58940581, 28.6427, 0.3490016, 2.20258, 1.659957, 30.31023, 1.356224, 2.255291, 1.6567
 59040541, 29.4343, 0.1332064, 2.232615, 1.663176, 28.6427, 0.3490016, 2.20258, 1.659957
 59140501, 27.83962, -1.326198, 2.184429, 1.669138, 29.4343, 0.1332064, 2.232615, 1.663176
 59240461, 29.60937, -0.1006223, 2.245805, 1.67175, 27.83962, -1.326198, 2.184429, 1.669138
 59340421, 28.1669, 1.236404, 2.202149, 1.677733, 29.60937, -0.1006223, 2.245805, 1.67175
 59440381, 30.05361, 0.06266198, 2.268414, 1.678938, 28.1669, 1.236404, 2.202149, 1.677733
 59540341, 28.13444, -0.3245655, 2.207359, 1.686391, 30.05361, 0.06266198, 2.268414, 1.678938
 59640301, 28.37807, 1.465415, 2.218135, 1.692901, 28.13444, -0.3245655, 2.207359, 1.686391
 59740261, 28.81449, 0.7654157, 2.236111, 1.69568, 28.37807, 1.465415, 2.218135, 1.692901
 59840221, 29.26562, -1.206243, 2.255962, 1.698122, 28.81449, 0.7654157, 2.236111, 1.69568
 59940181, 29.82437, 0.1338002, 2.279788, 1.698709, 29.26562, -1.206243, 2.255962, 1.698122
 60040974, 28.473, -1.835951, 2.240401, 1.703781, 29.82437, 0.1338002, 2.279788, 1.698709
 60140934, 29.8912, 0.5740553, 2.286155, 1.71027, 28.473, -1.835951, 2.240401, 1.703781
 60240894, 29.46727, -1.731655, 2.276248, 1.716306, 29.8912, 0.5740553, 2.286155, 1.71027
 60340854, 30.38088, 1.5486, 2.310381, 1.720372, 29.46727, -1.731655, 2.276248, 1.716306
 60440814, 28.58551, 0.7070889, 2.255805, 1.723501, 30.38088, 1.5486, 2.310381, 1.720372
 60540774, 29.42121, -1.815851, 2.287899, 1.727613, 28.58551, 0.7070889, 2.255805, 1.723501
 60640734, 30.14935, 0.7541964, 2.315443, 1.728712, 29.42121, -1.815851, 2.287899, 1.727613
 60740694, 27.53432, 0.6945682, 2.235892, 1.732922, 30.14935, 0.7541964, 2.315443, 1.728712
 60840654, 29.87035, -0.943864, 2.312604, 1.737537, 27.53432, 0.6945682, 2.235892, 1.732922
 60940614, 30.31234, -1.532729, 2.327985, 1.745018, 29.87035, -0.943864, 2.312604, 1.737537
 61040574, 27.54159, 1.506683, 2.244148, 1.748957, 30.31234, -1.532729, 2.327985, 1.745018
 61140534, 29.46828, 0.09006603, 2.309058, 1.749151, 27.54159, 1.506683, 2.244148, 1.748957
 61240494, 30.46281, 0.1859093, 2.344805, 1.751714, 29.46828, 0.09006603, 2.309058, 1.749151
 61340454, 28.52901, 0.8041872, 2.286407, 1.756399, 30.46281, 0.1859093, 2.344805, 1.751714
 61440414, 28.93161, -1.103775, 2.303417, 1.75884, 28.52901, 0.8041872, 2.286407, 1.756399
 61540374, 28.08607, 0.4666716, 2.279449, 1.763021, 28.93161, -1.103775, 2.303417, 1.75884
 61640334, 28.19459, 0.3143694, 2.284416, 1.768188, 28.08607, 0.4666716, 2.279449, 1.763021
 61740294, 28.34903, 1.256242, 2.291073, 1.774278, 28.19459, 0.3143694, 2.284416, 1.768188
 61840254, 28.12698, 0.859738, 2.286957, 1.777679, 28.34903, 1.256242, 2.291073, 1.774278
 61940214, 30.49727, -0.1389754, 2.363889, 1.781122, 28.12698, 0.859738, 2.286957, 1.777679
 62040174, 29.76468, -0.001202345, 2.342336, 1.78562, 30.49727, -0.1389754, 2.363889, 1.781122
 62140967, 29.04297, 1.462561, 2.322781, 1.791473, 29.76468, -0.001202345, 2.342336, 1.78562
 62240927, 30.32193, 0.3993507, 2.36752, 1.791656, 29.04297, 1.462561, 2.322781, 1.791473
 62340887, 28.87966, -0.6894674, 2.32486, 1.796148, 30.32193, 0.3993507, 2.36752, 1.791656
 62440847, 28.11117, -1.41059, 2.30174, 1.805429, 28.87966, -0.6894674, 2.32486, 1.796148
 62540807, 27.53837, 1.544564, 2.285438, 1.811872, 28.11117, -1.41059, 2.30174, 1.805429
 62640767, 29.93055, -0.810638, 2.363061, 1.81224, 27.53837, 1.544564, 2.285438, 1.811872
 62740727, 28.35298, -1.813971, 2.318146, 1.813678, 29.93055, -0.810638, 2.363061, 1.81224
 62840687, 28.42822, 1.455064, 2.323028, 1.814917, 28.35298, -1.813971, 2.318146, 1.813678
 62940647, 29.99067, 1.2984, 2.372707, 1.817159, 28.42822, 1.455064, 2.323028, 1.814917
 63040607, 27.48879, -1.796526, 2.295864, 1.821844, 29.99067, 1.2984, 2.372707, 1.817159
 63140567, 29.1868, -1.14601, 2.350251, 1.821391, 27.48879, -1.796526, 2.295864, 1.821844
 63240527, 28.36748, -0.3609169, 2.325031, 1.824232, 29.1868, -1.14601, 2.350251, 1.821391
 63340487, 29.04702, 0.1055498, 2.347191, 1.826476, 28.36748, -0.3609169, 2.325031, 1.824232
 63440447, 27.11222, 1.141852, 2.290921, 1.829854, 29.04702, 0.1055498, 2.347191, 1.826476
 63540407, 29.56216, 0.6503984, 2.36739, 1.831727, 27.11222, 1.141852, 2.290921, 1.829854
 63640367, 30.47036, 1.675179, 2.398366, 1.835292, 29.56216, 0.6503984, 2.36739, 1.831727
 63740327, 28.30219, 0.1149623, 2.333655, 1.834521, 30.47036, 1.675179, 2.398366, 1.835292
 63840287, 30.11297, 1.764497, 2.387743, 1.843244, 28.30219, 0.1149623, 2.333655, 1.834521
