TimeUS,COFN,COFE,CNe,CEe,POFN,POFE,PNe,PEe
 8040949, -0.06015117, 0.01034272, 0.09733652, 0.04844565, 0, 0, 0, 0
 8220877, -0.006434309, 0.006648168, 0.09739286, 0.04819769, -0.06015117, 0.01034272, 0.09733652, 0.04844565
 8420797, 0.03769812, 0.002086445, 0.09741965, 0.04819313, -0.006434309, 0.006648168, 0.09739286, 0.04819769
 8620717, 0.03032751, -0.0006435309, 0.09741046, 0.04819303, 0.03769812, 0.002086445, 0.09741965, 0.04819313
 8820637, 0.04969921, -0.0160656, 0.09745217, 0.04817558, 0.03032751, -0.0006435309, 0.09741046, 0.04819303
 9020557, 0.0002767295, -0.04030844, 0.09740798, 0.0482241, 0.04969921, -0.0160656, 0.09745217, 0.04817558
 9220477, -0.04996216, 0.002063199, 0.09744712, 0.04817738, 0.0002767295, -0.04030844, 0.09740798, 0.0482241
 9420397, 0.02350826, -0.03506364, 0.0974265, 0.04819249, -0.04996216, 0.002063199, 0.09744712, 0.04817738
 9620317, -0.01804456, -0.01122489, 0.09740388, 0.04818894, 0.02350826, -0.03506364, 0.0974265, 0.04819249
 9820237, -0.03103259, 0.006042566, 0.09741983, 0.04817702, -0.01804456, -0.01122489, 0.09740388, 0.04818894
 10020157, 0.01777956, 0.06497129, 0.09743181, 0.04828366, -0.03103259, 0.006042566, 0.09741983, 0.04817702
 10220910, -0.0267322, 0.02415234, 0.09742301, 0.04818163, 0.01777956, 0.06497129, 0.09743181, 0.04828366
 10420830, 0.03656962, -0.02771936, 0.09744124, 0.04817467, -0.0267322, 0.02415234, 0.09742301, 0.04818163
 10620750, 0.05959442, 0.02351568, 0.09746403, 0.04820256, 0.03656962, -0.02771936, 0.09744124, 0.04817467
 10820670, -0.003861173, 0.03989255, 0.09741469, 0.04820988, 0.05959442, 0.02351568, 0.09746403, 0.04820256
 11020590, 0.01114811, 0.01257255, 0.09740099, 0.04818856, -0.003861173, 0.03989255, 0.09741469, 0.04820988
 11220510, 0.03217082, -0.07623551, 0.09749176, 0.04824796, 0.01114811, 0.01257255, 0.09740099, 0.04818856
 11420430, -0.002797179, 0.01322106, 0.09739814, 0.04819062, 0.03217082, -0.07623551, 0.09749176, 0.04824796
 11620350, -0.03851396, 0.04449806, 0.09745897, 0.04818908, -0.002797179, 0.01322106, 0.09739814, 0.04819062
 11820270, -0.03930953, -0.02946215, 0.09742501, 0.04821885, -0.03851396, 0.04449806, 0.09745897, 0.04818908
 12020190, -0.01991663, -0.01628918, 0.09740353, 0.04819747, -0.03930953, -0.02946215, 0.09742501, 0.04821885
 12220943, 0.007900821, 0.01969255, 0.0974, 0.04819675, -0.01991663, -0.01628918, 0.09740353, 0.04819747
 12420863, 0.03449216, -0.02979753, 0.09743845, 0.04817925, 0.007900821, 0.01969255, 0.0974, 0.04819675
 12620783, 0.04327349, 0.008703567, 0.09743249, 0.04818652, 0.03449216, -0.02979753, 0.09743845, 0.04817925
 12820703, -0.01808055, 0.04089917, 0.09742423, 0.04820511, 0.04327349, 0.008703567, 0.09743249, 0.04818652
 13020623, -0.0201923, 0.01024337, 0.09740607, 0.04818679, -0.01808055, 0.04089917, 0.09742423, 0.04820511
 13220543, -0.06667311, -0.01891348, 0.09747709, 0.048202, -0.0201923, 0.01024337, 0.09740607, 0.04818679
 13420463, 0.005993212, -0.05749573, 0.09742686, 0.04824945, -0.06667311, -0.01891348, 0.09747709, 0.048202
 13620383, 0.004543804, 0.06800494, 0.09743299, 0.04828528, 0.005993212, -0.05749573, 0.09742686, 0.04824945
 13820303, -0.01238269, -0.01974778, 0.09739953, 0.04820114, 0.004543804, 0.06800494, 0.09743299, 0.04828528
 14020223, -0.04920838, -0.05188633, 0.09744646, 0.04827539, -0.01238269, -0.01974778, 0.09739953, 0.04820114
 14220976, -0.04595136, 0.06072786, 0.09749585, 0.04820096, -0.04920838, -0.05188633, 0.09744646, 0.04827539
 14420896, -0.009280308, -0.0102666, 0.09739707, 0.04819311, -0.04595136, 0.06072786, 0.09749585, 0.04820096
 14620816, -0.04498403, 0.002284789, 0.09743854, 0.04817729, -0.009280308, -0.0102666, 0.09739707, 0.04819311
 14820736, -0.04809083, 0.02687044, 0.09746343, 0.04816416, -0.04498403, 0.002284789, 0.09743854, 0.04817729
 15020656, -0.04761813, -0.05107975, 0.09744783, 0.04826388, -0.04809083, 0.02687044, 0.09746343, 0.04816416
 15220576, 0.03961936, -0.08042234, 0.0975175, 0.04823998, -0.04761813, -0.05107975, 0.09744783, 0.04826388
 15420496, 0.07805178, 0.04806111, 0.09751149, 0.0482656, 0.03961936, -0.08042234, 0.0975175, 0.04823998
 15620416, -0.01876058, -0.0004119142, 0.09740654, 0.04817991, 0.07805178, 0.04806111, 0.09751149, 0.0482656
 15820336, -0.06254432, 0.007034698, 0.09748389, 0.0481571, -0.01876058, -0.0004119142, 0.09740654, 0.04817991
 16020256, -0.03295692, 0.07464485, 0.09749265, 0.0482392, -0.06254432, 0.007034698, 0.09748389, 0.0481571
 16220176, -0.01683199, -0.04923777, 0.09741888, 0.04824213, -0.03295692, 0.07464485, 0.09749265, 0.0482392
 16420929, 0.01572842, -0.06296074, 0.09744756, 0.04823982, -0.01683199, -0.04923777, 0.09741888, 0.04824213
 16620849, -0.06213895, -0.04101275, 0.09746952, 0.04824467, 0.01572842, -0.06296074, 0.09744756, 0.04823982
 16820769, -0.03205011, 0.08599329, 0.09750848, 0.04827242, -0.06213895, -0.04101275, 0.09746952, 0.04824467
 17020689, 0.04310196, -0.04239391, 0.09746617, 0.04818162, -0.03205011, 0.08599329, 0.09750848, 0.04827242
 17220609, -0.02354437, 0.00757248, 0.09740946, 0.04818361, 0.04310196, -0.04239391, 0.09746617, 0.04818162
 17420529, -0.02453115, 0.0691555, 0.09746635, 0.04824522, -0.02354437, 0.00757248, 0.09740946, 0.04818361
 17620449, -0.02851463, -0.03789748, 0.09741732, 0.04822831, -0.02453115, 0.0691555, 0.09746635, 0.04824522
 17820369, -0.00988478, -0.005002364, 0.09740003, 0.04818454, -0.02851463, -0.03789748, 0.09741732, 0.04822831
 18020289, 0.05779425, -0.01565975, 0.09747676, 0.0481576, -0.00988478, -0.005002364, 0.09740003, 0.04818454
 18220209, -0.02709725, 0.04502113, 0.09744152, 0.04819838, 0.05779425, -0.01565975, 0.09747676, 0.0481576
 18420962, -0.04642937, 0.02552343, 0.09745778, 0.0481672, -0.02709725, 0.04502113, 0.09744152, 0.04819838
 18620882, -0.07096912, -0.04555231, 0.09749091, 0.04825947, -0.04642937, 0.02552343, 0.09745778, 0.0481672
 18820802, 0.07312668, 0.04157455, 0.09749679, 0.04824628, -0.07096912, -0.04555231, 0.09749091, 0.04825947
 19020722, 0.05983586, 0.04948383, 0.09746841, 0.04826489, 0.07312668, 0.04157455, 0.09749679, 0.04824628
 19220642, -0.03542604, 0.04883249, 0.09746152, 0.04819045, 0.05983586, 0.04948383, 0.09746841, 0.04826489
 19420562, 0.009012252, 0.010228, 0.09740084, 0.04818524, -0.03542604, 0.04883249, 0.09746152, 0.04819045
 19620482, 0.03017326, -0.07640847, 0.09749019, 0.04824753, 0.009012252, 0.010228, 0.09740084, 0.04818524
 19820402, 0.07569607, 0.02550153, 0.09724505, 0.04872628, 0.03017326, -0.07640847, 0.09749019, 0.04824753
 20020322, -0.01593432, 0.03229795, 0.09668716, 0.04964175, 0.07569607, 0.02550153, 0.09724505, 0.04872628
 20220242, -0.001406834, -0.03037655, 0.09599584, 0.05095274, -0.01593432, 0.03229795, 0.09668716, 0.04964175
 20420162, -0.03650796, -0.04958957, 0.095205, 0.05251304, -0.001406834, -0.03037655, 0.09599584, 0.05095274
 20620915, 0.04674518, 0.01904907, 0.0943363, 0.05401701, -0.03650796, -0.04958957, 0.095205, 0.05251304
 20820835, 0.05650099, 0.0593405, 0.09347223, 0.05563252, 0.04674518, 0.01904907, 0.0943363, 0.05401701
 21020755, -0.00483371, 0.03776969, 0.09255758, 0.05697678, 0.05650099, 0.0593405, 0.09347223, 0.05563252
 21220675, 0.3591352, -0.03996718, 0.09460806, 0.05764897, -0.00483371, 0.03776969, 0.09255758, 0.05697678
 21420595, 1.026531, -0.1974112, 0.1126664, 0.05490791, 0.3591352, -0.03996718, 0.09460806, 0.05764897
 21620515, 2.215218, -0.3883914, 0.1666722, 0.04554773, 1.026531, -0.1974112, 0.1126664, 0.05490791
 21820435, 3.774985, -0.7275572, 0.2519394, 0.03153709, 2.215218, -0.3883914, 0.1666722, 0.04554773
 22020355, 5.758294, -1.021199, 0.3648745, 0.01484854, 3.774985, -0.7275572, 0.2519394, 0.03153709
 22220275, 7.896735, -1.269201, 0.4881566, -0.0001847669, 5.758294, -1.021199, 0.3648745, 0.01484854
 22420195, 9.739573, -1.412691, 0.5941996, -0.008422114, 7.896735, -1.269201, 0.4881566, -0.0001847669
 22620948, 11.45627, -1.518935, 0.6919451, -0.01155974, 9.739573, -1.412691, 0.5941996, -0.008422114
 22820868, 13.15772, -1.584968, 0.7846026, -0.01006977, 11.45627, -1.518935, 0.6919451, -0.01155974
 23020788, 14.39495, -1.483021, 0.8502375, -0.005099483, 13.15772, -1.584968, 0.7846026, -0.01006977
 23220708, 16.78874, -1.548807, 0.95809, 0.002451524, 14.39495, -1.483021, 0.8502375, -0.005099483
 23420628, 18.4845, -1.530228, 1.00009, 0.02759812, 16.78874, -1.548807, 0.95809, 0.002451524
 23620548, 19.88976, -1.33542, 1.033751, 0.06387954, 18.4845, -1.530228, 1.00009, 0.02759812
 23820468, 21.07409, -1.46207, 1.07269, 0.1034426, 19.88976, -1.33542, 1.033751, 0.06387954
 24020388, 22.78408, -1.603424, 1.140693, 0.1414857, 21.07409, -1.46207, 1.07269, 0.1034426
 24220308, 24.00152, -1.413138, 1.18906, 0.1852753, 22.78408, -1.603424, 1.140693, 0.1414857
 24420228, 25.00163, -1.60445, 1.235341, 0.2277142, 24.00152, -1.413138, 1.18906, 0.1852753
 24620148, 26.45877, -2.140697, 1.305478, 0.2849239, 25.00163, -1.60445, 1.235341, 0.2277142
 24820901, 27.19555, -1.43957, 1.352836, 0.3418301, 26.45877, -2.140697, 1.305478, 0.2849239
 25020821, 27.48782, -2.281402, 1.391726, 0.3967057, 27.19555, -1.43957, 1.352836, 0.3418301
 25220741, 28.26691, -2.002661, 1.4484, 0.4561269, 27.48782, -2.281402, 1.391726, 0.3967057
 25420661, 28.00524, -2.196685, 1.468699, 0.5253992, 28.26691, -2.002661, 1.4484, 0.4561269
 25620581, 28.51989, -1.87515, 1.524475, 0.5872455, 28.00524, -2.196685, 1.468699, 0.5253992
 25820501, 29.17243, -2.380383, 1.593774, 0.6492942, 28.51989, -1.87515, 1.524475, 0.5872455
 26020421, 29.80618, -2.168347, 1.669573, 0.7178721, 29.17243, -2.380383, 1.593774, 0.6492942
 26220341, 29.00846, -3.17078, 1.702825, 0.7888126, 29.80618, -2.168347, 1.669573, 0.7178721
 26420261, 30.12099, -2.619967, 1.801039, 0.8516685, 29.00846, -3.17078, 1.702825, 0.7888126
 26620181, 30.11266, -2.510069, 1.857609, 0.9229398, 30.12099, -2.619967, 1.801039, 0.8516685
 26820934, 28.5207, -2.873315, 1.861847, 0.9954689, 30.11266, -2.510069, 1.857609, 0.9229398
 27020854, 29.48278, -3.605963, 1.957505, 1.057006, 28.5207, -2.873315, 1.861847, 0.9954689
 27220774, 28.73766, -2.800772, 1.988551, 1.121976, 29.48278, -3.605963, 1.957505, 1.057006
 27420694, 29.16552, -1.519089, 2.057587, 1.1811, 28.73766, -2.800772, 1.988551, 1.121976
 27620614, 28.56999, -3.669283, 2.103645, 1.233735, 29.16552, -1.519089, 2.057587, 1.1811
 27820534, 29.45303, -1.894524, 2.184894, 1.283705, 28.56999, -3.669283, 2.103645, 1.233735
 28020454, 31.07852, -2.765254, 2.298372, 1.325497, 29.45303, -1.894524, 2.184894, 1.283705
 28220374, 29.66867, -1.746552, 2.311455, 1.379354, 31.07852, -2.765254, 2.298372, 1.325497
 28420294, 28.12473, -4.445898, 2.336215, 1.429164, 29.66867, -1.746552, 2.311455, 1.379354
 28620214, 30.15792, -2.765492, 2.45226, 1.467263, 28.12473, -4.445898, 2.336215, 1.429164
 28820967, 30.85152, -3.572782, 2.535316, 1.504545, 30.15792, -2.765492, 2.45226, 1.467263
 29020887, 29.88897, -2.937657, 2.525661, 1.572792, 30.85152, -3.572782, 2.535316, 1.504545
 29220807, 28.23325, -0.7716057, 2.544208, 1.67561, 29.88897, -2.937657, 2.525661, 1.572792
 29420727, 31.03441, -4.433246, 2.757873, 1.771878, 28.23325, -0.7716057, 2.544208, 1.67561
 29620647, 27.75844, -5.148662, 2.709503, 1.840333, 31.03441, -4.433246, 2.757873, 1.771878
 29820567, 26.77625, -4.964381, 2.615682, 1.862441, 27.75844, -5.148662, 2.709503, 1.840333
 30020487, 27.77994, -3.249899, 2.57171, 1.862765, 26.77625, -4.964381, 2.615682, 1.862441
 30220407, 27.82275, -3.504101, 2.528941, 1.895101, 27.77994, -3.249899, 2.57171, 1.862765
 30420327, 29.72174, -1.565026, 2.558132, 1.921488, 27.82275, -3.504101, 2.528941, 1.895101
 30620247, 29.57358, -0.4383255, 2.53441, 1.960912, 29.72174, -1.565026, 2.558132, 1.921488
 30820167, 26.97864, -0.8290485, 2.442029, 2.003812, 29.57358, -0.4383255, 2.53441, 1.960912
 31020920, 27.33164, 1.059958, 2.42996, 2.039145, 26.97864, -0.8290485, 2.442029, 2.003812
 31220840, 27.5249, 0.6343698, 2.423087, 2.052537, 27.33164, 1.059958, 2.42996, 2.039145
 31420760, 25.52065, 1.086123, 2.364603, 2.053028, 27.5249, 0.6343698, 2.423087, 2.052537
 31620680, 27.02093, 0.8419753, 2.400654, 2.054037, 25.52065, 1.086123, 2.364603, 2.053028
 31820600, 27.23746, -1.185347, 2.398158, 2.056308, 27.02093, 0.8419753, 2.400654, 2.054037
 32020520, 26.79156, -0.8328793, 2.375689, 2.052814, 27.23746, -1.185347, 2.398158, 2.056308
 32220440, 24.99047, -0.8434148, 2.30935, 2.051369, 26.79156, -0.8328793, 2.375689, 2.052814
 32420360, 23.35645, 0.2008338, 2.250221, 2.045521, 24.99047, -0.8434148, 2.30935, 2.051369
 32620280, 24.39081, 1.060522, 2.255151, 2.045531, 23.35645, 0.2008338, 2.250221, 2.045521
 32820200, 25.77984, 2.536808, 2.270587, 2.048481, 24.39081, 1.060522, 2.255151, 2.045531
 33020953, 23.34652, 1.414198, 2.181964, 2.039963, 25.77984, 2.536808, 2.270587, 2.048481
 33220873, 26.83873, 1.028964, 2.251964, 2.036739, 23.34652, 1.414198, 2.181964, 2.039963
 33420793, 26.32426, -0.2321186, 2.210234, 2.030974, 26.83873, 1.028964, 2.251964, 2.036739
 33620713, 27.14516, 0.3961477, 2.209957, 2.023811, 26.32426, -0.2321186, 2.210234, 2.030974
 33820633, 26.65157, 0.001171947, 2.170549, 2.0155, 27.14516, 0.3961477, 2.209957, 2.023811
 34020553, 25.39548, 0.1232653, 2.113593, 2.001206, 26.65157, 0.001171947, 2.170549, 2.0155
 34220473, 26.126, 0.8553232, 2.111693, 1.991939, 25.39548, 0.1232653, 2.113593, 2.001206
 34420393, 27.43526, 2.044127, 2.135613, 1.977618, 26.126, 0.8553232, 2.111693, 1.991939
 34620313, 24.79553, 1.987832, 2.039731, 1.958154, 27.43526, 2.044127, 2.135613, 1.977618
 34820233, 26.52847, 1.684175, 2.07023, 1.946895, 24.79553, 1.987832, 2.039731, 1.958154
 35020153, 25.36578, 1.901476, 2.019717, 1.927102, 26.52847, 1.684175, 2.07023, 1.946895
 35220906, 27.2422, 0.7266017, 2.053774, 1.91946, 25.36578, 1.901476, 2.019717, 1.927102
 35420826, 25.33046, 1.015574, 1.987175, 1.891232, 27.2422, 0.7266017, 2.053774, 1.91946
 35620746, 27.05165, 1.330415, 2.023286, 1.881068, 25.33046, 1.015574, 1.987175, 1.891232
 35820666, 26.30056, 3.275115, 1.989655, 1.866104, 27.05165, 1.330415, 2.023286, 1.881068
 36020586, 25.68651, 1.416961, 1.953953, 1.845552, 26.30056, 3.275115, 1.989655, 1.866104
 36220506, 25.81871, 1.246993, 1.946238, 1.827074, 25.68651, 1.416961, 1.953953, 1.845552
 36420426, 27.84258, 1.057511, 1.996511, 1.815473, 25.81871, 1.246993, 1.946238, 1.827074
 36620346, 27.16752, 0.9344556, 1.964074, 1.79565, 27.84258, 1.057511, 1.996511, 1.815473
 36820266, 26.4834, 1.718892, 1.931296, 1.780216, 27.16752, 0.9344556, 1.964074, 1.79565
 37020186, 25.99648, 3.663325, 1.911669, 1.761923, 26.4834, 1.718892, 1.931296, 1.780216
 37220939, 25.99238, 3.202142, 1.898136, 1.744888, 25.99648, 3.663325, 1.911669, 1.761923
 37420859, 26.67874, 1.916301, 1.908934, 1.727826, 25.99238, 3.202142, 1.898136, 1.744888
 37620779, 26.31767, 2.66309, 1.893965, 1.709978, 26.67874, 1.916301, 1.908934, 1.727826
 37820699, 28.2129, 1.685038, 1.94481, 1.704492, 26.31767, 2.66309, 1.893965, 1.709978
 38020619, 25.92173, 3.445982, 1.865431, 1.689696, 28.2129, 1.685038, 1.94481, 1.704492
 38220539, 28.53561, 2.764063, 1.944504, 1.682528, 25.92173, 3.445982, 1.865431, 1.689696
 38420459, 27.12393, 2.052993, 1.888829, 1.666292, 28.53561, 2.764063, 1.944504, 1.682528
 38620379, 26.96756, 0.9734223, 1.872887, 1.656387, 27.12393, 2.052993, 1.888829, 1.666292
 38820299, 27.89462, 1.423232, 1.89852, 1.647773, 26.96756, 0.9734223, 1.872887, 1.656387
 39020219, 27.06341, 2.638832, 1.869081, 1.633103, 27.89462, 1.423232, 1.89852, 1.647773
 39220972, 26.63126, 2.527573, 1.850703, 1.620285, 27.06341, 2.638832, 1.869081, 1.633103
 39420892, 27.42839, 2.771688, 1.873449, 1.614294, 26.63126, 2.527573, 1.850703, 1.620285
 39620812, 27.39279, 3.015226, 1.868627, 1.60461, 27.42839, 2.771688, 1.873449, 1.614294
 39820732, 27.71071, 1.776135, 1.870504, 1.596759, 27.39279, 3.015226, 1.868627, 1.60461
 40020652, 26.71643, 1.953147, 1.834208, 1.584412, 27.71071, 1.776135, 1.870504, 1.596759
 40220572, 27.52337, 2.136926, 1.85751, 1.579825, 26.71643, 1.953147, 1.834208, 1.584412
 40420492, 26.48598, 1.419366, 1.818348, 1.566046, 27.52337, 2.136926, 1.85751, 1.579825
 40620412, 27.54888, 1.558002, 1.850971, 1.561432, 26.48598, 1.419366, 1.818348, 1.566046
 40820332, 26.75742, 0.830519, 1.819343, 1.551979, 27.54888, 1.558002, 1.850971, 1.561432
 41020252, 27.42077, 1.262385, 1.84307, 1.551123, 26.75742, 0.830519, 1.819343, 1.551979
 41220172, 26.77045, 2.050641, 1.826402, 1.550796, 27.42077, 1.262385, 1.84307, 1.551123
 41420925, 28.72737, 1.446386, 1.897427, 1.559794, 26.77045, 2.050641, 1.826402, 1.550796
 41620845, 27.84297, 1.194689, 1.870405, 1.56137, 28.72737, 1.446386, 1.897427, 1.559794
 41820765, 29.15526, 1.342968, 1.917973, 1.571421, 27.84297, 1.194689, 1.870405, 1.56137
 42020685, 28.1921, 2.119126, 1.891483, 1.571033, 29.15526, 1.342968, 1.917973, 1.571421
 42220605, 27.34076, 1.858884, 1.864924, 1.573737, 28.1921, 2.119126, 1.891483, 1.571033
 42420525, 28.86005, 2.255854, 1.923915, 1.583153, 27.34076, 1.858884, 1.864924, 1.573737
 42620445, 28.88777, 2.892659, 1.931493, 1.591092, 28.86005, 2.255854, 1.923915, 1.583153
 42820365, 27.77508, 3.302612, 1.900218, 1.59297, 28.88777, 2.892659, 1.931493, 1.591092
 43020285, 27.01122, 2.668508, 1.875787, 1.598039, 27.77508, 3.302612, 1.900218, 1.59297
 43220205, 27.37784, 2.887903, 1.892975, 1.607103, 27.01122, 2.668508, 1.875787, 1.598039
 43420958, 27.34723, 1.656202, 1.895271, 1.612274, 27.37784, 2.887903, 1.892975, 1.607103
 43620878, 28.18034, 3.198076, 1.933936, 1.623381, 27.34723, 1.656202, 1.895271, 1.612274
 43820798, 28.79835, 1.001693, 1.95569, 1.631362, 28.18034, 3.198076, 1.933936, 1.623381
 44020718, 29.51072, 1.389473, 1.987441, 1.64052, 28.79835, 1.001693, 1.95569, 1.631362
 44220638, 27.20223, 1.580973, 1.915258, 1.642558, 29.51072, 1.389473, 1.987441, 1.64052
 44420558, 27.03682, 2.530186, 1.919379, 1.648219, 27.20223, 1.580973, 1.915258, 1.642558
 44620478, 27.49293, 3.093934, 1.939199, 1.663302, 27.03682, 2.530186, 1.919379, 1.648219
 44820398, 29.45679, 2.936707, 2.012087, 1.679337, 27.49293, 3.093934, 1.939199, 1.663302
 45020318, 27.85125, 1.664944, 1.964095, 1.683744, 29.45679, 2.936707, 2.012087, 1.679337
 45220238, 27.83044, 1.150116, 1.967693, 1.696736, 27.85125, 1.664944, 1.964095, 1.683744
 45420158, 27.19828, 2.999996, 1.959977, 1.703925, 27.83044, 1.150116, 1.967693, 1.696736
 45620911, 27.50558, 1.60907, 1.975315, 1.712791, 27.19828, 2.999996, 1.959977, 1.703925
 45820831, 29.81257, 1.842664, 2.059468, 1.73103, 27.50558, 1.60907, 1.975315, 1.712791
 46020751, 29.18649, 3.212908, 2.051307, 1.739518, 29.81257, 1.842664, 2.059468, 1.73103
 46220671, 28.58349, 2.59819, 2.038197, 1.748665, 29.18649, 3.212908, 2.051307, 1.739518
 46420591, 27.54656, 2.779544, 2.015633, 1.756419, 28.58349, 2.59819, 2.038197, 1.748665
 46620511, 29.06212, 1.409013, 2.071644, 1.770534, 27.54656, 2.779544, 2.015633, 1.756419
 46820431, 28.36247, 2.303773, 2.062205, 1.777288, 29.06212, 1.409013, 2.071644, 1.770534
 47020351, 28.4112, 0.5188464, 2.071291, 1.787142, 28.36247, 2.303773, 2.062205, 1.777288
 47220271, 26.78451, 2.306801, 2.033899, 1.793558, 28.4112, 0.5188464, 2.071291, 1.787142
 47420191, 28.73747, 2.025557, 2.105431, 1.808672, 26.78451, 2.306801, 2.033899, 1.793558
 47620944, 28.25068, 1.667889, 2.096221, 1.821406, 28.73747, 2.025557, 2.105431, 1.808672
 47820864, 28.36931, 1.110841, 2.111474, 1.82905, 28.25068, 1.667889, 2.096221, 1.821406
 48020784, 29.85022, 2.512579, 2.167276, 1.842758, 28.36931, 1.110841, 2.111474, 1.82905
 48220704, 27.18519, 0.1378758, 2.080509, 1.841968, 29.85022, 2.512579, 2.167276, 1.842758
 48420624, 29.47311, 1.086604, 2.158612, 1.846264, 27.18519, 0.1378758, 2.080509, 1.841968
 48620544, 27.12621, 1.866276, 2.086035, 1.842831, 29.47311, 1.086604, 2.158612, 1.846264
 48820464, 29.82057, 0.211398, 2.174216, 1.846444, 27.12621, 1.866276, 2.086035, 1.842831
 49020384, 29.57526, 2.81471, 2.173205, 1.845583, 29.82057, 0.211398, 2.174216, 1.846444
 49220304, 29.25981, 2.281735, 2.162768, 1.847068, 29.57526, 2.81471, 2.173205, 1.845583
 49420224, 28.38815, 1.046504, 2.137838, 1.844035, 29.25981, 2.281735, 2.162768, 1.847068
 49620977, 29.70676, 2.995534, 2.185121, 1.848729, 28.38815, 1.046504, 2.137838, 1.844035
 49820897, 27.71191, 1.471811, 2.123655, 1.842075, 29.70676, 2.995534, 2.185121, 1.848729
 50020817, 27.73937, 1.703734, 2.126222, 1.844921, 27.71191, 1.471811, 2.123655, 1.842075
 50220737, 27.83362, 2.356937, 2.135286, 1.84532, 27.73937, 1.703734, 2.126222, 1.844921
 50420657, 28.65441, 2.99456, 2.16405, 1.850557, 27.83362, 2.356937, 2.135286, 1.84532
 50620577, 28.55904, 2.224362, 2.160685, 1.85127, 28.65441, 2.99456, 2.16405, 1.850557
 50820497, 30.27674, 1.014753, 2.216067, 1.855282, 28.55904, 2.224362, 2.160685, 1.85127
 51020417, 27.98587, 2.444375, 2.1494, 1.849386, 30.27674, 1.014753, 2.216067, 1.855282
 51220337, 27.67801, 1.264976, 2.140772, 1.848723, 27.98587, 2.444375, 2.1494, 1.849386
 51420257, 28.37453, 0.243143, 2.160995, 1.854027, 27.67801, 1.264976, 2.140772, 1.848723
 51620177, 27.297, 2.6886, 2.134118, 1.847673, 28.37453, 0.243143, 2.160995, 1.854027
 51820930, 28.34133, -0.2715992, 2.162112, 1.843579, 27.297, 2.6886, 2.134118, 1.847673
 52020850, 29.90655, 0.5842188, 2.210419, 1.841227, 28.34133, -0.2715992, 2.162112, 1.843579
 52220770, 29.02313, 2.711935, 2.183446, 1.83278, 29.90655, 0.5842188, 2.210419, 1.841227
 52420690, 28.22343, -0.1845511, 2.15136, 1.825979, 29.02313, 2.711935, 2.183446, 1.83278
 52620610, 28.87664, 0.2605265, 2.171396, 1.819776, 28.22343, -0.1845511, 2.15136, 1.825979
 52820530, 29.88983, 1.571095, 2.207535, 1.811889, 28.87664, 0.2605265, 2.171396, 1.819776
 53020450, 27.93935, 1.49725, 2.14106, 1.806304, 29.88983, 1.571095, 2.207535, 1.811889
 53220370, 28.97839, 0.5492554, 2.170397, 1.80293, 27.93935, 1.49725, 2.14106, 1.806304
 53420290, 28.24937, 0.428506, 2.145857, 1.795739, 28.97839, 0.5492554, 2.170397, 1.80293
 53620210, 30.15995, 0.8278775, 2.204223, 1.794006, 28.24937, 0.428506, 2.145857, 1.795739
 53820963, 29.23403, -0.315635, 2.170315, 1.789709, 30.15995, 0.8278775, 2.204223, 1.794006
 54020883, 29.4564, 1.959872, 2.182132, 1.780182, 29.23403, -0.315635, 2.170315, 1.789709
 54220803, 28.6902, 2.429751, 2.157296, 1.774922, 29.4564, 1.959872, 2.182132, 1.780182
 54420723, 30.21229, 0.8356136, 2.202408, 1.770563, 28.6902, 2.429751, 2.157296, 1.774922
 54620643, 27.68784, 1.987404, 2.118687, 1.764878, 30.21229, 0.8356136, 2.202408, 1.770563
 54820563, 27.85571, 1.094717, 2.117077, 1.761821, 27.68784, 1.987404, 2.118687, 1.764878
 55020483, 28.80108, 0.3562978, 2.150324, 1.758434, 27.85571, 1.094717, 2.117077, 1.761821
 55220403, 28.81062, 0.5733054, 2.155169, 1.761552, 28.80108, 0.3562978, 2.150324, 1.758434
 55420323, 28.19944, 1.201293, 2.141798, 1.766274, 28.81062, 0.5733054, 2.155169, 1.761552
 55620243, 29.33317, 1.374702, 2.185025, 1.771063, 28.19944, 1.201293, 2.141798, 1.766274
 55820163, 27.9168, -0.401054, 2.139363, 1.780741, 29.33317, 1.374702, 2.185025, 1.771063
 56020916, 29.73368, 0.5176318, 2.203225, 1.787828, 27.9168, -0.401054, 2.139363, 1.780741
 56220836, 28.42932, -0.2376406, 2.168058, 1.789948, 29.73368, 0.5176318, 2.203225, 1.787828
 56420756, 28.47479, -0.3989694, 2.175584, 1.796316, 28.42932, -0.2376406, 2.168058, 1.789948
 56620676, 27.96667, 2.172398, 2.167555, 1.802891, 28.47479, -0.3989694, 2.175584, 1.796316
 56820596, 27.24225, 0.1842776, 2.145287, 1.811315, 27.96667, 2.172398, 2.167555, 1.802891
 57020516, 27.68665, 0.7112721, 2.165187, 1.815971, 27.24225, 0.1842776, 2.145287, 1.811315
 57220436, 28.07901, 1.729841, 2.183156, 1.821077, 27.68665, 0.7112721, 2.165187, 1.815971
 57420356, 29.3472, 0.6647252, 2.225389, 1.829831, 28.07901, 1.729841, 2.183156, 1.821077
 57620276, 27.44777, 1.131051, 2.176499, 1.829846, 29.3472, 0.6647252, 2.225389, 1.829831
 57820196, 29.40638, 2.410557, 2.244055, 1.841435, 27.44777, 1.131051, 2.176499, 1.829846
 58020949, 27.61411, 2.242013, 2.19176, 1.84846, 29.40638, 2.410557, 2.244055, 1.841435
 58220869, 28.09605, 0.6927611, 2.210323, 1.853737, 27.61411, 2.242013, 2.19176, 1.84846
 58420789, 28.0582, 0.2784359, 2.214705, 1.859817, 28.09605, 0.6927611, 2.210323, 1.853737
 58620709, 29.07044, -0.1880955, 2.250288, 1.866987, 28.0582, 0.2784359, 2.214705, 1.859817
 58820629, 27.71368, 0.9055236, 2.216589, 1.866981, 29.07044, -0.1880955, 2.250288, 1.866987
 59020549, 28.75627, 1.378753, 2.250172, 1.880129, 27.71368, 0.9055236, 2.216589, 1.866981
 59220469, 30.241, 2.494007, 2.302281, 1.891887, 28.75627, 1.378753, 2.250172, 1.880129
 59420389, 29.36889, 1.085457, 2.279479, 1.895404, 30.241, 2.494007, 2.302281, 1.891887
 59620309, 29.58782, 1.053886, 2.2917, 1.900301, 29.36889, 1.085457, 2.279479, 1.895404
 59820229, 30.04981, 1.140446, 2.310293, 1.907377, 29.58782, 1.053886, 2.2917, 1.900301
 60020149, 28.38486, 2.523627, 2.265091, 1.913101, 30.04981, 1.140446, 2.310293, 1.907377
 60220902, 29.43319, -0.202658, 2.303668, 1.912433, 28.38486, 2.523627, 2.265091, 1.913101
 60420822, 28.66608, -0.7408266, 2.282343, 1.921356, 29.43319, -0.202658, 2.303668, 1.912433
 60620742, 29.69051, -0.6002949, 2.320859, 1.927339, 28.66608, -0.7408266, 2.282343, 1.921356
 60820662, 28.64006, 1.526299, 2.297392, 1.930146, 29.69051, -0.6002949, 2.320859, 1.927339
 61020582, 30.02958, 1.832134, 2.347443, 1.935664, 28.64006, 1.526299, 2.297392, 1.930146
 61220502, 30.02875, -0.003289819, 2.347992, 1.945255, 30.02958, 1.832134, 2.347443, 1.935664
 61420422, 27.5787, 2.417546, 2.283567, 1.947456, 30.02875, -0.003289819, 2.347992, 1.945255
 61620342, 30.46821, 1.263458, 2.377266, 1.952713, 27.5787, 2.417546, 2.283567, 1.947456
 61820262, 28.97802, -0.08518869, 2.335792, 1.95614, 30.46821, 1.263458, 2.377266, 1.952713
 62020182, 28.23074, 1.356443, 2.313632, 1.959534, 28.97802, -0.08518869, 2.335792, 1.95614
 62220935, 28.47947, 2.49665, 2.291225, 2.01712, 28.23074, 1.356443, 2.313632, 1.959534
 62420855, 31.25734, 3.153986, 2.378852, 2.194876, 28.47947, 2.49665, 2.291225, 2.01712
 62620775, 33.35272, 4.192142, 2.544493, 2.612957, 31.25734, 3.153986, 2.378852, 2.194876
 62820695, 33.12667, 2.765271, 3.07845, 3.758756, 33.35272, 4.192142, 2.544493, 2.612957
 63020615, 32.88753, 4.997707, 3.354554, 4.956616, 33.12667, 2.765271, 3.07845, 3.758756
 63220535, 22.98775, 11.23409, 2.569645, 5.200234, 32.88753, 4.997707, 3.354554, 4.956616
 63420455, 22.21438, 7.095847, 1.622346, 5.002954, 22.98775, 11.23409, 2.569645, 5.200234
 63620375, 21.37511, 13.517, 0.9640949, 4.870699, 22.21438, 7.095847, 1.622346, 5.002954
 63820295, 16.61926, 16.38135, 0.4609408, 4.850528, 21.37511, 13.517, 0.9640949, 4.870699
 64020215, 17.92118, 21.7899, 0.06959248, 4.873117, 16.61926, 16.38135, 0.4609408, 4.850528
 64220968, 15.20849, 22.27281, -0.3288417, 4.803136, 17.92118, 21.7899, 0.06959248, 4.873117
 64420888, 14.42306, 16.09911, -0.7388124, 4.691923, 15.20849, 22.27281, -0.3288417, 4.803136
 64620808, 12.68711, 22.46413, -1.119817, 4.584958, 14.42306, 16.09911, -0.7388124, 4.691923
 64820728, 13.58525, 21.83395, -1.509704, 4.42263, 12.68711, 22.46413, -1.119817, 4.584958
 65020648, 10.2247, 22.43146, -1.88309, 4.250753, 13.58525, 21.83395, -1.509704, 4.42263
 65220568, 6.971017, 22.74748, -2.240635, 4.043223, 10.2247, 22.43146, -1.88309, 4.250753
 65420488, 3.29981, 18.87055, -2.571027, 3.779052, 6.971017, 22.74748, -2.240635, 4.043223
 65620408, 0.6072361, 20.1486, -2.883871, 3.54073, 3.29981, 18.87055, -2.571027, 3.779052
 65820328, -2.585017, 19.63667, -3.17212, 3.274881, 0.6072361, 20.1486, -2.883871, 3.54073
 66020248, 0.1136378, 22.94634, -3.444983, 3.012422, -2.585017, 19.63667, -3.17212, 3.274881
 66220168, -4.418189, 22.06821, -3.702476, 2.707729, 0.1136378, 22.94634, -3.444983, 3.012422
 66420921, -5.800055, 23.77879, -3.92267, 2.391073, -4.418189, 22.06821, -3.702476, 2.707729
 66620841, -6.120308, 19.44892, -4.09575, 2.015971, -5.800055, 23.77879, -3.92267, 2.391073
 66820761, -11.12957, 18.59587, -4.23502, 1.66581, -6.120308, 19.44892, -4.09575, 2.015971
 67020681, -9.25012, 23.32984, -4.343434, 1.337157, -11.12957, 18.59587, -4.23502, 1.66581
 67220601, -13.8065, 17.40229, -4.375664, 0.9845243, -9.25012, 23.32984, -4.343434, 1.337157
 67420521, -10.70199, 17.27707, -4.371937, 0.6487503, -13.8065, 17.40229, -4.375664, 0.9845243
 67620441, -15.18733, 13.9112, -4.331656, 0.339779, -10.70199, 17.27707, -4.371937, 0.6487503
 67820361, -15.81258, 13.32369, -4.252613, 0.06169772, -15.18733, 13.9112, -4.331656, 0.339779
 68020281, -18.69069, 14.22101, -4.168789, -0.147413, -15.81258, 13.32369, -4.252613, 0.06169772
 68220201, -17.87126, 16.88895, -4.060096, -0.3392928, -18.69069, 14.22101, -4.168789, -0.147413
 68420954, -20.21593, 14.51416, -3.948106, -0.5039856, -17.87126, 16.88895, -4.060096, -0.3392928
 68620874, -18.8444, 11.35968, -3.811708, -0.6974903, -20.21593, 14.51416, -3.948106, -0.5039856
 68820794, -18.65208, 12.90027, -3.711994, -0.8361137, -18.8444, 11.35968, -3.811708, -0.6974903
 69020714, -21.05747, 13.61887, -3.633815, -0.9558618, -18.65208, 12.90027, -3.711994, -0.8361137
 69220634, -19.52318, 9.962422, -3.467797, -1.091576, -21.05747, 13.61887, -3.633815, -0.9558618
 69420554, -19.76115, 11.01183, -3.363897, -1.182226, -19.52318, 9.962422, -3.467797, -1.091576
 69620474, -22.40201, 7.615066, -3.27596, -1.253089, -19.76115, 11.01183, -3.363897, -1.182226
 69820394, -23.16483, 9.450813, -3.201543, -1.327368, -22.40201, 7.615066, -3.27596, -1.253089
 70020314, -23.42522, 8.555293, -3.104476, -1.400249, -23.16483, 9.450813, -3.201543, -1.327368
 70220234, -24.74092, 6.610978, -3.026633, -1.454346, -23.42522, 8.555293, -3.104476, -1.400249
 70420154, -22.11322, 6.730657, -2.883685, -1.528087, -24.74092, 6.610978, -3.026633, -1.454346
 70620907, -25.72887, 5.573796, -2.872982, -1.55984, -22.11322, 6.730657, -2.883685, -1.528087
 70820827, -23.53054, 6.21323, -2.748981, -1.615343, -25.72887, 5.573796, -2.872982, -1.55984
 71020747, -24.41433, 4.332324, -2.68854, -1.649974, -23.53054, 6.21323, -2.748981, -1.615343
 71220667, -27.25675, 5.093884, -2.699857, -1.670332, -24.41433, 4.332324, -2.68854, -1.649974
 71420587, -25.4021, 3.082153, -2.587845, -1.701542, -27.25675, 5.093884, -2.699857, -1.670332
 71620507, -24.87254, 4.329169, -2.51829, -1.740079, -25.4021, 3.082153, -2.587845, -1.701542
 71820427, -28.03518, 0.7305639, -2.542918, -1.759843, -24.87254, 4.329169, -2.51829, -1.740079
 72020347, -24.91723, 3.035531, -2.417142, -1.782703, -28.03518, 0.7305639, -2.542918, -1.759843
 72220267, -27.37196, 2.502353, -2.444087, -1.789255, -24.91723, 3.035531, -2.417142, -1.782703
 72420187, -25.85977, 2.199737, -2.361465, -1.805633, -27.37196, 2.502353, -2.444087, -1.789255
 72620940, -25.83902, 0.5218058, -2.321382, -1.817106, -25.85977, 2.199737, -2.361465, -1.805633
 72820860, -28.79425, 1.362721, -2.372616, -1.827766, -25.83902, 0.5218058, -2.321382, -1.817106
 73020780, -27.55823, 1.177363, -2.303094, -1.83769, -28.79425, 1.362721, -2.372616, -1.827766
 73220700, -26.72403, -1.618378, -2.250798, -1.843506, -27.55823, 1.177363, -2.303094, -1.83769
 73420620, -28.174, -1.89962, -2.268872, -1.846781, -26.72403, -1.618378, -2.250798, -1.843506
 73620540, -28.16123, -0.3424565, -2.242106, -1.853738, -28.174, -1.89962, -2.268872, -1.846781
 73820460, -29.35546, 0.8903069, -2.260598, -1.861455, -28.16123, -0.3424565, -2.242106, -1.853738
 74020380, -26.88998, -0.2318149, -2.170233, -1.863429, -29.35546, 0.8903069, -2.260598, -1.861455
 74220300, -27.74914, -1.518858, -2.182107, -1.869307, -26.88998, -0.2318149, -2.170233, -1.863429
 74420220, -28.54784, -1.771875, -2.191647, -1.87656, -27.74914, -1.518858, -2.182107, -1.869307
 74620973, -26.67806, 0.3548265, -2.121577, -1.877728, -28.54784, -1.771875, -2.191647, -1.87656
 74820893, -29.39893, -1.76669, -2.193948, -1.888342, -26.67806, 0.3548265, -2.121577, -1.877728
 75020813, -28.96054, -0.5051328, -2.168849, -1.890781, -29.39893, -1.76669, -2.193948, -1.888342
 75220733, -27.59149, -0.1937376, -2.116707, -1.891403, -28.96054, -0.5051328, -2.168849, -1.890781
 75420653, -27.607, -1.884319, -2.109853, -1.894052, -27.59149, -0.1937376, -2.116707, -1.891403
 75620573, -26.70423, -3.078921, -2.076918, -1.896754, -27.607, -1.884319, -2.109853, -1.894052
 75820493, -28.59588, -2.070406, -2.125348, -1.902655, -26.70423, -3.078921, -2.076918, -1.896754
 76020413, -26.58475, -2.153979, -2.058196, -1.899018, -28.59588, -2.070406, -2.125348, -1.902655
 76220333, -28.5215, -0.8258849, -2.108301, -1.906147, -26.58475, -2.153979, -2.058196, -1.899018
 76420253, -27.98617, -0.8330327, -2.081888, -1.909006, -28.5215, -0.8258849, -2.108301, -1.906147
 76620173, -28.68695, -3.301382, -2.109198, -1.906066, -27.98617, -0.8330327, -2.081888, -1.909006
 76820926, -28.42066, -3.402769, -2.096308, -1.907981, -28.68695, -3.301382, -2.109198, -1.906066
 77020846, -29.31439, -1.923521, -2.119427, -1.906745, -28.42066, -3.402769, -2.096308, -1.907981
 77220766, -27.74188, -3.400833, -2.065755, -1.905262, -29.31439, -1.923521, -2.119427, -1.906745
 77420686, -28.18679, -2.573648, -2.072554, -1.90407, -27.74188, -3.400833, -2.065755, -1.905262
 77620606, -28.65247, -3.555025, -2.087017, -1.903134, -28.18679, -2.573648, -2.072554, -1.90407
 77820526, -26.75555, -3.453238, -2.024023, -1.896754, -28.65247, -3.555025, -2.087017, -1.903134
 78020446, -27.49955, -0.83593, -2.035245, -1.898626, -26.75555, -3.453238, -2.024023, -1.896754
 78220366, -28.30787, -4.063971, -2.066591, -1.902409, -27.49955, -0.83593, -2.035245, -1.898626
 78420286, -29.04406, -1.921794, -2.079599, -1.903886, -28.30787, -4.063971, -2.066591, -1.902409
 78620206, -27.2928, -1.090163, -2.019768, -1.899893, -29.04406, -1.921794, -2.079599, -1.903886
 78820959, -28.3199, -1.660339, -2.051995, -1.900684, -27.2928, -1.090163, -2.019768, -1.899893
 79020879, -28.87389, -4.246341, -2.073595, -1.905692, -28.3199, -1.660339, -2.051995, -1.900684
 79220799, -28.12692, -4.012324, -2.048093, -1.903141, -28.87389, -4.246341, -2.073595, -1.905692
 79420719, -27.10569, -1.271147, -2.005299, -1.901757, -28.12692, -4.012324, -2.048093, -1.903141
 79620639, -29.69341, -4.370768, -2.094625, -1.909745, -27.10569, -1.271147, -2.005299, -1.901757
 79820559, -27.5475, -2.09653, -2.016571, -1.902768, -29.69341, -4.370768, -2.094625, -1.909745
 80020479, -27.94996, -1.312461, -2.023574, -1.90764, -27.5475, -2.09653, -2.016571, -1.902768
 80220399, -29.49865, -3.136324, -2.081788, -1.911162, -27.94996, -1.312461, -2.023574, -1.90764
 80420319, -29.69889, -3.668771, -2.089121, -1.91486, -29.49865, -3.136324, -2.081788, -1.911162
 80620239, -27.91412, -3.880345, -2.028834, -1.914087, -29.69889, -3.668771, -2.089121, -1.91486
 80820159, -27.62323, -3.252024, -2.013679, -1.909681, -27.91412, -3.880345, -2.028834, -1.914087
 81020912, -29.5964, -2.342, -2.07014, -1.910429, -27.62323, -3.252024, -2.013679, -1.909681
 81220832, -28.07051, -3.48421, -2.020648, -1.900978, -29.5964, -2.342, -2.07014, -1.910429
 81420752, -28.79104, -3.187902, -2.038116, -1.897995, -28.07051, -3.48421, -2.020648, -1.900978
 81620672, -27.55416, -3.001023, -1.995972, -1.886318, -28.79104, -3.187902, -2.038116, -1.897995
 81820592, -29.2401, -2.092576, -2.04135, -1.891274, -27.55416, -3.001023, -1.995972, -1.886318
 82020512, -28.31223, -2.834728, -2.012793, -1.882107, -29.2401, -2.092576, -2.04135, -1.891274
 82220432, -29.28475, -2.729277, -2.041489, -1.879646, -28.31223, -2.834728, -2.012793, -1.882107
 82420352, -28.4603, -1.528657, -2.006485, -1.873026, -29.28475, -2.729277, -2.041489, -1.879646
 82620272, -29.16026, -2.67248, -2.030096, -1.868066, -28.4603, -1.528657, -2.006485, -1.873026
 82820192, -27.00012, -3.318771, -1.959285, -1.856022, -29.16026, -2.67248, -2.030096, -1.868066
 83020945, -28.43617, -3.024794, -1.99795, -1.858274, -27.00012, -3.318771, -1.959285, -1.856022
 83220865, -28.19961, -3.64955, -1.988181, -1.854441, -28.43617, -3.024794, -1.99795, -1.858274
 83420785, -27.56331, -1.778592, -1.957034, -1.848202, -28.19961, -3.64955, -1.988181, -1.854441
 83620705, -27.69114, -4.145738, -1.965926, -1.844923, -27.56331, -1.778592, -1.957034, -1.848202
 83820625, -29.51554, -3.914602, -2.023483, -1.844642, -27.69114, -4.145738, -1.965926, -1.844923
 84020545, -27.92615, -3.273932, -1.963696, -1.834411, -29.51554, -3.914602, -2.023483, -1.844642
 84220465, -29.47241, -3.230864, -2.011674, -1.832878, -27.92615, -3.273932, -1.963696, -1.834411
 84420385, -29.90763, -2.681, -2.022257, -1.8271, -29.47241, -3.230864, -2.011674, -1.832878
 84620305, -29.5372, -4.552265, -2.0149, -1.822056, -29.90763, -2.681, -2.022257, -1.8271
 84820225, -27.57784, -2.331459, -1.93845, -1.810749, -29.5372, -4.552265, -2.0149, -1.822056
 85020145, -28.72758, -4.363408, -1.981031, -1.812047, -27.57784, -2.331459, -1.93845, -1.810749
 85220898, -27.27767, -2.867933, -1.922739, -1.804303, -28.72758, -4.363408, -1.981031, -1.812047
 85420818, -28.18041, -1.621967, -1.944577, -1.8033, -27.27767, -2.867933, -1.922739, -1.804303
 85620738, -28.71693, -4.068806, -1.969537, -1.799623, -28.18041, -1.621967, -1.944577, -1.8033
 85820658, -27.49314, -2.009344, -1.917868, -1.790776, -28.71693, -4.068806, -1.969537, -1.799623
 86020578, -29.32285, -3.260616, -1.977568, -1.794518, -27.49314, -2.009344, -1.917868, -1.790776
 86220498, -29.92208, -3.231955, -1.99293, -1.791635, -29.32285, -3.260616, -1.977568, -1.794518
 86420418, -29.69905, -3.158042, -1.981107, -1.784917, -29.92208, -3.231955, -1.99293, -1.791635
 86620338, -29.67615, -2.589268, -1.974381, -1.77936, -29.69905, -3.158042, -1.981107, -1.784917
 86820258, -29.76561, -3.931892, -1.978627, -1.77501, -29.67615, -2.589268, -1.974381, -1.77936
 87020178, -27.55419, -2.605318, -1.894625, -1.761516, -29.76561, -3.931892, -1.978627, -1.77501
 87220931, -27.74711, -3.722123, -1.901151, -1.754749, -27.55419, -2.605318, -1.894625, -1.761516
 87420851, -28.47597, -3.610084, -1.919786, -1.751028, -27.74711, -3.722123, -1.901151, -1.754749
 87620771, -29.44777, -2.168051, -1.94361, -1.747037, -28.47597, -3.610084, -1.919786, -1.751028
 87820691, -29.92057, -2.998925, -1.960419, -1.743956, -29.44777, -2.168051, -1.94361, -1.747037
 88020611, -27.9311, -2.247693, -1.889679, -1.735078, -29.92057, -2.998925, -1.960419, -1.743956
 88220531, -28.0822, -2.936106, -1.895039, -1.736089, -27.9311, -2.247693, -1.889679, -1.735078
 88420451, -28.91213, -2.145589, -1.920264, -1.73625, -28.0822, -2.936106, -1.895039, -1.736089
 88620371, -27.58004, -3.244915, -1.875291, -1.731598, -28.91213, -2.145589, -1.920264, -1.73625
 88820291, -28.0325, -1.958789, -1.885689, -1.732061, -27.58004, -3.244915, -1.875291, -1.731598
 89020211, -28.17287, -4.351076, -1.899025, -1.733858, -28.0325, -1.958789, -1.885689, -1.732061
 89220964, -28.22842, -4.097413, -1.897669, -1.736118, -28.17287, -4.351076, -1.899025, -1.733858
 89420884, -27.11437, -4.019562, -1.862655, -1.729217, -28.22842, -4.097413, -1.897669, -1.736118
 89620804, -28.59846, -4.276982, -1.910975, -1.734094, -27.11437, -4.019562, -1.862655, -1.729217
 89820724, -28.80725, -2.562629, -1.911845, -1.731905, -28.59846, -4.276982, -1.910975, -1.734094
 90020644, -28.86316, -4.130615, -1.915956, -1.733795, -28.80725, -2.562629, -1.911845, -1.731905
 90220564, -28.29548, -3.499269, -1.893824, -1.730454, -28.86316, -4.130615, -1.915956, -1.733795
 90420484, -29.97628, -2.090657, -1.945557, -1.733596, -28.29548, -3.499269, -1.893824, -1.730454
 90620404, -27.46241, -2.142568, -1.858286, -1.723012, -29.97628, -2.090657, -1.945557, -1.733596
 90820324, -28.83887, -4.652982, -1.912133, -1.729664, -27.46241, -2.142568, -1.858286, -1.723012
 91020244, -28.73915, -1.939285, -1.897144, -1.725071, -28.83887, -4.652982, -1.912133, -1.729664
 91220164, -27.90884, -2.459074, -1.870698, -1.722441, -28.73915, -1.939285, -1.897144, -1.725071
 91420917, -27.29795, -1.962506, -1.852705, -1.723998, -27.90884, -2.459074, -1.870698, -1.722441
 91620837, -27.50807, -4.213948, -1.871341, -1.733233, -27.29795, -1.962506, -1.852705, -1.723998
 91820757, -27.32991, -4.215695, -1.866566, -1.741856, -27.50807, -4.213948, -1.871341, -1.733233
 92020677, -29.90579, -1.926096, -1.94944, -1.757026, -27.32991, -4.215695, -1.866566, -1.741856
 92220597, -27.51799, -4.632744, -1.881642, -1.756795, -29.90579, -1.926096, -1.94944, -1.757026
 92420517, -27.35804, -2.148385, -1.8713, -1.760728, -27.51799, -4.632744, -1.881642, -1.756795
 92620437, -28.89193, -3.309044, -1.931729, -1.772262, -27.35804, -2.148385, -1.8713, -1.760728
 92820357, -27.46545, -4.461747, -1.893259, -1.774381, -28.89193, -3.309044, -1.931729, -1.772262
 93020277, -29.74023, -4.818429, -1.971025, -1.793168, -27.46545, -4.461747, -1.893259, -1.774381
 93220197, -29.4186, -2.142595, -1.965485, -1.783684, -29.74023, -4.818429, -1.971025, -1.793168
 93420950, -27.63844, -4.012451, -1.921198, -1.790561, -29.4186, -2.142595, -1.965485, -1.783684
 93620870, -29.53143, -4.007776, -1.998133, -1.820752, -27.63844, -4.012451, -1.921198, -1.790561
 93820790, -28.93465, -1.135399, -1.999352, -1.847585, -29.53143, -4.007776, -1.998133, -1.820752
 94020710, -29.70381, -1.968229, -2.067436, -1.867923, -28.93465, -1.135399, -1.999352, -1.847585
 94220630, -27.10952, -0.009751558, -2.059485, -1.872212, -29.70381, -1.968229, -2.067436, -1.867923
 94420550, -28.63025, -1.705189, -2.179605, -1.86975, -27.10952, -0.009751558, -2.059485, -1.872212
 94620470, -29.21364, 0.7769412, -2.288438, -1.85009, -28.63025, -1.705189, -2.179605, -1.86975
 94820390, -26.80633, 0.0425396, -2.3364, -1.823315, -29.21364, 0.7769412, -2.288438, -1.85009
 95020310, -25.41836, 3.494304, -2.431065, -1.757862, -26.80633, 0.0425396, -2.3364, -1.823315
 95220230, -27.23056, 5.644494, -2.596104, -1.667063, -25.41836, 3.494304, -2.431065, -1.757862
 95420150, -28.31504, 4.052323, -2.797446, -1.594946, -27.23056, 5.644494, -2.596104, -1.667063
 95620903, -24.21732, 6.556221, -2.947255, -1.509641, -28.31504, 4.052323, -2.797446, -1.594946
 95820823, -24.97385, 8.324532, -3.147668, -1.361142, -24.21732, 6.556221, -2.947255, -1.509641
 96020743, -23.74733, 9.597111, -3.263813, -1.192469, -24.97385, 8.324532, -3.147668, -1.361142
 96220663, -22.96395, 13.22787, -3.361484, -0.9977945, -23.74733, 9.597111, -3.263813, -1.192469
 96420583, -22.05112, 11.0421, -3.385387, -0.8064018, -22.96395, 13.22787, -3.361484, -0.9977945
 96620503, -19.94381, 13.86786, -3.394003, -0.6006777, -22.05112, 11.0421, -3.385387, -0.8064018
 96820423, -23.24737, 14.29319, -3.414893, -0.3671702, -19.94381, 13.86786, -3.394003, -0.6006777
 97020343, -20.89546, 15.1369, -3.333467, -0.1961677, -23.24737, 14.29319, -3.414893, -0.3671702
 97220263, -19.81756, 16.79528, -3.233092, -0.01272237, -20.89546, 15.1369, -3.333467, -0.1961677
 97420183, -16.91576, 16.21159, -3.073243, 0.1070102, -19.81756, 16.79528, -3.233092, -0.01272237
 97620936, -16.14513, 16.24315, -2.95332, 0.2369205, -16.91576, 16.21159, -3.073243, 0.1070102
 97820856, -14.49656, 16.83273, -2.876064, 0.3447222, -16.14513, 16.24315, -2.95332, 0.2369205
 98020776, -16.81994, 17.3326, -2.85022, 0.4813561, -14.49656, 16.83273, -2.876064, 0.3447222
 98220696, -13.15241, 18.42512, -2.773492, 0.5545334, -16.81994, 17.3326, -2.85022, 0.4813561
 98420616, -14.61246, 20.63296, -2.760034, 0.6933758, -13.15241, 18.42512, -2.773492, 0.5545334
 98620536, -15.10751, 18.66304, -2.688005, 0.7523886, -14.61246, 20.63296, -2.760034, 0.6933758
 98820456, -13.41292, 22.18665, -2.668443, 0.8700913, -15.10751, 18.66304, -2.688005, 0.7523886
 99020376, -14.81036, 20.69911, -2.618792, 0.9169095, -13.41292, 22.18665, -2.668443, 0.8700913
 99220296, -14.09361, 21.36536, -2.579803, 0.9744741, -14.81036, 20.69911, -2.618792, 0.9169095
 99420216, -13.03025, 22.58943, -2.549408, 1.04167, -14.09361, 21.36536, -2.579803, 0.9744741
 99620969, -13.72275, 22.69281, -2.527471, 1.089416, -13.03025, 22.58943, -2.549408, 1.04167
 99820889, -12.27846, 23.87751, -2.508072, 1.131356, -13.72275, 22.69281, -2.527471, 1.089416
 100020809, -13.26784, 25.9717, -2.524018, 1.217323, -12.27846, 23.87751, -2.508072, 1.131356
 100220729, -13.9877, 25.40135, -2.509125, 1.228948, -13.26784, 25.9717, -2.524018, 1.217323
 100420649, -14.73861, 26.73827, -2.522289, 1.281492, -13.9877, 25.40135, -2.509125, 1.228948
 100620569, -12.42738, 25.41591, -2.485368, 1.22175, -14.73861, 26.73827, -2.522289, 1.281492
 100820489, -12.08355, 26.64551, -2.497697, 1.246451, -12.42738, 25.41591, -2.485368, 1.22175
 101020409, -12.46122, 27.00984, -2.508889, 1.255779, -12.08355, 26.64551, -2.497697, 1.246451
 101220329, -12.5076, 28.20422, -2.541761, 1.274098, -12.46122, 27.00984, -2.508889, 1.255779
 101420249, -13.95015, 26.03348, -2.550305, 1.220144, -12.5076, 28.20422, -2.541761, 1.274098
 101620169, -12.80438, 28.59989, -2.602806, 1.241682, -13.95015, 26.03348, -2.550305, 1.220144
 101820922, -14.64835, 27.98797, -2.631289, 1.223761, -12.80438, 28.59989, -2.602806, 1.241682
 102020842, -14.62418, 28.82587, -2.66542, 1.211479, -14.64835, 27.98797, -2.631289, 1.223761
 102220762, -12.73444, 26.45962, -2.650854, 1.102569, -14.62418, 28.82587, -2.66542, 1.211479
 102420682, -14.05779, 27.6516, -2.693822, 1.106674, -12.73444, 26.45962, -2.650854, 1.102569
 102620602, -16.65475, 25.94744, -2.718973, 1.058944, -14.05779, 27.6516, -2.693822, 1.106674
 102820522, -13.93554, 25.69239, -2.723745, 0.9777929, -16.65475, 25.94744, -2.718973, 1.058944
 103020442, -15.88118, 25.56636, -2.758955, 0.9490374, -13.93554, 25.69239, -2.723745, 0.9777929
 103220362, -17.25294, 24.25296, -2.775415, 0.8861959, -15.88118, 25.56636, -2.758955, 0.9490374
 103420282, -17.27153, 26.85274, -2.821857, 0.8823801, -17.25294, 24.25296, -2.775415, 0.8861959
 103620202, -16.33537, 24.07751, -2.796888, 0.7612867, -17.27153, 26.85274, -2.821857, 0.8823801
 103820955, -16.84893, 25.37309, -2.83184, 0.7310698, -16.33537, 24.07751, -2.796888, 0.7612867
 104020875, -18.55798, 22.72583, -2.828407, 0.6455818, -16.84893, 25.37309, -2.83184, 0.7310698
 104220795, -19.83524, 24.21942, -2.871068, 0.6266662, -18.55798, 22.72583, -2.828407, 0.6455818
 104420715, -19.06202, 22.55701, -2.84906, 0.5291882, -19.83524, 24.21942, -2.871068, 0.6266662
 104620635, -21.18801, 22.53229, -2.879477, 0.486939, -19.06202, 22.55701, -2.84906, 0.5291882
 104820555, -19.14089, 19.90274, -2.823643, 0.3622133, -21.18801, 22.53229, -2.879477, 0.486939
 105020475, -20.86645, 20.07825, -2.845048, 0.3210839, -19.14089, 19.90274, -2.823643, 0.3622133
 105220395, -20.91454, 22.2533, -2.871135, 0.2837785, -20.86645, 20.07825, -2.845048, 0.3210839
 105420315, -19.39579, 20.52098, -2.818539, 0.1821297, -20.91454, 22.2533, -2.871135, 0.2837785
 105620235, -23.13896, 18.91256, -2.841723, 0.1504949, -19.39579, 20.52098, -2.818539, 0.1821297
 105820155, -20.81733, 17.64802, -2.785359, 0.03925669, -23.13896, 18.91256, -2.841723, 0.1504949
 106020908, -21.88953, 18.00846, -2.803887, -0.007118821, -20.81733, 17.64802, -2.785359, 0.03925669
 106220828, -21.31623, 15.91972, -2.761949, -0.09857762, -21.88953, 18.00846, -2.803887, -0.007118821
 106420748, -24.15106, 16.22324, -2.811578, -0.1229407, -21.31623, 15.91972, -2.761949, -0.09857762
 106620668, -22.04755, 14.64647, -2.74483, -0.2278546, -24.15106, 16.22324, -2.811578, -0.1229407
 106820588, -23.11208, 16.32179, -2.77704, -0.2675493, -22.04755, 14.64647, -2.74483, -0.2278546
 107020508, -22.81041, 14.73361, -2.736478, -0.3518918, -23.11208, 16.32179, -2.77704, -0.2675493
 107220428, -22.01718, 13.77583, -2.694149, -0.4257518, -22.81041, 14.73361, -2.736478, -0.3518918
 107420348, -24.43929, 15.24719, -2.747877, -0.4470409, -22.01718, 13.77583, -2.694149, -0.4257518
 107620268, -25.2711, 14.07653, -2.737061, -0.5049663, -24.43929, 15.24719, -2.747877, -0.4470409
 107820188, -23.85357, 11.18373, -2.652802, -0.5989916, -25.2711, 14.07653, -2.737061, -0.5049663
 108020941, -25.08106, 11.10714, -2.666937, -0.6391557, -23.85357, 11.18373, -2.652802, -0.5989916
 108220861, -26.33163, 10.98502, -2.683008, -0.678336, -25.08106, 11.10714, -2.666937, -0.6391557
 108420781, -24.90753, 11.53546, -2.634589, -0.7559718, -26.33163, 10.98502, -2.683008, -0.678336
 108620701, -23.93082, 9.666925, -2.573702, -0.8298504, -24.90753, 11.53546, -2.634589, -0.7559718
 108820621, -25.71611, 10.99285, -2.616753, -0.8573271, -23.93082, 9.666925, -2.573702, -0.8298504
 109020541, -26.53208, 8.884499, -2.598384, -0.9078034, -25.71611, 10.99285, -2.616753, -0.8573271
 109220461, -24.50218, 8.565811, -2.522587, -0.9781871, -26.53208, 8.884499, -2.598384, -0.9078034
 109420381, -25.04461, 7.699411, -2.510169, -1.026002, -24.50218, 8.565811, -2.522587, -0.9781871
 109620301, -26.33007, 6.078369, -2.507852, -1.076649, -25.04461, 7.699411, -2.510169, -1.026002
 109820221, -27.02348, 5.9155, -2.504508, -1.121735, -26.33007, 6.078369, -2.507852, -1.076649
 110020974, -26.79215, 5.130475, -2.468479, -1.175778, -27.02348, 5.9155, -2.504508, -1.121735
 110220894, -26.19602, 6.423414, -2.434311, -1.227579, -26.79215, 5.130475, -2.468479, -1.175778
 110420814, -25.61642, 4.86075, -2.383611, -1.282337, -26.19602, 6.423414, -2.434311, -1.227579
 110620734, -26.73177, 3.583889, -2.384966, -1.323485, -25.61642, 4.86075, -2.383611, -1.282337
 110820654, -28.11593, 5.70961, -2.411953, -1.359495, -26.73177, 3.583889, -2.384966, -1.323485
 111020574, -27.24164, 4.260517, -2.353361, -1.404938, -28.11593, 5.70961, -2.411953, -1.359495
 111220494, -28.33432, 3.581727, -2.359473, -1.444064, -27.24164, 4.260517, -2.353361, -1.404938
 111420414, -28.12782, 3.53114, -2.325584, -1.491414, -28.33432, 3.581727, -2.359473, -1.444064
 111620334, -28.56993, 1.385106, -2.309319, -1.531011, -28.12782, 3.53114, -2.325584, -1.491414
 111820254, -25.73598, 1.364213, -2.195945, -1.577996, -28.56993, 1.385106, -2.309319, -1.531011
 112020174, -26.79487, 0.2143266, -2.196039, -1.620779, -25.73598, 1.364213, -2.195945, -1.577996
 112220927, -26.87449, 1.894795, -2.171249, -1.660254, -26.79487, 0.2143266, -2.196039, -1.620779
 112420847, -27.5799, 1.112816, -2.161727, -1.698788, -26.87449, 1.894795, -2.171249, -1.660254
 112620767, -27.18278, -0.03392321, -2.120842, -1.734871, -27.5799, 1.112816, -2.161727, -1.698788
 112820687, -26.37705, -1.923477, -2.068897, -1.77253, -27.18278, -0.03392321, -2.120842, -1.734871
 113020607, -26.27149, -1.585094, -2.035244, -1.805262, -26.37705, -1.923477, -2.068897, -1.77253
 113220527, -28.14027, -2.649931, -2.062588, -1.843408, -26.27149, -1.585094, -2.035244, -1.805262
 113420447, -27.005, -2.110015, -1.99243, -1.874124, -28.14027, -2.649931, -2.062588, -1.843408
 113620367, -27.9179, -1.43873, -1.983314, -1.911146, -27.005, -2.110015, -1.99243, -1.874124
 113820287, -28.36732, -2.901967, -1.971014, -1.940108, -27.9179, -1.43873, -1.983314, -1.911146
 114020207, -25.67949, -4.088903, -1.861674, -1.956245, -28.36732, -2.901967, -1.971014, -1.940108
 114220960, -27.3495, -2.664765, -1.867311, -1.995454, -25.67949, -4.088903, -1.861674, -1.956245
 114420880, -26.05193, -5.339348, -1.808061, -2.01541, -27.3495, -2.664765, -1.867311, -1.995454
 114620800, -27.74096, -4.267302, -1.82192, -2.048432, -26.05193, -5.339348, -1.808061, -2.01541
 114820720, -28.20962, -4.743917, -1.801746, -2.081331, -27.74096, -4.267302, -1.82192, -2.048432
 115020640, -25.91751, -5.315517, -1.702035, -2.091248, -28.20962, -4.743917, -1.801746, -2.081331
 115220560, -27.83506, -7.951855, -1.744353, -2.133728, -25.91751, -5.315517, -1.702035, -2.091248
 115420480, -26.72983, -7.209816, -1.672507, -2.14665, -27.83506, -7.951855, -1.744353, -2.133728
 115620400, -25.47668, -6.65307, -1.597308, -2.159031, -26.72983, -7.209816, -1.672507, -2.14665
 115820320, -26.22063, -7.826701, -1.58447, -2.196098, -25.47668, -6.65307, -1.597308, -2.159031
 116020240, -25.57342, -6.391444, -1.51762, -2.209727, -26.22063, -7.826701, -1.58447, -2.196098
 116220160, -25.72921, -9.003343, -1.514257, -2.236602, -25.57342, -6.391444, -1.51762, -2.209727
 116420913, -25.02565, -7.165153, -1.439088, -2.247842, -25.72921, -9.003343, -1.514257, -2.236602
 116620833, -24.83041, -9.012658, -1.414234, -2.273131, -25.02565, -7.165153, -1.439088, -2.247842
 116820753, -25.63274, -8.252884, -1.391666, -2.299859, -24.83041, -9.012658, -1.414234, -2.273131
 117020673, -26.88842, -10.31928, -1.411369, -2.339594, -25.63274, -8.252884, -1.391666, -2.299859
 117220593, -26.05265, -11.64454, -1.363319, -2.357884, -26.88842, -10.31928, -1.411369, -2.339594
 117420513, -24.42708, -12.22024, -1.283139, -2.363904, -26.05265, -11.64454, -1.363319, -2.357884
 117620433, -24.35694, -10.70974, -1.221176, -2.374112, -24.42708, -12.22024, -1.283139, -2.363904
 117820353, -24.5218, -12.14382, -1.205085, -2.400788, -24.35694, -10.70974, -1.221176, -2.374112
 118020273, -23.20279, -12.99995, -1.141055, -2.409919, -24.5218, -12.14382, -1.205085, -2.400788
 118220193, -25.64356, -12.5662, -1.154721, -2.454738, -23.20279, -12.99995, -1.141055, -2.409919
 118420946, -22.89848, -12.66179, -1.048632, -2.435019, -25.64356, -12.5662, -1.154721, -2.454738
 118620866, -25.02856, -14.27912, -1.080922, -2.490648, -22.89848, -12.66179, -1.048632, -2.435019
 118820786, -23.93488, -13.59233, -1.005969, -2.483052, -25.02856, -14.27912, -1.080922, -2.490648
 119020706, -23.50619, -15.15621, -0.973339, -2.503709, -23.93488, -13.59233, -1.005969, -2.483052
 119220626, -22.97515, -12.91254, -0.8843289, -2.490197, -23.50619, -15.15621, -0.973339, -2.503709
 119420546, -22.43488, -14.71301, -0.8552563, -2.509713, -22.97515, -12.91254, -0.8843289, -2.490197
 119620466, -22.93792, -15.09042, -0.8315015, -2.52982, -22.43488, -14.71301, -0.8552563, -2.509713
 119820386, -22.9986, -16.65644, -0.8161163, -2.55698, -22.93792, -15.09042, -0.8315015, -2.52982
 120020306, -21.86309, -16.80076, -0.750903, -2.551167, -22.9986, -16.65644, -0.8161163, -2.55698
 120220226, -22.12141, -15.86072, -0.6984407, -2.553211, -21.86309, -16.80076, -0.750903, -2.551167
 120420146, -23.14786, -17.20218, -0.7006565, -2.59295, -22.12141, -15.86072, -0.6984407, -2.553211
 120620899, -21.58528, -16.30441, -0.6098965, -2.564914, -23.14786, -17.20218, -0.7006565, -2.59295
 120820819, -21.47847, -19.4373, -0.6138901, -2.613245, -21.58528, -16.30441, -0.6098965, -2.564914
 121020739, -20.95767, -17.56184, -0.5272865, -2.587692, -21.47847, -19.4373, -0.6138901, -2.613245
 121220659, -20.36381, -19.57529, -0.5051292, -2.613023, -20.95767, -17.56184, -0.5272865, -2.587692
 121420579, -20.71608, -18.2436, -0.4503206, -2.604669, -20.36381, -19.57529, -0.5051292, -2.613023
 121620499, -20.59642, -19.2282, -0.4178449, -2.622803, -20.71608, -18.2436, -0.4503206, -2.604669
 121820419, -20.55205, -20.11204, -0.3880838, -2.640278, -20.59642, -19.2282, -0.4178449, -2.622803
 122020339, -18.98167, -20.0885, -0.317742, -2.617864, -20.55205, -20.11204, -0.3880838, -2.640278
 122220259, -17.648, -19.64029, -0.2488706, -2.590328, -18.98167, -20.0885, -0.317742, -2.617864
 122420179, -18.24418, -21.47092, -0.2418482, -2.632761, -17.648, -19.64029, -0.2488706, -2.590328
 122620932, -18.59928, -20.22786, -0.181046, -2.615941, -18.24418, -21.47092, -0.2418482, -2.632761
 122820852, -18.17258, -20.87766, -0.1426934, -2.619098, -18.59928, -20.22786, -0.181046, -2.615941
 123020772, -17.18887, -19.5682, -0.06631994, -2.576547, -18.17258, -20.87766, -0.1426934, -2.619098
 123220692, -17.66512, -21.94073, -0.07053638, -2.626229, -17.18887, -19.5682, -0.06631994, -2.576547
 123420612, -18.15364, -21.7107, -0.02819753, -2.624862, -17.66512, -21.94073, -0.07053638, -2.626229
 123620532, -15.77458, -22.13688, 0.03757119, -2.58968, -18.15364, -21.7107, -0.02819753, -2.624862
 123820452, -15.85249, -22.20505, 0.07702768, -2.585196, -15.77458, -22.13688, 0.03757119, -2.58968
 124020372, -15.49922, -23.65243, 0.09990966, -2.6034, -15.85249, -22.20505, 0.07702768, -2.585196
 124220292, -16.74321, -23.1916, 0.1360518, -2.604027, -15.49922, -23.65243, 0.09990966, -2.6034
 124420212, -16.23075, -23.74312, 0.1701232, -2.599383, -16.74321, -23.1916, 0.1360518, -2.604027
 124620965, -15.18047, -23.18716, 0.2269298, -2.559281, -16.23075, -23.74312, 0.1701232, -2.599383
 124820885, -13.1332, -23.21906, 0.2870477, -2.518707, -15.18047, -23.18716, 0.2269298, -2.559281
 125020805, -13.62978, -24.55147, 0.3009784, -2.548922, -13.1332, -23.21906, 0.2870477, -2.518707
 125220725, -12.62759, -25.64416, 0.3390025, -2.552963, -13.62978, -24.55147, 0.3009784, -2.548922
 125420645, -12.0033, -24.65202, 0.4001229, -2.508232, -12.62759, -25.64416, 0.3390025, -2.552963
 125620565, -12.72265, -23.44527, 0.4509153, -2.475971, -12.0033, -24.65202, 0.4001229, -2.508232
 125820485, -11.6624, -25.68733, 0.4664868, -2.512571, -12.72265, -23.44527, 0.4509153, -2.475971
 126020405, -11.62427, -25.03584, 0.5173088, -2.482461, -11.6624, -25.68733, 0.4664868, -2.512571
 126220325, -11.10955, -26.63893, 0.5410551, -2.51001, -11.62427, -25.03584, 0.5173088, -2.482461
 126420245, -10.8467, -25.75015, 0.5976779, -2.467549, -11.10955, -26.63893, 0.5410551, -2.51001
 126620165, -8.957163, -25.71817, 0.6455199, -2.432218, -10.8467, -25.75015, 0.5976779, -2.467549
 126820918, -9.2293, -24.61609, 0.6954576, -2.388733, -8.957163, -25.71817, 0.6455199, -2.432218
 127020838, -9.64093, -26.68398, 0.7129031, -2.438063, -9.2293, -24.61609, 0.6954576, -2.388733
 127220758, -9.456256, -26.8365, 0.7519549, -2.426246, -9.64093, -26.68398, 0.7129031, -2.438063
 127420678, -8.166333, -26.15818, 0.8056379, -2.376467, -9.456256, -26.8365, 0.7519549, -2.426246
 127620598, -7.088815, -27.1859, 0.8381664, -2.382107, -8.166333, -26.15818, 0.8056379, -2.376467
 127820518, -8.239215, -26.99003, 0.8744238, -2.370172, -7.088815, -27.1859, 0.8381664, -2.382107
 128020438, -7.981536, -26.59213, 0.9226461, -2.335796, -8.239215, -26.99003, 0.8744238, -2.370172
 128220358, -7.722357, -26.9586, 0.9589521, -2.328733, -7.981536, -26.59213, 0.9226461, -2.335796
 128420278, -5.985153, -27.06096, 0.9962229, -2.300989, -7.722357, -26.9586, 0.9589521, -2.328733
 128620198, -5.088519, -25.56579, 1.046609, -2.224991, -5.985153, -27.06096, 0.9962229, -2.300989
 128820951, -6.222469, -27.07255, 1.06729, -2.257945, -5.088519, -25.56579, 1.046609, -2.224991
 129020871, -6.059516, -27.26861, 1.100588, -2.237434, -6.222469, -27.07255, 1.06729, -2.257945
 129220791, -3.887924, -26.6214, 1.139876, -2.177414, -6.059516, -27.26861, 1.100588, -2.237434
 129420711, -4.500357, -27.71929, 1.164639, -2.19389, -3.887924, -26.6214, 1.139876, -2.177414
 129620631, -3.544691, -27.87371, 1.192796, -2.172096, -4.500357, -27.71929, 1.164639, -2.19389
 129820551, -1.796492, -27.13533, 1.228203, -2.115466, -3.544691, -27.87371, 1.192796, -2.172096
 130020471, -2.653228, -27.30887, 1.260091, -2.09648, -1.796492, -27.13533, 1.228203, -2.115466
 130220391, -1.376586, -26.55787, 1.293838, -2.041101, -2.653228, -27.30887, 1.260091, -2.09648
 130420311, -1.668611, -26.88131, 1.324935, -2.024105, -1.376586, -26.55787, 1.293838, -2.041101
 130620231, -1.682539, -27.94889, 1.351306, -2.034648, -1.668611, -26.88131, 1.324935, -2.024105
 130820151, -1.306482, -26.27132, 1.379711, -1.949369, -1.682539, -27.94889, 1.351306, -2.034648
 131020904, 0.01350211, -26.40962, 1.406667, -1.926573, -1.306482, -26.27132, 1.379711, -1.949369
 131220824, 0.5126022, -27.54486, 1.433193, -1.938193, 0.01350211, -26.40962, 1.406667, -1.926573
 131420744, -0.3591352, -27.20773, 1.462468, -1.89605, 0.5126022, -27.54486, 1.433193, -1.938193
 131620664, 1.92949, -28.00416, 1.48988, -1.898372, -0.3591352, -27.20773, 1.462468, -1.89605
 131820584, 2.13416, -28.12177, 1.516643, -1.87501, 1.92949, -28.00416, 1.48988, -1.898372
 132020504, 2.00749, -26.70295, 1.537633, -1.797939, 2.13416, -28.12177, 1.516643, -1.87501
 132220424, 2.983751, -26.37387, 1.560669, -1.763068, 2.00749, -26.70295, 1.537633, -1.797939
 132420344, 3.254644, -27.1256, 1.591916, -1.758608, 2.983751, -26.37387, 1.560669, -1.763068
 132620264, 2.883957, -27.11867, 1.618928, -1.725832, 3.254644, -27.1256, 1.591916, -1.758608
 132820184, 3.872112, -26.75623, 1.644355, -1.688183, 2.883957, -27.11867, 1.618928, -1.725832
