TimeUS,COFN,COFE,CNe,CEe,POFN,POFE,PNe,PEe
 8040949, 0.03954164, 0.02363638, 0.0972841, 0.04849187, 0, 0, 0, 0
 8220877, -0.005582885, 0.006759271, 0.09739261, 0.04819786, 0.03954164, 0.02363638, 0.0972841, 0.04849187
 8420797, 0.03769812, 0.002086445, 0.09741965, 0.04819313, -0.005582885, 0.006759271, 0.09739261, 0.04819786
 8620717, 0.03032751, -0.0006435309, 0.09741046, 0.04819303, 0.03769812, 0.002086445, 0.09741965, 0.04819313
 8820637, 0.04969921, -0.0160656, 0.09745217, 0.04817558, 0.03032751, -0.0006435309, 0.09741046, 0.04819303
 9020557, 0.0002767295, -0.04030844, 0.09740798, 0.0482241, 0.04969921, -0.0160656, 0.09745217, 0.04817558
 9220477, -0.04996216, 0.002063199, 0.09744712, 0.04817738, 0.0002767295, -0.04030844, 0.09740798, 0.0482241
 9420397, 0.02350826, -0.03506364, 0.0974265, 0.04819249, -0.04996216, 0.002063199, 0.09744712, 0.04817738
 9620317, -0.01804456, -0.01122489, 0.09740388, 0.04818894, 0.02350826, -0.03506364, 0.0974265, 0.04819249
 9820237, -0.03103259, 0.006042566, 0.09741983, 0.04817702, -0.01804456, -0.01122489, 0.09740388, 0.04818894
 10020157, 0.01777956, 0.06497129, 0.09743181, 0.04828366, -0.03103259, 0.006042566, 0.09741983, 0.04817702
 10220910, -0.0267322, 0.02415234, 0.09742301, 0.04818163, 0.01777956, 0.06497129, 0.09743181, 0.04828366
 10420830, 0.03656962, -0.02771936, 0.09744124, 0.04817467, -0.0267322, 0.02415234, 0.09742301, 0.04818163
 10620750, 0.05959442, 0.02351568, 0.09746403, 0.04820256, 0.03656962, -0.02771936, 0.09744124, 0.04817467
 10820670, -0.003861173, 0.03989255, 0.09741469, 0.04820988, 0.05959442, 0.02351568, 0.09746403, 0.04820256
 11020590, 0.01114811, 0.01257255, 0.09740099, 0.04818856, -0.003861173, 0.03989255, 0.09741469, 0.04820988
 11220510, 0.03217082, -0.07623551, 0.09749176, 0.04824796, 0.01114811, 0.01257255, 0.09740099, 0.04818856
 11420430, -0.002797179, 0.01322106, 0.09739814, 0.04819062, 0.03217082, -0.07623551, 0.09749176, 0.04824796
 11620350, -0.03851396, 0.04449806, 0.09745897, 0.04818908, -0.002797179, 0.01322106, 0.09739814, 0.04819062
 11820270, -0.03930953, -0.02946215, 0.09742501, 0.04821885, -0.03851396, 0.04449806, 0.09745897, 0.04818908
 12020190, -0.01991663, -0.01628918, 0.09740353, 0.04819747, -0.03930953, -0.02946215, 0.09742501, 0.04821885
 12220943, 0.007900821, 0.01969255, 0.0974, 0.04819675, -0.01991663, -0.01628918, 0.09740353, 0.04819747
 12420863, 0.03449216, -0.02979753, 0.09743845, 0.04817925, 0.007900821, 0.01969255, 0.0974, 0.04819675
 12620783, 0.04327349, 0.008703567, 0.09743249, 0.04818652, 0.03449216, -0.02979753, 0.09743845, 0.04817925
 12820703, -0.01808055, 0.04089917, 0.09742423, 0.04820511, 0.04327349, 0.008703567, 0.09743249, 0.04818652
 13020623, -0.0201923, 0.01024337, 0.09740607, 0.04818679, -0.01808055, 0.04089917, 0.09742423, 0.04820511
 13220543, -0.06667311, -0.01891348, 0.09747709, 0.048202, -0.0201923, 0.01024337, 0.09740607, 0.04818679
 13420463, 0.005993212, -0.05749573, 0.09742686, 0.04824945, -0.06667311, -0.01891348, 0.09747709, 0.048202
 13620383, 0.004543804, 0.06800494, 0.09743299, 0.04828528, 0.005993212, -0.05749573, 0.09742686, 0.04824945
 13820303, -0.01238269, -0.01974778, 0.09739953, 0.04820114, 0.004543804, 0.06800494, 0.09743299, 0.04828528
 14020223, -0.04920838, -0.05188633, 0.09744646, 0.04827539, -0.01238269, -0.01974778, 0.09739953, 0.04820114
 14220976, -0.04595136, 0.06072786, 0.09749585, 0.04820096, -0.04920838, -0.05188633, 0.09744646, 0.04827539
 14420896, -0.009280308, -0.0102666, 0.09739707, 0.04819311, -0.04595136, 0.06072786, 0.09749585, 0.04820096
 14620816, -0.04498403, 0.002284789, 0.09743854, 0.04817729, -0.009280308, -0.0102666, 0.09739707, 0.04819311
 14820736, -0.04809083, 0.02687044, 0.09746343, 0.04816416, -0.04498403, 0.002284789, 0.09743854, 0.04817729
 15020656, -0.04761813, -0.05107975, 0.09744783, 0.04826388, -0.04809083, 0.02687044, 0.09746343, 0.04816416
 15220576, 0.03961936, -0.08042234, 0.0975175, 0.04823998, -0.04761813, -0.05107975, 0.09744783, 0.04826388
 15420496, 0.07805178, 0.04806111, 0.09751149, 0.0482656, 0.03961936, -0.08042234, 0.0975175, 0.04823998
 15620416, -0.01876058, -0.0004119142, 0.09740654, 0.04817991, 0.07805178, 0.04806111, 0.09751149, 0.0482656
 15820336, -0.06254432, 0.007034698, 0.09748389, 0.0481571, -0.01876058, -0.0004119142, 0.09740654, 0.04817991
 16020256, -0.03295692, 0.07464485, 0.09749265, 0.0482392, -0.06254432, 0.007034698, 0.09748389, 0.0481571
 16220176, -0.01683199, -0.04923777, 0.09741888, 0.04824213, -0.03295692, 0.07464485, 0.09749265, 0.0482392
 16420929, 0.01572842, -0.06296074, 0.09744756, 0.04823982, -0.01683199, -0.04923777, 0.09741888, 0.04824213
 16620849, -0.06213895, -0.04101275, 0.09746952, 0.04824467, 0.01572842, -0.06296074, 0.09744756, 0.04823982
 16820769, -0.03205011, 0.08599329, 0.09750848, 0.04827242, -0.06213895, -0.04101275, 0.09746952, 0.04824467
 17020689, 0.04310196, -0.04239391, 0.09746617, 0.04818162, -0.03205011, 0.08599329, 0.09750848, 0.04827242
 17220609, -0.02354437, 0.00757248, 0.09740946, 0.04818361, 0.04310196, -0.04239391, 0.09746617, 0.04818162
 17420529, -0.02453115, 0.0691555, 0.09746635, 0.04824522, -0.02354437, 0.00757248, 0.09740946, 0.04818361
 17620449, -0.02851463, -0.03789748, 0.09741732, 0.04822831, -0.02453115, 0.0691555, 0.09746635, 0.04824522
 17820369, -0.00988478, -0.005002364, 0.09740003, 0.04818454, -0.02851463, -0.03789748, 0.09741732, 0.04822831
 18020289, 0.05779425, -0.01565975, 0.09747676, 0.0481576, -0.00988478, -0.005002364, 0.09740003, 0.04818454
 18220209, -0.02709725, 0.04502113, 0.09744152, 0.04819838, 0.05779425, -0.01565975, 0.09747676, 0.0481576
 18420962, -0.04642937, 0.02552343, 0.09745778, 0.0481672, -0.02709725, 0.04502113, 0.09744152, 0.04819838
 18620882, -0.07096912, -0.04555231, 0.09749091, 0.04825947, -0.04642937, 0.02552343, 0.09745778, 0.0481672
 18820802, 0.07312668, 0.04157455, 0.09749679, 0.04824628, -0.07096912, -0.04555231, 0.09749091, 0.04825947
 19020722, 0.05983586, 0.04948383, 0.09746841, 0.04826489, 0.07312668, 0.04157455, 0.09749679, 0.04824628
 19220642, -0.03542604, 0.04883249, 0.09746152, 0.04819045, 0.05983586, 0.04948383, 0.09746841, 0.04826489
 19420562, 0.009012252, 0.010228, 0.09740084, 0.04818524, -0.03542604, 0.04883249, 0.09746152, 0.04819045
 19620482, 0.03017326, -0.07640847, 0.09749019, 0.04824753, 0.009012252, 0.010228, 0.09740084, 0.04818524
 19820402, 0.07569607, 0.02550153, 0.09724505, 0.04872628, 0.03017326, -0.07640847, 0.09749019, 0.04824753
 20020322, -0.01593432, 0.03229795, 0.09668716, 0.04964175, 0.07569607, 0.02550153, 0.09724505, 0.04872628
 20220242, -0.001406833, -0.03037655, 0.09599584, 0.05095274, -0.01593432, 0.03229795, 0.09668716, 0.04964175
 20420162, -0.03650794, -0.04958958, 0.09520499, 0.05251306, -0.001406833, -0.03037655, 0.09599584, 0.05095274
 20620915, 0.04674514, 0.01904918, 0.09433618, 0.05401722, -0.03650794, -0.04958958, 0.09520499, 0.05251306
 20820835, 0.05650081, 0.05934066, 0.09347208, 0.05563279, 0.04674514, 0.01904918, 0.09433618, 0.05401722
 21020755, -0.004833601, 0.0377697, 0.09255773, 0.05697651, 0.05650081, 0.05934066, 0.09347208, 0.05563279
 21220675, 0.3591343, -0.03997499, 0.09460932, 0.05764691, -0.004833601, 0.0377697, 0.09255773, 0.05697651
 21420595, 1.026523, -0.1974561, 0.1126688, 0.05490299, 0.3591343, -0.03997499, 0.09460932, 0.05764691
 21620515, 2.215213, -0.3884221, 0.1666728, 0.04554542, 1.026523, -0.1974561, 0.1126688, 0.05490299
 21820435, 3.775101, -0.726948, 0.2519342, 0.03157855, 2.215213, -0.3884221, 0.1666728, 0.04554542
 22020355, 5.758824, -1.018184, 0.3648663, 0.01504398, 3.775101, -0.726948, 0.2519342, 0.03157855
 22220275, 7.898091, -1.260674, 0.4881562, 0.0003573969, 5.758824, -1.018184, 0.3648663, 0.01504398
 22420195, 9.742057, -1.395105, 0.5942119, -0.007338129, 7.898091, -1.260674, 0.4881562, 0.0003573969
 22620948, 11.45994, -1.489652, 0.6919648, -0.009790882, 9.742057, -1.395105, 0.5942119, -0.007338129
 22820868, 13.16237, -1.542935, 0.7846156, -0.007576995, 11.45994, -1.489652, 0.6919648, -0.009790882
 23020788, 14.39919, -1.432422, 0.850217, -0.002107836, 13.16237, -1.542935, 0.7846156, -0.007576995
 23220708, 16.7884, -1.491768, 0.9579434, 0.005793661, 14.39919, -1.432422, 0.850217, -0.002107836
 23420628, 18.40935, -1.469318, 0.9969631, 0.0303162, 16.7884, -1.491768, 0.9579434, 0.005793661
 23620548, 19.82796, -1.295358, 1.031372, 0.06538165, 18.40935, -1.469318, 0.9969631, 0.0303162
 23820468, 20.99364, -1.445391, 1.069848, 0.1033364, 19.82796, -1.295358, 1.031372, 0.06538165
 24020388, 22.62195, -1.604759, 1.134436, 0.1390131, 20.99364, -1.445391, 1.069848, 0.1033364
 24220308, 23.92482, -1.44267, 1.186617, 0.1807429, 22.62195, -1.604759, 1.134436, 0.1390131
 24420228, 24.93596, -1.648498, 1.232763, 0.2219825, 23.92482, -1.44267, 1.186617, 0.1807429
 24620148, 26.41879, -2.19109, 1.303599, 0.278856, 24.93596, -1.648498, 1.232763, 0.2219825
 24820901, 26.90556, -1.472141, 1.339109, 0.3343292, 26.41879, -2.19109, 1.303599, 0.278856
 25020821, 26.91197, -2.269916, 1.367175, 0.3887799, 26.90556, -1.472141, 1.339109, 0.3343292
 25220741, 27.40298, -1.982582, 1.41451, 0.4463771, 26.91197, -2.269916, 1.367175, 0.3887799
 25420661, 26.7616, -2.144053, 1.420214, 0.5131483, 27.40298, -1.982582, 1.41451, 0.4463771
 25620581, 26.77164, -1.683743, 1.457461, 0.5724066, 26.7616, -2.144053, 1.420214, 0.5131483
 25820501, 26.99275, -1.985077, 1.508832, 0.628701, 26.77164, -1.683743, 1.457461, 0.5724066
 26020421, 27.37519, -1.696352, 1.56588, 0.6866903, 26.99275, -1.985077, 1.508832, 0.628701
 26220341, 26.54515, -2.606648, 1.580374, 0.7454097, 27.37519, -1.696352, 1.56588, 0.6866903
 26420261, 27.43558, -2.035725, 1.654968, 0.7962127, 26.54515, -2.606648, 1.580374, 0.7454097
 26620181, 27.21248, -1.914726, 1.689315, 0.8524349, 27.43558, -2.035725, 1.654968, 0.7962127
 26820934, 25.53321, -2.239373, 1.674639, 0.9085156, 27.21248, -1.914726, 1.689315, 0.8524349
 27020854, 25.89013, -2.849826, 1.735779, 0.9536836, 25.53321, -2.239373, 1.674639, 0.9085156
 27220774, 24.36366, -2.137637, 1.727747, 0.9994041, 25.89013, -2.849826, 1.735779, 0.9536836
 27420694, 23.81644, -0.9970981, 1.75209, 1.038555, 24.36366, -2.137637, 1.727747, 0.9994041
 27620614, 22.59122, -2.837767, 1.763354, 1.071336, 23.81644, -0.9970981, 1.75209, 1.038555
 27820534, 22.72747, -1.307329, 1.808351, 1.098915, 22.59122, -2.837767, 1.763354, 1.071336
 28020454, 23.60092, -2.077108, 1.884058, 1.117137, 22.72747, -1.307329, 1.808351, 1.098915
 28220374, 21.9866, -1.261783, 1.877598, 1.144624, 23.60092, -2.077108, 1.884058, 1.117137
 28420294, 20.34683, -3.53735, 1.883758, 1.168003, 21.9866, -1.261783, 1.877598, 1.144624
 28620214, 21.81054, -2.219236, 1.966417, 1.181977, 20.34683, -3.53735, 1.883758, 1.168003
 28820967, 22.33103, -2.960695, 2.028982, 1.197115, 21.81054, -2.219236, 1.966417, 1.181977
 29020887, 21.66323, -3.144623, 2.055717, 1.217155, 22.33103, -2.960695, 2.028982, 1.197115
 29220807, 19.51752, -1.963106, 2.036614, 1.245291, 21.66323, -3.144623, 2.055717, 1.217155
 29420727, 21.54222, -4.327785, 2.141229, 1.255716, 19.51752, -1.963106, 2.036614, 1.245291
 29620647, 19.96492, -4.511696, 2.139509, 1.283775, 21.54222, -4.327785, 2.141229, 1.255716
 29820567, 19.17753, -4.636261, 2.156404, 1.312279, 19.96492, -4.511696, 2.139509, 1.283775
 30020487, 19.5141, -3.808368, 2.197561, 1.33138, 19.17753, -4.636261, 2.156404, 1.312279
 30220407, 18.89748, -4.605133, 2.218297, 1.354439, 19.5141, -3.808368, 2.197561, 1.33138
 30420327, 20.54337, -3.274144, 2.26669, 1.396772, 18.89748, -4.605133, 2.218297, 1.354439
 30620247, 21.58967, -2.857954, 2.433573, 1.451784, 20.54337, -3.274144, 2.26669, 1.396772
 30820167, 19.18006, -4.407572, 2.526675, 1.43395, 21.58967, -2.857954, 2.433573, 1.451784
 31020920, 20.43655, -3.196699, 2.338506, 1.393085, 19.18006, -4.407572, 2.526675, 1.43395
 31220840, 22.39702, -2.947078, 2.165052, 1.374943, 20.43655, -3.196699, 2.338506, 1.393085
 31420760, 22.38762, -1.797819, 2.048823, 1.358121, 22.39702, -2.947078, 2.165052, 1.374943
 31620680, 24.41066, -2.044493, 2.046824, 1.3171, 22.38762, -1.797819, 2.048823, 1.358121
 31820600, 25.08014, -3.54335, 2.017758, 1.276572, 24.41066, -2.044493, 2.046824, 1.3171
 32020520, 25.42673, -3.061881, 1.964449, 1.2329, 25.08014, -3.54335, 2.017758, 1.276572
 32220440, 24.97466, -2.551569, 1.876015, 1.198819, 25.42673, -3.061881, 1.964449, 1.2329
 32420360, 24.85644, -1.447552, 1.806724, 1.168901, 24.97466, -2.551569, 1.876015, 1.198819
 32620280, 26.26665, -0.7443005, 1.808261, 1.146282, 24.85644, -1.447552, 1.806724, 1.168901
 32820200, 27.6053, 0.1408952, 1.827431, 1.126919, 26.26665, -0.7443005, 1.808261, 1.146282
 33020953, 26.45706, -0.4140548, 1.766928, 1.110892, 27.6053, 0.1408952, 1.827431, 1.126919
 33220873, 28.78026, -0.7116882, 1.841403, 1.098768, 26.45706, -0.4140548, 1.766928, 1.110892
 33420793, 28.70548, -1.345403, 1.825491, 1.098412, 28.78026, -0.7116882, 1.841403, 1.098768
 33620713, 29.45357, -0.9228642, 1.843985, 1.101472, 28.70548, -1.345403, 1.825491, 1.098412
 33820633, 29.32585, -1.064992, 1.830623, 1.111731, 29.45357, -0.9228642, 1.843985, 1.101472
 34020553, 28.72352, -0.8519504, 1.801206, 1.123245, 29.32585, -1.064992, 1.830623, 1.111731
 34220473, 29.30505, -0.2916284, 1.816041, 1.142629, 28.72352, -0.8519504, 1.801206, 1.123245
 34420393, 30.25267, 0.4906876, 1.852881, 1.158295, 29.30505, -0.2916284, 1.816041, 1.142629
 34620313, 28.69034, 0.7026539, 1.788756, 1.178998, 30.25267, 0.4906876, 1.852881, 1.158295
 34820233, 29.84135, 0.6447851, 1.831231, 1.203068, 28.69034, 0.7026539, 1.788756, 1.178998
 35020153, 29.18166, 0.9590966, 1.805364, 1.227248, 29.84135, 0.6447851, 1.831231, 1.203068
 35220906, 30.45934, 0.3170297, 1.853092, 1.25927, 29.18166, 0.9590966, 1.805364, 1.227248
 35420826, 29.20782, 0.5877986, 1.812838, 1.277666, 30.45934, 0.3170297, 1.853092, 1.25927
 35620746, 30.42213, 0.901783, 1.863029, 1.310127, 29.20782, 0.5877986, 1.812838, 1.277666
 35820666, 29.90106, 2.45712, 1.85136, 1.340296, 30.42213, 0.901783, 1.863029, 1.310127
 36020586, 29.36162, 1.174777, 1.838001, 1.366716, 29.90106, 2.45712, 1.85136, 1.340296
 36220506, 29.36911, 1.052598, 1.850398, 1.393221, 29.36162, 1.174777, 1.838001, 1.366716
 36420426, 30.87295, 0.8944577, 1.918336, 1.424755, 29.36911, 1.052598, 1.850398, 1.393221
 36620346, 30.18523, 0.7729799, 1.906977, 1.448025, 30.87295, 0.8944577, 1.918336, 1.424755
 36820266, 29.34839, 1.425205, 1.889959, 1.471204, 30.18523, 0.7729799, 1.906977, 1.448025
 37020186, 28.65993, 3.058921, 1.883804, 1.487331, 29.34839, 1.425205, 1.889959, 1.471204
 37220939, 28.30536, 2.642109, 1.880874, 1.500908, 28.65993, 3.058921, 1.883804, 1.487331
 37420859, 28.5938, 1.434741, 1.901056, 1.509314, 28.30536, 2.642109, 1.880874, 1.500908
 37620779, 28.0066, 2.053236, 1.892955, 1.512844, 28.5938, 1.434741, 1.901056, 1.509314
 37820699, 29.46572, 1.078752, 1.949075, 1.522144, 28.0066, 2.053236, 1.892955, 1.512844
 38020619, 27.1791, 2.695272, 1.876034, 1.521268, 29.46572, 1.078752, 1.949075, 1.522144
 38220539, 29.41039, 1.923326, 1.96069, 1.523752, 27.1791, 2.695272, 1.876034, 1.521268
 38420459, 27.89636, 1.217959, 1.911559, 1.518726, 29.41039, 1.923326, 1.96069, 1.523752
 38620379, 27.57691, 0.1236615, 1.902078, 1.517155, 27.89636, 1.217959, 1.911559, 1.518726
 38820299, 28.33346, 0.4427214, 1.931143, 1.511187, 27.57691, 0.1236615, 1.902078, 1.517155
 39020219, 27.48297, 1.548513, 1.906245, 1.499484, 28.33346, 0.4427214, 1.931143, 1.511187
 39220972, 26.95637, 1.395035, 1.890101, 1.488055, 27.48297, 1.548513, 1.906245, 1.499484
 39420892, 27.6503, 1.536999, 1.914364, 1.47986, 26.95637, 1.395035, 1.890101, 1.488055
 39620812, 27.56978, 1.714551, 1.91164, 1.468304, 27.6503, 1.536999, 1.914364, 1.47986
 39820732, 27.76775, 0.4388493, 1.914944, 1.457008, 27.56978, 1.714551, 1.91164, 1.468304
 40020652, 26.75922, 0.5982207, 1.879142, 1.44179, 27.76775, 0.4388493, 1.914944, 1.457008
 40220572, 27.52076, 0.6750609, 1.902877, 1.430624, 26.75922, 0.5982207, 1.879142, 1.44179
 40420492, 26.44, -0.02096981, 1.864091, 1.41341, 27.52076, 0.6750609, 1.902877, 1.430624
 40620412, 27.4409, -0.001441777, 1.896106, 1.401088, 26.44, -0.02096981, 1.864091, 1.41341
 40820332, 26.60779, -0.708906, 1.864713, 1.387562, 27.4409, -0.001441777, 1.896106, 1.401088
 41020252, 27.2402, -0.3686092, 1.883847, 1.37532, 26.60779, -0.708906, 1.864713, 1.387562
 41220172, 26.69694, 0.3987974, 1.861801, 1.362363, 27.2402, -0.3686092, 1.883847, 1.37532
 41420925, 28.50307, -0.2991795, 1.922107, 1.352066, 26.69694, 0.3987974, 1.861801, 1.362363
 41620845, 27.64754, -0.4884436, 1.886792, 1.339831, 28.50307, -0.2991795, 1.922107, 1.352066
 41820765, 28.86891, -0.435988, 1.927921, 1.336888, 27.64754, -0.4884436, 1.886792, 1.339831
 42020685, 27.96588, 0.3117606, 1.897032, 1.32989, 28.86891, -0.435988, 1.927921, 1.336888
 42220605, 27.14797, 0.09883188, 1.8693, 1.328657, 27.96588, 0.3117606, 1.897032, 1.32989
 42420525, 28.52913, 0.3524469, 1.921608, 1.327689, 27.14797, 0.09883188, 1.8693, 1.328657
 42620445, 28.56963, 0.9078349, 1.925483, 1.328689, 28.52913, 0.3524469, 1.921608, 1.327689
 42820365, 27.54431, 1.321863, 1.891571, 1.326113, 28.56963, 0.9078349, 1.925483, 1.328689
 43020285, 26.83169, 0.774226, 1.86743, 1.327002, 27.54431, 1.321863, 1.891571, 1.326113
 43220205, 27.15937, 0.930671, 1.880142, 1.327255, 26.83169, 0.774226, 1.86743, 1.327002
 43420958, 27.06017, -0.1842618, 1.879543, 1.326008, 27.15937, 0.930671, 1.880142, 1.327255
 43620878, 27.87811, 1.130043, 1.911713, 1.327801, 27.06017, -0.1842618, 1.879543, 1.326008
 43820798, 28.27588, -0.8571627, 1.927548, 1.328568, 27.87811, 1.130043, 1.911713, 1.327801
 44020718, 28.9151, -0.5422246, 1.952858, 1.330685, 28.27588, -0.8571627, 1.927548, 1.328568
 44220638, 26.86844, -0.2233873, 1.881168, 1.332777, 28.9151, -0.5422246, 1.952858, 1.330685
 44420558, 26.7841, 0.6400778, 1.881118, 1.334515, 26.86844, -0.2233873, 1.881168, 1.332777
 44620478, 27.23646, 1.151578, 1.895802, 1.343405, 26.7841, 0.6400778, 1.881118, 1.334515
 44820398, 28.94096, 0.9486314, 1.957333, 1.349962, 27.23646, 1.151578, 1.895802, 1.343405
 45020318, 27.48084, 0.07765028, 1.902719, 1.359946, 28.94096, 0.9486314, 1.957333, 1.349962
 45220238, 27.66378, 0.3022669, 1.88942, 1.407982, 27.48084, 0.07765028, 1.902719, 1.359946
 45420158, 26.71303, 1.118762, 1.88535, 1.373345, 27.66378, 0.3022669, 1.88942, 1.407982
 45620911, 27.03994, -0.7631347, 1.896431, 1.366362, 26.71303, 1.118762, 1.88535, 1.373345
 45820831, 29.30019, 0.01514775, 1.960323, 1.408213, 27.03994, -0.7631347, 1.896431, 1.366362
 46020751, 28.67982, 1.873908, 1.937251, 1.424017, 29.30019, 0.01514775, 1.960323, 1.408213
 46220671, 28.09921, 1.502043, 1.923765, 1.417912, 28.67982, 1.873908, 1.937251, 1.424017
 46420591, 27.25171, 1.486502, 1.906795, 1.408531, 28.09921, 1.502043, 1.923765, 1.417912
 46620511, 28.49354, 0.03605565, 1.959062, 1.406865, 27.25171, 1.486502, 1.906795, 1.408531
 46820431, 27.93958, 0.7195879, 1.947158, 1.407035, 28.49354, 0.03605565, 1.959062, 1.406865
 47020351, 27.92315, -0.7726064, 1.951545, 1.412144, 27.93958, 0.7195879, 1.947158, 1.407035
 47220271, 26.64429, 0.8347969, 1.913893, 1.415464, 27.92315, -0.7726064, 1.951545, 1.412144
 47420191, 28.26338, 0.513311, 1.977094, 1.419719, 26.64429, 0.8347969, 1.913893, 1.415464
 47620944, 27.85979, 0.2083388, 1.968231, 1.425662, 28.26338, 0.513311, 1.977094, 1.419719
 47820864, 27.93476, -0.299091, 1.98023, 1.426973, 27.85979, 0.2083388, 1.968231, 1.425662
 48020784, 29.25035, 0.7847155, 2.032404, 1.435279, 27.93476, -0.299091, 1.98023, 1.426973
 48220704, 26.91341, -1.082873, 1.956077, 1.442333, 29.25035, 0.7847155, 2.032404, 1.435279
 48420624, 28.85875, -0.4057268, 2.031359, 1.447893, 26.91341, -1.082873, 1.956077, 1.442333
 48620544, 26.93535, 0.3541453, 1.97034, 1.455532, 28.85875, -0.4057268, 2.031359, 1.447893
 48820464, 29.13322, -1.17755, 2.055353, 1.460167, 26.93535, 0.3541453, 1.97034, 1.455532
 49020384, 29.07165, 1.030126, 2.056931, 1.462072, 29.13322, -1.17755, 2.055353, 1.460167
 49220304, 28.80017, 0.6062902, 2.048503, 1.465684, 29.07165, 1.030126, 2.056931, 1.462072
 49420224, 28.01832, -0.3972709, 2.025728, 1.466157, 28.80017, 0.6062902, 2.048503, 1.465684
 49620977, 29.2175, 1.20779, 2.068905, 1.469823, 28.01832, -0.3972709, 2.025728, 1.466157
 49820897, 27.46076, 0.01641909, 2.012239, 1.469368, 29.2175, 1.20779, 2.068905, 1.469823
 50020817, 27.5111, 0.2163129, 2.016196, 1.47405, 27.46076, 0.01641909, 2.012239, 1.469368
 50220737, 27.61042, 0.7644235, 2.024665, 1.476002, 27.5111, 0.2163129, 2.016196, 1.47405
 50420657, 28.3489, 1.278131, 2.052955, 1.481704, 27.61042, 0.7644235, 2.024665, 1.476002
 50620577, 28.23673, 0.634228, 2.051239, 1.485412, 28.3489, 1.278131, 2.052955, 1.481704
 50820497, 29.65673, -0.4571908, 2.102965, 1.489132, 28.23673, 0.634228, 2.051239, 1.485412
 51020417, 27.79113, 0.8770829, 2.043711, 1.491756, 29.65673, -0.4571908, 2.102965, 1.489132
 51220337, 27.48705, -0.1076385, 2.036522, 1.495185, 27.79113, 0.8770829, 2.043711, 1.491756
 51420257, 28.07792, -0.9919515, 2.058672, 1.504098, 27.48705, -0.1076385, 2.036522, 1.495185
 51620177, 27.2577, 1.171169, 2.037081, 1.507057, 28.07792, -0.9919515, 2.058672, 1.504098
 51820930, 28.04564, -1.429216, 2.068544, 1.511999, 27.2577, 1.171169, 2.037081, 1.507057
 52020850, 29.44237, -0.7253639, 2.118449, 1.518254, 28.04564, -1.429216, 2.068544, 1.511999
 52220770, 28.76205, 1.20598, 2.099288, 1.523914, 29.44237, -0.7253639, 2.118449, 1.518254
 52420690, 27.94276, -1.298356, 2.073445, 1.528464, 28.76205, 1.20598, 2.099288, 1.523914
 52620610, 28.58803, -0.9090159, 2.095846, 1.52872, 27.94276, -1.298356, 2.073445, 1.528464
 52820530, 29.5636, 0.224841, 2.131529, 1.525336, 28.58803, -0.9090159, 2.095846, 1.52872
 53020450, 27.84481, 0.2691182, 2.07057, 1.528728, 29.5636, 0.224841, 2.131529, 1.525336
 53220370, 28.74471, -0.5923993, 2.100456, 1.529878, 27.84481, 0.2691182, 2.07057, 1.528728
 53420290, 28.10061, -0.6563405, 2.078952, 1.529406, 28.74471, -0.5923993, 2.100456, 1.529878
 53620210, 29.84989, -0.3474232, 2.13727, 1.531694, 28.10061, -0.6563405, 2.078952, 1.529406
 53820963, 28.97506, -1.317353, 2.106227, 1.534168, 29.84989, -0.3474232, 2.13727, 1.531694
 54020883, 29.24986, 0.7350438, 2.118141, 1.529754, 28.97506, -1.317353, 2.106227, 1.534168
 54220803, 28.55985, 1.206493, 2.095038, 1.529849, 29.24986, 0.7350438, 2.118141, 1.529754
 54420723, 29.92838, -0.2738932, 2.143027, 1.53097, 28.55985, 1.206493, 2.095038, 1.529849
 54620643, 27.68184, 0.8710532, 2.065682, 1.533428, 29.92838, -0.2738932, 2.143027, 1.53097
 54820563, 27.82285, 0.07178827, 2.067513, 1.536056, 27.68184, 0.8710532, 2.065682, 1.533428
 55020483, 28.64523, -0.6232247, 2.096895, 1.531069, 27.82285, 0.07178827, 2.067513, 1.536056
 55220403, 28.71743, -0.4150494, 2.100594, 1.532436, 28.64523, -0.6232247, 2.096895, 1.531069
 55420323, 28.20507, 0.1994756, 2.083079, 1.533253, 28.71743, -0.4150494, 2.100594, 1.532436
 55620243, 29.2507, 0.3441259, 2.119359, 1.532599, 28.20507, 0.1994756, 2.083079, 1.533253
 55820163, 27.92571, -1.183297, 2.070487, 1.538797, 29.2507, 0.3441259, 2.119359, 1.532599
 56020916, 29.57704, -0.3847311, 2.129103, 1.54366, 27.92571, -1.183297, 2.070487, 1.538797
 56220836, 28.3924, -1.028964, 2.095229, 1.548383, 29.57704, -0.3847311, 2.129103, 1.54366
 56420756, 28.46396, -1.166424, 2.103862, 1.556882, 28.3924, -1.028964, 2.095229, 1.548383
 56620676, 28.08249, 1.178519, 2.09599, 1.56508, 28.46396, -1.166424, 2.103862, 1.556882
 56820596, 27.37572, -0.5744168, 2.07475, 1.576345, 28.08249, 1.178519, 2.09599, 1.56508
 57020516, 27.77987, -0.08738588, 2.093494, 1.583285, 27.37572, -0.5744168, 2.07475, 1.576345
 57220436, 28.16198, 0.8343282, 2.111835, 1.591445, 27.77987, -0.08738588, 2.093494, 1.583285
 57420356, 29.29485, -0.1475663, 2.153393, 1.601018, 28.16198, 0.8343282, 2.111835, 1.591445
 57620276, 27.60566, 0.3171078, 2.107424, 1.604646, 29.29485, -0.1475663, 2.153393, 1.601018
 57820196, 29.43185, 1.445323, 2.173605, 1.616736, 27.60566, 0.3171078, 2.107424, 1.604646
 58020949, 27.80746, 1.364048, 2.123406, 1.626957, 29.43185, 1.445323, 2.173605, 1.616736
 58220869, 28.21362, -0.03961854, 2.141725, 1.634081, 27.80746, 1.364048, 2.123406, 1.626957
 58420789, 28.17482, -0.4100458, 2.146552, 1.641895, 28.21362, -0.03961854, 2.141725, 1.634081
 58620709, 29.09335, -0.8495747, 2.181439, 1.650013, 28.17482, -0.4100458, 2.146552, 1.641895
 58820629, 27.89173, 0.183259, 2.149556, 1.653679, 29.09335, -0.8495747, 2.181439, 1.650013
 59020549, 28.86679, 0.6108284, 2.183496, 1.668175, 27.89173, 0.183259, 2.149556, 1.653679
 59220469, 30.23538, 1.613334, 2.233384, 1.679744, 28.86679, 0.6108284, 2.183496, 1.668175
 59420389, 29.40148, 0.3493231, 2.212501, 1.686885, 30.23538, 1.613334, 2.233384, 1.679744
 59620309, 29.60167, 0.3219221, 2.226398, 1.695494, 29.40148, 0.3493231, 2.212501, 1.686885
 59820229, 30.01619, 0.3989568, 2.246222, 1.70621, 29.60167, 0.3219221, 2.226398, 1.695494
 60020149, 28.49762, 1.720507, 2.204302, 1.716783, 30.01619, 0.3989568, 2.246222, 1.70621
 60220902, 29.42588, -0.8271019, 2.244788, 1.719755, 28.49762, 1.720507, 2.204302, 1.716783
 60420822, 28.70046, -1.305712, 2.226243, 1.732541, 29.42588, -0.8271019, 2.244788, 1.719755
 60620742, 29.63615, -1.196411, 2.264784, 1.739882, 28.70046, -1.305712, 2.226243, 1.732541
 60820662, 28.7185, 0.7948856, 2.244928, 1.745945, 29.63615, -1.196411, 2.264784, 1.739882
 61020582, 30.01414, 1.038936, 2.295659, 1.752147, 28.7185, 0.7948856, 2.244928, 1.745945
 61220502, 29.9699, -0.685821, 2.299146, 1.763032, 30.01414, 1.038936, 2.295659, 1.752147
 61420422, 27.72091, 1.623938, 2.237991, 1.768817, 29.9699, -0.685821, 2.299146, 1.763032
 61620342, 30.36985, 0.4739168, 2.33003, 1.77283, 27.72091, 1.623938, 2.237991, 1.768817
 61820262, 28.9313, -0.7614596, 2.292053, 1.779539, 30.36985, 0.4739168, 2.33003, 1.77283
 62020182, 28.25065, 0.6029235, 2.275294, 1.788082, 28.9313, -0.7614596, 2.292053, 1.779539
 62220935, 28.35423, 0.9924145, 2.284097, 1.796002, 28.25065, 0.6029235, 2.275294, 1.788082
 62420855, 29.78158, 0.2858719, 2.334855, 1.801675, 28.35423, 0.9924145, 2.284097, 1.796002
 62620775, 30.29257, 0.4939885, 2.359005, 1.807071, 29.78158, 0.2858719, 2.334855, 1.801675
 62820695, 28.14445, -1.035862, 2.294526, 1.820377, 30.29257, 0.4939885, 2.359005, 1.807071
 63020615, 29.87914, -0.7866546, 2.357152, 1.82108, 28.14445, -1.035862, 2.294526, 1.820377
 63220535, 28.57405, 1.56503, 2.320577, 1.824768, 29.87914, -0.7866546, 2.357152, 1.82108
 63420455, 27.64915, -1.666647, 2.295714, 1.828149, 28.57405, 1.56503, 2.320577, 1.824768
 63620375, 28.46163, -0.240745, 2.323503, 1.831774, 27.64915, -1.666647, 2.295714, 1.828149
 63820295, 27.32804, 1.175207, 2.293902, 1.836007, 28.46163, -0.240745, 2.323503, 1.831774
 64020215, 30.3443, 1.607978, 2.3926, 1.838859, 27.32804, 1.175207, 2.293902, 1.836007
 64220968, 30.14893, 1.7171, 2.388471, 1.846392, 30.3443, 1.607978, 2.3926, 1.838859
 64420888, 27.46744, -1.215853, 2.313003, 1.844221, 30.14893, 1.7171, 2.388471, 1.846392
 64620808, 30.20021, 0.3382046, 2.398921, 1.845976, 27.46744, -1.215853, 2.313003, 1.844221
 64820728, 30.30136, -1.582453, 2.40504, 1.850634, 30.20021, 0.3382046, 2.398921, 1.845976
 65020648, 29.90813, -0.9325511, 2.396189, 1.852186, 30.30136, -1.582453, 2.40504, 1.850634
 65220568, 29.69413, -0.349586, 2.393434, 1.855894, 29.90813, -0.9325511, 2.396189, 1.852186
 65420488, 27.10781, 0.1691512, 2.319321, 1.859476, 29.69413, -0.349586, 2.393434, 1.855894
 65620408, 27.74882, 0.8421838, 2.339649, 1.865073, 27.10781, 0.1691512, 2.319321, 1.859476
 65820328, 27.5657, 1.717884, 2.336864, 1.869099, 27.74882, 0.8421838, 2.339649, 1.865073
 66020248, 29.50139, -1.039966, 2.396863, 1.871097, 27.5657, 1.717884, 2.336864, 1.869099
 66220168, 29.30597, 0.5113502, 2.393947, 1.873376, 29.50139, -1.039966, 2.396863, 1.871097
 66420921, 30.51878, -0.06463257, 2.432589, 1.880856, 29.30597, 0.5113502, 2.393947, 1.873376
 66620841, 28.06812, -0.2336915, 2.360984, 1.887517, 30.51878, -0.06463257, 2.432589, 1.880856
 66820761, 28.72408, 1.692092, 2.384558, 1.894423, 28.06812, -0.2336915, 2.360984, 1.887517
 67020681, 30.6199, -1.758146, 2.447885, 1.896037, 28.72408, 1.692092, 2.384558, 1.894423
 67220601, 28.89951, 1.418481, 2.397454, 1.900179, 30.6199, -1.758146, 2.447885, 1.896037
 67420521, 27.68182, -1.013453, 2.365369, 1.903754, 28.89951, 1.418481, 2.397454, 1.900179
 67620441, 27.73391, 1.64512, 2.368444, 1.910879, 27.68182, -1.013453, 2.365369, 1.903754
 67820361, 27.69316, 1.364563, 2.371724, 1.91443, 27.73391, 1.64512, 2.368444, 1.910879
 68020281, 29.42139, 1.44699, 2.428083, 1.919153, 27.69316, 1.364563, 2.371724, 1.91443
 68220201, 30.09711, -1.173041, 2.454714, 1.920707, 29.42139, 1.44699, 2.428083, 1.919153
 68420954, 30.29235, 0.2711455, 2.465897, 1.923189, 30.09711, -1.173041, 2.454714, 1.920707
 68620874, 28.08991, 0.8429255, 2.399481, 1.931928, 30.29235, 0.2711455, 2.465897, 1.923189
 68820794, 28.45451, -0.9643384, 2.417327, 1.932466, 28.08991, 0.8429255, 2.399481, 1.931928
 69020714, 30.12365, -1.354491, 2.469582, 1.940983, 28.45451, -0.9643384, 2.417327, 1.932466
 69220634, 27.77645, 0.5426587, 2.373393, 1.999426, 30.12365, -1.354491, 2.469582, 1.940983
 69420554, 29.16785, 0.2746485, 2.437371, 2.172262, 27.77645, 0.5426587, 2.373393, 1.999426
 69620474, 31.17394, 4.056065, 2.632627, 2.600545, 29.16785, 0.2746485, 2.437371, 2.172262
 69820394, 35.40216, 3.364709, 3.195123, 3.761109, 31.17394, 4.056065, 2.632627, 2.600545
 70020314, 30.81904, 5.279812, 3.314815, 4.98844, 35.40216, 3.364709, 3.195123, 3.761109
 70220234, 25.07552, 10.35972, 2.45059, 5.279212, 30.81904, 5.279812, 3.314815, 4.98844
 70420154, 19.55564, 8.893888, 1.429655, 5.136245, 25.07552, 10.35972, 2.45059, 5.279212
 70620907, 21.17677, 16.45309, 0.7236996, 5.048566, 19.55564, 8.893888, 1.429655, 5.136245
 70820827, 18.15515, 13.6944, 0.1439247, 4.974046, 21.17677, 16.45309, 0.7236996, 5.048566
 71020747, 14.87531, 16.63463, -0.3102412, 4.91266, 18.15515, 13.6944, 0.1439247, 4.974046
 71220667, 16.73532, 19.87568, -0.7163339, 4.861192, 14.87531, 16.63463, -0.3102412, 4.91266
 71420587, 10.76093, 18.23888, -1.128469, 4.725434, 16.73532, 19.87568, -0.7163339, 4.861192
 71620507, 11.16534, 16.15828, -1.571983, 4.579305, 10.76093, 18.23888, -1.128469, 4.725434
 71820427, 5.598398, 22.81401, -1.971882, 4.414886, 11.16534, 16.15828, -1.571983, 4.579305
 72020347, 6.859952, 16.28455, -2.365992, 4.163437, 5.598398, 22.81401, -1.971882, 4.414886
 72220267, 5.344328, 20.43381, -2.717007, 3.930125, 6.859952, 16.28455, -2.365992, 4.163437
 72420187, 3.460224, 17.51776, -3.053433, 3.640668, 5.344328, 20.43381, -2.717007, 3.930125
 72620940, -0.4490635, 17.07359, -3.362779, 3.341097, 3.460224, 17.51776, -3.053433, 3.640668
 72820860, -0.4837209, 22.00441, -3.661027, 3.045671, -0.4490635, 17.07359, -3.362779, 3.341097
 73020780, -1.758773, 19.45802, -3.930928, 2.682582, -0.4837209, 22.00441, -3.661027, 3.045671
 73220700, -7.442969, 16.14253, -4.152761, 2.303047, -1.758773, 19.45802, -3.930928, 2.682582
 73420620, -9.879171, 17.69082, -4.340333, 1.92623, -7.442969, 16.14253, -4.152761, 2.303047
 73620540, -8.361694, 18.09801, -4.454666, 1.523293, -9.879171, 17.69082, -4.340333, 1.92623
 73820460, -8.718691, 20.57815, -4.545509, 1.140286, -8.361694, 18.09801, -4.454666, 1.523293
 74020380, -9.240291, 15.15345, -4.5281, 0.7523919, -8.718691, 20.57815, -4.545509, 1.140286
 74220300, -12.94279, 14.49924, -4.502324, 0.4228685, -9.240291, 15.15345, -4.5281, 0.7523919
 74420220, -15.04909, 14.61231, -4.459293, 0.1076112, -12.94279, 14.49924, -4.502324, 0.4228685
 74620973, -11.01608, 14.05874, -4.351389, -0.1989257, -15.04909, 14.61231, -4.459293, 0.1076112
 74820893, -17.55425, 14.00263, -4.246289, -0.4068937, -11.01608, 14.05874, -4.351389, -0.1989257
 75020813, -16.32703, 14.37901, -4.110857, -0.6166129, -17.55425, 14.00263, -4.246289, -0.4068937
 75220733, -14.98495, 12.74014, -3.970068, -0.8181974, -16.32703, 14.37901, -4.110857, -0.6166129
 75420653, -17.07074, 9.946527, -3.848698, -0.9791902, -14.98495, 12.74014, -3.970068, -0.8181974
 75620573, -17.4102, 7.08713, -3.764095, -1.145745, -17.07074, 9.946527, -3.848698, -0.9791902
 75820493, -19.95637, 9.52723, -3.780636, -1.283952, -17.4102, 7.08713, -3.764095, -1.145745
 76020413, -18.11551, 7.59161, -3.755646, -1.451094, -19.95637, 9.52723, -3.780636, -1.283952
 76220333, -20.84372, 10.57454, -3.804286, -1.584708, -18.11551, 7.59161, -3.755646, -1.451094
 76420253, -20.95099, 9.912806, -3.801048, -1.744064, -20.84372, 10.57454, -3.804286, -1.584708
 76620173, -24.33411, 6.012917, -3.82478, -1.86652, -20.95099, 9.912806, -3.801048, -1.744064
 76820926, -24.53162, 5.159739, -3.813756, -1.996273, -24.33411, 6.012917, -3.82478, -1.86652
 77020846, -25.60972, 7.556142, -3.829569, -2.099582, -24.53162, 5.159739, -3.813756, -1.996273
 77220766, -24.19355, 3.874607, -3.77519, -2.217872, -25.60972, 7.556142, -3.829569, -2.099582
 77420686, -24.78337, 5.047822, -3.771034, -2.312924, -24.19355, 3.874607, -3.77519, -2.217872
 77620606, -26.23298, 3.106587, -3.770994, -2.401011, -24.78337, 5.047822, -3.771034, -2.312924
 77820526, -23.01683, 1.980973, -3.697462, -2.490663, -26.23298, 3.106587, -3.770994, -2.401011
 78020446, -23.2287, 6.50127, -3.689841, -2.57273, -23.01683, 1.980973, -3.697462, -2.490663
 78220366, -25.9114, 0.8016343, -3.697059, -2.635882, -23.2287, 6.50127, -3.689841, -2.57273
 78420286, -26.31465, 4.578316, -3.687434, -2.692313, -25.9114, 0.8016343, -3.697059, -2.635882
 78620206, -22.79755, 5.137527, -3.609589, -2.75186, -26.31465, 4.578316, -3.687434, -2.692313
 78820959, -24.69007, 4.208365, -3.616945, -2.792885, -22.79755, 5.137527, -3.609589, -2.75186
 79020879, -26.33143, -0.5266604, -3.613658, -2.840312, -24.69007, 4.208365, -3.616945, -2.792885
 79220799, -24.58277, -0.5512782, -3.562868, -2.868492, -26.33143, -0.5266604, -3.613658, -2.840312
 79420719, -21.6574, 3.919299, -3.501536, -2.910945, -24.58277, -0.5512782, -3.562868, -2.868492
 79620639, -27.00405, -1.146548, -3.566429, -2.936649, -21.6574, 3.919299, -3.501536, -2.910945
 79820559, -22.15924, 2.256923, -3.468893, -2.965142, -27.00405, -1.146548, -3.566429, -2.936649
 80020479, -22.40056, 3.706211, -3.45236, -2.988642, -22.15924, 2.256923, -3.468893, -2.965142
 80220399, -25.3663, 0.6156735, -3.488907, -2.995572, -22.40056, 3.706211, -3.45236, -2.988642
 80420319, -25.52637, -0.4724151, -3.475838, -3.014703, -25.3663, 0.6156735, -3.488907, -2.995572
 80620239, -22.01133, -1.326125, -3.399117, -3.037901, -25.52637, -0.4724151, -3.475838, -3.014703
 80820159, -20.96628, -0.2567371, -3.369221, -3.047451, -22.01133, -1.326125, -3.399117, -3.037901
 81020912, -24.02413, 1.761384, -3.405792, -3.051145, -20.96628, -0.2567371, -3.369221, -3.047451
 81220832, -21.15835, -0.740185, -3.348804, -3.061631, -24.02413, 1.761384, -3.405792, -3.051145
 81420752, -22.14577, -0.1065987, -3.354156, -3.074934, -21.15835, -0.740185, -3.348804, -3.061631
 81620672, -19.52423, -0.1224355, -3.309409, -3.079602, -22.14577, -0.1065987, -3.354156, -3.074934
 81820592, -22.12212, 1.949375, -3.331499, -3.087137, -19.52423, -0.1224355, -3.309409, -3.079602
 82020512, -20.247, 0.2867751, -3.294925, -3.082526, -22.12212, 1.949375, -3.331499, -3.087137
 82220432, -21.7473, 0.6239453, -3.310284, -3.081618, -20.247, 0.2867751, -3.294925, -3.082526
 82420352, -19.71494, 2.672932, -3.271753, -3.087779, -21.7473, 0.6239453, -3.310284, -3.081618
 82620272, -21.02028, 0.6523782, -3.284973, -3.085274, -19.71494, 2.672932, -3.271753, -3.087779
 82820192, -16.89703, -1.009922, -3.220292, -3.086327, -21.02028, 0.6523782, -3.284973, -3.085274
 83020945, -19.29257, -0.1423516, -3.240157, -3.092408, -16.89703, -1.009922, -3.220292, -3.086327
 83220865, -18.74387, -1.331281, -3.224624, -3.09641, -19.29257, -0.1423516, -3.240157, -3.092408
 83420785, -16.95824, 2.030627, -3.191674, -3.098462, -18.74387, -1.331281, -3.224624, -3.09641
 83620705, -17.45633, -2.405057, -3.190597, -3.094095, -16.95824, 2.030627, -3.191674, -3.098462
 83820625, -20.67787, -1.682667, -3.234814, -3.088753, -17.45633, -2.405057, -3.190597, -3.094095
 84020545, -17.41447, -0.7386271, -3.180183, -3.08889, -20.67787, -1.682667, -3.234814, -3.088753
 84220465, -20.19289, -0.3883373, -3.217106, -3.087976, -17.41447, -0.7386271, -3.180183, -3.08889
 84420385, -20.73512, 0.7103587, -3.22289, -3.087099, -20.19289, -0.3883373, -3.217106, -3.087976
 84620305, -20.14855, -2.97988, -3.210282, -3.086201, -20.73512, 0.7103587, -3.22289, -3.087099
 84820225, -15.76736, 0.8998013, -3.139731, -3.083952, -20.14855, -2.97988, -3.210282, -3.086201
 85020145, -18.0951, -2.745563, -3.165612, -3.082633, -15.76736, 0.8998013, -3.139731, -3.083952
 85220898, -14.85019, -0.1223313, -3.112763, -3.083059, -18.0951, -2.745563, -3.165612, -3.082633
 85420818, -16.13954, 2.447727, -3.123806, -3.086056, -14.85019, -0.1223313, -3.112763, -3.083059
 85620738, -17.39, -2.227093, -3.139393, -3.082928, -16.13954, 2.447727, -3.123806, -3.086056
 85820658, -14.51835, 1.526531, -3.097231, -3.083385, -17.39, -2.227093, -3.139393, -3.082928
 86020578, -18.10547, -0.4564777, -3.137207, -3.086305, -14.51835, 1.526531, -3.097231, -3.083385
 86220498, -19.13032, -0.2925668, -3.148525, -3.089538, -18.10547, -0.4564777, -3.137207, -3.086305
 86420418, -18.55778, -0.1845063, -3.137716, -3.091652, -19.13032, -0.2925668, -3.148525, -3.089538
 86620338, -18.28998, 0.8900878, -3.131286, -3.094281, -18.55778, -0.1845063, -3.137716, -3.091652
 86820258, -18.64207, -1.698073, -3.134968, -3.096727, -18.28998, 0.8900878, -3.131286, -3.094281
 87020178, -14.03466, 0.5289004, -3.071811, -3.098612, -18.64207, -1.698073, -3.134968, -3.096727
 87220931, -14.57356, -1.643771, -3.077461, -3.099037, -14.03466, 0.5289004, -3.071811, -3.098612
 87420851, -15.90174, -1.271237, -3.090103, -3.102093, -14.57356, -1.643771, -3.077461, -3.099037
 87620771, -17.46157, 1.762303, -3.108824, -3.104845, -15.90174, -1.271237, -3.090103, -3.102093
 87820691, -18.57475, 0.1500604, -3.124598, -3.105206, -17.46157, 1.762303, -3.108824, -3.104845
 88020611, -14.44373, 1.288995, -3.070504, -3.105133, -18.57475, 0.1500604, -3.124598, -3.105206
 88220531, -14.82694, -0.03152645, -3.071592, -3.107594, -14.44373, 1.288995, -3.070504, -3.105133
 88420451, -16.33352, 1.690747, -3.090746, -3.108337, -14.82694, -0.03152645, -3.071592, -3.107594
 88620371, -13.83638, -0.6939954, -3.055918, -3.111678, -16.33352, 1.690747, -3.090746, -3.108337
 88820291, -14.51593, 1.938195, -3.06326, -3.114068, -13.83638, -0.6939954, -3.055918, -3.111678
 89020211, -15.21765, -2.815188, -3.071788, -3.116252, -14.51593, 1.938195, -3.06326, -3.114068
 89220964, -15.29837, -2.25018, -3.068359, -3.120187, -15.21765, -2.815188, -3.071788, -3.116252
 89420884, -13.03742, -2.347813, -3.046054, -3.115714, -15.29837, -2.25018, -3.068359, -3.120187
 89620804, -16.05513, -2.621367, -3.078055, -3.118931, -13.03742, -2.347813, -3.046054, -3.115714
 89820724, -16.15065, 0.8293079, -3.078828, -3.117042, -16.05513, -2.621367, -3.078055, -3.118931
 90020644, -16.5876, -2.200297, -3.080551, -3.12317, -16.15065, 0.8293079, -3.078828, -3.117042
 90220564, -15.31897, -1.041759, -3.063544, -3.122747, -16.5876, -2.200297, -3.080551, -3.12317
 90420484, -18.47512, 2.031349, -3.105535, -3.1245, -15.31897, -1.041759, -3.063544, -3.122747
 90620404, -13.44725, 1.490172, -3.040895, -3.124205, -18.47512, 2.031349, -3.105535, -3.1245
 90820324, -16.67272, -3.280502, -3.078675, -3.129602, -13.44725, 1.490172, -3.040895, -3.124205
 91020244, -16.0025, 2.180333, -3.067954, -3.128591, -16.67272, -3.280502, -3.078675, -3.129602
 91220164, -14.38843, 1.001532, -3.047336, -3.12762, -16.0025, 2.180333, -3.067954, -3.128591
 91420917, -13.17767, 1.848587, -3.03572, -3.126456, -14.38843, 1.001532, -3.047336, -3.12762
 91620837, -14.00844, -2.644381, -3.044815, -3.128184, -13.17767, 1.848587, -3.03572, -3.126456
 91820757, -13.66063, -2.570272, -3.035332, -3.132716, -14.00844, -2.644381, -3.044815, -3.128184
 92020677, -18.41728, 2.396057, -3.09497, -3.134746, -13.66063, -2.570272, -3.035332, -3.132716
 92220597, -14.16705, -3.371854, -3.040253, -3.135577, -18.41728, 2.396057, -3.09497, -3.134746
 92420517, -13.45603, 1.514127, -3.031087, -3.133327, -14.16705, -3.371854, -3.040253, -3.135577
 92620437, -16.67831, -0.5415424, -3.071385, -3.131628, -13.45603, 1.514127, -3.031087, -3.133327
 92820357, -14.09976, -3.102015, -3.042511, -3.132058, -16.67831, -0.5415424, -3.071385, -3.131628
 93020277, -18.61768, -3.289068, -3.092673, -3.141254, -14.09976, -3.102015, -3.042511, -3.132058
 93220197, -17.54803, 1.297219, -3.080467, -3.134828, -18.61768, -3.289068, -3.092673, -3.141254
 93420950, -14.16836, -3.122309, -3.028864, -3.14562, -17.54803, 1.297219, -3.080467, -3.134828
 93620870, -17.48805, -3.195786, -3.073854, -3.144191, -14.16836, -3.122309, -3.028864, -3.14562
 93820790, -16.02422, 1.607843, -3.055869, -3.139067, -17.48805, -3.195786, -3.073854, -3.144191
 94020710, -17.82364, -0.4968438, -3.076833, -3.141278, -16.02422, 1.607843, -3.055869, -3.139067
 94220630, -13.64017, 1.710038, -3.024263, -3.141434, -17.82364, -0.4968438, -3.076833, -3.141278
 94420550, -16.69976, -2.425774, -3.063225, -3.141555, -13.64017, 1.710038, -3.024263, -3.141434
 94620470, -18.31708, 0.03787845, -3.090433, -3.135301, -16.69976, -2.425774, -3.063225, -3.141555
 94820390, -15.09246, -2.413846, -3.045164, -3.139738, -18.31708, 0.03787845, -3.090433, -3.135301
 95020310, -14.3959, 1.311898, -3.033699, -3.139582, -15.09246, -2.413846, -3.045164, -3.139738
 95220230, -18.3318, 2.029824, -3.087375, -3.138928, -14.3959, 1.311898, -3.033699, -3.139582
 95420150, -18.95791, -2.840484, -3.095906, -3.140486, -18.3318, 2.029824, -3.087375, -3.138928
 95620903, -13.92259, -0.1128057, -3.033392, -3.132892, -18.95791, -2.840484, -3.095906, -3.140486
 95820823, -15.48096, -0.3582681, -3.053781, -3.131414, -13.92259, -0.1128057, -3.033392, -3.132892
 96020743, -14.70484, -0.2271501, -3.039861, -3.136423, -15.48096, -0.3582681, -3.053781, -3.131414
 96220663, -16.04689, 2.448306, -3.054846, -3.1407, -14.70484, -0.2271501, -3.039861, -3.136423
 96420583, -13.97172, -1.355823, -3.033789, -3.134331, -16.04689, 2.448306, -3.054846, -3.1407
 96620503, -14.03789, 1.359774, -3.032902, -3.135425, -13.97172, -1.355823, -3.033789, -3.134331
 96820423, -18.36909, -2.638062, -3.089243, -3.138281, -14.03789, 1.359774, -3.032902, -3.135425
 97020343, -17.21252, -1.589486, -3.066982, -3.143048, -18.36909, -2.638062, -3.089243, -3.138281
 97220263, -18.38818, -0.6055736, -3.081815, -3.144184, -17.21252, -1.589486, -3.066982, -3.143048
 97420183, -15.60358, 0.1752432, -3.044254, -3.143585, -18.38818, -0.6055736, -3.081815, -3.144184
 97620936, -15.48086, -0.3820536, -3.044853, -3.14078, -15.60358, 0.1752432, -3.044254, -3.143585
 97820856, -14.38732, 0.8375314, -3.032932, -3.13955, -15.48086, -0.3820536, -3.044853, -3.14078
 98020776, -16.99052, -2.840743, -3.067851, -3.140798, -14.38732, 0.8375314, -3.032932, -3.13955
 98220696, -14.31661, 1.767996, -3.032833, -3.13945, -16.99052, -2.840743, -3.067851, -3.140798
 98420616, -18.185, 0.7999409, -3.080132, -3.142403, -14.31661, 1.767996, -3.032833, -3.13945
 98620536, -15.14968, -3.005301, -3.048402, -3.135625, -18.185, 0.7999409, -3.080132, -3.142403
 98820456, -18.01676, 1.525715, -3.079365, -3.140604, -15.14968, -3.005301, -3.048402, -3.135625
 99020376, -16.28036, -2.813882, -3.054459, -3.14406, -18.01676, 1.525715, -3.079365, -3.140604
 99220296, -15.81802, -2.055895, -3.047614, -3.143936, -16.28036, -2.813882, -3.054459, -3.14406
 99420216, -15.88083, -0.379937, -3.052186, -3.137984, -15.81802, -2.055895, -3.047614, -3.143936
 99620969, -15.80339, -2.165398, -3.049706, -3.141542, -15.88083, -0.379937, -3.052186, -3.137984
 99820889, -15.72282, 0.4379469, -3.04764, -3.14051, -15.80339, -2.165398, -3.049706, -3.141542
 100020809, -19.008, -0.1092857, -3.088703, -3.145628, -15.72282, 0.4379469, -3.04764, -3.14051
 100220729, -17.793, -2.229101, -3.074051, -3.14444, -19.008, -0.1092857, -3.088703, -3.145628
 100420649, -19.74661, -2.826891, -3.102812, -3.146225, -17.793, -2.229101, -3.074051, -3.14444
 100620569, -15.29845, -0.2872264, -3.038389, -3.14401, -19.74661, -2.826891, -3.102812, -3.146225
 100820489, -16.45835, 1.038881, -3.054277, -3.143029, -15.29845, -0.2872264, -3.038389, -3.14401
 101020409, -16.88721, 0.5675235, -3.06538, -3.137773, -16.45835, 1.038881, -3.054277, -3.143029
 101220329, -18.48668, 1.479553, -3.089716, -3.137869, -16.88721, 0.5675235, -3.06538, -3.137773
 101420249, -15.74084, -2.119864, -3.051666, -3.138802, -18.48668, 1.479553, -3.089716, -3.137869
 101620169, -18.64271, 1.946833, -3.086445, -3.144373, -15.74084, -2.119864, -3.051666, -3.138802
 101820922, -18.83881, -0.9735422, -3.092726, -3.139472, -18.64271, 1.946833, -3.086445, -3.144373
 102020842, -20.02673, 0.1528643, -3.112321, -3.137796, -18.83881, -0.9735422, -3.092726, -3.139472
 102220762, -15.04852, 1.83297, -3.044518, -3.136363, -20.02673, 0.1528643, -3.112321, -3.137796
 102420682, -17.89236, 1.363193, -3.084754, -3.134406, -15.04852, 1.83297, -3.044518, -3.136363
 102620602, -17.46811, -3.040917, -3.078419, -3.138054, -17.89236, 1.363193, -3.084754, -3.134406
 102820522, -15.03129, 1.470453, -3.04651, -3.134606, -17.46811, -3.040917, -3.078419, -3.138054
 103020442, -16.62691, -0.598577, -3.068326, -3.132527, -15.03129, 1.470453, -3.04651, -3.134606
 103220362, -16.25092, -2.790292, -3.060729, -3.138019, -16.62691, -0.598577, -3.068326, -3.132527
 103420282, -20.21482, 0.3493221, -3.119477, -3.134537, -16.25092, -2.790292, -3.060729, -3.138019
 103620202, -15.78796, 0.227035, -3.05192, -3.137541, -20.21482, 0.3493221, -3.119477, -3.134537
 103820955, -18.33441, 1.705119, -3.086819, -3.138818, -15.78796, 0.227035, -3.05192, -3.137541
 104020875, -16.66639, -2.059215, -3.06366, -3.13843, -18.33441, 1.705119, -3.086819, -3.138818
 104220795, -20.28614, -1.225102, -3.117449, -3.138432, -16.66639, -2.059215, -3.06366, -3.13843
 104420715, -17.69137, -0.8586078, -3.078332, -3.137508, -20.28614, -1.225102, -3.117449, -3.138432
 104620635, -20.24045, -2.354715, -3.113067, -3.143005, -17.69137, -0.8586078, -3.078332, -3.137508
 104820555, -15.02852, -1.571617, -3.044643, -3.136248, -20.24045, -2.354715, -3.113067, -3.143005
 105020475, -17.61797, -2.408644, -3.080204, -3.136002, -15.02852, -1.571617, -3.044643, -3.136248
 105220395, -20.63527, 1.266472, -3.124413, -3.136588, -17.61797, -2.408644, -3.080204, -3.136002
 105420315, -16.95185, 2.168206, -3.073543, -3.133798, -20.63527, 1.266472, -3.124413, -3.136588
 105620235, -19.94273, -3.062838, -3.122136, -3.130872, -16.95185, 2.168206, -3.073543, -3.133798
 105820155, -15.83849, -0.7479222, -3.06394, -3.126452, -19.94273, -3.062838, -3.122136, -3.130872
 106020908, -17.96253, -0.3198199, -3.094553, -3.124951, -15.83849, -0.7479222, -3.06394, -3.126452
 106220828, -15.15636, -1.378149, -3.057469, -3.125746, -17.96253, -0.3198199, -3.094553, -3.124951
 106420748, -19.59543, -2.822547, -3.118603, -3.129627, -15.15636, -1.378149, -3.057469, -3.125746
 106620668, -15.27989, -1.666229, -3.057567, -3.12802, -19.59543, -2.822547, -3.118603, -3.129627
 106820588, -18.66907, 0.8338587, -3.09848, -3.132287, -15.27989, -1.666229, -3.057567, -3.12802
 107020508, -16.84049, 0.08721265, -3.066921, -3.137041, -18.66907, 0.8338587, -3.09848, -3.132287
 107220428, -14.91149, 0.49489, -3.046277, -3.132893, -16.84049, 0.08721265, -3.066921, -3.137041
 107420348, -19.95609, 1.650641, -3.114765, -3.136019, -14.91149, 0.49489, -3.046277, -3.132893
 107620268, -20.25797, 0.3502151, -3.119878, -3.134635, -19.95609, 1.650641, -3.114765, -3.136019
 107820188, -15.70024, -1.78222, -3.054728, -3.134828, -20.25797, 0.3502151, -3.119878, -3.134635
 108020941, -17.66011, -1.871474, -3.080353, -3.136968, -15.70024, -1.78222, -3.054728, -3.134828
 108220861, -19.70595, -2.009554, -3.113826, -3.134329, -17.66011, -1.871474, -3.080353, -3.136968
 108420781, -17.85651, 1.208336, -3.082258, -3.135749, -19.70595, -2.009554, -3.113826, -3.134329
 108620701, -15.01064, -0.1072444, -3.045227, -3.134514, -17.85651, 1.208336, -3.082258, -3.135749
 108820621, -18.90948, 1.827851, -3.10331, -3.132097, -15.01064, -0.1072444, -3.045227, -3.134514
 109020541, -18.92516, -1.205579, -3.10155, -3.133421, -18.90948, 1.827851, -3.10331, -3.132097
 109220461, -15.27302, 0.5298454, -3.050513, -3.133969, -18.92516, -1.205579, -3.10155, -3.133421
 109420381, -15.75398, -0.309388, -3.060701, -3.129103, -15.27302, 0.5298454, -3.050513, -3.133969
 109620301, -16.96485, -3.506351, -2.927393, -3.273523, -15.75398, -0.309388, -3.060701, -3.129103
 109820221, -17.37181, -3.043945, -2.934849, -3.276749, -16.96485, -3.506351, -2.927393, -3.273523
 110020974, -15.58859, -3.200974, -2.918219, -3.283899, -17.37181, -3.043945, -2.934849, -3.276749
 110220894, -14.33585, 0.4288303, -2.909998, -3.295393, -15.58859, -3.200974, -2.918219, -3.283899
