TimeUS,COFN,COFE,CNe,CEe,POFN,POFE,PNe,PEe
 8040949, 0.04401959, -0.02087055, 0.09740286, 0.04826219, 0, 0, 0, 0
 8220877, -0.00571193, 0.005031303, 0.09739241, 0.04819763, 0.04401959, -0.02087055, 0.09740286, 0.04826219
 8420797, 0.03769813, 0.002086447, 0.09741968, 0.04819315, -0.00571193, 0.005031303, 0.09739241, 0.04819763
 8620717, 0.03032752, -0.0006435309, 0.09741049, 0.04819305, 0.03769813, 0.002086447, 0.09741968, 0.04819315
 8820637, 0.04969922, -0.0160656, 0.0974522, 0.0481756, 0.03032752, -0.0006435309, 0.09741049, 0.04819305
 9020557, 0.0002767295, -0.04030846, 0.09740801, 0.04822411, 0.04969922, -0.0160656, 0.0974522, 0.0481756
 9220477, -0.04996217, 0.002063199, 0.09744715, 0.0481774, 0.0002767295, -0.04030846, 0.09740801, 0.04822411
 9420397, 0.02350826, -0.03506365, 0.09742653, 0.0481925, -0.04996217, 0.002063199, 0.09744715, 0.0481774
 9620317, -0.01804456, -0.01122489, 0.09740393, 0.04818895, 0.02350826, -0.03506365, 0.09742653, 0.0481925
 9820237, -0.0310326, 0.006042568, 0.09741986, 0.04817703, -0.01804456, -0.01122489, 0.09740393, 0.04818895
 10020157, 0.01777956, 0.06497131, 0.09743185, 0.04828367, -0.0310326, 0.006042568, 0.09741986, 0.04817703
 10220910, -0.02673221, 0.02415234, 0.09742305, 0.04818163, 0.01777956, 0.06497131, 0.09743185, 0.04828367
 10420830, 0.03656964, -0.02771936, 0.09744127, 0.04817469, -0.02673221, 0.02415234, 0.09742305, 0.04818163
 10620750, 0.05959444, 0.02351568, 0.09746407, 0.04820258, 0.03656964, -0.02771936, 0.09744127, 0.04817469
 10820670, -0.003861173, 0.03989257, 0.09741471, 0.04820989, 0.05959444, 0.02351568, 0.09746407, 0.04820258
 11020590, 0.01114811, 0.01257256, 0.09740101, 0.04818857, -0.003861173, 0.03989257, 0.09741471, 0.04820989
 11220510, 0.03217083, -0.07623553, 0.09749179, 0.04824797, 0.01114811, 0.01257256, 0.09740101, 0.04818857
 11420430, -0.00279718, 0.01322106, 0.09739817, 0.04819062, 0.03217083, -0.07623553, 0.09749179, 0.04824797
 11620350, -0.03851397, 0.04449807, 0.09745901, 0.04818909, -0.00279718, 0.01322106, 0.09739817, 0.04819062
 11820270, -0.03930954, -0.02946215, 0.09742504, 0.04821886, -0.03851397, 0.04449807, 0.09745901, 0.04818909
 12020190, -0.01991664, -0.01628919, 0.09740356, 0.04819749, -0.03930954, -0.02946215, 0.09742504, 0.04821886
 12220943, 0.007900823, 0.01969256, 0.09740003, 0.04819676, -0.01991664, -0.01628919, 0.09740356, 0.04819749
 12420863, 0.03449217, -0.02979754, 0.09743848, 0.04817927, 0.007900823, 0.01969256, 0.09740003, 0.04819676
 12620783, 0.0432735, 0.008703569, 0.09743253, 0.04818653, 0.03449217, -0.02979754, 0.09743848, 0.04817927
 12820703, -0.01808056, 0.04089918, 0.09742426, 0.04820513, 0.0432735, 0.008703569, 0.09743253, 0.04818653
 13020623, -0.02019231, 0.01024337, 0.0974061, 0.04818681, -0.01808056, 0.04089918, 0.09742426, 0.04820513
 13220543, -0.06667312, -0.01891349, 0.09747712, 0.04820202, -0.02019231, 0.01024337, 0.0974061, 0.04818681
 13420463, 0.005993212, -0.05749575, 0.0974269, 0.04824947, -0.06667312, -0.01891349, 0.09747712, 0.04820202
 13620383, 0.004543804, 0.06800495, 0.09743302, 0.0482853, 0.005993212, -0.05749575, 0.0974269, 0.04824947
 13820303, -0.0123827, -0.01974778, 0.09739956, 0.04820115, 0.004543804, 0.06800495, 0.09743302, 0.0482853
 14020223, -0.0492084, -0.05188634, 0.09744649, 0.0482754, -0.0123827, -0.01974778, 0.09739956, 0.04820115
 14220976, -0.04595138, 0.06072789, 0.09749588, 0.04820097, -0.0492084, -0.05188634, 0.09744649, 0.0482754
 14420896, -0.009280311, -0.0102666, 0.09739709, 0.04819312, -0.04595138, 0.06072789, 0.09749588, 0.04820097
 14620816, -0.04498404, 0.002284789, 0.09743857, 0.04817731, -0.009280311, -0.0102666, 0.09739709, 0.04819312
 14820736, -0.04809085, 0.02687045, 0.09746347, 0.04816418, -0.04498404, 0.002284789, 0.09743857, 0.04817731
 15020656, -0.04761814, -0.05107977, 0.09744786, 0.04826389, -0.04809085, 0.02687045, 0.09746347, 0.04816418
 15220576, 0.03961937, -0.08042236, 0.09751753, 0.04823999, -0.04761814, -0.05107977, 0.09744786, 0.04826389
 15420496, 0.07805181, 0.04806112, 0.09751152, 0.04826561, 0.03961937, -0.08042236, 0.09751753, 0.04823999
 15620416, -0.01876059, -0.0004119142, 0.09740657, 0.04817992, 0.07805181, 0.04806112, 0.09751152, 0.04826561
 15820336, -0.06254433, 0.007034699, 0.09748392, 0.04815711, -0.01876059, -0.0004119142, 0.09740657, 0.04817992
 16020256, -0.03295693, 0.07464486, 0.09749268, 0.04823921, -0.06254433, 0.007034699, 0.09748392, 0.04815711
 16220176, -0.01683199, -0.04923778, 0.09741889, 0.04824215, -0.03295693, 0.07464486, 0.09749268, 0.04823921
 16420929, 0.01572842, -0.06296075, 0.09744759, 0.04823983, -0.01683199, -0.04923778, 0.09741889, 0.04824215
 16620849, -0.06213897, -0.04101276, 0.09746955, 0.04824469, 0.01572842, -0.06296075, 0.09744759, 0.04823983
 16820769, -0.03205012, 0.08599332, 0.0975085, 0.04827245, -0.06213897, -0.04101276, 0.09746955, 0.04824469
 17020689, 0.04310197, -0.04239392, 0.0974662, 0.04818163, -0.03205012, 0.08599332, 0.0975085, 0.04827245
 17220609, -0.02354437, 0.007572483, 0.09740949, 0.04818363, 0.04310197, -0.04239392, 0.0974662, 0.04818163
 17420529, -0.02453116, 0.06915552, 0.09746638, 0.04824524, -0.02354437, 0.007572483, 0.09740949, 0.04818363
 17620449, -0.02851464, -0.03789749, 0.09741735, 0.04822832, -0.02453116, 0.06915552, 0.09746638, 0.04824524
 17820369, -0.009884784, -0.005002365, 0.09740006, 0.04818456, -0.02851464, -0.03789749, 0.09741735, 0.04822832
 18020289, 0.05779427, -0.01565975, 0.09747679, 0.04815762, -0.009884784, -0.005002365, 0.09740006, 0.04818456
 18220209, -0.02709726, 0.04502115, 0.09744155, 0.04819839, 0.05779427, -0.01565975, 0.09747679, 0.04815762
 18420962, -0.04642939, 0.02552344, 0.09745782, 0.04816721, -0.02709726, 0.04502115, 0.09744155, 0.04819839
 18620882, -0.07096913, -0.04555232, 0.09749094, 0.04825948, -0.04642939, 0.02552344, 0.09745782, 0.04816721
 18820802, 0.0731267, 0.04157456, 0.09749682, 0.04824629, -0.07096913, -0.04555232, 0.09749094, 0.04825948
 19020722, 0.05983588, 0.04948384, 0.09746844, 0.04826491, 0.0731267, 0.04157456, 0.09749682, 0.04824629
 19220642, -0.03542604, 0.04883251, 0.09746155, 0.04819046, 0.05983588, 0.04948384, 0.09746844, 0.04826491
 19420562, 0.009012255, 0.01022801, 0.09740088, 0.04818526, -0.03542604, 0.04883251, 0.09746155, 0.04819046
 19620482, 0.03017327, -0.0764085, 0.09749022, 0.04824755, 0.009012255, 0.01022801, 0.09740088, 0.04818526
 19820402, 0.0756961, 0.02550153, 0.09724508, 0.04872629, 0.03017327, -0.0764085, 0.09749022, 0.04824755
 20020322, -0.01593433, 0.03229796, 0.09668719, 0.04964177, 0.0756961, 0.02550153, 0.09724508, 0.04872629
 20220242, -0.001406833, -0.03037656, 0.09599587, 0.05095275, -0.01593433, 0.03229796, 0.09668719, 0.04964177
 20420162, -0.03650796, -0.0495896, 0.09520502, 0.05251309, -0.001406833, -0.03037656, 0.09599587, 0.05095275
 20620915, 0.04674515, 0.01904919, 0.09433621, 0.05401724, -0.03650796, -0.0495896, 0.09520502, 0.05251309
 20820835, 0.05650083, 0.05934068, 0.09347212, 0.05563281, 0.04674515, 0.01904919, 0.09433621, 0.05401724
 21020755, -0.004833602, 0.03776971, 0.09255776, 0.05697653, 0.05650083, 0.05934068, 0.09347212, 0.05563281
 21220675, 0.3591344, -0.03997501, 0.09460935, 0.05764693, -0.004833602, 0.03776971, 0.09255776, 0.05697653
 21420595, 1.026523, -0.1974562, 0.1126689, 0.05490301, 0.3591344, -0.03997501, 0.09460935, 0.05764693
 21620515, 2.215214, -0.3884222, 0.1666728, 0.04554543, 1.026523, -0.1974562, 0.1126689, 0.05490301
 21820435, 3.775101, -0.726948, 0.2519342, 0.03157855, 2.215214, -0.3884222, 0.1666728, 0.04554543
 22020355, 5.758824, -1.018184, 0.3648663, 0.01504398, 3.775101, -0.726948, 0.2519342, 0.03157855
 22220275, 7.898091, -1.260674, 0.4881562, 0.0003573969, 5.758824, -1.018184, 0.3648663, 0.01504398
 22420195, 9.742057, -1.395105, 0.5942119, -0.007338129, 7.898091, -1.260674, 0.4881562, 0.0003573969
 22620948, 11.45994, -1.489652, 0.6919648, -0.009790882, 9.742057, -1.395105, 0.5942119, -0.007338129
 22820868, 13.16237, -1.542935, 0.7846156, -0.007576995, 11.45994, -1.489652, 0.6919648, -0.009790882
 23020788, 14.39919, -1.432422, 0.850217, -0.002107836, 13.16237, -1.542935, 0.7846156, -0.007576995
 23220708, 16.7884, -1.491768, 0.9579434, 0.005793661, 14.39919, -1.432422, 0.850217, -0.002107836
 23420628, 18.41055, -1.469321, 0.997026, 0.03031576, 16.7884, -1.491768, 0.9579434, 0.005793661
 23620548, 19.90541, -1.299424, 1.03521, 0.06515072, 18.41055, -1.469321, 0.997026, 0.03031576
 23820468, 21.06947, -1.450349, 1.07309, 0.1032305, 19.90541, -1.299424, 1.03521, 0.06515072
 24020388, 22.79308, -1.61664, 1.141688, 0.139601, 21.06947, -1.450349, 1.07309, 0.1032305
 24220308, 24.03685, -1.450161, 1.191024, 0.1816211, 22.79308, -1.61664, 1.141688, 0.139601
 24420228, 25.06392, -1.658771, 1.238366, 0.223673, 24.03685, -1.450161, 1.191024, 0.1816211
 24620148, 26.5241, -2.201398, 1.308476, 0.2806898, 25.06392, -1.658771, 1.238366, 0.223673
 24820901, 27.16908, -1.502586, 1.351051, 0.3363644, 26.5241, -2.201398, 1.308476, 0.2806898
 25020821, 27.44449, -2.341317, 1.389219, 0.3911719, 27.16908, -1.502586, 1.351051, 0.3363644
 25220741, 28.2989, -2.07389, 1.449824, 0.4516245, 27.44449, -2.341317, 1.389219, 0.3911719
 25420661, 28.0347, -2.259258, 1.470562, 0.5225129, 28.2989, -2.07389, 1.449824, 0.4516245
 25620581, 28.51709, -1.914732, 1.525063, 0.5867122, 28.0347, -2.259258, 1.470562, 0.5225129
 25820501, 29.1958, -2.385108, 1.595206, 0.6528569, 28.51709, -1.914732, 1.525063, 0.5867122
 26020421, 29.84605, -2.124266, 1.671098, 0.7267536, 29.1958, -2.385108, 1.595206, 0.6528569
 26220341, 29.02436, -3.078854, 1.702706, 0.8036625, 29.84605, -2.124266, 1.671098, 0.7267536
 26420261, 30.17266, -2.443272, 1.801911, 0.8743181, 29.02436, -3.078854, 1.702706, 0.8036625
 26620181, 30.13452, -2.268017, 1.856746, 0.9517166, 30.17266, -2.443272, 1.801911, 0.8743181
 26820934, 28.55356, -2.614108, 1.862374, 1.03032, 30.13452, -2.268017, 1.856746, 0.9517166
 27020854, 29.52265, -3.317571, 1.958097, 1.097993, 28.55356, -2.614108, 1.862374, 1.03032
 27220774, 28.74255, -2.464968, 1.989252, 1.168247, 29.52265, -3.317571, 1.958097, 1.097993
 27420694, 29.17045, -1.141484, 2.060558, 1.23161, 28.74255, -2.464968, 1.989252, 1.168247
 27620614, 28.59234, -3.359103, 2.110217, 1.2874, 29.17045, -1.141484, 2.060558, 1.23161
 27820534, 29.44705, -1.554443, 2.194907, 1.339717, 28.59234, -3.359103, 2.110217, 1.2874
 28020454, 31.09914, -2.45337, 2.31252, 1.383149, 29.44705, -1.554443, 2.194907, 1.339717
 28220374, 29.63664, -1.436133, 2.330396, 1.438945, 31.09914, -2.45337, 2.31252, 1.383149
 28420294, 28.05869, -4.234001, 2.359397, 1.490267, 29.63664, -1.436133, 2.330396, 1.438945
 28620214, 30.09884, -2.506464, 2.478595, 1.529964, 28.05869, -4.234001, 2.359397, 1.490267
 28820967, 30.65897, -3.101639, 2.545703, 1.575777, 30.09884, -2.506464, 2.478595, 1.529964
 29020887, 30.11414, -2.071244, 2.548831, 1.655454, 30.65897, -3.101639, 2.545703, 1.575777
 29220807, 27.9771, -0.90942, 2.600577, 1.733662, 30.11414, -2.071244, 2.548831, 1.655454
 29420727, 29.8551, -4.731822, 2.725843, 1.767979, 27.9771, -0.90942, 2.600577, 1.733662
 29620647, 27.51125, -5.021586, 2.646348, 1.803521, 29.8551, -4.731822, 2.725843, 1.767979
 29820567, 27.08952, -4.661622, 2.586601, 1.834418, 27.51125, -5.021586, 2.646348, 1.803521
 30020487, 27.96937, -2.974068, 2.575965, 1.856119, 27.08952, -4.661622, 2.586601, 1.834418
 30220407, 27.7893, -3.410073, 2.551275, 1.896094, 27.96937, -2.974068, 2.575965, 1.856119
 30420327, 29.58517, -1.651735, 2.588814, 1.923274, 27.7893, -3.410073, 2.551275, 1.896094
 30620247, 29.4155, -0.5987485, 2.565718, 1.962863, 29.58517, -1.651735, 2.588814, 1.923274
 30820167, 26.80242, -0.9900941, 2.47332, 2.007947, 29.4155, -0.5987485, 2.565718, 1.962863
 31020920, 27.17689, 0.921993, 2.462858, 2.045172, 26.80242, -0.9900941, 2.47332, 2.007947
 31220840, 27.37542, 0.5300648, 2.456948, 2.063925, 27.17689, 0.921993, 2.462858, 2.045172
 31420760, 25.34671, 1.033673, 2.398818, 2.071347, 27.37542, 0.5300648, 2.456948, 2.063925
 31620680, 26.86255, 0.7585298, 2.435406, 2.074205, 25.34671, 1.033673, 2.398818, 2.071347
 31820600, 27.05787, -1.347209, 2.432453, 2.075134, 26.86255, 0.7585298, 2.435406, 2.074205
 32020520, 26.61621, -1.007988, 2.409981, 2.069961, 27.05787, -1.347209, 2.432453, 2.075134
 32220440, 24.78045, -1.034428, 2.344372, 2.06505, 26.61621, -1.007988, 2.409981, 2.069961
 32420360, 23.12878, -0.01058248, 2.287617, 2.053865, 24.78045, -1.034428, 2.344372, 2.06505
 32620280, 24.1903, 0.7882451, 2.295714, 2.047348, 23.12878, -0.01058248, 2.287617, 2.053865
 32820200, 25.61725, 2.197204, 2.313608, 2.042593, 24.1903, 0.7882451, 2.295714, 2.047348
 33020953, 23.14317, 1.035334, 2.228263, 2.028868, 25.61725, 2.197204, 2.313608, 2.042593
 33220873, 26.67199, 0.5344531, 2.300411, 2.018506, 23.14317, 1.035334, 2.228263, 2.028868
 33420793, 26.1278, -0.7766185, 2.260973, 2.009027, 26.67199, 0.5344531, 2.300411, 2.018506
 33620713, 26.96581, -0.1928204, 2.262419, 1.998363, 26.1278, -0.7766185, 2.260973, 2.009027
 33820633, 26.4695, -0.6087162, 2.225112, 1.988597, 26.96581, -0.1928204, 2.262419, 1.998363
 34020553, 25.19479, -0.4755683, 2.167861, 1.972679, 26.4695, -0.6087162, 2.225112, 1.988597
 34220473, 25.95056, 0.2335182, 2.165945, 1.961778, 25.19479, -0.4755683, 2.167861, 1.972679
 34420393, 27.30982, 1.392234, 2.190151, 1.945822, 25.95056, 0.2335182, 2.165945, 1.961778
 34620313, 24.64363, 1.381174, 2.094294, 1.926428, 27.30982, 1.392234, 2.190151, 1.945822
 34820233, 26.40332, 1.010399, 2.125519, 1.911858, 24.64363, 1.381174, 2.094294, 1.926428
 35020153, 25.25768, 1.236433, 2.076331, 1.890524, 26.40332, 1.010399, 2.125519, 1.911858
 35220906, 27.11846, -0.03029478, 2.110686, 1.878038, 25.25768, 1.236433, 2.076331, 1.890524
 35420826, 25.21804, 0.2842121, 2.045364, 1.848156, 27.11846, -0.03029478, 2.110686, 1.878038
 35620746, 26.98304, 0.5170608, 2.082905, 1.83297, 25.21804, 0.2842121, 2.045364, 1.848156
 35820666, 26.30188, 2.468553, 2.049661, 1.814249, 26.98304, 0.5170608, 2.082905, 1.83297
 36020586, 25.65338, 0.596265, 2.015486, 1.790617, 26.30188, 2.468553, 2.049661, 1.814249
 36220506, 25.81327, 0.3807719, 2.009984, 1.767429, 25.65338, 0.596265, 2.015486, 1.790617
 36420426, 27.85118, 0.07111192, 2.061382, 1.747597, 25.81327, 0.3807719, 2.009984, 1.767429
 36620346, 27.18756, -0.07881999, 2.030339, 1.723083, 27.85118, 0.07111192, 2.061382, 1.747597
 36820266, 26.54762, 0.6900048, 1.998823, 1.703492, 27.18756, -0.07881999, 2.030339, 1.723083
 37020186, 26.14925, 2.615076, 1.980399, 1.681436, 26.54762, 0.6900048, 1.998823, 1.703492
 37220939, 26.13812, 2.118344, 1.967578, 1.660155, 26.14925, 2.615076, 1.980399, 1.681436
 37420859, 26.79731, 0.7748129, 1.979472, 1.638185, 26.13812, 2.118344, 1.967578, 1.660155
 37620779, 26.46405, 1.504042, 1.964134, 1.61698, 26.79731, 0.7748129, 1.979472, 1.638185
 37820699, 28.29923, 0.4232416, 2.015065, 1.605715, 26.46405, 1.504042, 1.964134, 1.61698
 38020619, 26.10793, 2.260899, 1.935519, 1.591554, 28.29923, 0.4232416, 2.015065, 1.605715
 38220539, 28.68259, 1.438733, 2.015208, 1.578416, 26.10793, 2.260899, 1.935519, 1.591554
 38420459, 27.25561, 0.7790262, 1.959198, 1.562715, 28.68259, 1.438733, 2.015208, 1.578416
 38620379, 27.07349, -0.2941533, 1.944177, 1.552857, 27.25561, 0.7790262, 1.959198, 1.562715
 38820299, 28.01076, 0.1017302, 1.968842, 1.541456, 27.07349, -0.2941533, 1.944177, 1.552857
 39020219, 27.2623, 1.3405, 1.93928, 1.527578, 28.01076, 0.1017302, 1.968842, 1.541456
 39220972, 26.84516, 1.2504, 1.920807, 1.515856, 27.2623, 1.3405, 1.93928, 1.527578
 39420892, 27.64115, 1.465116, 1.942135, 1.508916, 26.84516, 1.2504, 1.920807, 1.515856
 39620812, 27.62483, 1.722689, 1.936579, 1.500474, 27.64115, 1.465116, 1.942135, 1.508916
 39820732, 27.90049, 0.4960542, 1.939016, 1.494888, 27.62483, 1.722689, 1.936579, 1.500474
 40020652, 26.9137, 0.734612, 1.901197, 1.48599, 27.90049, 0.4960542, 1.939016, 1.494888
 40220572, 27.70038, 0.9084898, 1.922714, 1.482101, 26.9137, 0.734612, 1.901197, 1.48599
 40420492, 26.6286, 0.255108, 1.882687, 1.471928, 27.70038, 0.9084898, 1.922714, 1.482101
 40620412, 27.68722, 0.3459522, 1.915699, 1.468613, 26.6286, 0.255108, 1.882687, 1.471928
 40820332, 26.85289, -0.3349407, 1.883255, 1.463018, 27.68722, 0.3459522, 1.915699, 1.468613
 41020252, 27.54696, 0.08346969, 1.906021, 1.461636, 26.85289, -0.3349407, 1.883255, 1.463018
 41220172, 26.94104, 0.9164017, 1.888762, 1.463995, 27.54696, 0.08346969, 1.906021, 1.461636
 41420925, 28.86052, 0.2639135, 1.958662, 1.472074, 26.94104, 0.9164017, 1.888762, 1.463995
 41620845, 27.95463, 0.08344692, 1.929326, 1.47686, 28.86052, 0.2639135, 1.958662, 1.472074
 41820765, 29.26428, 0.2118311, 1.976473, 1.488342, 27.95463, 0.08344692, 1.929326, 1.47686
 42020685, 28.32904, 1.050719, 1.948854, 1.49184, 29.26428, 0.2118311, 1.976473, 1.488342
 42220605, 27.46543, 0.846012, 1.921999, 1.499293, 28.32904, 1.050719, 1.948854, 1.49184
 42420525, 29.00369, 1.210441, 1.980699, 1.509008, 27.46543, 0.846012, 1.921999, 1.499293
 42620445, 29.06672, 1.863407, 1.987908, 1.518486, 29.00369, 1.210441, 1.980699, 1.509008
 42820365, 27.98603, 2.327485, 1.956648, 1.523551, 29.06672, 1.863407, 1.987908, 1.518486
 43020285, 27.19207, 1.742635, 1.931017, 1.53144, 27.98603, 2.327485, 1.956648, 1.523551
 43220205, 27.56047, 1.979395, 1.946915, 1.542392, 27.19207, 1.742635, 1.931017, 1.53144
 43420958, 27.48982, 0.7908655, 1.947711, 1.551079, 27.56047, 1.979395, 1.946915, 1.542392
 43620878, 28.36614, 2.367723, 1.984247, 1.565413, 27.48982, 0.7908655, 1.947711, 1.551079
 43820798, 28.9323, 0.2317183, 2.004533, 1.579652, 28.36614, 2.367723, 1.984247, 1.565413
 44020718, 29.63976, 0.6858424, 2.032952, 1.594953, 28.9323, 0.2317183, 2.004533, 1.579652
 44220638, 27.30075, 1.086243, 1.952905, 1.610203, 29.63976, 0.6858424, 2.032952, 1.594953
 44420558, 27.28571, 2.685344, 1.942812, 1.663864, 27.30075, 1.086243, 1.952905, 1.610203
 44620478, 27.34006, 2.467084, 1.974425, 1.642581, 27.28571, 2.685344, 1.942812, 1.663864
 44820398, 29.48629, 1.636456, 2.046143, 1.644029, 27.34006, 2.467084, 1.974425, 1.642581
 45020318, 28.08648, 1.052665, 1.984311, 1.682663, 29.48629, 1.636456, 2.046143, 1.644029
 45220238, 27.92471, 1.140476, 1.974959, 1.704287, 28.08648, 1.052665, 1.984311, 1.682663
 45420158, 27.23536, 3.108896, 1.969634, 1.698928, 27.92471, 1.140476, 1.974959, 1.704287
 45620911, 27.57082, 1.479595, 1.995452, 1.692491, 27.23536, 3.108896, 1.969634, 1.698928
 45820831, 29.88049, 1.439354, 2.085329, 1.700203, 27.57082, 1.479595, 1.995452, 1.692491
 46020751, 29.27907, 2.711967, 2.079133, 1.705452, 29.88049, 1.439354, 2.085329, 1.700203
 46220671, 28.67282, 2.116363, 2.066108, 1.713802, 29.27907, 2.711967, 2.079133, 1.705452
 46420591, 27.61619, 2.329116, 2.042743, 1.718728, 28.67282, 2.116363, 2.066108, 1.713802
 46620511, 29.11254, 0.9163214, 2.100514, 1.727789, 27.61619, 2.329116, 2.042743, 1.718728
 46820431, 28.42125, 1.773178, 2.091697, 1.729111, 29.11254, 0.9163214, 2.100514, 1.727789
 47020351, 28.44723, -0.04878747, 2.102099, 1.733481, 28.42125, 1.773178, 2.091697, 1.729111
 47220271, 26.88707, 1.726546, 2.066403, 1.73652, 28.44723, -0.04878747, 2.102099, 1.733481
 47420191, 28.81266, 1.368763, 2.138109, 1.744776, 26.88707, 1.726546, 2.066403, 1.73652
 47620944, 28.31853, 0.9904476, 2.129676, 1.752804, 28.81266, 1.368763, 2.138109, 1.744776
 47820864, 28.42803, 0.3554437, 2.149016, 1.752607, 28.31853, 0.9904476, 2.129676, 1.752804
 48020784, 29.9499, 1.571291, 2.21278, 1.75555, 28.42803, 0.3554437, 2.149016, 1.752607
 48220704, 27.24589, -0.8235831, 2.134348, 1.750858, 29.9499, 1.571291, 2.21278, 1.75555
 48420624, 29.52025, -0.03790861, 2.216795, 1.747117, 27.24589, -0.8235831, 2.134348, 1.750858
 48620544, 27.22818, 0.775398, 2.150582, 1.744544, 29.52025, -0.03790861, 2.216795, 1.747117
 48820464, 29.82719, -1.024587, 2.243206, 1.741052, 27.22818, 0.775398, 2.150582, 1.744544
 49020384, 29.71187, 1.510983, 2.247812, 1.737059, 29.82719, -1.024587, 2.243206, 1.741052
 49220304, 29.38911, 0.9356425, 2.24261, 1.735787, 29.71187, 1.510983, 2.247812, 1.737059
 49420224, 28.45831, -0.2996231, 2.221105, 1.73099, 29.38911, 0.9356425, 2.24261, 1.735787
 49620977, 29.87863, 1.521163, 2.272909, 1.730838, 28.45831, -0.2996231, 2.221105, 1.73099
 49820897, 27.81385, 0.06417716, 2.214208, 1.724588, 29.87863, 1.521163, 2.272909, 1.730838
 50020817, 27.84555, 0.2437794, 2.219939, 1.724585, 27.81385, 0.06417716, 2.214208, 1.724588
 50220737, 27.96256, 0.8479306, 2.231555, 1.722686, 27.84555, 0.2437794, 2.219939, 1.724585
 50420657, 28.81861, 1.407132, 2.263965, 1.725765, 27.96256, 0.8479306, 2.231555, 1.722686
 50620577, 28.69209, 0.6174059, 2.264211, 1.726731, 28.81861, 1.407132, 2.263965, 1.725765
 50820497, 30.33391, -0.7093517, 2.321133, 1.726406, 28.69209, 0.6174059, 2.264211, 1.726731
 51020417, 28.14108, 0.8376915, 2.257057, 1.725319, 30.33391, -0.7093517, 2.321133, 1.726406
 51220337, 27.75918, -0.337851, 2.249959, 1.725642, 28.14108, 0.8376915, 2.257057, 1.725319
 51420257, 28.3979, -1.410246, 2.272383, 1.731109, 27.75918, -0.337851, 2.249959, 1.725642
 51620177, 27.47116, 1.101352, 2.247622, 1.728387, 28.3979, -1.410246, 2.272383, 1.731109
 51820930, 28.27985, -2.710631, 2.323049, 1.660795, 27.47116, 1.101352, 2.247622, 1.728387
 52020850, 29.89317, -2.031552, 2.372618, 1.652161, 28.27985, -2.710631, 2.323049, 1.660795
 52220770, 29.19318, 0.1574043, 2.347669, 1.646369, 29.89317, -2.031552, 2.372618, 1.652161
 52420690, 28.14213, -2.701571, 2.317553, 1.640507, 29.19318, 0.1574043, 2.347669, 1.646369
 52620610, 28.8304, -2.348136, 2.33849, 1.628597, 28.14213, -2.701571, 2.317553, 1.640507
 52820530, 29.97011, -1.161657, 2.375505, 1.61339, 28.8304, -2.348136, 2.33849, 1.628597
 53020450, 27.99375, -1.095018, 2.31017, 1.610065, 29.97011, -1.161657, 2.375505, 1.61339
 53220370, 28.95294, -2.194541, 2.342433, 1.60024, 27.99375, -1.095018, 2.31017, 1.610065
 53420290, 28.20767, -2.294517, 2.319881, 1.591525, 28.95294, -2.194541, 2.342433, 1.60024
 53620210, 30.16523, -2.129277, 2.381306, 1.58073, 28.20767, -2.294517, 2.319881, 1.591525
 53820963, 29.12289, -3.231165, 2.349862, 1.576148, 30.16523, -2.129277, 2.381306, 1.58073
 54020883, 29.57804, -1.018914, 2.363605, 1.561853, 29.12289, -3.231165, 2.349862, 1.576148
 54220803, 28.8535, -0.5210396, 2.340696, 1.554528, 29.57804, -1.018914, 2.363605, 1.561853
 54420723, 30.22716, -2.334862, 2.389918, 1.541903, 28.8535, -0.5210396, 2.340696, 1.554528
 54620643, 27.81391, -0.9698226, 2.309219, 1.540904, 30.22716, -2.334862, 2.389918, 1.541903
 54820563, 27.89018, -1.937708, 2.311407, 1.534604, 27.81391, -0.9698226, 2.309219, 1.540904
 55020483, 28.76798, -2.834042, 2.346649, 1.521979, 27.89018, -1.937708, 2.311407, 1.534604
 55220403, 28.79138, -2.667031, 2.352217, 1.517749, 28.76798, -2.834042, 2.346649, 1.521979
 55420323, 28.25798, -2.023986, 2.339732, 1.516291, 28.79138, -2.667031, 2.352217, 1.517749
 55620243, 29.39403, -2.034534, 2.382765, 1.508392, 28.25798, -2.023986, 2.339732, 1.516291
 55820163, 27.76367, -3.684077, 2.338104, 1.515768, 29.39403, -2.034534, 2.382765, 1.508392
 56020916, 29.65263, -3.042838, 2.402007, 1.507207, 27.76367, -3.684077, 2.338104, 1.515768
 56220836, 28.26651, -3.693902, 2.368102, 1.506365, 29.65263, -3.042838, 2.402007, 1.507207
 56420756, 28.28439, -3.914974, 2.376499, 1.503838, 28.26651, -3.693902, 2.368102, 1.506365
 56620676, 28.1016, -1.373057, 2.36936, 1.503341, 28.28439, -3.914974, 2.376499, 1.503838
 56820596, 27.10146, -3.287471, 2.346443, 1.506279, 28.1016, -1.373057, 2.36936, 1.503341
 57020516, 27.57701, -2.86937, 2.365283, 1.500774, 27.10146, -3.287471, 2.346443, 1.506279
 57220436, 28.08385, -1.973995, 2.384264, 1.496855, 27.57701, -2.86937, 2.365283, 1.500774
 57420356, 29.17761, -3.232006, 2.427257, 1.492459, 28.08385, -1.973995, 2.384264, 1.496855
 57620276, 27.39794, -2.584937, 2.379273, 1.490943, 29.17761, -3.232006, 2.427257, 1.492459
 57820196, 29.47277, -1.661115, 2.447208, 1.485351, 27.39794, -2.584937, 2.379273, 1.490943
 58020949, 27.75647, 0.06985259, 2.299963, 1.636387, 29.47277, -1.661115, 2.447208, 1.485351
 58220869, 28.12091, -1.462456, 2.317066, 1.636003, 27.75647, 0.06985259, 2.299963, 1.636387
 58420789, 28.06988, -1.912286, 2.32103, 1.634506, 28.12091, -1.462456, 2.317066, 1.636003
 58620709, 29.00681, -2.490363, 2.355781, 1.634125, 28.06988, -1.912286, 2.32103, 1.634506
 58820629, 27.76981, -1.352856, 2.322188, 1.634521, 29.00681, -2.490363, 2.355781, 1.634125
 59020549, 28.82168, -0.975068, 2.355932, 1.643312, 27.76981, -1.352856, 2.322188, 1.634521
 59220469, 30.34278, -0.01265121, 2.407484, 1.64887, 28.82168, -0.975068, 2.355932, 1.643312
 59420389, 29.37057, -1.317045, 2.384495, 1.652432, 30.34278, -0.01265121, 2.407484, 1.64887
 59620309, 29.55801, -1.375276, 2.395686, 1.654135, 29.37057, -1.317045, 2.384495, 1.652432
 59820229, 30.01173, -1.338198, 2.414335, 1.658014, 29.55801, -1.375276, 2.395686, 1.654135
 60020149, 28.5074, 0.1265589, 2.369211, 1.665516, 30.01173, -1.338198, 2.414335, 1.658014
 60220902, 29.30918, -2.602523, 2.40719, 1.660408, 28.5074, 0.1265589, 2.369211, 1.665516
 60420822, 28.53129, -3.0702, 2.386416, 1.669356, 29.30918, -2.602523, 2.40719, 1.660408
 60620742, 29.51759, -3.019645, 2.422895, 1.670031, 28.53129, -3.0702, 2.386416, 1.669356
 60820662, 28.69212, -0.8961965, 2.399562, 1.672473, 29.51759, -3.019645, 2.422895, 1.670031
 61020582, 30.05279, -0.7274604, 2.447935, 1.67095, 28.69212, -0.8961965, 2.399562, 1.672473
 61220502, 29.90624, -2.51199, 2.448977, 1.677126, 30.05279, -0.7274604, 2.447935, 1.67095
 61420422, 27.75673, 0.004550099, 2.385008, 1.682332, 29.90624, -2.51199, 2.448977, 1.677126
 61620342, 30.42603, -1.355772, 2.476697, 1.676373, 27.75673, 0.004550099, 2.385008, 1.682332
 61820262, 28.86894, -2.54342, 2.435261, 1.680285, 30.42603, -1.355772, 2.476697, 1.676373
 62020182, 28.26583, -1.10669, 2.415806, 1.685798, 28.86894, -2.54342, 2.435261, 1.680285
 62220935, 28.38655, -0.7153758, 2.420722, 1.687461, 28.26583, -1.10669, 2.415806, 1.685798
 62420855, 29.797, -1.552029, 2.469129, 1.683652, 28.38655, -0.7153758, 2.420722, 1.687461
 62620775, 30.33334, -1.408028, 2.491128, 1.681684, 29.797, -1.552029, 2.469129, 1.683652
 62820695, 28.06755, -2.816986, 2.424137, 1.694931, 30.33334, -1.408028, 2.491128, 1.681684
 63020615, 29.81312, -2.672128, 2.485049, 1.688462, 28.06755, -2.816986, 2.424137, 1.694931
 63220535, 28.65301, -0.2314382, 2.449103, 1.692029, 29.81312, -2.672128, 2.485049, 1.688462
 63420455, 27.52097, -3.448966, 2.424602, 1.6941, 28.65301, -0.2314382, 2.449103, 1.692029
 63620375, 28.43068, -2.080422, 2.451674, 1.692485, 27.52097, -3.448966, 2.424602, 1.6941
 63820295, 27.3913, -0.5965495, 2.422417, 1.696264, 28.43068, -2.080422, 2.451674, 1.692485
 64020215, 30.4606, -0.3756371, 2.521476, 1.690276, 27.3913, -0.5965495, 2.422417, 1.696264
 64220968, 30.26514, -0.2687247, 2.517196, 1.695401, 30.4606, -0.3756371, 2.521476, 1.690276
 64420888, 27.39402, -3.050251, 2.442617, 1.696508, 30.26514, -0.2687247, 2.517196, 1.695401
 64620808, 30.24097, -1.690488, 2.529594, 1.690897, 27.39402, -3.050251, 2.442617, 1.696508
 64820728, 30.20894, -3.643908, 2.536592, 1.692989, 30.24097, -1.690488, 2.529594, 1.690897
 65020648, 29.86493, -2.991289, 2.530013, 1.694172, 30.20894, -3.643908, 2.536592, 1.692989
 65220568, 29.67352, -2.40866, 2.52758, 1.695484, 29.86493, -2.991289, 2.530013, 1.694172
 65420488, 27.11555, -1.734632, 2.455845, 1.702106, 29.67352, -2.40866, 2.52758, 1.695484
 65620408, 27.80262, -1.139391, 2.479733, 1.704764, 27.11555, -1.734632, 2.455845, 1.702106
 65820328, 27.68432, -0.2718123, 2.48069, 1.708002, 27.80262, -1.139391, 2.479733, 1.704764
 66020248, 29.44482, -3.219568, 2.545401, 1.704343, 27.68432, -0.2718123, 2.48069, 1.708002
 66220168, 29.37335, -1.684025, 2.546362, 1.704602, 29.44482, -3.219568, 2.545401, 1.704343
 66420921, 30.52708, -2.390001, 2.586656, 1.705268, 29.37335, -1.684025, 2.546362, 1.704602
 66620841, 28.04185, -2.405734, 2.5172, 1.714016, 30.52708, -2.390001, 2.586656, 1.705268
 66820761, 28.84323, -0.5530618, 2.543151, 1.716038, 28.04185, -2.405734, 2.5172, 1.714016
 67020681, 30.45279, -4.2075, 2.60857, 1.709909, 28.84323, -0.5530618, 2.543151, 1.716038
 67220601, 28.99242, -0.9076071, 2.561941, 1.716385, 30.45279, -4.2075, 2.60857, 1.709909
 67420521, 27.57934, -3.289038, 2.532187, 1.719167, 28.99242, -0.9076071, 2.561941, 1.716385
 67620441, 27.85126, -0.6521643, 2.537986, 1.723379, 27.57934, -3.289038, 2.532187, 1.719167
 67820361, 27.78659, -0.959306, 2.543116, 1.723477, 27.85126, -0.6521643, 2.537986, 1.723379
 68020281, 29.54705, -1.059402, 2.602866, 1.720595, 27.78659, -0.959306, 2.543116, 1.723477
 68220201, 30.00312, -3.792245, 2.632446, 1.717019, 29.54705, -1.059402, 2.602866, 1.720595
 68420954, 30.31611, -2.393927, 2.646163, 1.715757, 30.00312, -3.792245, 2.632446, 1.717019
 68620874, 28.15007, -1.665542, 2.58301, 1.727154, 30.31611, -2.393927, 2.646163, 1.715757
 68820794, 28.33995, -3.549951, 2.603119, 1.723364, 28.15007, -1.665542, 2.58301, 1.727154
 69020714, 29.97909, -4.124327, 2.656589, 1.722112, 28.33995, -3.549951, 2.603119, 1.723364
 69220634, 27.58736, -2.715003, 2.587592, 1.727778, 29.97909, -4.124327, 2.656589, 1.722112
 69420554, 27.72, -4.180016, 2.602249, 1.72644, 27.58736, -2.715003, 2.587592, 1.727778
 69620474, 28.75525, -1.588934, 2.630749, 1.721883, 27.72, -4.180016, 2.602249, 1.72644
 69820394, 29.50117, -3.646253, 2.660075, 1.718608, 28.75525, -1.588934, 2.630749, 1.721883
 70020314, 29.26329, -3.570392, 2.653842, 1.71842, 29.50117, -3.646253, 2.660075, 1.718608
 70220234, 29.79832, -2.446431, 2.672837, 1.711128, 29.26329, -3.570392, 2.653842, 1.71842
 70420154, 27.10955, -3.630099, 2.602518, 1.715714, 29.79832, -2.446431, 2.672837, 1.711128
 70620907, 29.95147, -2.826714, 2.685665, 1.705345, 27.10955, -3.630099, 2.602518, 1.715714
 70820827, 27.64228, -4.277694, 2.626615, 1.710835, 29.95147, -2.826714, 2.685665, 1.705345
 71020747, 27.98953, -3.033728, 2.634604, 1.707801, 27.64228, -4.277694, 2.626615, 1.710835
 71220667, 30.45371, -4.289155, 2.716508, 1.694026, 27.98953, -3.033728, 2.634604, 1.707801
 71420587, 28.3038, -2.916311, 2.652998, 1.695264, 30.45371, -4.289155, 2.716508, 1.694026
 71620507, 27.44172, -4.70179, 2.634682, 1.699023, 28.3038, -2.916311, 2.652998, 1.695264
 71820427, 30.48443, -1.682773, 2.717309, 1.689625, 27.44172, -4.70179, 2.634682, 1.699023
 72020347, 26.96539, -4.351918, 2.628615, 1.694978, 30.48443, -1.682773, 2.717309, 1.689625
 72220267, 29.30457, -4.394607, 2.703775, 1.679437, 26.96539, -4.351918, 2.628615, 1.694978
 72420187, 27.51059, -4.373508, 2.654478, 1.683608, 29.30457, -4.394607, 2.703775, 1.679437
 72620940, 27.41644, -2.996514, 2.649096, 1.680683, 27.51059, -4.373508, 2.654478, 1.683608
 72820860, 30.2704, -4.595627, 2.739062, 1.667505, 27.41644, -2.996514, 2.649096, 1.680683
 73020780, 28.79552, -4.602609, 2.697351, 1.670533, 30.2704, -4.595627, 2.739062, 1.667505
 73220700, 28.13173, -1.768338, 2.670772, 1.671727, 28.79552, -4.602609, 2.697351, 1.670533
 73420620, 29.60665, -1.965343, 2.717989, 1.6592, 28.13173, -1.768338, 2.670772, 1.671727
 73620540, 29.19068, -3.94412, 2.713623, 1.656578, 29.60665, -1.965343, 2.717989, 1.6592
 73820460, 30.13321, -5.792281, 2.752424, 1.643463, 29.19068, -3.94412, 2.713623, 1.656578
 74020380, 27.49895, -4.351006, 2.672488, 1.647652, 30.13321, -5.792281, 2.752424, 1.643463
 74220300, 28.60215, -3.31926, 2.702253, 1.639276, 27.49895, -4.351006, 2.672488, 1.647652
 74420220, 29.47675, -3.429268, 2.730112, 1.631525, 28.60215, -3.31926, 2.702253, 1.639276
 74620973, 26.89502, -5.571479, 2.669855, 1.633994, 29.47675, -3.429268, 2.730112, 1.631525
 74820893, 30.29528, -3.991211, 2.761013, 1.620512, 26.89502, -5.571479, 2.669855, 1.633994
 75020813, 29.47029, -5.483198, 2.746991, 1.617506, 30.29528, -3.991211, 2.761013, 1.620512
 75220733, 27.79348, -5.677055, 2.701042, 1.6171, 29.47029, -5.483198, 2.746991, 1.617506
 75420653, 28.16273, -3.96693, 2.704793, 1.610988, 27.79348, -5.677055, 2.701042, 1.6171
 75620573, 27.41966, -2.565988, 2.680688, 1.611844, 28.16273, -3.96693, 2.704793, 1.610988
 75820493, 29.2675, -4.262441, 2.741661, 1.599484, 27.41966, -2.565988, 2.680688, 1.611844
 76020413, 27.01279, -3.786726, 2.677611, 1.602227, 29.2675, -4.262441, 2.741661, 1.599484
 76220333, 28.76825, -5.884957, 2.73925, 1.58863, 27.01279, -3.786726, 2.677611, 1.602227
 76420253, 28.13797, -5.871047, 2.720092, 1.590831, 28.76825, -5.884957, 2.73925, 1.58863
 76620173, 29.52827, -3.410347, 2.754201, 1.573212, 28.13797, -5.871047, 2.720092, 1.590831
 76820926, 29.22288, -3.317037, 2.746321, 1.571475, 29.52827, -3.410347, 2.754201, 1.573212
 77020846, 29.80589, -5.309886, 2.777355, 1.557354, 29.22288, -3.317037, 2.746321, 1.571475
 77220766, 28.45326, -3.332223, 2.727711, 1.564089, 29.80589, -5.309886, 2.777355, 1.557354
 77420686, 28.69462, -4.472339, 2.740062, 1.554297, 28.45326, -3.332223, 2.727711, 1.564089
 77620606, 29.46132, -3.594725, 2.759769, 1.542436, 28.69462, -4.472339, 2.740062, 1.554297
 77820526, 27.29805, -3.239552, 2.697536, 1.546001, 29.46132, -3.594725, 2.759769, 1.542436
 78020446, 27.32164, -6.452536, 2.713704, 1.537912, 27.29805, -3.239552, 2.697536, 1.546001
 78220366, 29.12419, -3.175544, 2.750568, 1.526562, 27.32164, -6.452536, 2.713704, 1.537912
 78420286, 29.29961, -5.864995, 2.770189, 1.518977, 29.12419, -3.175544, 2.750568, 1.526562
 78620206, 27.03813, -6.33323, 2.708977, 1.524278, 29.29961, -5.864995, 2.770189, 1.518977
 78820959, 28.33025, -6.086386, 2.74671, 1.509518, 27.03813, -6.33323, 2.708977, 1.524278
 79020879, 29.71638, -3.461225, 2.77314, 1.50106, 28.33025, -6.086386, 2.74671, 1.509518
 79220799, 28.81473, -3.56665, 2.749768, 1.499189, 29.71638, -3.461225, 2.77314, 1.50106
 79420719, 26.75378, -6.353275, 2.707428, 1.503734, 28.81473, -3.56665, 2.749768, 1.499189
 79620639, 30.58012, -3.802599, 2.807041, 1.481102, 26.75378, -6.353275, 2.707428, 1.503734
 79820559, 27.44689, -5.717999, 2.728836, 1.491075, 30.58012, -3.802599, 2.807041, 1.481102
 80020479, 27.64591, -6.795, 2.743649, 1.48982, 27.44689, -5.717999, 2.728836, 1.491075
 80220399, 29.89341, -5.325138, 2.805459, 1.468598, 27.64591, -6.795, 2.743649, 1.48982
 80420319, 30.26602, -4.856708, 2.817822, 1.464782, 29.89341, -5.325138, 2.805459, 1.468598
 80620239, 28.32589, -4.114074, 2.759178, 1.476624, 30.26602, -4.856708, 2.817822, 1.464782
 80820159, 27.74044, -4.783072, 2.749679, 1.475555, 28.32589, -4.114074, 2.759178, 1.476624
 81020912, 29.58214, -6.504618, 2.816187, 1.459599, 27.74044, -4.783072, 2.749679, 1.475555
 81220832, 28.23645, -4.768334, 2.772579, 1.466534, 29.58214, -6.504618, 2.816187, 1.459599
 81420752, 28.90992, -5.39855, 2.799169, 1.459269, 28.23645, -4.768334, 2.772579, 1.466534
 81620672, 27.43503, -5.227367, 2.762712, 1.461758, 28.90992, -5.39855, 2.799169, 1.459269
 81820592, 28.9884, -6.907045, 2.819903, 1.453797, 27.43503, -5.227367, 2.762712, 1.461758
 82020512, 28.18848, -5.784752, 2.797642, 1.454598, 28.9884, -6.907045, 2.819903, 1.453797
 82220432, 29.22946, -6.298617, 2.834899, 1.442997, 28.18848, -5.784752, 2.797642, 1.454598
 82420352, 27.82847, -7.431018, 2.806204, 1.44819, 29.22946, -6.298617, 2.834899, 1.442997
 82620272, 29.03658, -6.438999, 2.839176, 1.435584, 27.82847, -7.431018, 2.806204, 1.44819
 82820192, 26.77025, -4.956597, 2.770844, 1.445692, 29.03658, -6.438999, 2.839176, 1.435584
 83020945, 28.2937, -5.891025, 2.819766, 1.435122, 26.77025, -4.956597, 2.770844, 1.445692
 83220865, 28.23857, -5.146189, 2.817437, 1.434087, 28.2937, -5.891025, 2.819766, 1.435122
 83420785, 26.76254, -7.116911, 2.790903, 1.4376, 28.23857, -5.146189, 2.817437, 1.434087
 83620705, 27.82044, -4.465529, 2.809284, 1.432277, 26.76254, -7.116911, 2.790903, 1.4376
 83820625, 29.84912, -5.48291, 2.878196, 1.411951, 27.82044, -4.465529, 2.809284, 1.432277
 84020545, 27.71735, -5.675555, 2.821749, 1.422636, 29.84912, -5.48291, 2.878196, 1.411951
 84220465, 29.47955, -6.38218, 2.87862, 1.404202, 27.71735, -5.675555, 2.821749, 1.422636
 84420385, 29.76676, -7.250061, 2.895854, 1.394294, 29.47955, -6.38218, 2.87862, 1.404202
 84620305, 30.05717, -4.932991, 2.893138, 1.390849, 29.76676, -7.250061, 2.895854, 1.394294
 84820225, 26.8264, -6.818984, 2.818337, 1.406431, 30.05717, -4.932991, 2.893138, 1.390849
 85020145, 28.99772, -4.933099, 2.871636, 1.392706, 26.8264, -6.818984, 2.818337, 1.406431
 85220898, 26.63105, -6.168201, 2.815809, 1.405016, 28.99772, -4.933099, 2.871636, 1.392706
 85420818, 27.16084, -8.084127, 2.846691, 1.396196, 26.63105, -6.168201, 2.815809, 1.405016
 85620738, 28.80245, -5.421447, 2.879733, 1.382278, 27.16084, -8.084127, 2.846691, 1.396196
 85820658, 26.46778, -7.436147, 2.831787, 1.390943, 28.80245, -5.421447, 2.879733, 1.382278
 86020578, 29.20039, -6.790404, 2.905411, 1.372873, 26.46778, -7.436147, 2.831787, 1.390943
 86220498, 29.90848, -7.144989, 2.929949, 1.363583, 29.20039, -6.790404, 2.905411, 1.372873
 86420418, 29.59165, -7.201867, 2.92384, 1.360268, 29.90848, -7.144989, 2.929949, 1.363583
 86620338, 29.28552, -7.933299, 2.922656, 1.356552, 29.59165, -7.201867, 2.92384, 1.360268
 86820258, 29.98977, -6.40254, 2.935664, 1.350897, 29.28552, -7.933299, 2.922656, 1.356552
 87020178, 26.67756, -7.091682, 2.851521, 1.369648, 29.98977, -6.40254, 2.935664, 1.350897
 87220931, 27.40695, -5.855992, 2.865813, 1.361365, 26.67756, -7.091682, 2.851521, 1.369648
 87420851, 28.22802, -6.371718, 2.893651, 1.352058, 27.40695, -5.855992, 2.865813, 1.361365
 87620771, 28.74367, -8.648565, 2.928282, 1.340899, 28.22802, -6.371718, 2.893651, 1.352058
 87820691, 29.74011, -7.891221, 2.953723, 1.329729, 28.74367, -8.648565, 2.928282, 1.340899
 88020611, 26.91536, -7.952302, 2.880989, 1.345295, 29.74011, -7.891221, 2.953723, 1.329729
 88220531, 27.40167, -7.219494, 2.891053, 1.341013, 26.91536, -7.952302, 2.880989, 1.345295
 88420451, 28.04742, -8.644848, 2.922498, 1.327586, 27.40167, -7.219494, 2.891053, 1.341013
 88620371, 26.88104, -6.702427, 2.877514, 1.338019, 28.04742, -8.644848, 2.922498, 1.327586
 88820291, 26.81197, -8.560663, 2.893186, 1.331296, 26.88104, -6.702427, 2.877514, 1.338019
 89020211, 28.11503, -5.697227, 2.911686, 1.32401, 26.81197, -8.560663, 2.893186, 1.331296
 89220964, 28.04791, -6.09888, 2.914271, 1.322818, 28.11503, -5.697227, 2.911686, 1.32401
 89420884, 26.61942, -5.693292, 2.879753, 1.325597, 28.04791, -6.09888, 2.914271, 1.322818
 89620804, 28.59318, -6.141794, 2.937041, 1.307845, 26.61942, -5.693292, 2.879753, 1.325597
 89820724, 27.98481, -8.423815, 2.938572, 1.299483, 28.59318, -6.141794, 2.937041, 1.307845
 90020644, 28.83433, -6.580438, 2.94487, 1.293841, 27.98481, -8.423815, 2.938572, 1.299483
 90220564, 27.77616, -7.125557, 2.917541, 1.291589, 28.83433, -6.580438, 2.94487, 1.293841
 90420484, 29.17106, -9.750299, 2.975062, 1.266651, 27.77616, -7.125557, 2.917541, 1.291589
 90620404, 26.07521, -8.488104, 2.878539, 1.284922, 29.17106, -9.750299, 2.975062, 1.266651
 90820324, 29.00372, -6.130559, 2.93653, 1.262486, 26.07521, -8.488104, 2.878539, 1.284922
 91020244, 27.49903, -9.477346, 2.918219, 1.257287, 29.00372, -6.130559, 2.93653, 1.262486
 91220164, 26.70798, -8.462636, 2.884845, 1.256469, 27.49903, -9.477346, 2.918219, 1.257287
 91420917, 25.76625, -8.814251, 2.860791, 1.252415, 26.70798, -8.462636, 2.884845, 1.256469
 91620837, 27.15199, -6.229433, 2.874334, 1.240333, 25.76625, -8.814251, 2.860791, 1.252415
 91820757, 26.92825, -6.214832, 2.862514, 1.237594, 27.15199, -6.229433, 2.874334, 1.240333
 92020677, 28.85279, -10.27537, 2.943674, 1.203336, 26.92825, -6.214832, 2.862514, 1.237594
 92220597, 27.34155, -5.92121, 2.863369, 1.218499, 28.85279, -10.27537, 2.943674, 1.203336
 92420517, 25.92138, -8.825855, 2.844908, 1.212857, 27.34155, -5.92121, 2.863369, 1.218499
 92620437, 28.27753, -8.261405, 2.901389, 1.184607, 25.92138, -8.825855, 2.844908, 1.212857
 92820357, 27.18801, -6.264737, 2.853221, 1.189462, 28.27753, -8.261405, 2.901389, 1.184607
 93020277, 29.97591, -7.030569, 2.928576, 1.162953, 27.18801, -6.264737, 2.853221, 1.189462
 93220197, 28.36354, -9.671238, 2.9025, 1.1551, 29.97591, -7.030569, 2.928576, 1.162953
 93420950, 27.18595, -6.280655, 2.841002, 1.179982, 28.36354, -9.671238, 2.9025, 1.1551
 93620870, 29.14517, -6.95115, 2.9089, 1.159033, 27.18595, -6.280655, 2.841002, 1.179982
 93820790, 27.22324, -9.659951, 2.888794, 1.164379, 29.14517, -6.95115, 2.9089, 1.159033
 94020710, 28.70352, -8.751833, 2.928551, 1.15587, 27.22324, -9.659951, 2.888794, 1.164379
 94220630, 25.64692, -9.278883, 2.859798, 1.180902, 28.70352, -8.751833, 2.928551, 1.15587
 94420550, 28.35212, -7.411448, 2.925596, 1.16278, 25.64692, -9.278883, 2.859798, 1.180902
 94620470, 28.78964, -9.348555, 2.964921, 1.148297, 28.35212, -7.411448, 2.925596, 1.16278
 94820390, 27.30494, -7.154373, 2.912955, 1.17177, 28.78964, -9.348555, 2.964921, 1.148297
 95020310, 26.05517, -9.31942, 2.903279, 1.176305, 27.30494, -7.154373, 2.912955, 1.17177
 95220230, 28.296, -10.66129, 2.981177, 1.149992, 26.05517, -9.31942, 2.903279, 1.176305
 95420150, 29.70661, -7.791609, 2.999019, 1.146058, 28.296, -10.66129, 2.981177, 1.149992
 95620903, 25.95931, -8.45758, 2.91214, 1.169859, 29.70661, -7.791609, 2.999019, 1.146058
 95820823, 26.92768, -8.694572, 2.945712, 1.158152, 25.95931, -8.45758, 2.91214, 1.169859
 96020743, 26.40145, -8.585671, 2.936369, 1.167582, 26.92768, -8.694572, 2.945712, 1.158152
 96220663, 26.6115, -10.55814, 2.964745, 1.162121, 26.40145, -8.585671, 2.936369, 1.167582
 96420583, 26.11686, -7.779441, 2.934423, 1.168247, 26.6115, -10.55814, 2.964745, 1.162121
 96620503, 25.51087, -9.522687, 2.938257, 1.167853, 26.11686, -7.779441, 2.934423, 1.168247
 96820423, 29.08551, -8.0068, 3.022978, 1.140307, 25.51087, -9.522687, 2.938257, 1.167853
 97020343, 28.10222, -8.39445, 3.002726, 1.151542, 29.08551, -8.0068, 3.022978, 1.140307
 97220263, 28.57808, -9.280531, 3.028219, 1.143733, 28.10222, -8.39445, 3.002726, 1.151542
 97420183, 26.60741, -9.195104, 2.982039, 1.160629, 28.57808, -9.280531, 3.028219, 1.143733
 97620936, 26.60368, -8.842921, 2.984969, 1.157624, 26.60741, -9.195104, 2.982039, 1.160629
 97820856, 25.59555, -9.403955, 2.971633, 1.162787, 26.60368, -8.842921, 2.984969, 1.157624
 98020776, 28.04323, -7.719388, 3.026191, 1.145381, 25.59555, -9.403955, 2.971633, 1.162787
 98220696, 25.24896, -10.02682, 2.981277, 1.161755, 28.04323, -7.719388, 3.026191, 1.145381
 98420616, 27.8928, -10.30654, 3.056185, 1.139742, 25.24896, -10.02682, 2.981277, 1.161755
 98620536, 26.80335, -7.259854, 3.011817, 1.151898, 27.8928, -10.30654, 3.056185, 1.139742
 98820456, 27.50668, -10.80757, 3.065102, 1.139474, 26.80335, -7.259854, 3.011817, 1.151898
 99020376, 27.40091, -7.61622, 3.042604, 1.155195, 27.50668, -10.80757, 3.065102, 1.139474
 99220296, 26.88893, -8.001842, 3.042297, 1.160457, 27.40091, -7.61622, 3.042604, 1.155195
 99420216, 26.48429, -9.166144, 3.053655, 1.156404, 26.88893, -8.001842, 3.042297, 1.160457
 99620969, 26.83072, -8.002039, 3.061553, 1.162093, 26.48429, -9.166144, 3.053655, 1.156404
 99820889, 26.10664, -9.664587, 3.068636, 1.164886, 26.83072, -8.002039, 3.061553, 1.162093
 100020809, 28.35026, -10.12967, 3.138851, 1.149672, 26.10664, -9.664587, 3.068636, 1.164886
 100220729, 28.05047, -8.497546, 3.128457, 1.158381, 28.35026, -10.12967, 3.138851, 1.149672
 100420649, 29.46658, -8.611739, 3.177489, 1.149168, 28.05047, -8.497546, 3.128457, 1.158381
 100620569, 25.89508, -9.181581, 3.102519, 1.181622, 29.46658, -8.611739, 3.177489, 1.149168
 100820489, 26.28683, -10.36668, 3.13114, 1.173619, 25.89508, -9.181581, 3.102519, 1.181622
 101020409, 26.65212, -10.24195, 3.150521, 1.167839, 26.28683, -10.36668, 3.13114, 1.173619
 101220329, 27.45634, -11.27462, 3.191409, 1.158966, 26.65212, -10.24195, 3.150521, 1.167839
 101420249, 26.53456, -8.193916, 3.151238, 1.180379, 27.45634, -11.27462, 3.191409, 1.158966
 101620169, 27.38295, -11.63486, 3.211136, 1.168017, 26.53456, -8.193916, 3.151238, 1.180379
 101820922, 28.25028, -9.774602, 3.225846, 1.164423, 27.38295, -11.63486, 3.211136, 1.168017
 102020842, 28.70937, -10.88686, 3.257667, 1.156317, 28.25028, -9.774602, 3.225846, 1.164423
 102220762, 24.90117, -10.73142, 3.175105, 1.191351, 28.70937, -10.88686, 3.257667, 1.156317
 102420682, 26.90344, -11.228, 3.238901, 1.171709, 24.90117, -10.73142, 3.175105, 1.191351
 102620602, 27.78195, -8.135533, 3.243807, 1.179807, 26.90344, -11.228, 3.238901, 1.171709
 102820522, 24.86309, -10.56083, 3.206592, 1.197298, 27.78195, -8.135533, 3.243807, 1.179807
 103020442, 26.48075, -9.601086, 3.246855, 1.186079, 24.86309, -10.56083, 3.206592, 1.197298
 103220362, 26.79569, -8.012386, 3.251211, 1.195616, 26.48075, -9.601086, 3.246855, 1.186079
 103420282, 28.60159, -11.30719, 3.335189, 1.16565, 26.79569, -8.012386, 3.251211, 1.195616
 103620202, 25.58324, -9.983934, 3.262244, 1.203697, 28.60159, -11.30719, 3.335189, 1.16565
 103820955, 26.89942, -11.76498, 3.32214, 1.188564, 25.58324, -9.983934, 3.262244, 1.203697
 104020875, 26.80172, -8.721345, 3.304612, 1.202456, 26.89942, -11.76498, 3.32214, 1.188564
 104220795, 29.05648, -10.34275, 3.38218, 1.175793, 26.80172, -8.721345, 3.304612, 1.202456
 104420715, 27.18833, -9.921521, 3.32925, 1.188055, 29.05648, -10.34275, 3.38218, 1.175793
 104620635, 29.40986, -9.615873, 3.368287, 1.162951, 27.18833, -9.921521, 3.32925, 1.188055
 104820555, 25.58192, -8.760771, 3.260438, 1.184028, 29.40986, -9.615873, 3.368287, 1.162951
 105020475, 27.58263, -8.967303, 3.298293, 1.154109, 25.58192, -8.760771, 3.260438, 1.184028
 105220395, 28.58865, -12.36662, 3.344171, 1.122318, 27.58263, -8.967303, 3.298293, 1.154109
 105420315, 25.82831, -11.96582, 3.266219, 1.13743, 28.58865, -12.36662, 3.344171, 1.122318
 105620235, 29.30176, -9.340894, 3.318048, 1.101422, 25.82831, -11.96582, 3.266219, 1.13743
 105820155, 25.87356, -9.776392, 3.23116, 1.120022, 29.30176, -9.340894, 3.318048, 1.101422
 106020908, 27.16827, -10.70206, 3.263191, 1.093646, 25.87356, -9.776392, 3.23116, 1.120022
 106220828, 25.58981, -9.247854, 3.206689, 1.106233, 27.16827, -10.70206, 3.263191, 1.093646
 106420748, 28.95446, -9.560832, 3.28389, 1.067326, 25.58981, -9.247854, 3.206689, 1.106233
 106620668, 25.77655, -9.153461, 3.197498, 1.090142, 28.95446, -9.560832, 3.28389, 1.067326
 106820588, 27.31479, -11.78754, 3.251365, 1.060158, 25.77655, -9.153461, 3.197498, 1.090142
 107020508, 26.33772, -10.79142, 3.211233, 1.070313, 27.31479, -11.78754, 3.251365, 1.060158
 107220428, 24.95104, -10.58697, 3.17467, 1.07243, 26.33772, -10.79142, 3.211233, 1.070313
 107420348, 27.90232, -12.82256, 3.263515, 1.028424, 24.95104, -10.58697, 3.17467, 1.07243
 107620268, 28.44593, -12.09889, 3.266765, 1.017419, 27.90232, -12.82256, 3.263515, 1.028424
 107820188, 26.08121, -9.452662, 3.182731, 1.046888, 28.44593, -12.09889, 3.266765, 1.017419
 108020941, 27.35458, -9.970277, 3.218467, 1.029641, 26.08121, -9.452662, 3.182731, 1.046888
 108220861, 28.73194, -10.36335, 3.252848, 1.023616, 27.35458, -9.970277, 3.218467, 1.029641
 108420781, 26.55361, -12.47139, 3.242046, 1.012639, 28.73194, -10.36335, 3.252848, 1.023616
 108620701, 24.83949, -12.02546, 3.349204, 1.08012, 26.55361, -12.47139, 3.242046, 1.012639
 108820621, 26.10373, -15.09145, 3.820383, 1.249401, 24.83949, -12.02546, 3.349204, 1.08012
 109020541, 25.7057, -12.76599, 4.706708, 1.452417, 26.10373, -15.09145, 3.820383, 1.249401
 109220461, 15.62793, -10.80586, 5.365265, 1.296289, 25.7057, -12.76599, 4.706708, 1.452417
