TimeUS,CGpN,CGpE,CGpD,CGpe,PGpN,PGpE,PGpD,PGpe
 8040949, 0, 0, 0, 2.5, 0, 0, 0, 0
 8220877, 0, 0, 0, 2.5, 0, 0, 0, 2.5
 8420797, 0, 0, 0, 2.5, 0, 0, 0, 2.5
 8620717, 0, 0, 0, 2.5, 0, 0, 0, 2.5
 8820637, 0, 0, 0, 2.5, 0, 0, 0, 2.5
 9020557, 0, 0, 0, 2.5, 0, 0, 0, 2.5
 9220477, 0, 0, 0, 2.5, 0, 0, 0, 2.5
 9420397, 0, 0, 0, 2.5, 0, 0, 0, 2.5
 9620317, 0, 0, 0, 2.5, 0, 0, 0, 2.5
 9820237, 0, 0, 0, 2.5, 0, 0, 0, 2.5
 10020157, 0, 0, 0, 2.5, 0, 0, 0, 2.5
 10220910, 0, 0, 0, 2.5, 0, 0, 0, 2.5
 10420830, 0, 0, 0, 2.5, 0, 0, 0, 2.5
 10620750, 0, 0, 0, 2.5, 0, 0, 0, 2.5
 10820670, 0, 0, 0, 2.5, 0, 0, 0, 2.5
 11020590, 0, 0, 0, 2.5, 0, 0, 0, 2.5
 11220510, 0, 0, 0, 2.5, 0, 0, 0, 2.5
 11420430, 0, 0, 0, 2.5, 0, 0, 0, 2.5
 11620350, 0, 0, 0, 2.5, 0, 0, 0, 2.5
 11820270, 0, 0, 0, 2.5, 0, 0, 0, 2.5
 12020190, 0, 0, 0, 2.5, 0, 0, 0, 2.5
 12220943, 0, 0, 0, 2.5, 0, 0, 0, 2.5
 12420863, 0, 0, 0, 2.5, 0, 0, 0, 2.5
 12620783, 0, 0, 0, 2.5, 0, 0, 0, 2.5
 12820703, 0, 0, 0, 2.5, 0, 0, 0, 2.5
 13020623, 0, 0, 0, 2.5, 0, 0, 0, 2.5
 13220543, 0, 0, 0, 2.5, 0, 0, 0, 2.5
 13420463, 0, 0, 0, 2.5, 0, 0, 0, 2.5
 13620383, 0, 0, 0, 2.5, 0, 0, 0, 2.5
 13820303, 0, 0, 0, 2.5, 0, 0, 0, 2.5
 14020223, 0, 0, 0, 2.5, 0, 0, 0, 2.5
 14220976, 0, 0, 0, 2.5, 0, 0, 0, 2.5
 14420896, 0, 0, 0, 2.5, 0, 0, 0, 2.5
 14620816, 0, 0, 0, 2.5, 0, 0, 0, 2.5
 14820736, 0, 0, 0, 2.5, 0, 0, 0, 2.5
 15020656, 0, 0, 0, 2.5, 0, 0, 0, 2.5
 15220576, 0, 0, 0, 2.5, 0, 0, 0, 2.5
 15420496, 0, 0, 0, 2.5, 0, 0, 0, 2.5
 15620416, 0, 0, 0, 2.5, 0, 0, 0, 2.5
 15820336, 0, 0, 0, 2.5, 0, 0, 0, 2.5
 16020256, 0, 0, 0, 2.5, 0, 0, 0, 2.5
 16220176, 0, 0, 0, 2.5, 0, 0, 0, 2.5
 16420929, 0, 0, 0, 2.5, 0, 0, 0, 2.5
 16620849, 0, 0, 0, 2.5, 0, 0, 0, 2.5
 16820769, 0, 0, 0, 2.5, 0, 0, 0, 2.5
 17020689, 0, 0, 0, 2.5, 0, 0, 0, 2.5
 17220609, 0, 0, 0, 2.5, 0, 0, 0, 2.5
 17420529, 0, 0, 0, 2.5, 0, 0, 0, 2.5
 17620449, 0, 0, 0, 2.5, 0, 0, 0, 2.5
 17820369, 0, 0, 0, 2.5, 0, 0, 0, 2.5
 18020289, 0, 0, 0, 2.5, 0, 0, 0, 2.5
 18220209, 0, 0, 0, 2.5, 0, 0, 0, 2.5
 18420962, 0, 0, 0, 2.5, 0, 0, 0, 2.5
 18620882, 0, 0, 0, 2.5, 0, 0, 0, 2.5
 18820802, 0, 0, 0, 2.5, 0, 0, 0, 2.5
 19020722, 0, 0, 0, 2.5, 0, 0, 0, 2.5
 19220642, 0, 0, 0, 2.5, 0, 0, 0, 2.5
 19420562, 0, 0, 0, 2.5, 0, 0, 0, 2.5
 19620482, 0, 0, 0, 2.5, 0, 0, 0, 2.5
 19820402, 0, 0, 0, 2.5, 0, 0, 0, 2.5
 20020322, 0, 0, 0, 2.5, 0, 0, 0, 2.5
 20220242, 0, 0, 0, 2.5, 0, 0, 0, 2.5
 20420162, 0, 0, 0, 2.5, 0, 0, 0, 2.5
 20620915, 0, 0, 0, 2.5, 0, 0, 0, 2.5
 20820835, 0.01, -0.001, 0, 2.5, 0, 0, 0, 2.5
 21020755, 0.251, -0.026, 0, 2.5, 0.01, -0.001, 0, 2.5
 21220675, 0.943, -0.09900001, 0.012, 2.5, 0.251, -0.026, 0, 2.5
 21420595, 2.108, -0.22, 0.038, 2.5, 0.943, -0.09900001, 0.012, 2.5
 21620515, 3.719, -0.391, 0.07600001, 2.5, 2.108, -0.22, 0.038, 2.5
 21820435, 5.726, -0.6020001, 0.126, 2.5, 3.719, -0.391, 0.07600001, 2.5
 22020355, 7.846, -0.8240001, 0.185, 2.5, 5.726, -0.6020001, 0.126, 2.5
 22220275, 9.822001, -1.033, 0.244, 2.5, 7.846, -0.8240001, 0.185, 2.5
 22420195, 11.589, -1.218, 0.278, 2.5, 9.822001, -1.033, 0.244, 2.5
 22620948, 13.135, -1.378, 0.207, 2.5, 11.589, -1.218, 0.278, 2.5
 22820868, 14.475, -1.522, 0.273, 2.5, 13.135, -1.378, 0.207, 2.5
 23020788, 16.232, -1.704, -0.396, 2.5, 14.475, -1.522, 0.273, 2.5
 23220708, 17.911, -1.886, -2.131, 2.5, 16.232, -1.704, -0.396, 2.5
 23420628, 19.33, -2.046, -2.885, 2.5, 17.911, -1.886, -2.131, 2.5
 23620548, 20.669, -2.192, -2.988, 2.5, 19.33, -2.046, -2.885, 2.5
 23820468, 21.879, -2.333, -3.108, 2.5, 20.669, -2.192, -2.988, 2.5
 24020388, 22.878, -2.45, -3.581, 2.5, 21.879, -2.333, -3.108, 2.5
 24220308, 23.701, -2.55, -4.118, 2.5, 22.878, -2.45, -3.581, 2.5
 24420228, 24.381, -2.809, -4.534, 2.5, 23.701, -2.55, -4.118, 2.5
 24620148, 24.938, -3.127, -4.942, 2.5, 24.381, -2.809, -4.534, 2.5
 24820901, 25.435, -3.371, -5.14, 2.5, 24.938, -3.127, -4.942, 2.5
 25020821, 25.852, -3.607, -5.329, 2.5, 25.435, -3.371, -5.14, 2.5
 25220741, 26.2, -3.919, -5.447, 2.5, 25.852, -3.607, -5.329, 2.5
 25420661, 26.475, -4.22, -5.599, 2.5, 26.2, -3.919, -5.447, 2.5
 25620581, 26.565, -4.567, -6.117, 2.5, 26.475, -4.22, -5.599, 2.5
 25820501, 26.55, -4.937, -6.772, 2.5, 26.565, -4.567, -6.117, 2.5
 26020421, 26.551, -5.215, -7.129, 2.5, 26.55, -4.937, -6.772, 2.5
 26220341, 26.651, -5.402, -7.089, 2.5, 26.551, -5.215, -7.129, 2.5
 26420261, 26.789, -5.582, -6.901, 2.5, 26.651, -5.402, -7.089, 2.5
 26620181, 26.906, -5.759, -6.752, 2.5, 26.789, -5.582, -6.901, 2.5
 26820934, 26.987, -5.948, -6.697001, 2.5, 26.906, -5.759, -6.752, 2.5
 27020854, 27.066, -6.159, -6.58, 2.5, 26.987, -5.948, -6.697001, 2.5
 27220774, 27.181, -6.333, -6.334, 2.5, 27.066, -6.159, -6.58, 2.5
 27420694, 27.279, -6.504, -6.139, 2.5, 27.181, -6.333, -6.334, 2.5
 27620614, 27.403, -6.670001, -5.863, 2.5, 27.279, -6.504, -6.139, 2.5
 27820534, 27.466, -6.866, -5.827, 2.5, 27.403, -6.670001, -5.863, 2.5
 28020454, 27.505, -7.057, -5.824, 2.5, 27.466, -6.866, -5.827, 2.5
 28220374, 27.502, -7.24, -5.939, 2.5, 27.505, -7.057, -5.824, 2.5
 28420294, 27.446, -7.378, -5.960001, 2.5, 27.502, -7.24, -5.939, 2.5
 28620214, 27.328, -7.479001, -5.904, 2.5, 27.446, -7.378, -5.960001, 2.5
 28820967, 27.194, -7.572001, -5.601, 2.5, 27.328, -7.479001, -5.904, 2.5
 29020887, 27.302, -7.518, -4.17, 2.5, 27.194, -7.572001, -5.601, 2.5
 29220807, 27.513, -7.079, -2.529, 2.5, 27.302, -7.518, -4.17, 2.5
 29420727, 27.718, -6.424, -1.608, 2.5, 27.513, -7.079, -2.529, 2.5
 29620647, 27.921, -5.607, -1.628, 2.5, 27.718, -6.424, -1.608, 2.5
 29820567, 28.061, -4.964, -1.841, 2.5, 27.921, -5.607, -1.628, 2.5
 30020487, 28.135, -4.642, -1.705, 2.5, 28.061, -4.964, -1.841, 2.5
 30220407, 28.18, -4.361, -1.431, 2.5, 28.135, -4.642, -1.705, 2.5
 30420327, 28.212, -4.054, -1.1, 2.5, 28.18, -4.361, -1.431, 2.5
 30620247, 28.032, -3.593, -1.028, 2.5, 28.212, -4.054, -1.1, 2.5
 30820167, 27.452, -2.953, -1.456, 2.5, 28.032, -3.593, -1.028, 2.5
 31020920, 26.797, -2.42, -1.701, 2.5, 27.452, -2.953, -1.456, 2.5
 31220840, 26.343, -2.146, -1.292, 2.5, 26.797, -2.42, -1.701, 2.5
 31420760, 26.054, -2.003, -0.539, 2.5, 26.343, -2.146, -1.292, 2.5
 31620680, 25.844, -1.846, 0.086, 2.5, 26.054, -2.003, -0.539, 2.5
 31820600, 25.684, -1.638, 0.453, 2.5, 25.844, -1.846, 0.086, 2.5
 32020520, 25.581, -1.422, 0.659, 2.5, 25.684, -1.638, 0.453, 2.5
 32220440, 25.52, -1.196, 0.742, 2.5, 25.581, -1.422, 0.659, 2.5
 32420360, 25.499, -1.014, 0.891, 2.5, 25.52, -1.196, 0.742, 2.5
 32620280, 25.5, -0.85, 1.061, 2.5, 25.499, -1.014, 0.891, 2.5
 32820200, 25.527, -0.711, 1.304, 2.5, 25.5, -0.85, 1.061, 2.5
 33020953, 25.577, -0.5700001, 1.448, 2.5, 25.527, -0.711, 1.304, 2.5
 33220873, 25.628, -0.436, 1.474, 2.5, 25.577, -0.5700001, 1.448, 2.5
 33420793, 25.677, -0.312, 1.428, 2.5, 25.628, -0.436, 1.474, 2.5
 33620713, 25.728, -0.193, 1.428, 2.5, 25.677, -0.312, 1.428, 2.5
 33820633, 25.781, -0.082, 1.48, 2.5, 25.728, -0.193, 1.428, 2.5
 34020553, 25.844, 0.016, 1.483, 2.5, 25.781, -0.082, 1.48, 2.5
 34220473, 25.913, 0.112, 1.434, 2.5, 25.844, 0.016, 1.483, 2.5
 34420393, 25.987, 0.166, 1.44, 2.5, 25.913, 0.112, 1.434, 2.5
 34620313, 26.054, 0.209, 1.462, 2.5, 25.987, 0.166, 1.44, 2.5
 34820233, 26.133, 0.262, 1.443, 2.5, 26.054, 0.209, 1.462, 2.5
 35020153, 26.208, 0.306, 1.382, 2.5, 26.133, 0.262, 1.443, 2.5
 35220906, 26.285, 0.369, 1.347, 2.5, 26.208, 0.306, 1.382, 2.5
 35420826, 26.36, 0.402, 1.301, 2.5, 26.285, 0.369, 1.347, 2.5
 35620746, 26.428, 0.432, 1.263, 2.5, 26.36, 0.402, 1.301, 2.5
 35820666, 26.505, 0.483, 1.285, 2.5, 26.428, 0.432, 1.263, 2.5
 36020586, 26.575, 0.522, 1.234, 2.5, 26.505, 0.483, 1.285, 2.5
 36220506, 26.649, 0.535, 1.24, 2.5, 26.575, 0.522, 1.234, 2.5
 36420426, 26.719, 0.554, 1.134, 2.5, 26.649, 0.535, 1.24, 2.5
 36620346, 26.79, 0.561, 1.097, 2.5, 26.719, 0.554, 1.134, 2.5
 36820266, 26.86, 0.582, 1.15, 2.5, 26.79, 0.561, 1.097, 2.5
 37020186, 26.938, 0.597, 1.141, 2.5, 26.86, 0.582, 1.15, 2.5
 37220939, 27.011, 0.612, 1.113, 2.5, 26.938, 0.597, 1.141, 2.5
 37420859, 27.084, 0.62, 1.025, 2.5, 27.011, 0.612, 1.113, 2.5
 37620779, 27.156, 0.6070001, 0.965, 2.5, 27.084, 0.62, 1.025, 2.5
 37820699, 27.213, 0.604, 0.9220001, 2.5, 27.156, 0.6070001, 0.965, 2.5
 38020619, 27.277, 0.628, 0.914, 2.5, 27.213, 0.604, 0.9220001, 2.5
 38220539, 27.343, 0.6530001, 0.872, 2.5, 27.277, 0.628, 0.914, 2.5
 38420459, 27.397, 0.6580001, 0.8570001, 2.5, 27.343, 0.6530001, 0.872, 2.5
 38620379, 27.448, 0.668, 0.8470001, 2.5, 27.397, 0.6580001, 0.8570001, 2.5
 38820299, 27.501, 0.693, 0.716, 2.5, 27.448, 0.668, 0.8470001, 2.5
 39020219, 27.555, 0.693, 0.592, 2.5, 27.501, 0.693, 0.716, 2.5
 39220972, 27.609, 0.691, 0.645, 2.5, 27.555, 0.693, 0.592, 2.5
 39420892, 27.661, 0.689, 0.632, 2.5, 27.609, 0.691, 0.645, 2.5
 39620812, 27.704, 0.694, 0.534, 2.5, 27.661, 0.689, 0.632, 2.5
 39820732, 27.737, 0.703, 0.531, 2.5, 27.704, 0.694, 0.534, 2.5
 40020652, 27.781, 0.714, 0.5420001, 2.5, 27.737, 0.703, 0.531, 2.5
 40220572, 27.829, 0.7180001, 0.495, 2.5, 27.781, 0.714, 0.5420001, 2.5
 40420492, 27.872, 0.7, 0.451, 2.5, 27.829, 0.7180001, 0.495, 2.5
 40620412, 27.917, 0.6850001, 0.373, 2.5, 27.872, 0.7, 0.451, 2.5
 40820332, 27.955, 0.6620001, 0.324, 2.5, 27.917, 0.6850001, 0.373, 2.5
 41020252, 27.994, 0.648, 0.28, 2.5, 27.955, 0.6620001, 0.324, 2.5
 41220172, 28.024, 0.65, 0.315, 2.5, 27.994, 0.648, 0.28, 2.5
 41420925, 28.052, 0.652, 0.401, 2.5, 28.024, 0.65, 0.315, 2.5
 41620845, 28.086, 0.643, 0.366, 2.5, 28.052, 0.652, 0.401, 2.5
 41820765, 28.132, 0.652, 0.326, 2.5, 28.086, 0.643, 0.366, 2.5
 42020685, 28.164, 0.641, 0.211, 2.5, 28.132, 0.652, 0.326, 2.5
 42220605, 28.188, 0.622, 0.147, 2.5, 28.164, 0.641, 0.211, 2.5
 42420525, 28.206, 0.614, 0.115, 2.5, 28.188, 0.622, 0.147, 2.5
 42620445, 28.243, 0.609, 0.174, 2.5, 28.206, 0.614, 0.115, 2.5
 42820365, 28.272, 0.595, 0.144, 2.5, 28.243, 0.609, 0.174, 2.5
 43020285, 28.301, 0.585, 0.1, 2.5, 28.272, 0.595, 0.144, 2.5
 43220205, 28.328, 0.601, 0.05, 2.5, 28.301, 0.585, 0.1, 2.5
 43420958, 28.347, 0.599, 0.015, 2.5, 28.328, 0.601, 0.05, 2.5
 43620878, 28.364, 0.587, 0.029, 2.5, 28.347, 0.599, 0.015, 2.5
 43820798, 28.391, 0.589, 0.032, 2.5, 28.364, 0.587, 0.029, 2.5
 44020718, 28.421, 0.6, 0.051, 2.5, 28.391, 0.589, 0.032, 2.5
 44220638, 28.45, 0.606, 0.003, 2.5, 28.421, 0.6, 0.051, 2.5
 44420558, 28.471, 0.594, -0.036, 2.5, 28.45, 0.606, 0.003, 2.5
 44620478, 28.485, 0.62, -0.067, 2.5, 28.471, 0.594, -0.036, 2.5
 44820398, 28.496, 0.643, -0.063, 2.5, 28.485, 0.62, -0.067, 2.5
 45020318, 28.515, 0.638, -0.001, 2.5, 28.496, 0.643, -0.063, 2.5
 45220238, 28.528, 0.6440001, -0.005, 2.5, 28.515, 0.638, -0.001, 2.5
 45420158, 28.552, 0.64, -0.001, 2.5, 28.528, 0.6440001, -0.005, 2.5
 45620911, 28.576, 0.636, -0.082, 2.5, 28.552, 0.64, -0.001, 2.5
 45820831, 28.601, 0.643, -0.113, 2.5, 28.576, 0.636, -0.082, 2.5
 46020751, 28.604, 0.632, -0.17, 2.5, 28.601, 0.643, -0.113, 2.5
 46220671, 28.615, 0.623, -0.174, 2.5, 28.604, 0.632, -0.17, 2.5
 46420591, 28.623, 0.611, -0.166, 2.5, 28.615, 0.623, -0.174, 2.5
 46620511, 28.637, 0.609, -0.087, 2.5, 28.623, 0.611, -0.166, 2.5
 46820431, 28.631, 0.603, -0.13, 2.5, 28.637, 0.609, -0.087, 2.5
 47020351, 28.625, 0.581, -0.194, 2.5, 28.631, 0.603, -0.13, 2.5
 47220271, 28.632, 0.564, -0.178, 2.5, 28.625, 0.581, -0.194, 2.5
 47420191, 28.646, 0.565, -0.08800001, 2.5, 28.632, 0.564, -0.178, 2.5
 47620944, 28.652, 0.58, -0.082, 2.5, 28.646, 0.565, -0.08800001, 2.5
 47820864, 28.663, 0.562, -0.131, 2.5, 28.652, 0.58, -0.082, 2.5
 48020784, 28.678, 0.5700001, -0.16, 2.5, 28.663, 0.562, -0.131, 2.5
 48220704, 28.684, 0.5700001, -0.115, 2.5, 28.678, 0.5700001, -0.16, 2.5
 48420624, 28.701, 0.571, -0.079, 2.5, 28.684, 0.5700001, -0.115, 2.5
 48620544, 28.712, 0.583, -0.136, 2.5, 28.701, 0.571, -0.079, 2.5
 48820464, 28.713, 0.569, -0.129, 2.5, 28.712, 0.583, -0.136, 2.5
 49020384, 28.716, 0.558, -0.158, 2.5, 28.713, 0.569, -0.129, 2.5
 49220304, 28.716, 0.565, -0.209, 2.5, 28.716, 0.558, -0.158, 2.5
 49420224, 28.73, 0.566, -0.107, 2.5, 28.716, 0.565, -0.209, 2.5
 49620977, 28.732, 0.571, -0.132, 2.5, 28.73, 0.566, -0.107, 2.5
 49820897, 28.737, 0.557, -0.2, 2.5, 28.732, 0.571, -0.132, 2.5
 50020817, 28.755, 0.551, -0.234, 2.5, 28.737, 0.557, -0.2, 2.5
 50220737, 28.765, 0.534, -0.215, 2.5, 28.755, 0.551, -0.234, 2.5
 50420657, 28.781, 0.538, -0.104, 2.5, 28.765, 0.534, -0.215, 2.5
 50620577, 28.784, 0.539, -0.102, 2.5, 28.781, 0.538, -0.104, 2.5
 50820497, 28.777, 0.549, -0.149, 2.5, 28.784, 0.539, -0.102, 2.5
 51020417, 28.785, 0.539, -0.189, 2.5, 28.777, 0.549, -0.149, 2.5
 51220337, 28.79, 0.522, -0.257, 2.5, 28.785, 0.539, -0.189, 2.5
 51420257, 28.78, 0.536, -0.235, 2.5, 28.79, 0.522, -0.257, 2.5
 51620177, 28.79, 0.522, -0.179, 2.5, 28.78, 0.536, -0.235, 2.5
 51820930, 28.799, 0.496, -0.093, 2.5, 28.79, 0.522, -0.179, 2.5
 52020850, 28.818, 0.487, -0.119, 2.5, 28.799, 0.496, -0.093, 2.5
 52220770, 28.823, 0.473, -0.134, 2.5, 28.818, 0.487, -0.119, 2.5
 52420690, 28.827, 0.48, -0.177, 2.5, 28.823, 0.473, -0.134, 2.5
 52620610, 28.835, 0.495, -0.169, 2.5, 28.827, 0.48, -0.177, 2.5
 52820530, 28.844, 0.466, -0.158, 2.5, 28.835, 0.495, -0.169, 2.5
 53020450, 28.847, 0.456, -0.164, 2.5, 28.844, 0.466, -0.158, 2.5
 53220370, 28.853, 0.447, -0.137, 2.5, 28.847, 0.456, -0.164, 2.5
 53420290, 28.858, 0.436, -0.171, 2.5, 28.853, 0.447, -0.137, 2.5
 53620210, 28.856, 0.43, -0.216, 2.5, 28.858, 0.436, -0.171, 2.5
 53820963, 28.847, 0.432, -0.205, 2.5, 28.856, 0.43, -0.216, 2.5
 54020883, 28.846, 0.408, -0.201, 2.5, 28.847, 0.432, -0.205, 2.5
 54220803, 28.834, 0.388, -0.157, 2.5, 28.846, 0.408, -0.201, 2.5
 54420723, 28.838, 0.374, -0.12, 2.5, 28.834, 0.388, -0.157, 2.5
 54620643, 28.85, 0.381, -0.044, 2.5, 28.838, 0.374, -0.12, 2.5
 54820563, 28.848, 0.405, -0.072, 2.5, 28.85, 0.381, -0.044, 2.5
 55020483, 28.852, 0.401, -0.09200001, 2.5, 28.848, 0.405, -0.072, 2.5
 55220403, 28.863, 0.38, -0.123, 2.5, 28.852, 0.401, -0.09200001, 2.5
 55420323, 28.87, 0.38, -0.078, 2.5, 28.863, 0.38, -0.123, 2.5
 55620243, 28.87, 0.374, -0.105, 2.5, 28.87, 0.38, -0.078, 2.5
 55820163, 28.874, 0.392, -0.062, 2.5, 28.87, 0.374, -0.105, 2.5
 56020916, 28.879, 0.398, -0.145, 2.5, 28.874, 0.392, -0.062, 2.5
 56220836, 28.88, 0.374, -0.192, 2.5, 28.879, 0.398, -0.145, 2.5
 56420756, 28.884, 0.359, -0.102, 2.5, 28.88, 0.374, -0.192, 2.5
 56620676, 28.911, 0.347, 0.004, 2.5, 28.884, 0.359, -0.102, 2.5
 56820596, 28.931, 0.363, -0.005, 2.5, 28.911, 0.347, 0.004, 2.5
 57020516, 28.939, 0.379, -0.026, 2.5, 28.931, 0.363, -0.005, 2.5
 57220436, 28.935, 0.381, -0.14, 2.5, 28.939, 0.379, -0.026, 2.5
 57420356, 28.923, 0.394, -0.213, 2.5, 28.935, 0.381, -0.14, 2.5
 57620276, 28.915, 0.371, -0.174, 2.5, 28.923, 0.394, -0.213, 2.5
 57820196, 28.911, 0.352, -0.116, 2.5, 28.915, 0.371, -0.174, 2.5
 58020949, 28.907, 0.359, -0.068, 2.5, 28.911, 0.352, -0.116, 2.5
 58220869, 28.907, 0.363, -0.049, 2.5, 28.907, 0.359, -0.068, 2.5
 58420789, 28.923, 0.367, 0.007, 2.5, 28.907, 0.363, -0.049, 2.5
 58620709, 28.932, 0.374, -0.046, 2.5, 28.923, 0.367, 0.007, 2.5
 58820629, 28.931, 0.363, -0.142, 2.5, 28.932, 0.374, -0.046, 2.5
 59020549, 28.925, 0.373, -0.09200001, 2.5, 28.931, 0.363, -0.142, 2.5
 59220469, 28.943, 0.402, -0.054, 2.5, 28.925, 0.373, -0.09200001, 2.5
 59420389, 28.95, 0.406, 0.005, 2.5, 28.943, 0.402, -0.054, 2.5
 59620309, 28.953, 0.408, 0.009000001, 2.5, 28.95, 0.406, 0.005, 2.5
 59820229, 28.963, 0.408, -0.021, 2.5, 28.953, 0.408, 0.009000001, 2.5
 60020149, 28.962, 0.415, 0.002, 2.5, 28.963, 0.408, -0.021, 2.5
 60220902, 28.96, 0.367, -0.079, 2.5, 28.962, 0.415, 0.002, 2.5
 60420822, 28.954, 0.352, -0.123, 2.5, 28.96, 0.367, -0.079, 2.5
 60620742, 28.953, 0.346, -0.054, 2.5, 28.954, 0.352, -0.123, 2.5
 60820662, 28.952, 0.334, -0.026, 2.5, 28.953, 0.346, -0.054, 2.5
 61020582, 28.949, 0.314, -0.06, 2.5, 28.952, 0.334, -0.026, 2.5
 61220502, 28.953, 0.318, -0.036, 2.5, 28.949, 0.314, -0.06, 2.5
 61420422, 28.972, 0.328, -0.047, 2.5, 28.953, 0.318, -0.036, 2.5
 61620342, 28.992, 0.315, 0.007, 2.5, 28.972, 0.328, -0.047, 2.5
 61820262, 29.005, 0.299, 0.055, 2.5, 28.992, 0.315, 0.007, 2.5
 62020182, 29.003, 0.278, -0.004, 2.5, 29.005, 0.299, 0.055, 2.5
 62220935, 28.985, 0.499, -0.09100001, 2.5, 29.003, 0.278, -0.004, 2.5
 62420855, 28.954, 1.486, -0.06, 2.5, 28.985, 0.499, -0.09100001, 2.5
 62620775, 28.911, 2.952, 0.177, 2.5, 28.954, 1.486, -0.06, 2.5
 62820695, 28.842, 5.067, 0.714, 2.5, 28.911, 2.952, 0.177, 2.5
 63020615, 28.498, 8.165, 0.928, 2.5, 28.842, 5.067, 0.714, 2.5
 63220535, 27.387, 12.194, 0.422, 2.5, 28.498, 8.165, 0.928, 2.5
 63420455, 25.576, 16.083, -0.396, 2.5, 27.387, 12.194, 0.422, 2.5
 63620375, 23.595, 19.124, -0.9680001, 2.5, 25.576, 16.083, -0.396, 2.5
 63820295, 21.679, 21.454, -1.167, 2.5, 23.595, 19.124, -0.9680001, 2.5
 64020215, 19.733, 23.384, -1.174, 2.5, 21.679, 21.454, -1.167, 2.5
 64220968, 17.648, 25.1, -1.109, 2.5, 19.733, 23.384, -1.174, 2.5
 64420888, 15.344, 26.616, -1.101, 2.5, 17.648, 25.1, -1.109, 2.5
 64620808, 12.798, 27.949, -1.146, 2.5, 15.344, 26.616, -1.101, 2.5
 64820728, 10.168, 29.001, -1.157, 2.5, 12.798, 27.949, -1.146, 2.5
 65020648, 7.481, 29.773, -1.142, 2.5, 10.168, 29.001, -1.157, 2.5
 65220568, 4.76, 30.304, -1.114, 2.5, 7.481, 29.773, -1.142, 2.5
 65420488, 2.075, 30.586, -1.064, 2.5, 4.76, 30.304, -1.114, 2.5
 65620408, -0.596, 30.617, -1, 2.5, 2.075, 30.586, -1.064, 2.5
 65820328, -3.218, 30.414, -0.9170001, 2.5, -0.596, 30.617, -1, 2.5
 66020248, -5.848, 29.977, -0.859, 2.5, -3.218, 30.414, -0.9170001, 2.5
 66220168, -8.456, 29.303, -0.8290001, 2.5, -5.848, 29.977, -0.859, 2.5
 66420921, -10.944, 28.43, -0.7690001, 2.5, -8.456, 29.303, -0.8290001, 2.5
 66620841, -13.312, 27.348, -0.723, 2.5, -10.944, 28.43, -0.7690001, 2.5
 66820761, -15.51, 26.064, -0.698, 2.5, -13.312, 27.348, -0.723, 2.5
 67020681, -17.467, 24.635, -0.6670001, 2.5, -15.51, 26.064, -0.698, 2.5
 67220601, -19.162, 23.135, -0.578, 2.5, -17.467, 24.635, -0.6670001, 2.5
 67420521, -20.666, 21.559, -0.486, 2.5, -19.162, 23.135, -0.578, 2.5
 67620441, -21.96, 19.948, -0.401, 2.5, -20.666, 21.559, -0.486, 2.5
 67820361, -23.02, 18.367, -0.306, 2.5, -21.96, 19.948, -0.401, 2.5
 68020281, -23.809, 16.93, -0.113, 2.5, -23.02, 18.367, -0.306, 2.5
 68220201, -24.448, 15.559, 0.075, 2.5, -23.809, 16.93, -0.113, 2.5
 68420954, -24.943, 14.294, 0.308, 2.5, -24.448, 15.559, 0.075, 2.5
 68620874, -25.395, 12.994, 0.489, 2.5, -24.943, 14.294, 0.308, 2.5
 68820794, -25.759, 11.802, 0.693, 2.5, -25.395, 12.994, 0.489, 2.5
 69020714, -26.094, 10.624, 0.845, 2.5, -25.759, 11.802, 0.693, 2.5
 69220634, -26.377, 9.523001, 0.9670001, 2.5, -26.094, 10.624, 0.845, 2.5
 69420554, -26.577, 8.557, 1.135, 2.5, -26.377, 9.523001, 0.9670001, 2.5
 69620474, -26.743, 7.662, 1.294, 2.5, -26.577, 8.557, 1.135, 2.5
 69820394, -26.911, 6.774, 1.401, 2.5, -26.743, 7.662, 1.294, 2.5
 70020314, -27.055, 5.928, 1.497, 2.5, -26.911, 6.774, 1.401, 2.5
 70220234, -27.177, 5.118, 1.491, 2.5, -27.055, 5.928, 1.497, 2.5
 70420154, -27.274, 4.365, 1.45, 2.5, -27.177, 5.118, 1.491, 2.5
 70620907, -27.36, 3.678, 1.447, 2.5, -27.274, 4.365, 1.45, 2.5
 70820827, -27.429, 3.046, 1.42, 2.5, -27.36, 3.678, 1.447, 2.5
 71020747, -27.495, 2.464, 1.389, 2.5, -27.429, 3.046, 1.42, 2.5
 71220667, -27.551, 1.95, 1.376, 2.5, -27.495, 2.464, 1.389, 2.5
 71420587, -27.597, 1.5, 1.376, 2.5, -27.551, 1.95, 1.376, 2.5
 71620507, -27.638, 0.998, 1.226, 2.5, -27.597, 1.5, 1.376, 2.5
 71820427, -27.652, 0.546, 1.114, 2.5, -27.638, 0.998, 1.226, 2.5
 72020347, -27.677, 0.176, 1.096, 2.5, -27.652, 0.546, 1.114, 2.5
 72220267, -27.714, -0.125, 1.074, 2.5, -27.677, 0.176, 1.096, 2.5
 72420187, -27.75, -0.395, 1.064, 2.5, -27.714, -0.125, 1.074, 2.5
 72620940, -27.785, -0.664, 0.9990001, 2.5, -27.75, -0.395, 1.064, 2.5
 72820860, -27.822, -0.929, 0.929, 2.5, -27.785, -0.664, 0.9990001, 2.5
 73020780, -27.858, -1.178, 0.8570001, 2.5, -27.822, -0.929, 0.929, 2.5
 73220700, -27.898, -1.389, 0.8290001, 2.5, -27.858, -1.178, 0.8570001, 2.5
 73420620, -27.93, -1.573, 0.761, 2.5, -27.898, -1.389, 0.8290001, 2.5
 73620540, -27.957, -1.743, 0.691, 2.5, -27.93, -1.573, 0.761, 2.5
 73820460, -27.98, -1.895, 0.606, 2.5, -27.957, -1.743, 0.691, 2.5
 74020380, -28.007, -2.018, 0.599, 2.5, -27.98, -1.895, 0.606, 2.5
 74220300, -28.032, -2.138, 0.5700001, 2.5, -28.007, -2.018, 0.599, 2.5
 74420220, -28.049, -2.276, 0.416, 2.5, -28.032, -2.138, 0.5700001, 2.5
 74620973, -28.067, -2.369, 0.343, 2.5, -28.049, -2.276, 0.416, 2.5
 74820893, -28.091, -2.473, 0.39, 2.5, -28.067, -2.369, 0.343, 2.5
 75020813, -28.106, -2.557, 0.403, 2.5, -28.091, -2.473, 0.39, 2.5
 75220733, -28.104, -2.633, 0.308, 2.5, -28.106, -2.557, 0.403, 2.5
 75420653, -28.106, -2.716, 0.193, 2.5, -28.104, -2.633, 0.308, 2.5
 75620573, -28.11, -2.792, 0.15, 2.5, -28.106, -2.716, 0.193, 2.5
 75820493, -28.114, -2.851, 0.23, 2.5, -28.11, -2.792, 0.15, 2.5
 76020413, -28.124, -2.902, 0.249, 2.5, -28.114, -2.851, 0.23, 2.5
 76220333, -28.127, -2.948, 0.154, 2.5, -28.124, -2.902, 0.249, 2.5
 76420253, -28.139, -3.006, 0.085, 2.5, -28.127, -2.948, 0.154, 2.5
 76620173, -28.163, -3.026, 0.07600001, 2.5, -28.139, -3.006, 0.085, 2.5
 76820926, -28.178, -3.046, 0.107, 2.5, -28.163, -3.026, 0.07600001, 2.5
 77020846, -28.198, -3.065, 0.12, 2.5, -28.178, -3.046, 0.107, 2.5
 77220766, -28.214, -3.105, 0.09200001, 2.5, -28.198, -3.065, 0.12, 2.5
 77420686, -28.22, -3.15, 0.029, 2.5, -28.214, -3.105, 0.09200001, 2.5
 77620606, -28.228, -3.179, -0.025, 2.5, -28.22, -3.15, 0.029, 2.5
 77820526, -28.252, -3.188, -0.056, 2.5, -28.228, -3.179, -0.025, 2.5
 78020446, -28.271, -3.214, -0.112, 2.5, -28.252, -3.188, -0.056, 2.5
 78220366, -28.284, -3.244, -0.144, 2.5, -28.271, -3.214, -0.112, 2.5
 78420286, -28.294, -3.269, -0.116, 2.5, -28.284, -3.244, -0.144, 2.5
 78620206, -28.305, -3.288, -0.105, 2.5, -28.294, -3.269, -0.116, 2.5
 78820959, -28.311, -3.308, -0.143, 2.5, -28.305, -3.288, -0.105, 2.5
 79020879, -28.326, -3.343, -0.207, 2.5, -28.311, -3.308, -0.143, 2.5
 79220799, -28.352, -3.363, -0.079, 2.5, -28.326, -3.343, -0.207, 2.5
 79420719, -28.364, -3.387, -0.136, 2.5, -28.352, -3.363, -0.079, 2.5
 79620639, -28.368, -3.409, -0.208, 2.5, -28.364, -3.387, -0.136, 2.5
 79820559, -28.373, -3.435, -0.241, 2.5, -28.368, -3.409, -0.208, 2.5
 80020479, -28.381, -3.468, -0.202, 2.5, -28.373, -3.435, -0.241, 2.5
 80220399, -28.4, -3.473, -0.216, 2.5, -28.381, -3.468, -0.202, 2.5
 80420319, -28.412, -3.478, -0.241, 2.5, -28.4, -3.473, -0.216, 2.5
 80620239, -28.427, -3.502, -0.298, 2.5, -28.412, -3.478, -0.241, 2.5
 80820159, -28.449, -3.526, -0.279, 2.5, -28.427, -3.502, -0.298, 2.5
 81020912, -28.472, -3.534, -0.295, 2.5, -28.449, -3.526, -0.279, 2.5
 81220832, -28.487, -3.536, -0.327, 2.5, -28.472, -3.534, -0.295, 2.5
 81420752, -28.496, -3.548, -0.421, 2.5, -28.487, -3.536, -0.327, 2.5
 81620672, -28.501, -3.541, -0.488, 2.5, -28.496, -3.548, -0.421, 2.5
 81820592, -28.509, -3.56, -0.42, 2.5, -28.501, -3.541, -0.488, 2.5
 82020512, -28.518, -3.563, -0.359, 2.5, -28.509, -3.56, -0.42, 2.5
 82220432, -28.532, -3.557, -0.314, 2.5, -28.518, -3.563, -0.359, 2.5
 82420352, -28.544, -3.557, -0.358, 2.5, -28.532, -3.557, -0.314, 2.5
 82620272, -28.542, -3.56, -0.362, 2.5, -28.544, -3.557, -0.358, 2.5
 82820192, -28.551, -3.565, -0.361, 2.5, -28.542, -3.56, -0.362, 2.5
 83020945, -28.556, -3.588, -0.376, 2.5, -28.551, -3.565, -0.361, 2.5
 83220865, -28.553, -3.611, -0.41, 2.5, -28.556, -3.588, -0.376, 2.5
 83420785, -28.552, -3.631, -0.427, 2.5, -28.553, -3.611, -0.41, 2.5
 83620705, -28.556, -3.637, -0.346, 2.5, -28.552, -3.631, -0.427, 2.5
 83820625, -28.565, -3.62, -0.292, 2.5, -28.556, -3.637, -0.346, 2.5
 84020545, -28.57, -3.615, -0.197, 2.5, -28.565, -3.62, -0.292, 2.5
 84220465, -28.584, -3.612, -0.239, 2.5, -28.57, -3.615, -0.197, 2.5
 84420385, -28.59, -3.611, -0.359, 2.5, -28.584, -3.612, -0.239, 2.5
 84620305, -28.585, -3.599, -0.385, 2.5, -28.59, -3.611, -0.359, 2.5
 84820225, -28.582, -3.604, -0.403, 2.5, -28.585, -3.599, -0.385, 2.5
 85020145, -28.575, -3.605, -0.348, 2.5, -28.582, -3.604, -0.403, 2.5
 85220898, -28.576, -3.628, -0.274, 2.5, -28.575, -3.605, -0.348, 2.5
 85420818, -28.572, -3.647, -0.35, 2.5, -28.576, -3.628, -0.274, 2.5
 85620738, -28.568, -3.637, -0.379, 2.5, -28.572, -3.647, -0.35, 2.5
 85820658, -28.57, -3.65, -0.317, 2.5, -28.568, -3.637, -0.379, 2.5
 86020578, -28.572, -3.681, -0.225, 2.5, -28.57, -3.65, -0.317, 2.5
 86220498, -28.577, -3.699, -0.261, 2.5, -28.572, -3.681, -0.225, 2.5
 86420418, -28.581, -3.707, -0.304, 2.5, -28.577, -3.699, -0.261, 2.5
 86620338, -28.573, -3.704, -0.335, 2.5, -28.581, -3.707, -0.304, 2.5
 86820258, -28.575, -3.707, -0.294, 2.5, -28.573, -3.704, -0.335, 2.5
 87020178, -28.581, -3.712, -0.211, 2.5, -28.575, -3.707, -0.294, 2.5
 87220931, -28.588, -3.712, -0.175, 2.5, -28.581, -3.712, -0.211, 2.5
 87420851, -28.592, -3.72, -0.204, 2.5, -28.588, -3.712, -0.175, 2.5
 87620771, -28.585, -3.727, -0.329, 2.5, -28.592, -3.72, -0.204, 2.5
 87820691, -28.587, -3.721, -0.286, 2.5, -28.585, -3.727, -0.329, 2.5
 88020611, -28.583, -3.722, -0.236, 2.5, -28.587, -3.721, -0.286, 2.5
 88220531, -28.583, -3.736, -0.211, 2.5, -28.583, -3.722, -0.236, 2.5
 88420451, -28.592, -3.741, -0.206, 2.5, -28.583, -3.736, -0.211, 2.5
 88620371, -28.584, -3.757, -0.231, 2.5, -28.592, -3.741, -0.206, 2.5
 88820291, -28.581, -3.754, -0.273, 2.5, -28.584, -3.757, -0.231, 2.5
 89020211, -28.585, -3.755, -0.27, 2.5, -28.581, -3.754, -0.273, 2.5
 89220964, -28.587, -3.763, -0.192, 2.5, -28.585, -3.755, -0.27, 2.5
 89420884, -28.598, -3.767, -0.143, 2.5, -28.587, -3.763, -0.192, 2.5
 89620804, -28.595, -3.775, -0.165, 2.5, -28.598, -3.767, -0.143, 2.5
 89820724, -28.577, -3.765, -0.176, 2.5, -28.595, -3.775, -0.165, 2.5
 90020644, -28.567, -3.785, -0.182, 2.5, -28.577, -3.765, -0.176, 2.5
 90220564, -28.57, -3.793, -0.162, 2.5, -28.567, -3.785, -0.182, 2.5
 90420484, -28.563, -3.785, -0.191, 2.5, -28.57, -3.793, -0.162, 2.5
 90620404, -28.552, -3.781, -0.162, 2.5, -28.563, -3.785, -0.191, 2.5
 90820324, -28.561, -3.785, -0.129, 2.5, -28.552, -3.781, -0.162, 2.5
 91020244, -28.572, -3.786, -0.147, 2.5, -28.561, -3.785, -0.129, 2.5
 91220164, -28.566, -3.787, -0.132, 2.5, -28.572, -3.786, -0.147, 2.5
 91420917, -28.572, -3.781, -0.126, 2.5, -28.566, -3.787, -0.132, 2.5
 91620837, -28.584, -3.777, -0.083, 2.5, -28.572, -3.781, -0.126, 2.5
 91820757, -28.574, -3.795, -0.139, 2.5, -28.584, -3.777, -0.083, 2.5
 92020677, -28.577, -3.807, -0.147, 2.5, -28.574, -3.795, -0.139, 2.5
 92220597, -28.573, -3.809, -0.172, 2.5, -28.577, -3.807, -0.147, 2.5
 92420517, -28.577, -3.81, -0.135, 2.5, -28.573, -3.809, -0.172, 2.5
 92620437, -28.579, -3.799, -0.11, 2.5, -28.577, -3.81, -0.135, 2.5
 92820357, -28.573, -3.774, -0.093, 2.5, -28.579, -3.799, -0.11, 2.5
 93020277, -28.572, -3.807, -0.139, 2.5, -28.573, -3.774, -0.093, 2.5
 93220197, -28.593, -3.724, -0.086, 2.5, -28.572, -3.807, -0.139, 2.5
 93420950, -28.636, -3.45, -0.075, 2.5, -28.593, -3.724, -0.086, 2.5
 93620870, -28.705, -2.974, 0.023, 2.5, -28.636, -3.45, -0.075, 2.5
 93820790, -28.784, -2.298, 0.053, 2.5, -28.705, -2.974, 0.023, 2.5
 94020710, -28.883, -1.486, 0.006, 2.5, -28.784, -2.298, 0.053, 2.5
 94220630, -28.979, -0.567, 0, 2.5, -28.883, -1.486, 0.006, 2.5
 94420550, -29.066, 0.48, 0.01, 2.5, -28.979, -0.567, 0, 2.5
 94620470, -29.121, 1.661, 0.063, 2.5, -29.066, 0.48, 0.01, 2.5
 94820390, -29.147, 2.938, 0.107, 2.5, -29.121, 1.661, 0.063, 2.5
 95020310, -29.085, 4.453, 0.003, 2.5, -29.147, 2.938, 0.107, 2.5
 95220230, -28.93, 6.064, -0.063, 2.5, -29.085, 4.453, 0.003, 2.5
 95420150, -28.642, 7.856, -0.224, 2.5, -28.93, 6.064, -0.063, 2.5
 95620903, -28.206, 9.725, -0.359, 2.5, -28.642, 7.856, -0.224, 2.5
 95820823, -27.598, 11.649, -0.522, 2.5, -28.206, 9.725, -0.359, 2.5
 96020743, -26.888, 13.425, -0.647, 2.5, -27.598, 11.649, -0.522, 2.5
 96220663, -26.049, 15.107, -0.729, 2.5, -26.888, 13.425, -0.647, 2.5
 96420583, -25.098, 16.673, -0.7690001, 2.5, -26.049, 15.107, -0.729, 2.5
 96620503, -24.022, 18.145, -0.8340001, 2.5, -25.098, 16.673, -0.7690001, 2.5
 96820423, -22.89, 19.48, -0.881, 2.5, -24.022, 18.145, -0.8340001, 2.5
 97020343, -21.813, 20.585, -0.837, 2.5, -22.89, 19.48, -0.881, 2.5
 97220263, -20.739, 21.544, -0.79, 2.5, -21.813, 20.585, -0.837, 2.5
 97420183, -19.731, 22.321, -0.636, 2.5, -20.739, 21.544, -0.79, 2.5
 97620936, -18.721, 23.014, -0.509, 2.5, -19.731, 22.321, -0.636, 2.5
 97820856, -17.776, 23.591, -0.336, 2.5, -18.721, 23.014, -0.509, 2.5
 98020776, -16.881, 24.085, -0.174, 2.5, -17.776, 23.591, -0.336, 2.5
 98220696, -16.031, 24.523, -0.05, 2.5, -16.881, 24.085, -0.174, 2.5
 98420616, -15.277, 24.878, 0.083, 2.5, -16.031, 24.523, -0.05, 2.5
 98620536, -14.524, 25.206, 0.137, 2.5, -15.277, 24.878, 0.083, 2.5
 98820456, -13.876, 25.458, 0.205, 2.5, -14.524, 25.206, 0.137, 2.5
 99020376, -13.332, 25.64, 0.292, 2.5, -13.876, 25.458, 0.205, 2.5
 99220296, -12.891, 25.791, 0.401, 2.5, -13.332, 25.64, 0.292, 2.5
 99420216, -12.47, 25.934, 0.427, 2.5, -12.891, 25.791, 0.401, 2.5
 99620969, -12.148, 26.034, 0.499, 2.5, -12.47, 25.934, 0.427, 2.5
 99820889, -11.902, 26.124, 0.527, 2.5, -12.148, 26.034, 0.499, 2.5
 100020809, -11.747, 26.176, 0.572, 2.5, -11.902, 26.124, 0.527, 2.5
 100220729, -11.656, 26.216, 0.622, 2.5, -11.747, 26.176, 0.572, 2.5
 100420649, -11.624, 26.228, 0.646, 2.5, -11.656, 26.216, 0.622, 2.5
 100620569, -11.652, 26.219, 0.623, 2.5, -11.624, 26.228, 0.646, 2.5
 100820489, -11.731, 26.185, 0.515, 2.5, -11.652, 26.219, 0.623, 2.5
 101020409, -11.838, 26.146, 0.462, 2.5, -11.731, 26.185, 0.515, 2.5
 101220329, -12.001, 26.083, 0.514, 2.5, -11.838, 26.146, 0.462, 2.5
 101420249, -12.241, 25.991, 0.549, 2.5, -12.001, 26.083, 0.514, 2.5
 101620169, -12.557, 25.866, 0.5700001, 2.5, -12.241, 25.991, 0.549, 2.5
 101820922, -12.907, 25.731, 0.512, 2.5, -12.557, 25.866, 0.5700001, 2.5
 102020842, -13.286, 25.57, 0.424, 2.5, -12.907, 25.731, 0.512, 2.5
 102220762, -13.693, 25.398, 0.33, 2.5, -13.286, 25.57, 0.424, 2.5
 102420682, -14.088, 25.206, 0.344, 2.5, -13.693, 25.398, 0.33, 2.5
 102620602, -14.526, 24.988, 0.386, 2.5, -14.088, 25.206, 0.344, 2.5
 102820522, -15.017, 24.732, 0.341, 2.5, -14.526, 24.988, 0.386, 2.5
 103020442, -15.54, 24.436, 0.277, 2.5, -15.017, 24.732, 0.341, 2.5
 103220362, -16.083, 24.117, 0.202, 2.5, -15.54, 24.436, 0.277, 2.5
 103420282, -16.603, 23.798, 0.155, 2.5, -16.083, 24.117, 0.202, 2.5
 103620202, -17.153, 23.435, 0.123, 2.5, -16.603, 23.798, 0.155, 2.5
 103820955, -17.701, 23.055, 0.094, 2.5, -17.153, 23.435, 0.123, 2.5
 104020875, -18.269, 22.613, 0.004, 2.5, -17.701, 23.055, 0.094, 2.5
 104220795, -18.794, 22.189, 0.047, 2.5, -18.269, 22.613, 0.004, 2.5
 104420715, -19.337, 21.733, 0.036, 2.5, -18.794, 22.189, 0.047, 2.5
 104620635, -19.901, 21.231, -0.005, 2.5, -19.337, 21.733, 0.036, 2.5
 104820555, -20.429, 20.73, -0.033, 2.5, -19.901, 21.231, -0.005, 2.5
 105020475, -20.961, 20.208, -0.1, 2.5, -20.429, 20.73, -0.033, 2.5
 105220395, -21.472, 19.69, -0.123, 2.5, -20.961, 20.208, -0.1, 2.5
 105420315, -21.94, 19.178, -0.071, 2.5, -21.472, 19.69, -0.123, 2.5
 105620235, -22.406, 18.615, -0.114, 2.5, -21.94, 19.178, -0.071, 2.5
 105820155, -22.867, 18.027, -0.144, 2.5, -22.406, 18.615, -0.114, 2.5
 106020908, -23.291, 17.443, -0.146, 2.5, -22.867, 18.027, -0.144, 2.5
 106220828, -23.71, 16.872, -0.113, 2.5, -23.291, 17.443, -0.146, 2.5
 106420748, -24.119, 16.288, -0.072, 2.5, -23.71, 16.872, -0.113, 2.5
 106620668, -24.523, 15.674, -0.047, 2.5, -24.119, 16.288, -0.072, 2.5
 106820588, -24.918, 15.033, -0.078, 2.5, -24.523, 15.674, -0.047, 2.5
 107020508, -25.31, 14.38, -0.096, 2.5, -24.918, 15.033, -0.078, 2.5
 107220428, -25.656, 13.772, -0.09500001, 2.5, -25.31, 14.38, -0.096, 2.5
 107420348, -25.973, 13.155, -0.138, 2.5, -25.656, 13.772, -0.09500001, 2.5
 107620268, -26.266, 12.531, -0.187, 2.5, -25.973, 13.155, -0.138, 2.5
 107820188, -26.528, 11.899, -0.221, 2.5, -26.266, 12.531, -0.187, 2.5
 108020941, -26.746, 11.343, -0.112, 2.5, -26.528, 11.899, -0.221, 2.5
 108220861, -26.967, 10.763, -0.08400001, 2.5, -26.746, 11.343, -0.112, 2.5
 108420781, -27.194, 10.102, -0.174, 2.5, -26.967, 10.763, -0.08400001, 2.5
 108620701, -27.416, 9.481001, -0.207, 2.5, -27.194, 10.102, -0.174, 2.5
 108820621, -27.599, 8.935, -0.163, 2.5, -27.416, 9.481001, -0.207, 2.5
 109020541, -27.757, 8.387, -0.087, 2.5, -27.599, 8.935, -0.163, 2.5
 109220461, -27.908, 7.83, 0.019, 2.5, -27.757, 8.387, -0.087, 2.5
 109420381, -28.064, 7.24, 0, 2.5, -27.908, 7.83, 0.019, 2.5
 109620301, -28.222, 6.636, -0.013, 2.5, -28.064, 7.24, 0, 2.5
 109820221, -28.371, 6.033, -0.03, 2.5, -28.222, 6.636, -0.013, 2.5
 110020974, -28.484, 5.42, -0.125, 2.5, -28.371, 6.033, -0.03, 2.5
 110220894, -28.574, 4.861, -0.109, 2.5, -28.484, 5.42, -0.125, 2.5
 110420814, -28.664, 4.291, -0.09900001, 2.5, -28.574, 4.861, -0.109, 2.5
 110620734, -28.73, 3.738, -0.066, 2.5, -28.664, 4.291, -0.09900001, 2.5
 110820654, -28.787, 3.216, -0.056, 2.5, -28.73, 3.738, -0.066, 2.5
 111020574, -28.834, 2.703, -0.067, 2.5, -28.787, 3.216, -0.056, 2.5
 111220494, -28.867, 2.204, -0.066, 2.5, -28.834, 2.703, -0.067, 2.5
 111420414, -28.905, 1.671, -0.06500001, 2.5, -28.867, 2.204, -0.066, 2.5
 111620334, -28.929, 1.156, -0.024, 2.5, -28.905, 1.671, -0.06500001, 2.5
 111820254, -28.94, 0.626, -0.049, 2.5, -28.929, 1.156, -0.024, 2.5
 112020174, -28.945, 0.057, -0.094, 2.5, -28.94, 0.626, -0.049, 2.5
 112220927, -28.932, -0.452, -0.094, 2.5, -28.945, 0.057, -0.094, 2.5
 112420847, -28.916, -0.957, -0.115, 2.5, -28.932, -0.452, -0.094, 2.5
 112620767, -28.892, -1.434, -0.108, 2.5, -28.916, -0.957, -0.115, 2.5
 112820687, -28.859, -1.913, -0.053, 2.5, -28.892, -1.434, -0.108, 2.5
 113020607, -28.823, -2.399, -0.082, 2.5, -28.859, -1.913, -0.053, 2.5
 113220527, -28.779, -2.872, -0.085, 2.5, -28.823, -2.399, -0.082, 2.5
 113420447, -28.729, -3.362, -0.09, 2.5, -28.779, -2.872, -0.085, 2.5
 113620367, -28.67, -3.859, -0.09200001, 2.5, -28.729, -3.362, -0.09, 2.5
 113820287, -28.601, -4.329, -0.07, 2.5, -28.67, -3.859, -0.09200001, 2.5
 114020207, -28.534, -4.772, -0.031, 2.5, -28.601, -4.329, -0.07, 2.5
 114220960, -28.45, -5.247, -0.089, 2.5, -28.534, -4.772, -0.031, 2.5
 114420880, -28.355, -5.699, -0.107, 2.5, -28.45, -5.247, -0.089, 2.5
 114620800, -28.27, -6.114, -0.004, 2.5, -28.355, -5.699, -0.107, 2.5
 114820720, -28.167, -6.585001, -0.043, 2.5, -28.27, -6.114, -0.004, 2.5
 115020640, -28.057, -7.04, -0.082, 2.5, -28.167, -6.585001, -0.043, 2.5
 115220560, -27.94, -7.464, -0.079, 2.5, -28.057, -7.04, -0.082, 2.5
 115420480, -27.827, -7.885, -0.034, 2.5, -27.94, -7.464, -0.079, 2.5
 115620400, -27.701, -8.33, -0.07300001, 2.5, -27.827, -7.885, -0.034, 2.5
 115820320, -27.546, -8.816, -0.126, 2.5, -27.701, -8.33, -0.07300001, 2.5
 116020240, -27.393, -9.276, -0.127, 2.5, -27.546, -8.816, -0.126, 2.5
 116220160, -27.247, -9.679001, -0.079, 2.5, -27.393, -9.276, -0.127, 2.5
 116420913, -27.098, -10.093, -0.015, 2.5, -27.247, -9.679001, -0.079, 2.5
 116620833, -26.94, -10.532, 0.035, 2.5, -27.098, -10.093, -0.015, 2.5
 116820753, -26.775, -10.963, 0.07300001, 2.5, -26.94, -10.532, 0.035, 2.5
 117020673, -26.603, -11.404, 0.047, 2.5, -26.775, -10.963, 0.07300001, 2.5
 117220593, -26.41, -11.852, -0.011, 2.5, -26.603, -11.404, 0.047, 2.5
 117420513, -26.198, -12.309, -0.053, 2.5, -26.41, -11.852, -0.011, 2.5
 117620433, -25.977, -12.761, -0.09500001, 2.5, -26.198, -12.309, -0.053, 2.5
 117820353, -25.767, -13.164, -0.058, 2.5, -25.977, -12.761, -0.09500001, 2.5
 118020273, -25.545, -13.588, -0.071, 2.5, -25.767, -13.164, -0.058, 2.5
 118220193, -25.318, -14.015, -0.042, 2.5, -25.545, -13.588, -0.071, 2.5
 118420946, -25.077, -14.44, -0.059, 2.5, -25.318, -14.015, -0.042, 2.5
 118620866, -24.844, -14.839, 0.003, 2.5, -25.077, -14.44, -0.059, 2.5
 118820786, -24.604, -15.239, 0.002, 2.5, -24.844, -14.839, 0.003, 2.5
 119020706, -24.344, -15.652, -0.038, 2.5, -24.604, -15.239, 0.002, 2.5
 119220626, -24.074, -16.064, -0.06, 2.5, -24.344, -15.652, -0.038, 2.5
 119420546, -23.788, -16.476, -0.067, 2.5, -24.074, -16.064, -0.06, 2.5
 119620466, -23.515, -16.857, -0.082, 2.5, -23.788, -16.476, -0.067, 2.5
 119820386, -23.248, -17.222, -0.027, 2.5, -23.515, -16.857, -0.082, 2.5
 120020306, -22.974, -17.601, 0.004, 2.5, -23.248, -17.222, -0.027, 2.5
 120220226, -22.68, -17.979, 0.038, 2.5, -22.974, -17.601, 0.004, 2.5
 120420146, -22.399, -18.342, 0.09900001, 2.5, -22.68, -17.979, 0.038, 2.5
 120620899, -22.09, -18.726, 0.09500001, 2.5, -22.399, -18.342, 0.09900001, 2.5
 120820819, -21.771, -19.108, 0.047, 2.5, -22.09, -18.726, 0.09500001, 2.5
 121020739, -21.422, -19.493, -0.011, 2.5, -21.771, -19.108, 0.047, 2.5
 121220659, -21.075, -19.856, -0.036, 2.5, -21.422, -19.493, -0.011, 2.5
 121420579, -20.742, -20.194, -0.07300001, 2.5, -21.075, -19.856, -0.036, 2.5
 121620499, -20.411, -20.519, -0.06900001, 2.5, -20.742, -20.194, -0.07300001, 2.5
 121820419, -20.078, -20.838, 0.011, 2.5, -20.411, -20.519, -0.06900001, 2.5
 122020339, -19.734, -21.168, 0.056, 2.5, -20.078, -20.838, 0.011, 2.5
 122220259, -19.372, -21.506, 0.029, 2.5, -19.734, -21.168, 0.056, 2.5
 122420179, -18.992, -21.838, -0.052, 2.5, -19.372, -21.506, 0.029, 2.5
 122620932, -18.612, -22.164, -0.059, 2.5, -18.992, -21.838, -0.052, 2.5
 122820852, -18.221, -22.474, -0.118, 2.5, -18.612, -22.164, -0.059, 2.5
 123020772, -17.858, -22.763, -0.055, 2.5, -18.221, -22.474, -0.118, 2.5
 123220692, -17.481, -23.048, -0.044, 2.5, -17.858, -22.763, -0.055, 2.5
 123420612, -17.106, -23.332, 0, 2.5, -17.481, -23.048, -0.044, 2.5
 123620532, -16.704, -23.631, 0.03, 2.5, -17.106, -23.332, 0, 2.5
 123820452, -16.282, -23.921, -0.058, 2.5, -16.704, -23.631, 0.03, 2.5
 124020372, -15.892, -24.184, -0.06500001, 2.5, -16.282, -23.921, -0.058, 2.5
 124220292, -15.505, -24.429, 0.001, 2.5, -15.892, -24.184, -0.06500001, 2.5
 124420212, -15.111, -24.679, 0.034, 2.5, -15.505, -24.429, 0.001, 2.5
 124620965, -14.707, -24.923, 0.054, 2.5, -15.111, -24.679, 0.034, 2.5
 124820885, -14.281, -25.18, 0.075, 2.5, -14.707, -24.923, 0.054, 2.5
 125020805, -13.869, -25.415, 0.093, 2.5, -14.281, -25.18, 0.075, 2.5
 125220725, -13.416, -25.663, 0.053, 2.5, -13.869, -25.415, 0.093, 2.5
 125420645, -12.956, -25.898, -0.019, 2.5, -13.416, -25.663, 0.053, 2.5
 125620565, -12.506, -26.111, -0.062, 2.5, -12.956, -25.898, -0.019, 2.5
 125820485, -12.105, -26.3, 0.034, 2.5, -12.506, -26.111, -0.062, 2.5
 126020405, -11.676, -26.499, 0.139, 2.5, -12.105, -26.3, 0.034, 2.5
 126220325, -11.187, -26.718, 0.081, 2.5, -11.676, -26.499, 0.139, 2.5
 126420245, -10.711, -26.937, 0.038, 2.5, -11.187, -26.718, 0.081, 2.5
 126620165, -10.266, -27.131, 0.021, 2.5, -10.711, -26.937, 0.038, 2.5
 126820918, -9.820001, -27.297, -0.007, 2.5, -10.266, -27.131, 0.021, 2.5
 127020838, -9.359, -27.45, 0, 2.5, -9.820001, -27.297, -0.007, 2.5
 127220758, -8.895, -27.604, 0.075, 2.5, -9.359, -27.45, 0, 2.5
 127420678, -8.393001, -27.764, 0.068, 2.5, -8.895, -27.604, 0.075, 2.5
 127620598, -7.889, -27.902, -0.001, 2.5, -8.393001, -27.764, 0.068, 2.5
 127820518, -7.423, -28.02, -0.017, 2.5, -7.889, -27.902, -0.001, 2.5
 128020438, -6.920001, -28.137, -0.011, 2.5, -7.423, -28.02, -0.017, 2.5
 128220358, -6.435, -28.251, -0.006, 2.5, -6.920001, -28.137, -0.011, 2.5
 128420278, -5.977, -28.362, 0.028, 2.5, -6.435, -28.251, -0.006, 2.5
 128620198, -5.493, -28.463, 0.081, 2.5, -5.977, -28.362, 0.028, 2.5
 128820951, -5.007, -28.557, 0.113, 2.5, -5.493, -28.463, 0.081, 2.5
 129020871, -4.48, -28.637, -0.009000001, 2.5, -5.007, -28.557, 0.113, 2.5
 129220791, -3.96, -28.701, -0.097, 2.5, -4.48, -28.637, -0.009000001, 2.5
 129420711, -3.501, -28.758, -0.043, 2.5, -3.96, -28.701, -0.097, 2.5
 129620631, -3.051, -28.813, 0.022, 2.5, -3.501, -28.758, -0.043, 2.5
 129820551, -2.594, -28.863, 0.054, 2.5, -3.051, -28.813, 0.022, 2.5
 130020471, -2.1, -28.904, 0.08000001, 2.5, -2.594, -28.863, 0.054, 2.5
 130220391, -1.563, -28.934, 0.003, 2.5, -2.1, -28.904, 0.08000001, 2.5
 130420311, -1.028, -28.954, -0.061, 2.5, -1.563, -28.934, 0.003, 2.5
 130620231, -0.554, -28.982, -0.001, 2.5, -1.028, -28.954, -0.061, 2.5
 130820151, -0.08800001, -28.998, 0.023, 2.5, -0.554, -28.982, -0.001, 2.5
 131020904, 0.382, -28.986, 0.01, 2.5, -0.08800001, -28.998, 0.023, 2.5
 131220824, 0.846, -28.969, 0.012, 2.5, 0.382, -28.986, 0.01, 2.5
 131420744, 1.335, -28.954, 0.031, 2.5, 0.846, -28.969, 0.012, 2.5
 131620664, 1.851, -28.919, 0.011, 2.5, 1.335, -28.954, 0.031, 2.5
 131820584, 2.34, -28.884, 0.02, 2.5, 1.851, -28.919, 0.011, 2.5
 132020504, 2.811, -28.838, 0.041, 2.5, 2.34, -28.884, 0.02, 2.5
 132220424, 3.272, -28.786, 0.06500001, 2.5, 2.811, -28.838, 0.041, 2.5
 132420344, 3.765, -28.73, 0.003, 2.5, 3.272, -28.786, 0.06500001, 2.5
 132620264, 4.268, -28.675, -0.016, 2.5, 3.765, -28.73, 0.003, 2.5
 132820184, 4.775, -28.618, -0.008, 2.5, 4.268, -28.675, -0.016, 2.5
 133020937, 5.24, -28.543, 0.051, 2.5, 4.775, -28.618, -0.008, 2.5
 133220857, 5.713, -28.447, 0.052, 2.5, 5.24, -28.543, 0.051, 2.5
 133420777, 6.222, -28.332, 0, 2.5, 5.713, -28.447, 0.052, 2.5
 133620697, 6.697001, -28.221, 0.019, 2.5, 6.222, -28.332, 0, 2.5
 133820617, 7.165, -28.103, 0.032, 2.5, 6.697001, -28.221, 0.019, 2.5
 134020537, 7.631001, -27.978, 0.029, 2.5, 7.165, -28.103, 0.032, 2.5
 134220457, 8.109, -27.844, -0.015, 2.5, 7.631001, -27.978, 0.029, 2.5
 134420377, 8.570001, -27.715, -0.031, 2.5, 8.109, -27.844, -0.015, 2.5
 134620297, 9.028001, -27.57, -0.011, 2.5, 8.570001, -27.715, -0.031, 2.5
 134820217, 9.454, -27.419, 0.026, 2.5, 9.028001, -27.57, -0.011, 2.5
 135020970, 9.923, -27.257, 0.023, 2.5, 9.454, -27.419, 0.026, 2.5
 135220890, 10.394, -27.098, 0.021, 2.5, 9.923, -27.257, 0.023, 2.5
 135420810, 10.855, -26.915, 0.006, 2.5, 10.394, -27.098, 0.021, 2.5
 135620730, 11.335, -26.719, -0.072, 2.5, 10.855, -26.915, 0.006, 2.5
 135820650, 11.788, -26.528, -0.081, 2.5, 11.335, -26.719, -0.072, 2.5
 136020570, 12.21, -26.347, -0.025, 2.5, 11.788, -26.528, -0.081, 2.5
 136220490, 12.628, -26.138, -0.004, 2.5, 12.21, -26.347, -0.025, 2.5
 136420410, 13.065, -25.912, -0.016, 2.5, 12.628, -26.138, -0.004, 2.5
 136620330, 13.476, -25.716, 0.071, 2.5, 13.065, -25.912, -0.016, 2.5
 136820250, 13.906, -25.495, 0.108, 2.5, 13.476, -25.716, 0.071, 2.5
 137020170, 14.366, -25.232, 0.072, 2.5, 13.906, -25.495, 0.108, 2.5
 137220923, 14.842, -24.969, 0.002, 2.5, 14.366, -25.232, 0.072, 2.5
 137420843, 15.253, -24.727, 0.002, 2.5, 14.842, -24.969, 0.002, 2.5
 137620763, 15.629, -24.484, 0.044, 2.5, 15.253, -24.727, 0.002, 2.5
 137820683, 16.04, -24.21, 0.029, 2.5, 15.629, -24.484, 0.044, 2.5
 138020603, 16.482, -23.916, -0.049, 2.5, 16.04, -24.21, 0.029, 2.5
 138220523, 16.909, -23.631, -0.074, 2.5, 16.482, -23.916, -0.049, 2.5
 138420443, 17.298, -23.33, -0.085, 2.5, 16.909, -23.631, -0.074, 2.5
 138620363, 17.669, -23.055, -0.062, 2.5, 17.298, -23.33, -0.085, 2.5
 138820283, 18.021, -22.782, 0, 2.5, 17.669, -23.055, -0.062, 2.5
 139020203, 18.391, -22.467, -0.043, 2.5, 18.021, -22.782, 0, 2.5
 139220956, 18.754, -22.149, 0.009000001, 2.5, 18.391, -22.467, -0.043, 2.5
 139420876, 19.126, -21.836, 0.1, 2.5, 18.754, -22.149, 0.009000001, 2.5
 139620796, 19.517, -21.491, 0.018, 2.5, 19.126, -21.836, 0.1, 2.5
 139820716, 19.925, -21.126, -0.064, 2.5, 19.517, -21.491, 0.018, 2.5
 140020636, 20.292, -20.782, -0.09100001, 2.5, 19.925, -21.126, -0.064, 2.5
 140220556, 20.624, -20.45, -0.067, 2.5, 20.292, -20.782, -0.09100001, 2.5
 140420476, 20.936, -20.113, -0.001, 2.5, 20.624, -20.45, -0.067, 2.5
 140620396, 21.284, -19.765, 0.06900001, 2.5, 20.936, -20.113, -0.001, 2.5
 140820316, 21.632, -19.408, 0.09200001, 2.5, 21.284, -19.765, 0.06900001, 2.5
 141020236, 21.951, -19.039, 0.125, 2.5, 21.632, -19.408, 0.09200001, 2.5
 141220156, 22.296, -18.616, 0.02, 2.5, 21.951, -19.039, 0.125, 2.5
 141420909, 22.631, -18.217, -0.036, 2.5, 22.296, -18.616, 0.02, 2.5
 141620829, 22.926, -17.839, -0.029, 2.5, 22.631, -18.217, -0.036, 2.5
 141820749, 23.211, -17.456, 0.005, 2.5, 22.926, -17.839, -0.029, 2.5
 142020669, 23.5, -17.056, 0.012, 2.5, 23.211, -17.456, 0.005, 2.5
 142220589, 23.796, -16.656, -0.009000001, 2.5, 23.5, -17.056, 0.012, 2.5
 142420509, 24.082, -16.26, 0.014, 2.5, 23.796, -16.656, -0.009000001, 2.5
 142620429, 24.358, -15.861, 0.057, 2.5, 24.082, -16.26, 0.014, 2.5
 142820349, 24.625, -15.445, 0.047, 2.5, 24.358, -15.861, 0.057, 2.5
 143020269, 24.895, -15.013, 0.005, 2.5, 24.625, -15.445, 0.047, 2.5
 143220189, 25.162, -14.579, -0.001, 2.5, 24.895, -15.013, 0.005, 2.5
 143420942, 25.407, -14.137, -0.018, 2.5, 25.162, -14.579, -0.001, 2.5
 143620862, 25.61, -13.723, -0.026, 2.5, 25.407, -14.137, -0.018, 2.5
 143820782, 25.826, -13.276, -0.054, 2.5, 25.61, -13.723, -0.026, 2.5
 144020702, 26.027, -12.842, -0.042, 2.5, 25.826, -13.276, -0.054, 2.5
 144220622, 26.24, -12.393, -0.006, 2.5, 26.027, -12.842, -0.042, 2.5
 144420542, 26.458, -11.943, -0.034, 2.5, 26.24, -12.393, -0.006, 2.5
 144620462, 26.667, -11.475, -0.06, 2.5, 26.458, -11.943, -0.034, 2.5
 144820382, 26.86, -11.007, -0.013, 2.5, 26.667, -11.475, -0.06, 2.5
 145020302, 27.06, -10.545, 0.005, 2.5, 26.86, -11.007, -0.013, 2.5
 145220222, 27.234, -10.09, 0.006, 2.5, 27.06, -10.545, 0.005, 2.5
 145420975, 27.406, -9.626, -0.008, 2.5, 27.234, -10.09, 0.006, 2.5
 145620895, 27.577, -9.167001, 0.042, 2.5, 27.406, -9.626, -0.008, 2.5
 145820815, 27.73, -8.726001, 0.089, 2.5, 27.577, -9.167001, 0.042, 2.5
 146020735, 27.874, -8.248, 0.07700001, 2.5, 27.73, -8.726001, 0.089, 2.5
 146220655, 28.013, -7.766, 0.043, 2.5, 27.874, -8.248, 0.07700001, 2.5
 146420575, 28.149, -7.288001, 0.071, 2.5, 28.013, -7.766, 0.043, 2.5
 146620495, 28.293, -6.772, 0.08400001, 2.5, 28.149, -7.288001, 0.071, 2.5
 146820415, 28.418, -6.283, 0.054, 2.5, 28.293, -6.772, 0.08400001, 2.5
 147020335, 28.524, -5.814, 0.06, 2.5, 28.418, -6.283, 0.054, 2.5
 147220255, 28.63, -5.321, 0.047, 2.5, 28.524, -5.814, 0.06, 2.5
 147420175, 28.719, -4.82, -0.005, 2.5, 28.63, -5.321, 0.047, 2.5
 147620928, 28.798, -4.333, 0.01, 2.5, 28.719, -4.82, -0.005, 2.5
 147820848, 28.865, -3.853, -0.02, 2.5, 28.798, -4.333, 0.01, 2.5
 148020768, 28.924, -3.369, -0.023, 2.5, 28.865, -3.853, -0.02, 2.5
 148220688, 28.977, -2.893, 0.017, 2.5, 28.924, -3.369, -0.023, 2.5
 148420608, 29.015, -2.4, 0.01, 2.5, 28.977, -2.893, 0.017, 2.5
 148620528, 29.043, -1.906, 0.045, 2.5, 29.015, -2.4, 0.01, 2.5
 148820448, 29.075, -1.416, -0.021, 2.5, 29.043, -1.906, 0.045, 2.5
 149020368, 29.089, -0.9540001, 0.033, 2.5, 29.075, -1.416, -0.021, 2.5
 149220288, 29.093, -0.461, 0.07300001, 2.5, 29.089, -0.9540001, 0.033, 2.5
 149420208, 29.086, 0.055, 0.016, 2.5, 29.093, -0.461, 0.07300001, 2.5
 149620961, 29.082, 0.553, 0.014, 2.5, 29.086, 0.055, 0.016, 2.5
 149820881, 29.077, 1.027, 0.013, 2.5, 29.082, 0.553, 0.014, 2.5
 150020801, 29.064, 1.472, 0.025, 2.5, 29.077, 1.027, 0.013, 2.5
 150220721, 29.041, 1.95, 0.009000001, 2.5, 29.064, 1.472, 0.025, 2.5
 150420641, 29.004, 2.468, -0.023, 2.5, 29.041, 1.95, 0.009000001, 2.5
 150620561, 28.958, 2.949, -0.01, 2.5, 29.004, 2.468, -0.023, 2.5
 150820481, 28.911, 3.428, 0.004, 2.5, 28.958, 2.949, -0.01, 2.5
 151020401, 28.849, 3.935, -0.016, 2.5, 28.911, 3.428, 0.004, 2.5
 151220321, 28.775, 4.436, 0.002, 2.5, 28.849, 3.935, -0.016, 2.5
 151420241, 28.698, 4.924, 0.005, 2.5, 28.775, 4.436, 0.002, 2.5
 151620161, 28.611, 5.417, -0.023, 2.5, 28.698, 4.924, 0.005, 2.5
 151820914, 28.513, 5.886, -0.007, 2.5, 28.611, 5.417, -0.023, 2.5
 152020834, 28.407, 6.358, -0.006, 2.5, 28.513, 5.886, -0.007, 2.5
 152220754, 28.308, 6.822001, -0.001, 2.5, 28.407, 6.358, -0.006, 2.5
 152420674, 28.189, 7.293, 0.04, 2.5, 28.308, 6.822001, -0.001, 2.5
 152620594, 28.075, 7.744, 0.012, 2.5, 28.189, 7.293, 0.04, 2.5
 152820514, 27.949, 8.197001, 0.053, 2.5, 28.075, 7.744, 0.012, 2.5
 153020434, 27.814, 8.669001, 0.078, 2.5, 27.949, 8.197001, 0.053, 2.5
 153220354, 27.659, 9.156, 0.048, 2.5, 27.814, 8.669001, 0.078, 2.5
 153420274, 27.498, 9.632001, 0.079, 2.5, 27.659, 9.156, 0.048, 2.5
 153620194, 27.335, 10.095, 0.09900001, 2.5, 27.498, 9.632001, 0.079, 2.5
 153820947, 27.155, 10.565, 0.046, 2.5, 27.335, 10.095, 0.09900001, 2.5
 154020867, 26.956, 11.056, -0.012, 2.5, 27.155, 10.565, 0.046, 2.5
 154220787, 26.773, 11.498, 0.07, 2.5, 26.956, 11.056, -0.012, 2.5
 154420707, 26.559, 12.001, 0.006, 2.5, 26.773, 11.498, 0.07, 2.5
 154620627, 26.33, 12.485, -0.038, 2.5, 26.559, 12.001, 0.006, 2.5
 154820547, 26.102, 12.942, -0.043, 2.5, 26.33, 12.485, -0.038, 2.5
 155020467, 25.892, 13.348, -0.039, 2.5, 26.102, 12.942, -0.043, 2.5
 155220387, 25.682, 13.755, 0.013, 2.5, 25.892, 13.348, -0.039, 2.5
 155420307, 25.451, 14.176, 0.041, 2.5, 25.682, 13.755, 0.013, 2.5
 155620227, 25.204, 14.616, 0.041, 2.5, 25.451, 14.176, 0.041, 2.5
 155820147, 24.935, 15.064, -0.001, 2.5, 25.204, 14.616, 0.041, 2.5
 156020900, 24.645, 15.526, -0.086, 2.5, 24.935, 15.064, -0.001, 2.5
 156220820, 24.377, 15.942, -0.078, 2.5, 24.645, 15.526, -0.086, 2.5
 156420740, 24.101, 16.35, -0.06, 2.5, 24.377, 15.942, -0.078, 2.5
 156620660, 23.842, 16.73, -0.014, 2.5, 24.101, 16.35, -0.06, 2.5
 156820580, 23.568, 17.11, 0.01, 2.5, 23.842, 16.73, -0.014, 2.5
 157020500, 23.271, 17.507, 0.05, 2.5, 23.568, 17.11, 0.01, 2.5
 157220420, 22.966, 17.913, 0.038, 2.5, 23.271, 17.507, 0.05, 2.5
 157420340, 22.671, 18.292, 0.045, 2.5, 22.966, 17.913, 0.038, 2.5
 157620260, 22.373, 18.661, 0.079, 2.5, 22.671, 18.292, 0.045, 2.5
 157820180, 22.053, 19.043, 0.039, 2.5, 22.373, 18.661, 0.079, 2.5
 158020933, 21.715, 19.427, 0.034, 2.5, 22.053, 19.043, 0.039, 2.5
 158220853, 21.37, 19.794, 0.008, 2.5, 21.715, 19.427, 0.034, 2.5
 158420773, 21.054, 20.137, 0.039, 2.5, 21.37, 19.794, 0.008, 2.5
 158620693, 20.725, 20.493, 0.074, 2.5, 21.054, 20.137, 0.039, 2.5
 158820613, 20.366, 20.853, 0.014, 2.5, 20.725, 20.493, 0.074, 2.5
 159020533, 20.019, 21.19, 0.04, 2.5, 20.366, 20.853, 0.014, 2.5
 159220453, 19.657, 21.533, -0.017, 2.5, 20.019, 21.19, 0.04, 2.5
 159420373, 19.271, 21.865, -0.114, 2.5, 19.657, 21.533, -0.017, 2.5
 159620293, 18.917, 22.159, -0.053, 2.5, 19.271, 21.865, -0.114, 2.5
 159820213, 18.544, 22.471, -0.002, 2.5, 18.917, 22.159, -0.053, 2.5
 160020966, 18.163, 22.777, -0.008, 2.5, 18.544, 22.471, -0.002, 2.5
 160220886, 17.762, 23.083, -0.02, 2.5, 18.163, 22.777, -0.008, 2.5
 160420806, 17.372, 23.376, 0, 2.5, 17.762, 23.083, -0.02, 2.5
 160620726, 16.981, 23.667, 0.015, 2.5, 17.372, 23.376, 0, 2.5
 160820646, 16.568, 23.954, -0.012, 2.5, 16.981, 23.667, 0.015, 2.5
 161020566, 16.128, 24.25, -0.103, 2.5, 16.568, 23.954, -0.012, 2.5
 161220486, 15.709, 24.532, -0.063, 2.5, 16.128, 24.25, -0.103, 2.5
 161420406, 15.309, 24.781, -0.003, 2.5, 15.709, 24.532, -0.063, 2.5
 161620326, 14.905, 25.037, 0.052, 2.5, 15.309, 24.781, -0.003, 2.5
 161820246, 14.486, 25.289, 0.037, 2.5, 14.905, 25.037, 0.052, 2.5
 162020166, 14.064, 25.545, 0.052, 2.5, 14.486, 25.289, 0.037, 2.5
 162220919, 13.613, 25.804, 0.044, 2.5, 14.064, 25.545, 0.052, 2.5
 162420839, 13.148, 26.049, 0.06500001, 2.5, 13.613, 25.804, 0.044, 2.5
 162620759, 12.68, 26.273, -0.006, 2.5, 13.148, 26.049, 0.06500001, 2.5
 162820679, 12.22, 26.472, -0.075, 2.5, 12.68, 26.273, -0.006, 2.5
 163020599, 11.762, 26.669, -0.093, 2.5, 12.22, 26.472, -0.075, 2.5
 163220519, 11.34, 26.845, 0.012, 2.5, 11.762, 26.669, -0.093, 2.5
 163420439, 10.896, 27.031, 0.023, 2.5, 11.34, 26.845, 0.012, 2.5
 163620359, 10.393, 27.224, -0.013, 2.5, 10.896, 27.031, 0.023, 2.5
 163820279, 9.923, 27.391, -0.014, 2.5, 10.393, 27.224, -0.013, 2.5
 164020199, 9.462001, 27.55, -0.011, 2.5, 9.923, 27.391, -0.014, 2.5
 164220952, 8.974, 27.713, -0.029, 2.5, 9.462001, 27.55, -0.011, 2.5
 164420872, 8.523001, 27.864, 0.012, 2.5, 8.974, 27.713, -0.029, 2.5
 164620792, 8.061001, 28.013, 0.053, 2.5, 8.523001, 27.864, 0.012, 2.5
 164820712, 7.595, 28.145, 0.02, 2.5, 8.061001, 28.013, 0.053, 2.5
 165020632, 7.098001, 28.266, -0.059, 2.5, 7.595, 28.145, 0.02, 2.5
 165220552, 6.591, 28.381, -0.096, 2.5, 7.098001, 28.266, -0.059, 2.5
 165420472, 6.105, 28.485, -0.06900001, 2.5, 6.591, 28.381, -0.096, 2.5
 165620392, 5.618, 28.583, -0.04, 2.5, 6.105, 28.485, -0.06900001, 2.5
 165820312, 5.132, 28.675, -0.016, 2.5, 5.618, 28.583, -0.04, 2.5
 166020232, 4.634, 28.757, -0.051, 2.5, 5.132, 28.675, -0.016, 2.5
 166220152, 4.15, 28.833, -0.029, 2.5, 4.634, 28.757, -0.051, 2.5
 166420905, 3.647, 28.894, -0.086, 2.5, 4.15, 28.833, -0.029, 2.5
 166620825, 3.163, 28.949, -0.044, 2.5, 3.647, 28.894, -0.086, 2.5
 166820745, 2.699, 28.992, -0.047, 2.5, 3.163, 28.949, -0.044, 2.5
 167020665, 2.238, 29.025, -0.038, 2.5, 2.699, 28.992, -0.047, 2.5
 167220585, 1.745, 29.058, 0.034, 2.5, 2.238, 29.025, -0.038, 2.5
 167420505, 1.233, 29.088, 0.016, 2.5, 1.745, 29.058, 0.034, 2.5
 167620425, 0.725, 29.105, -0.021, 2.5, 1.233, 29.088, 0.016, 2.5
 167820345, 0.273, 29.113, 0.031, 2.5, 0.725, 29.105, -0.021, 2.5
 168020265, -0.199, 29.116, 0.03, 2.5, 0.273, 29.113, 0.031, 2.5
 168220185, -0.663, 29.113, 0, 2.5, -0.199, 29.116, 0.03, 2.5
 168420938, -1.148, 29.094, 0.013, 2.5, -0.663, 29.113, 0, 2.5
 168620858, -1.644, 29.086, 0.078, 2.5, -1.148, 29.094, 0.013, 2.5
 168820778, -2.151, 29.063, 0.102, 2.5, -1.644, 29.086, 0.078, 2.5
 169020698, -2.649, 29.037, 0.071, 2.5, -2.151, 29.063, 0.102, 2.5
 169220618, -3.149, 28.987, 0.023, 2.5, -2.649, 29.037, 0.071, 2.5
 169420538, -3.67, 28.923, -0.045, 2.5, -3.149, 28.987, 0.023, 2.5
 169620458, -4.175, 28.855, -0.087, 2.5, -3.67, 28.923, -0.045, 2.5
 169820378, -4.666, 28.782, -0.063, 2.5, -4.175, 28.855, -0.087, 2.5
 170020298, -5.157, 28.7, -0.037, 2.5, -4.666, 28.782, -0.063, 2.5
 170220218, -5.625, 28.605, -0.023, 2.5, -5.157, 28.7, -0.037, 2.5
 170420971, -6.1, 28.503, 0.002, 2.5, -5.625, 28.605, -0.023, 2.5
 170620891, -6.569, 28.401, 0.034, 2.5, -6.1, 28.503, 0.002, 2.5
 170820811, -7.056, 28.275, 0.002, 2.5, -6.569, 28.401, 0.034, 2.5
 171020731, -7.559, 28.139, -0.05, 2.5, -7.056, 28.275, 0.002, 2.5
 171220651, -8.054001, 27.992, -0.07600001, 2.5, -7.559, 28.139, -0.05, 2.5
 171420571, -8.5, 27.856, 0.008, 2.5, -8.054001, 27.992, -0.07600001, 2.5
 171620491, -8.983001, 27.706, -0.029, 2.5, -8.5, 27.856, 0.008, 2.5
 171820411, -9.421, 27.559, -0.001, 2.5, -8.983001, 27.706, -0.029, 2.5
 172020331, -9.89, 27.392, 0.023, 2.5, -9.421, 27.559, -0.001, 2.5
 172220251, -10.392, 27.206, -0.066, 2.5, -9.89, 27.392, 0.023, 2.5
 172420171, -10.849, 27.022, -0.027, 2.5, -10.392, 27.206, -0.066, 2.5
 172620924, -11.316, 26.829, 0.008, 2.5, -10.849, 27.022, -0.027, 2.5
 172820844, -11.786, 26.631, -0.038, 2.5, -11.316, 26.829, 0.008, 2.5
 173020764, -12.235, 26.424, -0.103, 2.5, -11.786, 26.631, -0.038, 2.5
 173220684, -12.656, 26.214, -0.061, 2.5, -12.235, 26.424, -0.103, 2.5
 173420604, -13.08, 26.006, -0.019, 2.5, -12.656, 26.214, -0.061, 2.5
 173620524, -13.505, 25.792, 0.035, 2.5, -13.08, 26.006, -0.019, 2.5
 173820444, -13.932, 25.573, 0.072, 2.5, -13.505, 25.792, 0.035, 2.5
 174020364, -14.393, 25.32, -0.022, 2.5, -13.932, 25.573, 0.072, 2.5
 174220284, -14.856, 25.053, -0.054, 2.5, -14.393, 25.32, -0.022, 2.5
 174420204, -15.289, 24.791, -0.043, 2.5, -14.856, 25.053, -0.054, 2.5
 174620957, -15.694, 24.536, 0.01, 2.5, -15.289, 24.791, -0.043, 2.5
 174820877, -16.11, 24.264, 0.008, 2.5, -15.694, 24.536, 0.01, 2.5
 175020797, -16.53, 23.975, -0.07600001, 2.5, -16.11, 24.264, 0.008, 2.5
 175220717, -16.916, 23.7, -0.029, 2.5, -16.53, 23.975, -0.07600001, 2.5
 175420637, -17.31, 23.418, 0.003, 2.5, -16.916, 23.7, -0.029, 2.5
 175620557, -17.719, 23.112, -0.002, 2.5, -17.31, 23.418, 0.003, 2.5
 175820477, -18.12, 22.804, -0.025, 2.5, -17.719, 23.112, -0.002, 2.5
 176020397, -18.507, 22.489, 0, 2.5, -18.12, 22.804, -0.025, 2.5
 176220317, -18.884, 22.176, 0.027, 2.5, -18.507, 22.489, 0, 2.5
 176420237, -19.281, 21.829, -0.027, 2.5, -18.884, 22.176, 0.027, 2.5
 176620157, -19.657, 21.478, -0.096, 2.5, -19.281, 21.829, -0.027, 2.5
 176820910, -20.039, 21.124, -0.09900001, 2.5, -19.657, 21.478, -0.096, 2.5
 177020830, -20.374, 20.799, -0.028, 2.5, -20.039, 21.124, -0.09900001, 2.5
 177220750, -20.722, 20.451, -0.042, 2.5, -20.374, 20.799, -0.028, 2.5
 177420670, -21.063, 20.099, -0.066, 2.5, -20.722, 20.451, -0.042, 2.5
 177620590, -21.398, 19.744, 0.029, 2.5, -21.063, 20.099, -0.066, 2.5
 177820510, -21.751, 19.357, 0.052, 2.5, -21.398, 19.744, 0.029, 2.5
 178020430, -22.104, 18.953, -0.05, 2.5, -21.751, 19.357, 0.052, 2.5
 178220350, -22.418, 18.574, -0.078, 2.5, -22.104, 18.953, -0.05, 2.5
 178420270, -22.706, 18.217, -0.037, 2.5, -22.418, 18.574, -0.078, 2.5
 178620190, -22.975, 17.854, 0.005, 2.5, -22.706, 18.217, -0.037, 2.5
 178820943, -23.257, 17.488, 0.036, 2.5, -22.975, 17.854, 0.005, 2.5
 179020863, -23.544, 17.093, 0, 2.5, -23.257, 17.488, 0.036, 2.5
 179220783, -23.83, 16.706, 0.054, 2.5, -23.544, 17.093, 0, 2.5
 179420703, -24.103, 16.315, 0.093, 2.5, -23.83, 16.706, 0.054, 2.5
 179620623, -24.375, 15.912, 0.061, 2.5, -24.103, 16.315, 0.093, 2.5
 179820543, -24.662, 15.479, -0.015, 2.5, -24.375, 15.912, 0.061, 2.5
 180020463, -24.911, 15.083, 0.006, 2.5, -24.662, 15.479, -0.015, 2.5
 180220383, -25.157, 14.678, 0.002, 2.5, -24.911, 15.083, 0.006, 2.5
 180420303, -25.397, 14.252, 0, 2.5, -25.157, 14.678, 0.002, 2.5
 180620223, -25.636, 13.815, -0.006, 2.5, -25.397, 14.252, 0, 2.5
 180820976, -25.875, 13.362, -0.05, 2.5, -25.636, 13.815, -0.006, 2.5
 181020896, -26.097, 12.922, -0.102, 2.5, -25.875, 13.362, -0.05, 2.5
 181220816, -26.278, 12.519, -0.081, 2.5, -26.097, 12.922, -0.102, 2.5
 181420736, -26.441, 12.121, 0.021, 2.5, -26.278, 12.519, -0.081, 2.5
 181620656, -26.644, 11.671, 0.009000001, 2.5, -26.441, 12.121, 0.021, 2.5
 181820576, -26.847, 11.203, -0.041, 2.5, -26.644, 11.671, 0.009000001, 2.5
 182020496, -27.037, 10.737, -0.039, 2.5, -26.847, 11.203, -0.041, 2.5
 182220416, -27.21, 10.299, 0.027, 2.5, -27.037, 10.737, -0.039, 2.5
 182420336, -27.386, 9.849001, 0.057, 2.5, -27.21, 10.299, 0.027, 2.5
 182620256, -27.562, 9.349, -0.017, 2.5, -27.386, 9.849001, 0.057, 2.5
 182820176, -27.717, 8.829, -0.063, 2.5, -27.562, 9.349, -0.017, 2.5
 183020929, -27.854, 8.358001, -0.064, 2.5, -27.717, 8.829, -0.063, 2.5
 183220849, -27.982, 7.876, -0.057, 2.5, -27.854, 8.358001, -0.064, 2.5
 183420769, -28.105, 7.383, -0.07, 2.5, -27.982, 7.876, -0.057, 2.5
 183620689, -28.231, 6.907001, 0, 2.5, -28.105, 7.383, -0.07, 2.5
 183820609, -28.361, 6.404, 0.045, 2.5, -28.231, 6.907001, 0, 2.5
 184020529, -28.47, 5.899, 0.022, 2.5, -28.361, 6.404, 0.045, 2.5
 184220449, -28.57, 5.399, -0.07, 2.5, -28.47, 5.899, 0.022, 2.5
 184420369, -28.657, 4.935, -0.038, 2.5, -28.57, 5.399, -0.07, 2.5
 184620289, -28.733, 4.476, 0.056, 2.5, -28.657, 4.935, -0.038, 2.5
 184820209, -28.798, 3.948, 0.014, 2.5, -28.733, 4.476, 0.056, 2.5
 185020962, -28.861, 3.418, -0.03, 2.5, -28.798, 3.948, 0.014, 2.5
 185220882, -28.923, 2.922, 0.004, 2.5, -28.861, 3.418, -0.03, 2.5
 185420802, -28.973, 2.45, 0, 2.5, -28.923, 2.922, 0.004, 2.5
 185620722, -29.005, 1.929, 0.007, 2.5, -28.973, 2.45, 0, 2.5
 185820642, -29.034, 1.424, -0.014, 2.5, -29.005, 1.929, 0.007, 2.5
 186020562, -29.055, 0.9030001, -0.032, 2.5, -29.034, 1.424, -0.014, 2.5
 186220482, -29.073, 0.416, -0.012, 2.5, -29.055, 0.9030001, -0.032, 2.5
 186420402, -29.086, -0.062, 0.045, 2.5, -29.073, 0.416, -0.012, 2.5
 186620322, -29.091, -0.557, -0.008, 2.5, -29.086, -0.062, 0.045, 2.5
 186820242, -29.079, -1.045, 0.009000001, 2.5, -29.091, -0.557, -0.008, 2.5
 187020162, -29.07, -1.518, 0.044, 2.5, -29.079, -1.045, 0.009000001, 2.5
 187220915, -29.037, -2.012, 0.062, 2.5, -29.07, -1.518, 0.044, 2.5
 187420835, -28.996, -2.511, 0.038, 2.5, -29.037, -2.012, 0.062, 2.5
 187620755, -28.949, -3.012, 0.005, 2.5, -28.996, -2.511, 0.038, 2.5
 187820675, -28.881, -3.522, -0.015, 2.5, -28.949, -3.012, 0.005, 2.5
 188020595, -28.801, -4.008, 0.02, 2.5, -28.881, -3.522, -0.015, 2.5
 188220515, -28.712, -4.488, 0.007, 2.5, -28.801, -4.008, 0.02, 2.5
 188420435, -28.625, -4.978, -0.036, 2.5, -28.712, -4.488, 0.007, 2.5
