TimeUS,COFN,COFE,CNe,CEe,POFN,POFE,PNe,PEe
 3100426, 0.01141106, -0.06232494, 0.09738825, 0.04835226, 0, 0, 0, 0
 3140410, 0.04402138, -0.02086678, 0.09739874, 0.04827052, 0.01141106, -0.06232494, 0.09738825, 0.04835226
 3240370, 0.01468283, -0.06398149, 0.09740129, 0.04833686, 0.04402138, -0.02086678, 0.09739874, 0.04827052
 3340330, 0.04070722, -0.001881744, 0.0973915, 0.04825876, 0.01468283, -0.06398149, 0.09740129, 0.04833686
 3440290, -0.06596766, 0.008326987, 0.09745568, 0.04823123, 0.04070722, -0.001881744, 0.0973915, 0.04825876
 3540250, 0.03580652, -0.02839673, 0.0974072, 0.0482429, -0.06596766, 0.008326987, 0.09745568, 0.04823123
 3640210, -0.04361825, 0.02494833, 0.09742214, 0.04822887, 0.03580652, -0.02839673, 0.0974072, 0.0482429
 3740170, 0.0498712, 0.05193242, 0.09742266, 0.04832609, -0.04361825, 0.02494833, 0.09742214, 0.04822887
 3840963, 0.06246474, 0.03381602, 0.09744401, 0.0482779, 0.0498712, 0.05193242, 0.09742266, 0.04832609
 3940923, 0.07634086, 0.05262674, 0.09748282, 0.04833077, 0.06246474, 0.03381602, 0.09744401, 0.0482779
 4040883, 0.0517934, 0.02598514, 0.09742479, 0.04825431, 0.07634086, 0.05262674, 0.09748282, 0.04833077
 4140843, -0.0521013, 0.0645248, 0.09749936, 0.04823384, 0.0517934, 0.02598514, 0.09742479, 0.04825431
 4240803, -0.03877479, 0.06994449, 0.09747656, 0.04826208, -0.0521013, 0.0645248, 0.09749936, 0.04823384
 4340763, 0.04948513, 0.02873358, 0.0974243, 0.04825221, -0.03877479, 0.06994449, 0.09747656, 0.04826208
 4440723, -0.03973649, 0.03899752, 0.09743997, 0.04821412, 0.04948513, 0.02873358, 0.0974243, 0.04825221
 4540683, 0.02227764, -0.02403283, 0.09740137, 0.04821712, -0.03973649, 0.03899752, 0.09743997, 0.04821412
 4640643, 0.08124859, 0.02952708, 0.09750405, 0.04824637, 0.02227764, -0.02403283, 0.09740137, 0.04821712
 4740603, 0.01047713, -0.0469032, 0.09740906, 0.0482473, 0.08124859, 0.02952708, 0.09750405, 0.04824637
 4840563, 0.03391341, -0.02952352, 0.09742355, 0.04820741, 0.01047713, -0.0469032, 0.09740906, 0.0482473
 4940523, -0.0383092, 0.07454969, 0.09748849, 0.04826123, 0.03391341, -0.02952352, 0.09742355, 0.04820741
 5040483, -0.01644444, -0.03043321, 0.09739326, 0.04823805, -0.0383092, 0.07454969, 0.09748849, 0.04826123
 5140443, -0.009602817, 0.04453981, 0.09740742, 0.04824201, -0.01644444, -0.03043321, 0.09739326, 0.04823805
 5240403, 0.04172176, -0.0519473, 0.09746298, 0.04821715, -0.009602817, 0.04453981, 0.09740742, 0.04824201
 5340363, 0.06223866, 0.004978864, 0.09746103, 0.04820108, 0.04172176, -0.0519473, 0.09746298, 0.04821715
 5440323, 0.0385509, -0.06400885, 0.0974732, 0.04823881, 0.06223866, 0.004978864, 0.09746103, 0.04820108
 5540283, -0.0312572, 0.02846595, 0.09742016, 0.0482056, 0.0385509, -0.06400885, 0.0974732, 0.04823881
 5640243, -0.02621727, 0.005652737, 0.09740159, 0.04820358, -0.0312572, 0.02846595, 0.09742016, 0.0482056
 5740203, 0.02249201, 0.009633903, 0.09739611, 0.0482102, -0.02621727, 0.005652737, 0.09740159, 0.04820358
 5840163, -0.05454541, 0.01977128, 0.09746166, 0.04818013, 0.02249201, 0.009633903, 0.09739611, 0.0482102
 5940956, 0.03884807, -0.03864963, 0.09744577, 0.04819878, -0.05454541, 0.01977128, 0.09746166, 0.04818013
 6040916, 0.02091916, -0.01022931, 0.09740044, 0.04819934, 0.03884807, -0.03864963, 0.09744577, 0.04819878
 6140876, 0.01599568, 0.02641969, 0.09739664, 0.04822224, 0.02091916, -0.01022931, 0.09740044, 0.04819934
 6240836, 0.02261427, 0.01572479, 0.0973987, 0.04821089, 0.01599568, 0.02641969, 0.09739664, 0.04822224
 6340796, -0.05329061, 0.05753478, 0.09750433, 0.04819685, 0.02261427, 0.01572479, 0.0973987, 0.04821089
 6440756, -0.02606918, -0.03781868, 0.09740806, 0.04824197, -0.05329061, 0.05753478, 0.09750433, 0.04819685
 6540716, -0.04209225, 0.03161924, 0.09744753, 0.04818667, -0.02606918, -0.03781868, 0.09740806, 0.04824197
 6640676, 0.03330882, 0.06391174, 0.09743136, 0.0483089, -0.04209225, 0.03161924, 0.09744753, 0.04818667
 6740636, -0.01182087, -0.07022174, 0.09743093, 0.04830521, 0.03330882, 0.06391174, 0.09743136, 0.0483089
 6840596, -0.07909182, -0.02802663, 0.09750745, 0.04822351, -0.01182087, -0.07022174, 0.09743093, 0.04830521
 6940556, -0.01872795, 0.02206923, 0.09740745, 0.04819609, -0.07909182, -0.02802663, 0.09750745, 0.04822351
 7040516, -0.07039335, -0.05083003, 0.09748575, 0.04828576, -0.01872795, 0.02206923, 0.09740745, 0.04819609
 7140476, 0.01652784, 0.04460327, 0.09740998, 0.0482437, -0.07039335, -0.05083003, 0.09748575, 0.04828576
 7240436, -0.05379093, -0.007703069, 0.09744957, 0.04818927, 0.01652784, 0.04460327, 0.09740998, 0.0482437
 7340396, 0.06820737, 0.05757044, 0.09748371, 0.04830566, -0.05379093, -0.007703069, 0.09744957, 0.04818927
 7440356, 0.06965273, 0.0160758, 0.09748525, 0.04819695, 0.06820737, 0.05757044, 0.09748371, 0.04830566
 7540316, -0.03489352, -0.05983736, 0.09743162, 0.04829375, 0.06965273, 0.0160758, 0.09748525, 0.04819695
 7640276, -0.03978673, 0.0593014, 0.09747752, 0.04821219, -0.03489352, -0.05983736, 0.09743162, 0.04829375
 7740236, -0.07551125, 0.008955819, 0.09751602, 0.04815959, -0.03978673, 0.0593014, 0.09747752, 0.04821219
 7840196, 3.177021E-05, -0.04935534, 0.0974139, 0.0482422, -0.07551125, 0.008955819, 0.09751602, 0.04815959
 7940156, -0.01807427, 0.04507904, 0.09742381, 0.04821933, 3.177021E-05, -0.04935534, 0.0974139, 0.0482422
 8040949, 0.003025366, 0.02048891, 0.09739482, 0.04820651, -0.01807427, 0.04507904, 0.09742381, 0.04821933
 8140909, 0.03769814, 0.002086398, 0.09741974, 0.04819302, 0.003025366, 0.02048891, 0.09739482, 0.04820651
 8240869, 0.03712898, 0.003965658, 0.09741834, 0.04819471, 0.03769814, 0.002086398, 0.09741974, 0.04819302
 8340829, -0.05627162, -0.05932755, 0.09745826, 0.04830976, 0.03712898, 0.003965658, 0.09741834, 0.04819471
 8440789, 0.05345031, -0.02227978, 0.09746528, 0.0481723, -0.05627162, -0.05932755, 0.09745826, 0.04830976
 8540749, 0.001941545, 0.06306197, 0.09742671, 0.04827346, 0.05345031, -0.02227978, 0.09746528, 0.0481723
 8640709, 0.003543038, -0.04803054, 0.09741512, 0.04823544, 0.001941545, 0.06306197, 0.09742671, 0.04827346
 8740669, -0.0413032, 0.05801276, 0.09747955, 0.04820705, 0.003543038, -0.04803054, 0.09741512, 0.04823544
 8840629, -0.05007659, -0.0003964556, 0.09744537, 0.04818128, -0.0413032, 0.05801276, 0.09747955, 0.04820705
 8940589, -0.04850525, 0.03336866, 0.09746748, 0.04817204, -0.05007659, -0.0003964556, 0.09744537, 0.04818128
 9040549, 0.02624586, -0.03455229, 0.09742887, 0.0481915, -0.04850525, 0.03336866, 0.09746748, 0.04817204
 9140509, -0.01134006, -0.04156854, 0.09741084, 0.04822697, 0.02624586, -0.03455229, 0.09742887, 0.0481915
 9240469, -0.0227875, -0.00484988, 0.09740742, 0.04818526, -0.01134006, -0.04156854, 0.09741084, 0.04822697
 9340429, 0.04234486, -0.09239626, 0.09754534, 0.04826853, -0.0227875, -0.00484988, 0.09740742, 0.04818526
 9440389, -0.02644728, 0.009150547, 0.09741531, 0.04817821, 0.04234486, -0.09239626, 0.09754534, 0.04826853
 9540349, -0.0894148, -0.03352977, 0.09754548, 0.04822348, -0.02644728, 0.009150547, 0.09741531, 0.04817821
 9640309, 0.01732413, 0.07418077, 0.09744193, 0.04831007, -0.0894148, -0.03352977, 0.09754548, 0.04822348
 9740269, 0.0235809, -0.05228768, 0.09744459, 0.04821181, 0.01732413, 0.07418077, 0.09744193, 0.04831007
 9840229, -0.03261518, 0.02782892, 0.09743441, 0.04817865, 0.0235809, -0.05228768, 0.09744459, 0.04821181
 9940189, 0.04817348, -0.02265761, 0.09745926, 0.04816525, -0.03261518, 0.02782892, 0.09743441, 0.04817865
 10040149, 0.03485406, -0.02889222, 0.09743884, 0.04817751, 0.04817348, -0.02265761, 0.09745926, 0.04816525
 10140942, 0.0584164, -0.01278195, 0.09747602, 0.04815881, 0.03485406, -0.02889222, 0.09743884, 0.04817751
 10240902, 0.06459926, 0.01909477, 0.09747633, 0.04819378, 0.0584164, -0.01278195, 0.09747602, 0.04815881
 10340862, -0.0041302, 0.07980908, 0.09745882, 0.04829755, 0.06459926, 0.01909477, 0.09747633, 0.04819378
 10440822, -0.0005899305, 0.04057134, 0.09741376, 0.04821333, -0.0041302, 0.07980908, 0.09745882, 0.04829755
 10540782, -0.04551201, 0.03125012, 0.09746256, 0.04816651, -0.0005899305, 0.04057134, 0.09741376, 0.04821333
 10640742, 0.006009547, 0.01059545, 0.09739988, 0.04818591, -0.04551201, 0.03125012, 0.09746256, 0.04816651
 10740702, 0.07657544, 0.03774523, 0.09750563, 0.04823634, 0.006009547, 0.01059545, 0.09739988, 0.04818591
 10840662, 0.03249034, -0.07677897, 0.09749394, 0.04824747, 0.07657544, 0.03774523, 0.09750563, 0.04823634
 10940622, 0.02809044, -0.06932157, 0.09747332, 0.04823899, 0.03249034, -0.07677897, 0.09749394, 0.04824747
 11040582, -0.005170673, 0.01475828, 0.09739965, 0.04818989, 0.02809044, -0.06932157, 0.09747332, 0.04823899
 11140542, 0.02742453, -0.006350847, 0.09741344, 0.04818233, -0.005170673, 0.01475828, 0.09739965, 0.04818989
 11240502, -0.03639112, 0.04918034, 0.09746042, 0.04819658, 0.02742453, -0.006350847, 0.09741344, 0.04818233
 11340462, -0.06554188, -0.01511761, 0.09747712, 0.04819172, -0.03639112, 0.04918034, 0.09746042, 0.04819658
 11440422, -0.04026157, -0.02966503, 0.09742634, 0.04821949, -0.06554188, -0.01511761, 0.09747712, 0.04819172
 11540382, -0.02718764, -0.02687947, 0.097411, 0.04821204, -0.04026157, -0.02966503, 0.09742634, 0.04821949
 11640342, -0.02622544, -0.01744643, 0.0974086, 0.04819949, -0.02718764, -0.02687947, 0.097411, 0.04821204
 11740302, 0.06040993, -0.001555292, 0.09747156, 0.04817067, -0.02622544, -0.01744643, 0.0974086, 0.04819949
 11840262, 0.008019949, 0.0186676, 0.09739934, 0.04819678, 0.06040993, -0.001555292, 0.09747156, 0.04817067
 11940222, 0.006381919, 0.03274354, 0.09740523, 0.04821079, 0.008019949, 0.0186676, 0.09739934, 0.04819678
 12040182, 0.03776344, -0.03384798, 0.09744769, 0.04817896, 0.006381919, 0.03274354, 0.09740523, 0.04821079
 12140975, -0.007157473, 0.02177584, 0.09740376, 0.04819202, 0.03776344, -0.03384798, 0.09744769, 0.04817896
 12240935, 0.04109459, 0.006335904, 0.09742969, 0.04818415, -0.007157473, 0.02177584, 0.09740376, 0.04819202
 12340895, 0.07101664, 0.03884719, 0.09748925, 0.04824224, 0.04109459, 0.006335904, 0.09742969, 0.04818415
 12440855, -0.02469321, 0.04180345, 0.09743366, 0.04819936, 0.07101664, 0.03884719, 0.09748925, 0.04824224
 12540815, 0.06611817, 0.02938799, 0.09747624, 0.0482198, -0.02469321, 0.04180345, 0.09743366, 0.04819936
 12640775, -0.01866644, 0.01556673, 0.0974075, 0.04818685, 0.06611817, 0.02938799, 0.09747624, 0.0482198
 12740735, -0.03961761, -0.05753256, 0.09743655, 0.04828683, -0.01866644, 0.01556673, 0.0974075, 0.04818685
 12840695, -0.07099722, -0.02108962, 0.09748842, 0.04820444, -0.03961761, -0.05753256, 0.09743655, 0.04828683
 12940655, -0.01161921, 0.008801522, 0.09739833, 0.04819141, -0.07099722, -0.02108962, 0.09748842, 0.04820444
 13040615, -0.0001577511, -0.06395902, 0.09743014, 0.04827059, -0.01161921, 0.008801522, 0.09739833, 0.04819141
 13140575, 0.08430773, 0.02479726, 0.09752627, 0.04821066, -0.0001577511, -0.06395902, 0.09743014, 0.04827059
 13240535, 0.006065285, 0.07389908, 0.09743918, 0.04830436, 0.08430773, 0.02479726, 0.09752627, 0.04821066
 13340495, -0.01483594, -0.007040867, 0.09739809, 0.04819401, 0.006065285, 0.07389908, 0.09743918, 0.04830436
 13440455, -0.01602777, -0.01865867, 0.09740037, 0.04820181, -0.01483594, -0.007040867, 0.09739809, 0.04819401
 13540415, 0.03403002, -0.03361684, 0.09743902, 0.04818597, -0.01602777, -0.01865867, 0.09740037, 0.04820181
 13640375, -0.04786287, -0.05737278, 0.0974474, 0.04829089, 0.03403002, -0.03361684, 0.09743902, 0.04818597
 13740335, -0.06633946, 0.01796849, 0.09749895, 0.04815491, -0.04786287, -0.05737278, 0.0974474, 0.04829089
 13840295, -0.04907599, 0.06753387, 0.09751453, 0.04820655, -0.06633946, 0.01796849, 0.09749895, 0.04815491
 13940255, -0.006164732, -0.02592653, 0.09740043, 0.04820556, -0.04907599, 0.06753387, 0.09751453, 0.04820655
 14040215, -0.0105014, -0.01004681, 0.09739728, 0.04819348, -0.006164732, -0.02592653, 0.09740043, 0.04820556
 14140175, 0.006267605, -0.01306556, 0.09739829, 0.04819141, -0.0105014, -0.01004681, 0.09739728, 0.04819348
 14240968, -0.04471407, -0.004031066, 0.09743512, 0.04818377, 0.006267605, -0.01306556, 0.09739829, 0.04819141
 14340928, -0.04842082, 0.08269433, 0.09754052, 0.04823589, -0.04471407, -0.004031066, 0.09743512, 0.04818377
 14440888, -0.05511291, 0.02714619, 0.0974791, 0.04815994, -0.04842082, 0.08269433, 0.09754052, 0.04823589
 14540848, 0.04130854, 0.02334299, 0.09742954, 0.04820377, -0.05511291, 0.02714619, 0.0974791, 0.04815994
 14640808, -0.05386425, -0.0603109, 0.09746231, 0.04829612, 0.04130854, 0.02334299, 0.09742954, 0.04820377
 14740768, 0.03191763, 0.06644786, 0.09744112, 0.04829808, -0.05386425, -0.0603109, 0.09746231, 0.04829612
 14840728, 0.04307429, -0.09257261, 0.09754936, 0.04826391, 0.03191763, 0.06644786, 0.09744112, 0.04829808
 14940688, -0.004374629, 0.07427718, 0.09745201, 0.04827987, 0.04307429, -0.09257261, 0.09754936, 0.04826391
 15040648, 0.08739758, 0.0499792, 0.09753949, 0.04827319, -0.004374629, 0.07427718, 0.09745201, 0.04827987
 15140608, -0.04094108, 0.02363757, 0.0974471, 0.04816769, 0.08739758, 0.0499792, 0.09753949, 0.04827319
 15240568, -0.0247127, -0.001127196, 0.09741156, 0.04817947, -0.04094108, 0.02363757, 0.0974471, 0.04816769
 15340528, 0.0570241, 0.008694392, 0.09746236, 0.04817728, -0.0247127, -0.001127196, 0.09741156, 0.04817947
 15440488, -0.06422031, 0.00671856, 0.09748827, 0.04815601, 0.0570241, 0.008694392, 0.09746236, 0.04817728
 15540448, -0.04120502, 0.01106188, 0.09743936, 0.04816798, -0.06422031, 0.00671856, 0.09748827, 0.04815601
 15640408, -0.03671928, 0.07952305, 0.09750901, 0.04824368, -0.04120502, 0.01106188, 0.09743936, 0.04816798
 15740368, 0.01495105, 0.01253577, 0.0974033, 0.04818758, -0.03671928, 0.07952305, 0.09750901, 0.04824368
 15840328, -0.01660527, -0.05039383, 0.09741982, 0.04824429, 0.01495105, 0.01253577, 0.0974033, 0.04818758
 15940288, -0.01972011, -0.03451813, 0.09741137, 0.04821566, -0.01660527, -0.05039383, 0.09741982, 0.04824429
 16040248, 0.02007055, -0.07351398, 0.09746813, 0.04825735, -0.01972011, -0.03451813, 0.09741137, 0.04821566
 16140208, -0.03956148, 0.07140596, 0.09750091, 0.0482228, 0.02007055, -0.07351398, 0.09746813, 0.04825735
 16240168, -0.06412224, -0.04034258, 0.09747414, 0.04824273, -0.03956148, 0.07140596, 0.09750091, 0.0482228
 16340961, -0.03689006, -0.04954148, 0.09743157, 0.04825751, -0.06412224, -0.04034258, 0.09747414, 0.04824273
 16440921, -0.03533807, 0.09013471, 0.09752379, 0.04827672, -0.03689006, -0.04954148, 0.09743157, 0.04825751
 16540881, 0.009824192, 0.03326773, 0.09740611, 0.04821234, -0.03533807, 0.09013471, 0.09752379, 0.04827672
 16640841, 0.0511077, -0.04195491, 0.09748471, 0.04817074, 0.009824192, 0.03326773, 0.09740611, 0.04821234
 16740801, -0.0588368, -0.04799164, 0.09746252, 0.04826712, 0.0511077, -0.04195491, 0.09748471, 0.04817074
 16840761, -0.02782074, 0.008499424, 0.09741443, 0.04818232, -0.0588368, -0.04799164, 0.09746252, 0.04826712
 16940721, 0.03090365, -0.004231188, 0.09741692, 0.04818196, -0.02782074, 0.008499424, 0.09741443, 0.04818232
 17040681, -0.02747003, 0.07708228, 0.09748338, 0.04825941, 0.03090365, -0.004231188, 0.09741692, 0.04818196
 17140641, 0.0128838, -0.0317725, 0.09741242, 0.04819857, -0.02747003, 0.07708228, 0.09748338, 0.04825941
 17240601, -0.02992232, -0.04303683, 0.09742026, 0.0482409, 0.0128838, -0.0317725, 0.09741242, 0.04819857
 17340561, -0.01058384, 0.02753327, 0.09740905, 0.04819406, -0.02992232, -0.04303683, 0.09742026, 0.0482409
 17440521, -0.006258507, -0.007519186, 0.09739893, 0.04818585, -0.01058384, 0.02753327, 0.09740905, 0.04819406
 17540481, -0.05605551, 0.02704241, 0.09748256, 0.04815658, -0.006258507, -0.007519186, 0.09739893, 0.04818585
 17640441, 0.06358802, -0.01608607, 0.09749251, 0.04815236, -0.05605551, 0.02704241, 0.09748256, 0.04815658
 17740401, -0.01597476, -0.01023412, 0.09740289, 0.04818764, 0.06358802, -0.01608607, 0.09749251, 0.04815236
 17840361, -0.03346532, 0.05404405, 0.09746289, 0.04820258, -0.01597476, -0.01023412, 0.09740289, 0.04818764
 17940321, 0.0539874, -0.06985971, 0.09753418, 0.04819737, -0.03346532, 0.05404405, 0.09746289, 0.04820258
 18040281, -0.04578888, 0.02966773, 0.09746023, 0.04816861, 0.0539874, -0.06985971, 0.09753418, 0.04819737
 18140241, -0.054584, -0.02724268, 0.09745192, 0.04821299, -0.04578888, 0.02966773, 0.09746023, 0.04816861
 18240201, -0.07556286, -0.0467682, 0.0975028, 0.04826457, -0.054584, -0.02724268, 0.09745192, 0.04821299
 18340161, -0.01247658, -0.03007694, 0.09740572, 0.04820784, -0.07556286, -0.0467682, 0.0975028, 0.04826457
 18440954, 0.08125891, 0.04052598, 0.09751906, 0.04824457, -0.01247658, -0.03007694, 0.09740572, 0.04820784
 18540914, -0.03042076, 0.05493544, 0.09745933, 0.04820619, 0.08125891, 0.04052598, 0.09751906, 0.04824457
 18640874, 0.06282298, 0.05602502, 0.09747689, 0.0482869, -0.03042076, 0.05493544, 0.09745933, 0.04820619
 18740834, 0.02179882, -0.03379645, 0.0974258, 0.04818786, 0.06282298, 0.05602502, 0.09747689, 0.0482869
 18840794, -0.03788213, 0.04756543, 0.09746491, 0.04818583, 0.02179882, -0.03379645, 0.0974258, 0.04818786
 18940754, -0.004152641, 0.06496675, 0.09743967, 0.0482568, -0.03788213, 0.04756543, 0.09746491, 0.04818583
 19040714, 0.00932905, 0.01560012, 0.09740184, 0.04818868, -0.004152641, 0.06496675, 0.09743967, 0.0482568
 19140674, 0.004978979, -0.05817202, 0.09743237, 0.04824089, 0.00932905, 0.01560012, 0.09740184, 0.04818868
 19240634, 0.03161547, -0.07780679, 0.09749528, 0.04824861, 0.004978979, -0.05817202, 0.09743237, 0.04824089
 19340594, 0.01181184, -0.05860443, 0.09743873, 0.04823417, 0.03161547, -0.07780679, 0.09749528, 0.04824861
 19440554, 0.07775071, 0.0279003, 0.09739207, 0.04844814, 0.01181184, -0.05860443, 0.09743873, 0.04823417
 19540514, 0.05057651, -0.007927492, 0.09719524, 0.04868809, 0.07775071, 0.0279003, 0.09739207, 0.04844814
 19640474, -0.02166085, 0.03301464, 0.0969595, 0.04911729, 0.05057651, -0.007927492, 0.09719524, 0.04868809
 19740434, 0.05923495, 0.02466233, 0.09673358, 0.04965275, -0.02166085, 0.03301464, 0.0969595, 0.04911729
 19840394, -0.003364878, -0.03779808, 0.09636132, 0.05027649, 0.05923495, 0.02466233, 0.09673358, 0.04965275
 19940354, 0.02008295, 0.06441104, 0.09601966, 0.05103486, -0.003364878, -0.03779808, 0.09636132, 0.05027649
 20040314, -0.0392151, -0.05700657, 0.09563204, 0.05176567, 0.02008295, 0.06441104, 0.09601966, 0.05103486
 20140274, -0.00790948, 0.04884937, 0.09519631, 0.05248325, -0.0392151, -0.05700657, 0.09563204, 0.05176567
 20240234, 0.05194517, 0.02015567, 0.09478939, 0.05323662, -0.00790948, 0.04884937, 0.09519631, 0.05248325
 20340194, -0.01731801, -0.0005016117, 0.09430088, 0.05400469, 0.05194517, 0.02015567, 0.09478939, 0.05323662
 20440154, 0.05574954, 0.06209096, 0.09391449, 0.05489083, -0.01731801, -0.0005016117, 0.09430088, 0.05400469
 20540947, 0.07243469, 0.01865104, 0.09351103, 0.05553144, 0.05574954, 0.06209096, 0.09391449, 0.05489083
 20640907, -0.008296526, 0.04735776, 0.09299117, 0.05629371, 0.07243469, 0.01865104, 0.09351103, 0.05553144
 20740867, 0.04378378, -0.08349861, 0.09266043, 0.05704255, -0.008296526, 0.04735776, 0.09299117, 0.05629371
 20840827, 0.339258, -0.03013037, 0.09467625, 0.05708262, 0.04378378, -0.08349861, 0.09266043, 0.05704255
 20940787, 0.6096466, -0.1951822, 0.1004526, 0.05638702, 0.339258, -0.03013037, 0.09467625, 0.05708262
 21040747, 0.9880146, -0.1925158, 0.1115987, 0.05449334, 0.6096466, -0.1951822, 0.1004526, 0.05638702
 21140707, 1.500789, -0.3397489, 0.1330107, 0.05065127, 0.9880146, -0.1925158, 0.1115987, 0.05449334
 21240667, 2.150983, -0.3889009, 0.1637453, 0.04520124, 1.500789, -0.3397489, 0.1330107, 0.05065127
 21340627, 2.997447, -0.5406128, 0.2085818, 0.03728945, 2.150983, -0.3889009, 0.1637453, 0.04520124
 21440587, 3.693847, -0.7345852, 0.2478305, 0.03090937, 2.997447, -0.5406128, 0.2085818, 0.03728945
 21540547, 4.728426, -0.8940392, 0.3063288, 0.02143536, 3.693847, -0.7345852, 0.2478305, 0.03090937
 21640507, 5.667853, -1.039962, 0.3602598, 0.01345459, 4.728426, -0.8940392, 0.3063288, 0.02143536
 21740467, 6.757704, -1.195827, 0.4232405, 0.004706845, 5.667853, -1.039962, 0.3602598, 0.01345459
 21840427, 7.811454, -1.309934, 0.4840759, -0.002913125, 6.757704, -1.195827, 0.4232405, 0.004706845
 21940387, 8.730293, -1.400325, 0.5371322, -0.008057542, 7.811454, -1.309934, 0.4840759, -0.002913125
 22040347, 9.644149, -1.469066, 0.589757, -0.01236334, 8.730293, -1.400325, 0.5371322, -0.008057542
 22140307, 10.60641, -1.590872, 0.6456707, -0.01590368, 9.644149, -1.469066, 0.589757, -0.01236334
 22240267, 11.31704, -1.598278, 0.6860723, -0.01664005, 10.60641, -1.590872, 0.6456707, -0.01590368
 22340227, 12.16641, -1.511659, 0.7329286, -0.01678592, 11.31704, -1.598278, 0.6860723, -0.01664005
 22440187, 12.99038, -1.667236, 0.7778845, -0.01566628, 12.16641, -1.511659, 0.7329286, -0.01678592
 22540147, 13.68283, -1.569092, 0.8146902, -0.01363251, 12.99038, -1.667236, 0.7778845, -0.01566628
 22640940, 14.19594, -1.557086, 0.8424969, -0.0107453, 13.68283, -1.569092, 0.8146902, -0.01363251
 22740900, 15.09845, -1.581463, 0.8911694, -0.009250358, 14.19594, -1.557086, 0.8424969, -0.0107453
 22840860, 15.88344, -1.551113, 0.9254357, -0.004474342, 15.09845, -1.581463, 0.8911694, -0.009250358
 22940820, 16.29266, -1.494809, 0.9302205, 0.004964694, 15.88344, -1.551113, 0.9254357, -0.004474342
 23040780, 16.56692, -1.442854, 0.9221422, 0.01838782, 16.29266, -1.494809, 0.9302205, 0.004964694
 23140740, 16.99586, -1.335171, 0.9209575, 0.03410336, 16.56692, -1.442854, 0.9221422, 0.01838782
 23240700, 17.65528, -1.21933, 0.9348442, 0.05274354, 16.99586, -1.335171, 0.9209575, 0.03410336
 23340660, 18.20872, -1.249928, 0.9490545, 0.07009149, 17.65528, -1.21933, 0.9348442, 0.05274354
 23440620, 18.93164, -1.381434, 0.9757851, 0.08758067, 18.20872, -1.249928, 0.9490545, 0.07009149
 23540580, 19.81278, -1.471604, 1.011346, 0.1077541, 18.93164, -1.381434, 0.9757851, 0.08758067
 23640540, 20.69184, -1.484021, 1.047084, 0.1262219, 19.81278, -1.471604, 1.011346, 0.1077541
 23740500, 21.48538, -1.311387, 1.078303, 0.1456796, 20.69184, -1.484021, 1.047084, 0.1262219
 23840460, 21.93469, -1.290599, 1.095299, 0.1672837, 21.48538, -1.311387, 1.078303, 0.1456796
 23940420, 22.60686, -1.457751, 1.124827, 0.1893362, 21.93469, -1.290599, 1.095299, 0.1672837
 24040380, 23.01628, -1.392892, 1.143434, 0.2107923, 22.60686, -1.457751, 1.124827, 0.1893362
 24140340, 23.59832, -1.868394, 1.172971, 0.2322116, 23.01628, -1.392892, 1.143434, 0.2107923
 24240300, 24.50385, -2.048709, 1.215744, 0.258611, 23.59832, -1.868394, 1.172971, 0.2322116
 24340260, 24.43109, -1.872275, 1.215478, 0.2905772, 24.50385, -2.048709, 1.215744, 0.258611
 24440220, 25.34172, -1.261621, 1.260638, 0.3196678, 24.43109, -1.872275, 1.215478, 0.2905772
 24540180, 25.9288, -1.744605, 1.298918, 0.3449108, 25.34172, -1.261621, 1.260638, 0.3196678
 24640973, 25.81672, -2.07596, 1.307614, 0.3745325, 25.9288, -1.744605, 1.298918, 0.3449108
 24740933, 25.86936, -1.889862, 1.32201, 0.4015096, 25.81672, -2.07596, 1.307614, 0.3745325
 24840893, 26.67971, -1.862897, 1.369412, 0.4271928, 25.86936, -1.889862, 1.32201, 0.4015096
 24940853, 26.32462, -2.321296, 1.369194, 0.4623654, 26.67971, -1.862897, 1.369412, 0.4271928
 25040813, 26.49668, -2.083587, 1.390777, 0.4967791, 26.32462, -2.321296, 1.369194, 0.4623654
 25140773, 27.43954, -1.885334, 1.444914, 0.5272408, 26.49668, -2.083587, 1.390777, 0.4967791
 25240733, 27.06651, -1.60774, 1.4471, 0.5608715, 27.43954, -1.885334, 1.444914, 0.5272408
 25340693, 27.67067, -2.787571, 1.494068, 0.5899711, 27.06651, -1.60774, 1.4471, 0.5608715
 25440653, 27.81045, -2.189157, 1.518524, 0.6201176, 27.67067, -2.787571, 1.494068, 0.5899711
 25540613, 27.54053, -2.155939, 1.531205, 0.6548862, 27.81045, -2.189157, 1.518524, 0.6201176
 25640573, 28.51463, -2.04479, 1.593322, 0.6869212, 27.54053, -2.155939, 1.531205, 0.6548862
 25740533, 28.56036, -1.806441, 1.622154, 0.7228565, 28.51463, -2.04479, 1.593322, 0.6869212
 25840493, 27.92557, -3.003748, 1.63182, 0.76013, 28.56036, -1.806441, 1.622154, 0.7228565
 25940453, 28.17542, -3.179977, 1.67266, 0.7917784, 27.92557, -3.003748, 1.63182, 0.76013
 26040413, 29.17054, -2.480302, 1.736215, 0.8218067, 28.17542, -3.179977, 1.67266, 0.7917784
 26140373, 28.27989, -2.977558, 1.736098, 0.85787, 29.17054, -2.480302, 1.736215, 0.8218067
 26240333, 29.13301, -2.419415, 1.794278, 0.8900256, 28.27989, -2.977558, 1.736098, 0.85787
 26340293, 29.4212, -2.875809, 1.834257, 0.9250151, 29.13301, -2.419415, 1.794278, 0.8900256
 26440253, 27.55412, -2.830141, 1.798194, 0.9666489, 29.4212, -2.875809, 1.834257, 0.9250151
 26540213, 29.34996, -1.73278, 1.886732, 0.9944501, 27.55412, -2.830141, 1.798194, 0.9666489
 26640173, 28.63603, -3.514038, 1.897539, 1.029581, 29.34996, -1.73278, 1.886732, 0.9944501
 26740966, 29.48908, -2.889449, 1.955317, 1.056515, 28.63603, -3.514038, 1.897539, 1.029581
 26840926, 28.0243, -2.844746, 1.936382, 1.092705, 29.48908, -2.889449, 1.955317, 1.056515
 26940886, 28.46872, -1.459076, 1.975661, 1.125004, 28.0243, -2.844746, 1.936382, 1.092705
 27040846, 28.56568, -1.375565, 2.007902, 1.154831, 28.46872, -1.459076, 1.975661, 1.125004
 27140806, 27.83121, -2.528038, 2.017596, 1.183215, 28.56568, -1.375565, 2.007902, 1.154831
 27240766, 27.83446, -3.557038, 2.049382, 1.212736, 27.83121, -2.528038, 2.017596, 1.183215
 27340726, 30.32989, -3.316831, 2.159397, 1.227606, 27.83446, -3.557038, 2.049382, 1.212736
 27440686, 28.87164, -1.640201, 2.135846, 1.261715, 30.32989, -3.316831, 2.159397, 1.227606
 27540646, 28.98802, -3.858713, 2.176525, 1.284115, 28.87164, -1.640201, 2.135846, 1.261715
 27640606, 30.53661, -2.724876, 2.252468, 1.302541, 28.98802, -3.858713, 2.176525, 1.284115
 27740566, 30.28383, -2.0524, 2.270822, 1.329389, 30.53661, -2.724876, 2.252468, 1.302541
 27840526, 29.05756, -1.618438, 2.261888, 1.356123, 30.28383, -2.0524, 2.270822, 1.329389
 27940486, 29.97904, -2.299327, 2.322703, 1.376961, 29.05756, -1.618438, 2.261888, 1.356123
 28040446, 27.52583, -4.509497, 2.287999, 1.407697, 29.97904, -2.299327, 2.322703, 1.376961
 28140406, 29.2915, -1.931976, 2.362123, 1.42667, 27.52583, -4.509497, 2.287999, 1.407697
 28240366, 29.75208, -2.708823, 2.409416, 1.446799, 29.2915, -1.931976, 2.362123, 1.42667
 28340326, 28.85654, -2.148013, 2.411946, 1.472816, 29.75208, -2.708823, 2.409416, 1.446799
 28440286, 30.46322, -3.543122, 2.494573, 1.4862, 28.85654, -2.148013, 2.411946, 1.472816
 28540246, 30.00154, -2.63259, 2.506821, 1.508826, 30.46322, -3.543122, 2.494573, 1.4862
 28640206, 29.74637, -3.369848, 2.518725, 1.533547, 30.00154, -2.63259, 2.506821, 1.508826
 28740166, 28.27971, -1.265829, 2.473349, 1.580581, 29.74637, -3.369848, 2.518725, 1.533547
 28840959, 27.15872, -0.573153, 2.46145, 1.627173, 28.27971, -1.265829, 2.473349, 1.580581
 28940919, 29.17311, -1.548078, 2.571533, 1.655797, 27.15872, -0.573153, 2.46145, 1.627173
 29040879, 30.0458, -4.3837, 2.664934, 1.68646, 29.17311, -1.548078, 2.571533, 1.655797
 29140839, 29.02691, -4.369829, 2.684208, 1.715037, 30.0458, -4.3837, 2.664934, 1.68646
 29240799, 27.78528, -5.586886, 2.676244, 1.735592, 29.02691, -4.369829, 2.684208, 1.715037
 29340759, 28.27779, -4.613287, 2.677597, 1.747286, 27.78528, -5.586886, 2.676244, 1.735592
 29440719, 27.27394, -5.476062, 2.632463, 1.765212, 28.27779, -4.613287, 2.677597, 1.747286
 29540679, 27.50264, -5.098278, 2.610987, 1.775656, 27.27394, -5.476062, 2.632463, 1.765212
 29640639, 28.19515, -3.889318, 2.602906, 1.782475, 27.50264, -5.098278, 2.610987, 1.775656
 29740599, 27.61922, -1.39831, 2.565117, 1.793717, 28.19515, -3.889318, 2.602906, 1.782475
 29840559, 27.83908, -4.12279, 2.562353, 1.811541, 27.61922, -1.39831, 2.565117, 1.793717
 29940519, 28.95048, -3.011742, 2.578495, 1.827143, 27.83908, -4.12279, 2.562353, 1.811541
 30040479, 29.78444, -2.209238, 2.593819, 1.840095, 28.95048, -3.011742, 2.578495, 1.827143
 30140439, 29.03099, -2.083456, 2.567329, 1.856279, 29.78444, -2.209238, 2.593819, 1.840095
 30240399, 29.73664, -1.239621, 2.579332, 1.872268, 29.03099, -2.083456, 2.567329, 1.856279
 30340359, 27.90306, -0.6886386, 2.519481, 1.893962, 29.73664, -1.239621, 2.579332, 1.872268
 30440319, 26.95656, -1.618682, 2.485815, 1.91431, 27.90306, -0.6886386, 2.519481, 1.893962
 30540279, 28.12261, -0.8525181, 2.507703, 1.93162, 26.95656, -1.618682, 2.485815, 1.91431
 30640239, 27.65749, 0.5260639, 2.483652, 1.953842, 28.12261, -0.8525181, 2.507703, 1.93162
 30740199, 25.03198, -2.410239, 2.409039, 1.970704, 27.65749, 0.5260639, 2.483652, 1.953842
 30840159, 27.7921, 0.08908105, 2.473964, 1.978065, 25.03198, -2.410239, 2.409039, 1.970704
 30940952, 25.88191, -1.674123, 2.419462, 1.985602, 27.7921, 0.08908105, 2.473964, 1.978065
 31040912, 25.64276, 0.4862673, 2.409764, 1.987134, 25.88191, -1.674123, 2.419462, 1.985602
 31140872, 25.56645, 0.7949206, 2.406366, 1.989254, 25.64276, 0.4862673, 2.409764, 1.987134
 31240832, 27.36745, 0.1728059, 2.455206, 1.990384, 25.56645, 0.7949206, 2.406366, 1.989254
 31340792, 24.03218, 0.7979783, 2.3648, 1.991633, 27.36745, 0.1728059, 2.455206, 1.990384
 31440752, 27.3458, -2.093299, 2.451571, 1.992481, 24.03218, 0.7979783, 2.3648, 1.991633
 31540712, 26.69338, 1.194154, 2.429014, 1.991749, 27.3458, -2.093299, 2.451571, 1.992481
 31640672, 27.06322, -1.557549, 2.435735, 1.989931, 26.69338, 1.194154, 2.429014, 1.991749
 31740632, 24.61811, -0.8985506, 2.364835, 1.98714, 27.06322, -1.557549, 2.435735, 1.989931
 31840592, 25.20967, -1.714691, 2.371674, 1.988225, 24.61811, -0.8985506, 2.364835, 1.98714
 31940552, 23.59587, 1.106292, 2.322071, 1.985692, 25.20967, -1.714691, 2.371674, 1.988225
 32040512, 23.33937, -0.3365682, 2.306783, 1.982756, 23.59587, 1.106292, 2.322071, 1.985692
 32140472, 25.37909, -1.651088, 2.35288, 1.980834, 23.33937, -0.3365682, 2.306783, 1.982756
 32240432, 24.58582, 0.4015073, 2.321396, 1.979164, 25.37909, -1.651088, 2.35288, 1.980834
 32340392, 24.01155, -0.3127145, 2.296896, 1.977207, 24.58582, 0.4015073, 2.321396, 1.979164
 32440352, 25.94705, 1.746514, 2.337722, 1.977261, 24.01155, -0.3127145, 2.296896, 1.977207
 32540312, 26.28794, 1.684722, 2.335883, 1.976261, 25.94705, 1.746514, 2.337722, 1.977261
 32640272, 23.43376, 0.6404151, 2.248987, 1.971722, 26.28794, 1.684722, 2.335883, 1.976261
 32740232, 24.52373, 1.25222, 2.266506, 1.969485, 23.43376, 0.6404151, 2.248987, 1.971722
 32840192, 27.14773, 0.05692565, 2.326221, 1.967493, 24.52373, 1.25222, 2.266506, 1.969485
 32940152, 25.21662, 1.817494, 2.262603, 1.962025, 27.14773, 0.05692565, 2.326221, 1.967493
 33040945, 26.4394, -1.175183, 2.283493, 1.959293, 25.21662, 1.817494, 2.262603, 1.962025
 33140905, 26.60998, -0.1651025, 2.276322, 1.95485, 26.4394, -1.175183, 2.283493, 1.959293
 33240865, 27.35728, -0.5106886, 2.285168, 1.952104, 26.60998, -0.1651025, 2.276322, 1.95485
 33340825, 26.55334, -0.3762872, 2.250497, 1.946556, 27.35728, -0.5106886, 2.285168, 1.952104
 33440785, 26.81177, -1.124472, 2.245524, 1.944101, 26.55334, -0.3762872, 2.250497, 1.946556
 33540745, 26.49563, 1.987692, 2.227201, 1.938215, 26.81177, -1.124472, 2.245524, 1.944101
 33640705, 25.5743, -0.8148561, 2.186189, 1.934217, 26.49563, 1.987692, 2.227201, 1.938215
 33740665, 25.15174, 0.7133695, 2.166842, 1.924161, 25.5743, -0.8148561, 2.186189, 1.934217
 33840625, 26.2155, -0.02771658, 2.184548, 1.920942, 25.15174, 0.7133695, 2.166842, 1.924161
 33940585, 27.2719, -0.2036555, 2.203337, 1.917791, 26.2155, -0.02771658, 2.184548, 1.920942
 34040545, 27.66772, 1.266046, 2.207638, 1.909784, 27.2719, -0.2036555, 2.203337, 1.917791
 34140505, 27.31801, -0.3140922, 2.187704, 1.901839, 27.66772, 1.266046, 2.207638, 1.909784
 34240465, 24.99758, 1.191137, 2.112514, 1.890529, 27.31801, -0.3140922, 2.187704, 1.901839
 34340425, 24.89179, 0.6033251, 2.098797, 1.884301, 24.99758, 1.191137, 2.112514, 1.890529
 34440385, 26.62763, 0.7959176, 2.138028, 1.881007, 24.89179, 0.6033251, 2.098797, 1.884301
 34540345, 27.8112, 1.040468, 2.166653, 1.873423, 26.62763, 0.7959176, 2.138028, 1.881007
 34640305, 25.39725, 0.9135402, 2.087398, 1.861194, 27.8112, 1.040468, 2.166653, 1.873423
 34740265, 27.7213, 2.651953, 2.149776, 1.858967, 25.39725, 0.9135402, 2.087398, 1.861194
 34840225, 27.44197, -0.3763688, 2.126904, 1.853433, 27.7213, 2.651953, 2.149776, 1.858967
 34940185, 26.72882, 2.091035, 2.100235, 1.843755, 27.44197, -0.3763688, 2.126904, 1.853433
 35040145, 25.3314, -0.0005395412, 2.050632, 1.830594, 26.72882, 2.091035, 2.100235, 1.843755
 35140938, 27.24466, 2.651705, 2.106573, 1.824006, 25.3314, -0.0005395412, 2.050632, 1.830594
 35240898, 27.36559, 0.396533, 2.098683, 1.816791, 27.24466, 2.651705, 2.106573, 1.824006
 35340858, 25.07893, 0.6696969, 2.021628, 1.805982, 27.36559, 0.396533, 2.098683, 1.816791
 35440818, 26.63308, 2.487198, 2.062806, 1.803232, 25.07893, 0.6696969, 2.021628, 1.805982
 35540778, 24.86114, 1.201829, 1.999846, 1.792676, 26.63308, 2.487198, 2.062806, 1.803232
 35640738, 25.70901, 0.572538, 2.017115, 1.786662, 24.86114, 1.201829, 1.999846, 1.792676
 35740698, 27.32032, 0.6345372, 2.061766, 1.779412, 25.70901, 0.572538, 2.017115, 1.786662
 35840658, 25.80283, 0.2750877, 2.008945, 1.768262, 27.32032, 0.6345372, 2.061766, 1.779412
 35940618, 27.95675, 1.824653, 2.072966, 1.762607, 25.80283, 0.2750877, 2.008945, 1.768262
 36040578, 27.96584, 0.08395386, 2.062762, 1.757697, 27.95675, 1.824653, 2.072966, 1.762607
 36140538, 28.26059, 1.058775, 2.069403, 1.747055, 27.96584, 0.08395386, 2.062762, 1.757697
 36240498, 27.3818, -0.1355217, 2.033465, 1.737927, 28.26059, 1.058775, 2.069403, 1.747055
 36340458, 26.2092, 2.259396, 1.995247, 1.726627, 27.3818, -0.1355217, 2.033465, 1.737927
 36440418, 26.59334, 0.8547706, 1.998726, 1.720218, 26.2092, 2.259396, 1.995247, 1.726627
 36540378, 26.99217, 0.2979987, 2.003286, 1.71644, 26.59334, 0.8547706, 1.998726, 1.720218
 36640338, 26.2737, 2.96326, 1.979969, 1.707774, 26.99217, 0.2979987, 2.003286, 1.71644
 36740298, 25.45038, 1.044668, 1.946476, 1.695137, 26.2737, 2.96326, 1.979969, 1.707774
 36840258, 26.13072, 2.326281, 1.96404, 1.689274, 25.45038, 1.044668, 1.946476, 1.695137
 36940218, 27.02326, 2.426789, 1.986488, 1.683335, 26.13072, 2.326281, 1.96404, 1.689274
 37040178, 26.82114, 0.9545699, 1.972952, 1.673259, 27.02326, 2.426789, 1.986488, 1.683335
 37140971, 26.81321, 2.215392, 1.971704, 1.665033, 26.82114, 0.9545699, 1.972952, 1.673259
 37240931, 26.5076, 1.798566, 1.958518, 1.656096, 26.81321, 2.215392, 1.971704, 1.665033
 37340891, 25.95791, 1.9254, 1.938573, 1.647246, 26.5076, 1.798566, 1.958518, 1.656096
 37440851, 28.41864, 0.7589132, 2.013545, 1.645655, 25.95791, 1.9254, 1.938573, 1.647246
 37540811, 27.19536, 0.1994979, 1.967098, 1.639486, 28.41864, 0.7589132, 2.013545, 1.645655
 37640771, 25.93643, 2.636964, 1.925751, 1.634303, 27.19536, 0.1994979, 1.967098, 1.639486
 37740731, 27.98979, 1.706414, 1.987889, 1.631138, 25.93643, 2.636964, 1.925751, 1.634303
 37840691, 28.67388, 1.732992, 2.008036, 1.62656, 27.98979, 1.706414, 1.987889, 1.631138
 37940651, 28.56956, 2.779831, 2.004212, 1.621216, 28.67388, 1.732992, 2.008036, 1.62656
 38040611, 27.11686, 1.18797, 1.950265, 1.610703, 28.56956, 2.779831, 2.004212, 1.621216
 38140571, 28.54896, 0.2405607, 1.993503, 1.609669, 27.11686, 1.18797, 1.950265, 1.610703
 38240531, 26.9222, -0.07899141, 1.936173, 1.601529, 28.54896, 0.2405607, 1.993503, 1.609669
 38340491, 28.44378, 1.2027, 1.985174, 1.599357, 26.9222, -0.07899141, 1.936173, 1.601529
 38440451, 27.9692, 0.330833, 1.962711, 1.596053, 28.44378, 1.2027, 1.985174, 1.599357
 38540411, 28.29047, 2.277933, 1.975096, 1.589142, 27.9692, 0.330833, 1.962711, 1.596053
 38640371, 27.19443, 1.824882, 1.936293, 1.580199, 28.29047, 2.277933, 1.975096, 1.589142
 38740331, 27.23889, 0.02584219, 1.931325, 1.577156, 27.19443, 1.824882, 1.936293, 1.580199
 38840291, 26.59395, 1.691685, 1.910228, 1.570345, 27.23889, 0.02584219, 1.931325, 1.577156
 38940251, 28.57918, 0.8056036, 1.975805, 1.567394, 26.59395, 1.691685, 1.910228, 1.570345
 39040211, 27.52588, 1.831596, 1.939707, 1.5609, 28.57918, 0.8056036, 1.975805, 1.567394
 39140171, 27.90745, 1.418458, 1.949264, 1.557777, 27.52588, 1.831596, 1.939707, 1.5609
 39240964, 27.50721, 2.110343, 1.933917, 1.554267, 27.90745, 1.418458, 1.949264, 1.557777
 39340924, 27.7436, 1.600792, 1.94064, 1.54849, 27.50721, 2.110343, 1.933917, 1.554267
 39440884, 27.72057, 0.8090037, 1.937221, 1.544078, 27.7436, 1.600792, 1.94064, 1.54849
 39540844, 28.87129, 0.1177171, 1.97338, 1.544534, 27.72057, 0.8090037, 1.937221, 1.544078
 39640804, 26.79894, 1.081746, 1.901199, 1.536586, 28.87129, 0.1177171, 1.97338, 1.544534
 39740764, 26.73423, 0.09557235, 1.897288, 1.531805, 26.79894, 1.081746, 1.901199, 1.536586
 39840724, 27.59495, 1.014806, 1.92641, 1.528591, 26.73423, 0.09557235, 1.897288, 1.531805
 39940684, 27.90458, 2.4986, 1.93701, 1.527128, 27.59495, 1.014806, 1.92641, 1.528591
 40040644, 26.36643, 0.4755195, 1.8813, 1.517736, 27.90458, 2.4986, 1.93701, 1.527128
 40140604, 28.78513, 0.08797598, 1.963939, 1.517544, 26.36643, 0.4755195, 1.8813, 1.517736
 40240564, 27.71767, 0.5335773, 1.925405, 1.512803, 28.78513, 0.08797598, 1.963939, 1.517544
 40340524, 26.48118, 0.4825307, 1.882008, 1.506935, 27.71767, 0.5335773, 1.925405, 1.512803
 40440484, 26.63609, -0.2930384, 1.885503, 1.50396, 26.48118, 0.4825307, 1.882008, 1.506935
 40540444, 28.63519, 1.141925, 1.956456, 1.501482, 26.63609, -0.2930384, 1.885503, 1.50396
 40640404, 27.47179, 0.05964863, 1.91466, 1.496874, 28.63519, 1.141925, 1.956456, 1.501482
 40740364, 26.76879, 1.79842, 1.893079, 1.496691, 27.47179, 0.05964863, 1.91466, 1.496874
 40840324, 26.76228, 1.051569, 1.893836, 1.496956, 26.76879, 1.79842, 1.893079, 1.496691
 40940284, 26.88777, 0.6455222, 1.900652, 1.497898, 26.76228, 1.051569, 1.893836, 1.496956
 41040244, 28.76649, 0.1811808, 1.967618, 1.502919, 26.88777, 0.6455222, 1.900652, 1.497898
 41140204, 28.19807, 2.158884, 1.95376, 1.503068, 28.76649, 0.1811808, 1.967618, 1.502919
 41240164, 27.84332, -0.05939996, 1.941607, 1.503699, 28.19807, 2.158884, 1.95376, 1.503068
 41340957, 27.51745, 1.756202, 1.935724, 1.503369, 27.84332, -0.05939996, 1.941607, 1.503699
 41440917, 29.14834, 0.09562725, 1.991099, 1.508968, 27.51745, 1.756202, 1.935724, 1.503369
 41540877, 29.1531, 0.4573009, 1.994047, 1.510245, 29.14834, 0.09562725, 1.991099, 1.508968
 41640837, 28.22274, 1.001341, 1.965533, 1.509464, 29.1531, 0.4573009, 1.994047, 1.510245
 41740797, 28.07182, 0.2514349, 1.962747, 1.510455, 28.22274, 1.001341, 1.965533, 1.509464
 41840757, 27.24404, 0.6768297, 1.937696, 1.510407, 28.07182, 0.2514349, 1.962747, 1.510455
 41940717, 28.38522, 0.7923243, 1.980039, 1.513998, 27.24404, 0.6768297, 1.937696, 1.510407
 42040677, 29.00316, 1.050208, 2.005692, 1.515632, 28.38522, 0.7923243, 1.980039, 1.513998
 42140637, 27.49035, 0.3391473, 1.955631, 1.516495, 29.00316, 1.050208, 2.005692, 1.515632
 42240597, 28.98838, 1.64125, 2.012641, 1.520449, 27.49035, 0.3391473, 1.955631, 1.516495
 42340557, 28.63396, 1.185262, 2.003078, 1.522033, 28.98838, 1.64125, 2.012641, 1.520449
 42440517, 27.91224, 2.152643, 1.983585, 1.523467, 28.63396, 1.185262, 2.003078, 1.522033
 42540477, 27.20217, 0.7512413, 1.962707, 1.521421, 27.91224, 2.152643, 1.983585, 1.523467
 42640437, 27.07269, 1.360778, 1.961933, 1.525166, 27.20217, 0.7512413, 1.962707, 1.521421
 42740397, 26.73269, 1.574294, 1.953963, 1.528074, 27.07269, 1.360778, 1.961933, 1.525166
 42840357, 27.42377, 1.673254, 1.981179, 1.530359, 26.73269, 1.574294, 1.953963, 1.528074
 42940317, 27.31361, -0.06330472, 1.978698, 1.532995, 27.42377, 1.673254, 1.981179, 1.530359
 43040277, 27.21387, 0.329032, 1.980496, 1.534387, 27.31361, -0.06330472, 1.978698, 1.532995
 43140237, 28.6035, -0.1221212, 2.032891, 1.537229, 27.21387, 0.329032, 1.980496, 1.534387
 43240197, 28.22449, 1.863514, 2.026525, 1.539303, 28.6035, -0.1221212, 2.032891, 1.537229
 43340157, 28.33868, 0.3301127, 2.033921, 1.540789, 28.22449, 1.863514, 2.026525, 1.539303
 43440950, 28.79946, -0.653718, 2.054538, 1.543173, 28.33868, 0.3301127, 2.033921, 1.540789
 43540910, 27.90248, 0.5588495, 2.029732, 1.54292, 28.79946, -0.653718, 2.054538, 1.543173
 43640870, 29.64417, -0.3984455, 2.094174, 1.546624, 27.90248, 0.5588495, 2.029732, 1.54292
 43740830, 27.33936, 0.524621, 2.023624, 1.543698, 29.64417, -0.3984455, 2.094174, 1.546624
 43840790, 27.00007, -0.288524, 2.020712, 1.542483, 27.33936, 0.524621, 2.023624, 1.543698
 43940750, 28.89192, -0.1169458, 2.095442, 1.540321, 27.00007, -0.288524, 2.020712, 1.542483
 44040710, 26.87119, 0.04806428, 2.050613, 1.537219, 28.89192, -0.1169458, 2.095442, 1.540321
 44140670, 28.92006, -1.394164, 2.128194, 1.560205, 26.87119, 0.04806428, 2.050613, 1.537219
 44240630, 27.16624, 1.464927, 2.0555, 1.592258, 28.92006, -1.394164, 2.128194, 1.560205
 44340590, 29.35019, 2.26063, 2.111148, 1.593771, 27.16624, 1.464927, 2.0555, 1.592258
 44440550, 29.43834, 2.400743, 2.115603, 1.583271, 29.35019, 2.26063, 2.111148, 1.593771
 44540510, 29.70655, 1.213759, 2.1398, 1.573401, 29.43834, 2.400743, 2.115603, 1.583271
 44640470, 27.99611, -0.05211707, 2.105861, 1.568699, 29.70655, 1.213759, 2.1398, 1.573401
 44740430, 26.99654, 1.16504, 2.09417, 1.568961, 27.99611, -0.05211707, 2.105861, 1.568699
 44840390, 27.73806, -1.597501, 2.130176, 1.564557, 26.99654, 1.16504, 2.09417, 1.568961
 44940350, 28.49542, -1.098592, 2.157083, 1.560695, 27.73806, -1.597501, 2.130176, 1.564557
 45040310, 27.32201, 0.4456103, 2.116267, 1.562072, 28.49542, -1.098592, 2.157083, 1.560695
 45140270, 27.02774, -1.854193, 2.103317, 1.568457, 27.32201, 0.4456103, 2.116267, 1.562072
 45240230, 27.33155, -0.7752261, 2.106574, 1.577267, 27.02774, -1.854193, 2.103317, 1.568457
 45340190, 29.74828, -0.3674845, 2.181577, 1.589008, 27.33155, -0.7752261, 2.106574, 1.577267
 45440150, 29.95496, -0.2603389, 2.184505, 1.601495, 29.74828, -0.3674845, 2.181577, 1.589008
 45540943, 28.27921, -0.006068975, 2.125665, 1.612795, 29.95496, -0.2603389, 2.184505, 1.601495
 45640903, 29.47771, 1.593439, 2.167857, 1.621283, 28.27921, -0.006068975, 2.125665, 1.612795
 45740863, 26.86878, -0.6721281, 2.083094, 1.627511, 29.47771, 1.593439, 2.167857, 1.621283
 45840823, 28.77323, 0.9585081, 2.147559, 1.634895, 26.86878, -0.6721281, 2.083094, 1.627511
 45940783, 27.03235, 0.1379073, 2.092385, 1.641077, 28.77323, 0.9585081, 2.147559, 1.634895
 46040743, 27.48973, 1.133546, 2.111143, 1.647296, 27.03235, 0.1379073, 2.092385, 1.641077
 46140703, 29.12979, 1.650631, 2.166115, 1.656214, 27.48973, 1.133546, 2.111143, 1.647296
 46240663, 29.07246, -0.2427722, 2.164533, 1.66251, 29.12979, 1.650631, 2.166115, 1.656214
 46340623, 28.66287, 0.1251682, 2.152499, 1.669819, 29.07246, -0.2427722, 2.164533, 1.66251
 46440583, 28.41698, 0.8249826, 2.14617, 1.676694, 28.66287, 0.1251682, 2.152499, 1.669819
 46540543, 28.07963, 1.025689, 2.137803, 1.682569, 28.41698, 0.8249826, 2.14617, 1.676694
 46640503, 28.39349, -0.8676916, 2.148951, 1.690171, 28.07963, 1.025689, 2.137803, 1.682569
 46740463, 27.97355, -0.5445032, 2.136955, 1.696419, 28.39349, -0.8676916, 2.148951, 1.690171
 46840423, 26.7751, 1.091953, 2.101478, 1.702188, 27.97355, -0.5445032, 2.136955, 1.696419
 46940383, 27.2975, 1.58572, 2.120267, 1.709275, 26.7751, 1.091953, 2.101478, 1.702188
 47040343, 28.69831, 0.8109161, 2.165089, 1.718012, 27.2975, 1.58572, 2.120267, 1.709275
 47140303, 29.1629, 1.533688, 2.184431, 1.723941, 28.69831, 0.8109161, 2.165089, 1.718012
 47240263, 28.30713, 0.5911384, 2.15573, 1.732527, 29.1629, 1.533688, 2.184431, 1.723941
 47340223, 27.48997, 0.3629145, 2.131882, 1.738406, 28.30713, 0.5911384, 2.15573, 1.732527
 47440183, 28.32826, 0.08017409, 2.162242, 1.742671, 27.48997, 0.3629145, 2.131882, 1.738406
 47540976, 28.45418, 0.2141723, 2.168955, 1.7477, 28.32826, 0.08017409, 2.162242, 1.742671
 47640936, 30.00501, 1.460963, 2.221658, 1.755893, 28.45418, 0.2141723, 2.168955, 1.7477
 47740896, 28.12092, 1.42296, 2.160735, 1.761083, 30.00501, 1.460963, 2.221658, 1.755893
 47840856, 27.0619, -0.8070118, 2.126116, 1.764767, 28.12092, 1.42296, 2.160735, 1.761083
 47940816, 28.40561, -0.0924986, 2.168848, 1.770012, 27.0619, -0.8070118, 2.126116, 1.764767
 48040776, 29.40832, 0.2715726, 2.201264, 1.773495, 28.40561, -0.0924986, 2.168848, 1.770012
 48140736, 30.00018, -0.6237592, 2.220436, 1.77887, 29.40832, 0.2715726, 2.201264, 1.773495
 48240696, 27.07159, 1.236165, 2.127619, 1.777841, 30.00018, -0.6237592, 2.220436, 1.77887
 48340656, 28.32122, -0.7557444, 2.164304, 1.785575, 27.07159, 1.236165, 2.127619, 1.777841
 48440616, 29.78083, -0.660999, 2.213079, 1.787149, 28.32122, -0.7557444, 2.164304, 1.785575
 48540576, 30.15778, 1.038957, 2.228526, 1.787319, 29.78083, -0.660999, 2.213079, 1.787149
 48640536, 29.64146, 2.178333, 2.213367, 1.789636, 30.15778, 1.038957, 2.228526, 1.787319
 48740496, 29.66268, 0.9526324, 2.211851, 1.790951, 29.64146, 2.178333, 2.213367, 1.789636
 48840456, 29.4195, 1.570058, 2.203686, 1.794439, 29.66268, 0.9526324, 2.211851, 1.790951
 48940416, 28.11832, 2.129886, 2.16156, 1.79704, 29.4195, 1.570058, 2.203686, 1.794439
 49040376, 28.40504, 0.3897818, 2.17012, 1.796887, 28.11832, 2.129886, 2.16156, 1.79704
 49140336, 28.92685, 1.557721, 2.189319, 1.799041, 28.40504, 0.3897818, 2.17012, 1.796887
 49240296, 29.89035, 2.50917, 2.221544, 1.802873, 28.92685, 1.557721, 2.189319, 1.799041
 49340256, 28.83053, 1.178613, 2.186601, 1.800264, 29.89035, 2.50917, 2.221544, 1.802873
 49440216, 27.67041, 0.8366464, 2.152539, 1.797955, 28.83053, 1.178613, 2.186601, 1.800264
 49540176, 29.54823, 2.321324, 2.2166, 1.799738, 27.67041, 0.8366464, 2.152539, 1.797955
 49640969, 27.68295, 1.051577, 2.156712, 1.796421, 29.54823, 2.321324, 2.2166, 1.799738
 49740929, 29.78553, 2.14598, 2.227421, 1.800021, 27.68295, 1.051577, 2.156712, 1.796421
 49840889, 27.87431, 1.804682, 2.17002, 1.795378, 29.78553, 2.14598, 2.227421, 1.800021
 49940849, 28.63578, 1.174062, 2.196988, 1.794506, 27.87431, 1.804682, 2.17002, 1.795378
 50040809, 28.89573, 2.327983, 2.208482, 1.797052, 28.63578, 1.174062, 2.196988, 1.794506
 50140769, 27.0955, 2.347011, 2.154828, 1.795711, 28.89573, 2.327983, 2.208482, 1.797052
 50240729, 28.78807, 1.535173, 2.210467, 1.795186, 27.0955, 2.347011, 2.154828, 1.795711
 50340689, 27.18275, 1.139106, 2.160761, 1.795093, 28.78807, 1.535173, 2.210467, 1.795186
 50440649, 30.35957, 0.08991194, 2.262631, 1.797785, 27.18275, 1.139106, 2.160761, 1.795093
 50540609, 30.21778, 2.309028, 2.262133, 1.799438, 30.35957, 0.08991194, 2.262631, 1.797785
 50640569, 27.98823, 1.971243, 2.192599, 1.796858, 30.21778, 2.309028, 2.262133, 1.799438
 50740529, 29.53584, -0.9756302, 2.244355, 1.796205, 27.98823, 1.971243, 2.192599, 1.796858
 50840489, 27.71463, 0.6199658, 2.189996, 1.792758, 29.53584, -0.9756302, 2.244355, 1.796205
 50940449, 28.16858, -0.5453873, 2.205525, 1.794292, 27.71463, 0.6199658, 2.189996, 1.792758
 51040409, 28.50208, -0.6266924, 2.217145, 1.797796, 28.16858, -0.5453873, 2.205525, 1.794292
 51140369, 27.32922, 0.6915189, 2.183273, 1.797389, 28.50208, -0.6266924, 2.217145, 1.797796
 51240329, 27.18368, 2.090812, 2.181009, 1.797835, 27.32922, 0.6915189, 2.183273, 1.797389
 51340289, 30.48301, 0.5866351, 2.288199, 1.793944, 27.18368, 2.090812, 2.181009, 1.797835
 51440249, 28.28423, -1.180046, 2.217504, 1.792794, 30.48301, 0.5866351, 2.288199, 1.793944
 51540209, 29.7687, 0.5186787, 2.266264, 1.788358, 28.28423, -1.180046, 2.217504, 1.792794
 51640169, 30.05464, -0.3707519, 2.275134, 1.786813, 29.7687, 0.5186787, 2.266264, 1.788358
 51740962, 28.88203, 0.8412911, 2.236346, 1.784976, 30.05464, -0.3707519, 2.275134, 1.786813
 51840922, 29.04032, 1.902636, 2.242606, 1.783381, 28.88203, 0.8412911, 2.236346, 1.784976
 51940882, 30.44666, 1.932908, 2.288211, 1.780806, 29.04032, 1.902636, 2.242606, 1.783381
 52040842, 28.12512, -1.098458, 2.205808, 1.78635, 30.44666, 1.932908, 2.288211, 1.780806
 52140802, 29.89948, 1.48978, 2.263329, 1.783464, 28.12512, -1.098458, 2.205808, 1.78635
 52240762, 28.94794, -0.5682297, 2.229969, 1.783445, 29.89948, 1.48978, 2.263329, 1.783464
 52340722, 28.58422, 1.040832, 2.221473, 1.776658, 28.94794, -0.5682297, 2.229969, 1.783445
 52440682, 30.08673, 0.8139969, 2.272632, 1.77151, 28.58422, 1.040832, 2.221473, 1.776658
 52540642, 28.4401, 0.5732988, 2.21927, 1.768207, 30.08673, 0.8139969, 2.272632, 1.77151
 52640602, 27.86943, 0.7219663, 2.200246, 1.766115, 28.4401, 0.5732988, 2.21927, 1.768207
 52740562, 29.62906, 1.094883, 2.2547, 1.765634, 27.86943, 0.7219663, 2.200246, 1.766115
 52840522, 29.06137, -0.2416615, 2.235072, 1.761987, 29.62906, 1.094883, 2.2547, 1.765634
 52940482, 28.37815, -0.2323407, 2.212931, 1.758477, 29.06137, -0.2416615, 2.235072, 1.761987
 53040442, 28.32888, -0.2920258, 2.210225, 1.755391, 28.37815, -0.2323407, 2.212931, 1.758477
 53140402, 27.63853, -1.010086, 2.189038, 1.749921, 28.32888, -0.2920258, 2.210225, 1.755391
 53240362, 30.43041, -0.08925897, 2.279012, 1.745594, 27.63853, -1.010086, 2.189038, 1.749921
 53340322, 27.6427, 0.1162468, 2.187715, 1.743567, 30.43041, -0.08925897, 2.279012, 1.745594
 53440282, 29.25093, -1.227211, 2.237965, 1.74219, 27.6427, 0.1162468, 2.187715, 1.743567
 53540242, 29.35419, -0.9028564, 2.241781, 1.73869, 29.25093, -1.227211, 2.237965, 1.74219
 53640202, 29.48608, 1.224993, 2.250041, 1.729826, 29.35419, -0.9028564, 2.241781, 1.73869
 53740162, 30.48278, -1.121064, 2.281697, 1.727617, 29.48608, 1.224993, 2.250041, 1.729826
 53840955, 28.69693, 1.652192, 2.223901, 1.724405, 30.48278, -1.121064, 2.281697, 1.727617
 53940915, 29.87179, 0.2085184, 2.263056, 1.717708, 28.69693, 1.652192, 2.223901, 1.724405
 54040875, 30.29685, -0.3161272, 2.278189, 1.713408, 29.87179, 0.2085184, 2.263056, 1.717708
 54140835, 30.27055, 1.424752, 2.276384, 1.712014, 30.29685, -0.3161272, 2.278189, 1.713408
 54240795, 27.8202, 0.982653, 2.197649, 1.707224, 30.27055, 1.424752, 2.276384, 1.712014
 54340755, 27.30346, 1.490179, 2.180578, 1.705345, 27.8202, 0.982653, 2.197649, 1.707224
 54440715, 27.90198, -0.03610279, 2.198971, 1.700199, 27.30346, 1.490179, 2.180578, 1.705345
 54540675, 28.33787, 1.072708, 2.210891, 1.699696, 27.90198, -0.03610279, 2.198971, 1.700199
 54640635, 28.90898, -0.7739593, 2.231097, 1.694381, 28.33787, 1.072708, 2.210891, 1.699696
 54740595, 27.7549, 0.05808063, 2.198005, 1.689504, 28.90898, -0.7739593, 2.231097, 1.694381
 54840555, 28.8947, -0.6506423, 2.238675, 1.686858, 27.7549, 0.05808063, 2.198005, 1.689504
 54940515, 27.97385, 0.2487829, 2.210778, 1.687417, 28.8947, -0.6506423, 2.238675, 1.686858
 55040475, 28.12387, 0.1926983, 2.219112, 1.686275, 27.97385, 0.2487829, 2.210778, 1.687417
 55140435, 29.63482, -1.925662, 2.271454, 1.687704, 28.12387, 0.1926983, 2.219112, 1.686275
 55240395, 29.46288, 0.1153913, 2.268328, 1.684387, 29.63482, -1.925662, 2.271454, 1.687704
 55340355, 28.40761, 0.3927365, 2.238233, 1.682451, 29.46288, 0.1153913, 2.268328, 1.684387
 55440315, 27.68533, -1.677789, 2.21787, 1.684536, 28.40761, 0.3927365, 2.238233, 1.682451
 55540275, 30.39064, -1.736081, 2.306486, 1.685573, 27.68533, -1.677789, 2.21787, 1.684536
 55640235, 29.76727, -0.9968895, 2.288609, 1.683356, 30.39064, -1.736081, 2.306486, 1.685573
 55740195, 29.30081, 0.6199685, 2.275256, 1.683436, 29.76727, -0.9968895, 2.288609, 1.683356
 55840155, 28.28568, -1.831869, 2.249013, 1.680583, 29.30081, 0.6199685, 2.275256, 1.683436
 55940948, 29.6382, 1.130424, 2.294719, 1.67917, 28.28568, -1.831869, 2.249013, 1.680583
 56040908, 28.39818, -2.010168, 2.259245, 1.679456, 29.6382, 1.130424, 2.294719, 1.67917
 56140868, 28.72302, 0.5647861, 2.272659, 1.676026, 28.39818, -2.010168, 2.259245, 1.679456
 56240828, 28.02415, 0.7472587, 2.253693, 1.677368, 28.72302, 0.5647861, 2.272659, 1.676026
 56340788, 28.44413, -0.06815934, 2.271226, 1.674802, 28.02415, 0.7472587, 2.253693, 1.677368
 56440748, 27.15964, -1.311288, 2.235087, 1.674977, 28.44413, -0.06815934, 2.271226, 1.674802
 56540708, 27.67827, -1.903675, 2.251408, 1.677283, 27.15964, -1.311288, 2.235087, 1.674977
 56640668, 27.48618, -0.8959228, 2.247452, 1.676558, 27.67827, -1.903675, 2.251408, 1.677283
 56740628, 29.70369, -0.2193198, 2.321862, 1.671816, 27.48618, -0.8959228, 2.247452, 1.676558
 56840588, 28.00163, 0.05064559, 2.272175, 1.670582, 29.70369, -0.2193198, 2.321862, 1.671816
 56940548, 29.22289, -0.06657946, 2.313645, 1.670065, 28.00163, 0.05064559, 2.272175, 1.670582
 57040508, 29.42595, -1.257832, 2.32362, 1.669614, 29.22289, -0.06657946, 2.313645, 1.670065
 57140468, 27.50049, 0.3459704, 2.264459, 1.672008, 29.42595, -1.257832, 2.32362, 1.669614
 57240428, 27.23697, -0.6225938, 2.262489, 1.667924, 27.50049, 0.3459704, 2.264459, 1.672008
 57340388, 30.1489, -0.1330776, 2.36006, 1.66171, 27.23697, -0.6225938, 2.262489, 1.667924
 57440348, 29.44948, 0.6852274, 2.3399, 1.664564, 30.1489, -0.1330776, 2.36006, 1.66171
 57540308, 29.74215, -2.595327, 2.356958, 1.66303, 29.44948, 0.6852274, 2.3399, 1.664564
 57640268, 27.63923, 0.4334099, 2.288591, 1.667554, 29.74215, -2.595327, 2.356958, 1.66303
 57740228, 28.50318, -0.8640683, 2.320977, 1.662974, 27.63923, 0.4334099, 2.288591, 1.667554
 57840188, 27.95141, -1.214193, 2.308578, 1.66197, 28.50318, -0.8640683, 2.320977, 1.662974
 57940148, 29.52585, -2.338276, 2.362645, 1.659557, 27.95141, -1.214193, 2.308578, 1.66197
 58040941, 27.86823, -1.704237, 2.314469, 1.658245, 29.52585, -2.338276, 2.362645, 1.659557
 58140901, 29.54053, -2.645693, 2.372238, 1.656492, 27.86823, -1.704237, 2.314469, 1.658245
 58240861, 29.06251, -1.815694, 2.325091, 1.703075, 29.54053, -2.645693, 2.372238, 1.656492
 58340821, 27.63219, -1.35499, 2.283575, 1.702723, 29.06251, -1.815694, 2.325091, 1.703075
 58440781, 27.53151, -0.6738523, 2.28366, 1.702791, 27.63219, -1.35499, 2.283575, 1.702723
 58540741, 29.46344, 0.1345835, 2.346689, 1.702884, 27.53151, -0.6738523, 2.28366, 1.702791
 58640701, 28.73723, -0.2938859, 2.324697, 1.708788, 29.46344, 0.1345835, 2.346689, 1.702884
 58740661, 28.3665, 0.7498585, 2.315011, 1.714241, 28.73723, -0.2938859, 2.324697, 1.708788
 58840621, 30.34908, 0.7782547, 2.381602, 1.715298, 28.3665, 0.7498585, 2.315011, 1.714241
 58940581, 28.53902, -0.3001065, 2.328087, 1.71804, 30.34908, 0.7782547, 2.381602, 1.715298
 59040541, 29.39153, -0.5657985, 2.358727, 1.719367, 28.53902, -0.3001065, 2.328087, 1.71804
 59140501, 27.67241, -2.082881, 2.308923, 1.725764, 29.39153, -0.5657985, 2.358727, 1.719367
 59240461, 29.59321, -0.8093005, 2.369767, 1.725785, 27.67241, -2.082881, 2.308923, 1.725764
 59340421, 28.10684, 0.6617728, 2.32384, 1.732304, 29.59321, -0.8093005, 2.369767, 1.725785
 59440381, 30.09772, -0.6172606, 2.390137, 1.731056, 28.10684, 0.6617728, 2.32384, 1.732304
 59540341, 28.04849, -0.9756571, 2.325572, 1.738785, 30.09772, -0.6172606, 2.390137, 1.731056
 59640301, 28.3498, 0.9266854, 2.334601, 1.744001, 28.04849, -0.9756571, 2.325572, 1.738785
 59740261, 28.79589, 0.1854852, 2.351002, 1.745175, 28.3498, 0.9266854, 2.334601, 1.744001
 59840221, 29.22908, -1.901588, 2.36938, 1.745661, 28.79589, 0.1854852, 2.351002, 1.745175
 59940181, 29.83946, -0.4954222, 2.391535, 1.743748, 29.22908, -1.901588, 2.36938, 1.745661
 60040974, 28.37619, -2.537583, 2.350296, 1.749052, 29.83946, -0.4954222, 2.391535, 1.743748
 60140934, 29.93986, -0.01533043, 2.395496, 1.754073, 28.37619, -2.537583, 2.350296, 1.749052
 60240894, 29.43588, -2.414848, 2.383315, 1.760024, 29.93986, -0.01533043, 2.395496, 1.754073
 60340854, 30.46476, 1.027444, 2.416079, 1.76197, 29.43588, -2.414848, 2.383315, 1.760024
 60440814, 28.5504, 0.1804565, 2.358731, 1.764898, 30.46476, 1.027444, 2.416079, 1.76197
 60540774, 29.38279, -2.484851, 2.390195, 1.766873, 28.5504, 0.1804565, 2.358731, 1.764898
 60640734, 30.19316, 0.1996974, 2.416573, 1.76598, 29.38279, -2.484851, 2.390195, 1.766873
 60740694, 27.4528, 0.1928859, 2.333936, 1.769985, 30.19316, 0.1996974, 2.416573, 1.76598
 60840654, 29.85868, -1.573683, 2.410319, 1.771696, 27.4528, 0.1928859, 2.333936, 1.769985
 60940614, 30.31012, -2.20295, 2.425162, 1.778148, 29.85868, -1.573683, 2.410319, 1.771696
 61040574, 27.47778, 1.037051, 2.338602, 1.782542, 30.31012, -2.20295, 2.425162, 1.778148
 61140534, 29.46222, -0.4679413, 2.40311, 1.780869, 27.47778, 1.037051, 2.338602, 1.782542
 61240494, 30.51007, -0.3768146, 2.438459, 1.782106, 29.46222, -0.4679413, 2.40311, 1.780869
 61340454, 28.50544, 0.3132069, 2.378035, 1.787196, 30.51007, -0.3768146, 2.438459, 1.782106
 61440414, 28.90188, -1.677235, 2.394438, 1.788318, 28.50544, 0.3132069, 2.378035, 1.787196
 61540374, 28.0489, -0.02263635, 2.368174, 1.791077, 28.90188, -1.677235, 2.394438, 1.788318
 61640334, 28.16496, -0.1831522, 2.371554, 1.794339, 28.0489, -0.02263635, 2.368174, 1.791077
 61740294, 28.36625, 0.7917319, 2.376916, 1.798258, 28.16496, -0.1831522, 2.371554, 1.794339
 61840254, 28.13281, 0.3858753, 2.370411, 1.799206, 28.36625, 0.7917319, 2.376916, 1.798258
 61940214, 30.57242, -0.6899948, 2.445821, 1.798542, 28.13281, 0.3858753, 2.370411, 1.799206
 62040174, 29.825, -0.5306401, 2.421817, 1.801, 30.57242, -0.6899948, 2.445821, 1.798542
 62140967, 29.11831, 0.9946402, 2.400079, 1.804786, 29.825, -0.5306401, 2.421817, 1.801
 62240927, 30.42568, -0.1196768, 2.443127, 1.801543, 29.11831, 0.9946402, 2.400079, 1.804786
 62340887, 28.91613, -1.207691, 2.397142, 1.80403, 30.42568, -0.1196768, 2.443127, 1.801543
 62440847, 28.10827, -1.93272, 2.371329, 1.811267, 28.91613, -1.207691, 2.397142, 1.80403
 62540807, 27.57062, 1.10858, 2.353436, 1.81678, 28.10827, -1.93272, 2.371329, 1.811267
 62640767, 29.95886, -1.344288, 2.429263, 1.814035, 27.57062, 1.10858, 2.353436, 1.81678
 62740727, 28.33114, -2.344019, 2.383601, 1.815799, 29.95886, -1.344288, 2.429263, 1.814035
 62840687, 28.45851, 0.9936776, 2.386986, 1.815329, 28.33114, -2.344019, 2.383601, 1.815799
 62940647, 30.06014, 0.8046718, 2.435835, 1.815428, 28.45851, 0.9936776, 2.386986, 1.815329
 63040607, 27.46476, -2.301138, 2.357748, 1.821363, 30.06014, 0.8046718, 2.435835, 1.815428
 63140567, 29.21875, -1.651101, 2.411553, 1.819595, 27.46476, -2.301138, 2.357748, 1.821363
 63240527, 28.40993, -0.8301561, 2.385437, 1.82214, 29.21875, -1.651101, 2.411553, 1.819595
 63340487, 29.11166, -0.3624938, 2.406551, 1.823058, 28.40993, -0.8301561, 2.385437, 1.82214
 63440447, 27.16247, 0.7297528, 2.34901, 1.82678, 29.11166, -0.3624938, 2.406551, 1.823058
 63540407, 29.64751, 0.1933312, 2.424492, 1.826526, 27.16247, 0.7297528, 2.34901, 1.82678
 63640367, 30.58963, 1.22635, 2.454821, 1.829363, 29.64751, 0.1933312, 2.424492, 1.826526
 63740327, 28.35425, -0.3199773, 2.388361, 1.829187, 30.58963, 1.22635, 2.454821, 1.829363
 63840287, 30.22154, 1.33265, 2.442019, 1.837097, 28.35425, -0.3199773, 2.388361, 1.829187
 63940247, 30.30094, 0.2143665, 2.445933, 1.835343, 30.22154, 1.33265, 2.442019, 1.837097
 64040207, 27.41986, -1.809242, 2.362062, 1.838542, 30.30094, 0.2143665, 2.445933, 1.835343
 64140167, 28.11067, 0.4144977, 2.382768, 1.83744, 27.41986, -1.809242, 2.362062, 1.838542
 64240960, 30.26732, -0.09369102, 2.448247, 1.837117, 28.11067, 0.4144977, 2.382768, 1.83744
 64340920, 30.18757, -0.2742096, 2.445982, 1.839908, 30.26732, -0.09369102, 2.448247, 1.837117
 64440880, 30.31462, -2.117014, 2.451867, 1.842354, 30.18757, -0.2742096, 2.445982, 1.839908
 64540840, 30.70803, -1.007508, 2.462213, 1.844289, 30.31462, -2.117014, 2.451867, 1.842354
 64640800, 29.96566, -1.299815, 2.438961, 1.848675, 30.70803, -1.007508, 2.462213, 1.844289
 64740760, 29.78259, -1.352293, 2.434428, 1.84909, 29.96566, -1.299815, 2.438961, 1.848675
 64840720, 29.67854, -0.6963971, 2.433241, 1.849618, 29.78259, -1.352293, 2.434428, 1.84909
 64940680, 30.36878, -1.017072, 2.453824, 1.853442, 29.67854, -0.6963971, 2.433241, 1.849618
 65040640, 27.11254, -0.1484391, 2.355975, 1.857757, 30.36878, -1.017072, 2.453824, 1.853442
 65140600, 26.99162, 0.3367218, 2.35473, 1.860521, 27.11254, -0.1484391, 2.355975, 1.857757
