TimeUS,COFN,COFE,CNe,CEe,POFN,POFE,PNe,PEe
 2960482, 0.04127082, 0.04308299, 0.09737159, 0.04836901, 0, 0, 0, 0
 3040450, 0.01141571, -0.06232408, 0.09738465, 0.04835951, 0.04127082, 0.04308299, 0.09737159, 0.04836901
 3140410, 0.04402138, -0.02086678, 0.09739874, 0.04827052, 0.01141571, -0.06232408, 0.09738465, 0.04835951
 3240370, 0.01468283, -0.06398149, 0.09740129, 0.04833686, 0.04402138, -0.02086678, 0.09739874, 0.04827052
 3340330, 0.04070722, -0.001881744, 0.0973915, 0.04825876, 0.01468283, -0.06398149, 0.09740129, 0.04833686
 3440290, -0.06596766, 0.008326987, 0.09745568, 0.04823123, 0.04070722, -0.001881744, 0.0973915, 0.04825876
 3540250, 0.03580652, -0.02839673, 0.0974072, 0.0482429, -0.06596766, 0.008326987, 0.09745568, 0.04823123
 3640210, -0.04361825, 0.02494833, 0.09742214, 0.04822887, 0.03580652, -0.02839673, 0.0974072, 0.0482429
 3740170, 0.0498712, 0.05193242, 0.09742266, 0.04832609, -0.04361825, 0.02494833, 0.09742214, 0.04822887
 3840963, 0.06246474, 0.03381602, 0.09744401, 0.0482779, 0.0498712, 0.05193242, 0.09742266, 0.04832609
 3940923, 0.07634086, 0.05262674, 0.09748282, 0.04833077, 0.06246474, 0.03381602, 0.09744401, 0.0482779
 4040883, 0.0517934, 0.02598514, 0.09742479, 0.04825431, 0.07634086, 0.05262674, 0.09748282, 0.04833077
 4140843, -0.0521013, 0.0645248, 0.09749936, 0.04823384, 0.0517934, 0.02598514, 0.09742479, 0.04825431
 4240803, -0.03877479, 0.06994449, 0.09747656, 0.04826208, -0.0521013, 0.0645248, 0.09749936, 0.04823384
 4340763, 0.04948513, 0.02873358, 0.0974243, 0.04825221, -0.03877479, 0.06994449, 0.09747656, 0.04826208
 4440723, -0.03973649, 0.03899752, 0.09743997, 0.04821412, 0.04948513, 0.02873358, 0.0974243, 0.04825221
 4540683, 0.02227764, -0.02403283, 0.09740137, 0.04821712, -0.03973649, 0.03899752, 0.09743997, 0.04821412
 4640643, 0.08124859, 0.02952708, 0.09750405, 0.04824637, 0.02227764, -0.02403283, 0.09740137, 0.04821712
 4740603, 0.01047713, -0.0469032, 0.09740906, 0.0482473, 0.08124859, 0.02952708, 0.09750405, 0.04824637
 4840563, 0.03391341, -0.02952352, 0.09742355, 0.04820741, 0.01047713, -0.0469032, 0.09740906, 0.0482473
 4940523, -0.0383092, 0.07454969, 0.09748849, 0.04826123, 0.03391341, -0.02952352, 0.09742355, 0.04820741
 5040483, -0.01644444, -0.03043321, 0.09739326, 0.04823805, -0.0383092, 0.07454969, 0.09748849, 0.04826123
 5140443, -0.009602817, 0.04453981, 0.09740742, 0.04824201, -0.01644444, -0.03043321, 0.09739326, 0.04823805
 5240403, 0.04172176, -0.0519473, 0.09746298, 0.04821715, -0.009602817, 0.04453981, 0.09740742, 0.04824201
 5340363, 0.06223866, 0.004978864, 0.09746103, 0.04820108, 0.04172176, -0.0519473, 0.09746298, 0.04821715
 5440323, 0.0385509, -0.06400885, 0.0974732, 0.04823881, 0.06223866, 0.004978864, 0.09746103, 0.04820108
 5540283, -0.0312572, 0.02846595, 0.09742016, 0.0482056, 0.0385509, -0.06400885, 0.0974732, 0.04823881
 5640243, -0.02621727, 0.005652737, 0.09740159, 0.04820358, -0.0312572, 0.02846595, 0.09742016, 0.0482056
 5740203, 0.02249201, 0.009633903, 0.09739611, 0.0482102, -0.02621727, 0.005652737, 0.09740159, 0.04820358
 5840163, -0.05454541, 0.01977128, 0.09746166, 0.04818013, 0.02249201, 0.009633903, 0.09739611, 0.0482102
 5940956, 0.03884807, -0.03864963, 0.09744577, 0.04819878, -0.05454541, 0.01977128, 0.09746166, 0.04818013
 6040916, 0.02091916, -0.01022931, 0.09740044, 0.04819934, 0.03884807, -0.03864963, 0.09744577, 0.04819878
 6140876, 0.01599568, 0.02641969, 0.09739664, 0.04822224, 0.02091916, -0.01022931, 0.09740044, 0.04819934
 6240836, 0.02261427, 0.01572479, 0.0973987, 0.04821089, 0.01599568, 0.02641969, 0.09739664, 0.04822224
 6340796, -0.05329061, 0.05753478, 0.09750433, 0.04819685, 0.02261427, 0.01572479, 0.0973987, 0.04821089
 6440756, -0.02606918, -0.03781868, 0.09740806, 0.04824197, -0.05329061, 0.05753478, 0.09750433, 0.04819685
 6540716, -0.04209225, 0.03161924, 0.09744753, 0.04818667, -0.02606918, -0.03781868, 0.09740806, 0.04824197
 6640676, 0.03330882, 0.06391174, 0.09743136, 0.0483089, -0.04209225, 0.03161924, 0.09744753, 0.04818667
 6740636, -0.01182087, -0.07022174, 0.09743093, 0.04830521, 0.03330882, 0.06391174, 0.09743136, 0.0483089
 6840596, -0.07909182, -0.02802663, 0.09750745, 0.04822351, -0.01182087, -0.07022174, 0.09743093, 0.04830521
 6940556, -0.01872795, 0.02206923, 0.09740745, 0.04819609, -0.07909182, -0.02802663, 0.09750745, 0.04822351
 7040516, -0.07039335, -0.05083003, 0.09748575, 0.04828576, -0.01872795, 0.02206923, 0.09740745, 0.04819609
 7140476, 0.01652784, 0.04460327, 0.09740998, 0.0482437, -0.07039335, -0.05083003, 0.09748575, 0.04828576
 7240436, -0.05379093, -0.007703069, 0.09744957, 0.04818927, 0.01652784, 0.04460327, 0.09740998, 0.0482437
 7340396, 0.06820737, 0.05757044, 0.09748371, 0.04830566, -0.05379093, -0.007703069, 0.09744957, 0.04818927
 7440356, 0.06965273, 0.0160758, 0.09748525, 0.04819695, 0.06820737, 0.05757044, 0.09748371, 0.04830566
 7540316, -0.03489352, -0.05983736, 0.09743162, 0.04829375, 0.06965273, 0.0160758, 0.09748525, 0.04819695
 7640276, -0.03978673, 0.0593014, 0.09747752, 0.04821219, -0.03489352, -0.05983736, 0.09743162, 0.04829375
 7740236, -0.07551125, 0.008955819, 0.09751602, 0.04815959, -0.03978673, 0.0593014, 0.09747752, 0.04821219
 7840196, 3.177021E-05, -0.04935534, 0.0974139, 0.0482422, -0.07551125, 0.008955819, 0.09751602, 0.04815959
 7940156, -0.01807427, 0.04507904, 0.09742381, 0.04821933, 3.177021E-05, -0.04935534, 0.0974139, 0.0482422
 8040949, 0.003025366, 0.02048891, 0.09739482, 0.04820651, -0.01807427, 0.04507904, 0.09742381, 0.04821933
 8140909, 0.03769814, 0.002086398, 0.09741974, 0.04819302, 0.003025366, 0.02048891, 0.09739482, 0.04820651
 8240869, 0.03712898, 0.003965658, 0.09741834, 0.04819471, 0.03769814, 0.002086398, 0.09741974, 0.04819302
 8340829, -0.05627162, -0.05932755, 0.09745826, 0.04830976, 0.03712898, 0.003965658, 0.09741834, 0.04819471
 8440789, 0.05345031, -0.02227978, 0.09746528, 0.0481723, -0.05627162, -0.05932755, 0.09745826, 0.04830976
 8540749, 0.001941545, 0.06306197, 0.09742671, 0.04827346, 0.05345031, -0.02227978, 0.09746528, 0.0481723
 8640709, 0.003543038, -0.04803054, 0.09741512, 0.04823544, 0.001941545, 0.06306197, 0.09742671, 0.04827346
 8740669, -0.0413032, 0.05801276, 0.09747955, 0.04820705, 0.003543038, -0.04803054, 0.09741512, 0.04823544
 8840629, -0.05007659, -0.0003964556, 0.09744537, 0.04818128, -0.0413032, 0.05801276, 0.09747955, 0.04820705
 8940589, -0.04850525, 0.03336866, 0.09746748, 0.04817204, -0.05007659, -0.0003964556, 0.09744537, 0.04818128
 9040549, 0.02624586, -0.03455229, 0.09742887, 0.0481915, -0.04850525, 0.03336866, 0.09746748, 0.04817204
 9140509, -0.01134006, -0.04156854, 0.09741084, 0.04822697, 0.02624586, -0.03455229, 0.09742887, 0.0481915
 9240469, -0.0227875, -0.00484988, 0.09740742, 0.04818526, -0.01134006, -0.04156854, 0.09741084, 0.04822697
 9340429, 0.04234486, -0.09239626, 0.09754534, 0.04826853, -0.0227875, -0.00484988, 0.09740742, 0.04818526
 9440389, -0.02644728, 0.009150547, 0.09741531, 0.04817821, 0.04234486, -0.09239626, 0.09754534, 0.04826853
 9540349, -0.0894148, -0.03352977, 0.09754548, 0.04822348, -0.02644728, 0.009150547, 0.09741531, 0.04817821
 9640309, 0.01732413, 0.07418077, 0.09744193, 0.04831007, -0.0894148, -0.03352977, 0.09754548, 0.04822348
 9740269, 0.0235809, -0.05228768, 0.09744459, 0.04821181, 0.01732413, 0.07418077, 0.09744193, 0.04831007
 9840229, -0.03261518, 0.02782892, 0.09743441, 0.04817865, 0.0235809, -0.05228768, 0.09744459, 0.04821181
 9940189, 0.04817348, -0.02265761, 0.09745926, 0.04816525, -0.03261518, 0.02782892, 0.09743441, 0.04817865
 10040149, 0.03485406, -0.02889222, 0.09743884, 0.04817751, 0.04817348, -0.02265761, 0.09745926, 0.04816525
 10140942, 0.0584164, -0.01278195, 0.09747602, 0.04815881, 0.03485406, -0.02889222, 0.09743884, 0.04817751
 10240902, 0.06459926, 0.01909477, 0.09747633, 0.04819378, 0.0584164, -0.01278195, 0.09747602, 0.04815881
 10340862, -0.0041302, 0.07980908, 0.09745882, 0.04829755, 0.06459926, 0.01909477, 0.09747633, 0.04819378
 10440822, -0.0005899305, 0.04057134, 0.09741376, 0.04821333, -0.0041302, 0.07980908, 0.09745882, 0.04829755
 10540782, -0.04551201, 0.03125012, 0.09746256, 0.04816651, -0.0005899305, 0.04057134, 0.09741376, 0.04821333
 10640742, 0.006009547, 0.01059545, 0.09739988, 0.04818591, -0.04551201, 0.03125012, 0.09746256, 0.04816651
 10740702, 0.07657544, 0.03774523, 0.09750563, 0.04823634, 0.006009547, 0.01059545, 0.09739988, 0.04818591
 10840662, 0.03249034, -0.07677897, 0.09749394, 0.04824747, 0.07657544, 0.03774523, 0.09750563, 0.04823634
 10940622, 0.02809044, -0.06932157, 0.09747332, 0.04823899, 0.03249034, -0.07677897, 0.09749394, 0.04824747
 11040582, -0.005170673, 0.01475828, 0.09739965, 0.04818989, 0.02809044, -0.06932157, 0.09747332, 0.04823899
 11140542, 0.02742453, -0.006350847, 0.09741344, 0.04818233, -0.005170673, 0.01475828, 0.09739965, 0.04818989
 11240502, -0.03639112, 0.04918034, 0.09746042, 0.04819658, 0.02742453, -0.006350847, 0.09741344, 0.04818233
 11340462, -0.06554188, -0.01511761, 0.09747712, 0.04819172, -0.03639112, 0.04918034, 0.09746042, 0.04819658
 11440422, -0.04026157, -0.02966503, 0.09742634, 0.04821949, -0.06554188, -0.01511761, 0.09747712, 0.04819172
 11540382, -0.02718764, -0.02687947, 0.097411, 0.04821204, -0.04026157, -0.02966503, 0.09742634, 0.04821949
 11640342, -0.02622544, -0.01744643, 0.0974086, 0.04819949, -0.02718764, -0.02687947, 0.097411, 0.04821204
 11740302, 0.06040993, -0.001555292, 0.09747156, 0.04817067, -0.02622544, -0.01744643, 0.0974086, 0.04819949
 11840262, 0.008019949, 0.0186676, 0.09739934, 0.04819678, 0.06040993, -0.001555292, 0.09747156, 0.04817067
 11940222, 0.006381919, 0.03274354, 0.09740523, 0.04821079, 0.008019949, 0.0186676, 0.09739934, 0.04819678
 12040182, 0.03776344, -0.03384798, 0.09744769, 0.04817896, 0.006381919, 0.03274354, 0.09740523, 0.04821079
 12140975, -0.007157473, 0.02177584, 0.09740376, 0.04819202, 0.03776344, -0.03384798, 0.09744769, 0.04817896
 12240935, 0.04109459, 0.006335904, 0.09742969, 0.04818415, -0.007157473, 0.02177584, 0.09740376, 0.04819202
 12340895, 0.07101664, 0.03884719, 0.09748925, 0.04824224, 0.04109459, 0.006335904, 0.09742969, 0.04818415
 12440855, -0.02469321, 0.04180345, 0.09743366, 0.04819936, 0.07101664, 0.03884719, 0.09748925, 0.04824224
 12540815, 0.06611817, 0.02938799, 0.09747624, 0.0482198, -0.02469321, 0.04180345, 0.09743366, 0.04819936
 12640775, -0.01866644, 0.01556673, 0.0974075, 0.04818685, 0.06611817, 0.02938799, 0.09747624, 0.0482198
 12740735, -0.03961761, -0.05753256, 0.09743655, 0.04828683, -0.01866644, 0.01556673, 0.0974075, 0.04818685
 12840695, -0.07099722, -0.02108962, 0.09748842, 0.04820444, -0.03961761, -0.05753256, 0.09743655, 0.04828683
 12940655, -0.01161921, 0.008801522, 0.09739833, 0.04819141, -0.07099722, -0.02108962, 0.09748842, 0.04820444
 13040615, -0.0001577511, -0.06395902, 0.09743014, 0.04827059, -0.01161921, 0.008801522, 0.09739833, 0.04819141
 13140575, 0.08430773, 0.02479726, 0.09752627, 0.04821066, -0.0001577511, -0.06395902, 0.09743014, 0.04827059
 13240535, 0.006065285, 0.07389908, 0.09743918, 0.04830436, 0.08430773, 0.02479726, 0.09752627, 0.04821066
 13340495, -0.01483594, -0.007040867, 0.09739809, 0.04819401, 0.006065285, 0.07389908, 0.09743918, 0.04830436
 13440455, -0.01602777, -0.01865867, 0.09740037, 0.04820181, -0.01483594, -0.007040867, 0.09739809, 0.04819401
 13540415, 0.03403002, -0.03361684, 0.09743902, 0.04818597, -0.01602777, -0.01865867, 0.09740037, 0.04820181
 13640375, -0.04786287, -0.05737278, 0.0974474, 0.04829089, 0.03403002, -0.03361684, 0.09743902, 0.04818597
 13740335, -0.06633946, 0.01796849, 0.09749895, 0.04815491, -0.04786287, -0.05737278, 0.0974474, 0.04829089
 13840295, -0.04907599, 0.06753387, 0.09751453, 0.04820655, -0.06633946, 0.01796849, 0.09749895, 0.04815491
 13940255, -0.006164732, -0.02592653, 0.09740043, 0.04820556, -0.04907599, 0.06753387, 0.09751453, 0.04820655
 14040215, -0.0105014, -0.01004681, 0.09739728, 0.04819348, -0.006164732, -0.02592653, 0.09740043, 0.04820556
 14140175, 0.006267605, -0.01306556, 0.09739829, 0.04819141, -0.0105014, -0.01004681, 0.09739728, 0.04819348
 14240968, -0.04471407, -0.004031066, 0.09743512, 0.04818377, 0.006267605, -0.01306556, 0.09739829, 0.04819141
 14340928, -0.04842082, 0.08269433, 0.09754052, 0.04823589, -0.04471407, -0.004031066, 0.09743512, 0.04818377
 14440888, -0.05511291, 0.02714619, 0.0974791, 0.04815994, -0.04842082, 0.08269433, 0.09754052, 0.04823589
 14540848, 0.04130854, 0.02334299, 0.09742954, 0.04820377, -0.05511291, 0.02714619, 0.0974791, 0.04815994
 14640808, -0.05386425, -0.0603109, 0.09746231, 0.04829612, 0.04130854, 0.02334299, 0.09742954, 0.04820377
 14740768, 0.03191763, 0.06644786, 0.09744112, 0.04829808, -0.05386425, -0.0603109, 0.09746231, 0.04829612
 14840728, 0.04307429, -0.09257261, 0.09754936, 0.04826391, 0.03191763, 0.06644786, 0.09744112, 0.04829808
 14940688, -0.004374629, 0.07427718, 0.09745201, 0.04827987, 0.04307429, -0.09257261, 0.09754936, 0.04826391
 15040648, 0.08739758, 0.0499792, 0.09753949, 0.04827319, -0.004374629, 0.07427718, 0.09745201, 0.04827987
 15140608, -0.04094108, 0.02363757, 0.0974471, 0.04816769, 0.08739758, 0.0499792, 0.09753949, 0.04827319
 15240568, -0.0247127, -0.001127196, 0.09741156, 0.04817947, -0.04094108, 0.02363757, 0.0974471, 0.04816769
 15340528, 0.0570241, 0.008694392, 0.09746236, 0.04817728, -0.0247127, -0.001127196, 0.09741156, 0.04817947
 15440488, -0.06422031, 0.00671856, 0.09748827, 0.04815601, 0.0570241, 0.008694392, 0.09746236, 0.04817728
 15540448, -0.04120502, 0.01106188, 0.09743936, 0.04816798, -0.06422031, 0.00671856, 0.09748827, 0.04815601
 15640408, -0.03671928, 0.07952305, 0.09750901, 0.04824368, -0.04120502, 0.01106188, 0.09743936, 0.04816798
 15740368, 0.01495105, 0.01253577, 0.0974033, 0.04818758, -0.03671928, 0.07952305, 0.09750901, 0.04824368
 15840328, -0.01660527, -0.05039383, 0.09741982, 0.04824429, 0.01495105, 0.01253577, 0.0974033, 0.04818758
 15940288, -0.01972011, -0.03451813, 0.09741137, 0.04821566, -0.01660527, -0.05039383, 0.09741982, 0.04824429
 16040248, 0.02007055, -0.07351398, 0.09746813, 0.04825735, -0.01972011, -0.03451813, 0.09741137, 0.04821566
 16140208, -0.03956148, 0.07140596, 0.09750091, 0.0482228, 0.02007055, -0.07351398, 0.09746813, 0.04825735
 16240168, -0.06412224, -0.04034258, 0.09747414, 0.04824273, -0.03956148, 0.07140596, 0.09750091, 0.0482228
 16340961, -0.03689006, -0.04954148, 0.09743157, 0.04825751, -0.06412224, -0.04034258, 0.09747414, 0.04824273
 16440921, -0.03533807, 0.09013471, 0.09752379, 0.04827672, -0.03689006, -0.04954148, 0.09743157, 0.04825751
 16540881, 0.009824192, 0.03326773, 0.09740611, 0.04821234, -0.03533807, 0.09013471, 0.09752379, 0.04827672
 16640841, 0.0511077, -0.04195491, 0.09748471, 0.04817074, 0.009824192, 0.03326773, 0.09740611, 0.04821234
 16740801, -0.0588368, -0.04799164, 0.09746252, 0.04826712, 0.0511077, -0.04195491, 0.09748471, 0.04817074
 16840761, -0.02782074, 0.008499424, 0.09741443, 0.04818232, -0.0588368, -0.04799164, 0.09746252, 0.04826712
 16940721, 0.03090365, -0.004231188, 0.09741692, 0.04818196, -0.02782074, 0.008499424, 0.09741443, 0.04818232
 17040681, -0.02747003, 0.07708228, 0.09748338, 0.04825941, 0.03090365, -0.004231188, 0.09741692, 0.04818196
 17140641, 0.0128838, -0.0317725, 0.09741242, 0.04819857, -0.02747003, 0.07708228, 0.09748338, 0.04825941
 17240601, -0.02992232, -0.04303683, 0.09742026, 0.0482409, 0.0128838, -0.0317725, 0.09741242, 0.04819857
 17340561, -0.01058384, 0.02753327, 0.09740905, 0.04819406, -0.02992232, -0.04303683, 0.09742026, 0.0482409
 17440521, -0.006258507, -0.007519186, 0.09739893, 0.04818585, -0.01058384, 0.02753327, 0.09740905, 0.04819406
 17540481, -0.05605551, 0.02704241, 0.09748256, 0.04815658, -0.006258507, -0.007519186, 0.09739893, 0.04818585
 17640441, 0.06358802, -0.01608607, 0.09749251, 0.04815236, -0.05605551, 0.02704241, 0.09748256, 0.04815658
 17740401, -0.01597476, -0.01023412, 0.09740289, 0.04818764, 0.06358802, -0.01608607, 0.09749251, 0.04815236
 17840361, -0.03346532, 0.05404405, 0.09746289, 0.04820258, -0.01597476, -0.01023412, 0.09740289, 0.04818764
 17940321, 0.0539874, -0.06985971, 0.09753418, 0.04819737, -0.03346532, 0.05404405, 0.09746289, 0.04820258
 18040281, -0.04578888, 0.02966773, 0.09746023, 0.04816861, 0.0539874, -0.06985971, 0.09753418, 0.04819737
 18140241, -0.054584, -0.02724268, 0.09745192, 0.04821299, -0.04578888, 0.02966773, 0.09746023, 0.04816861
 18240201, -0.07556286, -0.0467682, 0.0975028, 0.04826457, -0.054584, -0.02724268, 0.09745192, 0.04821299
 18340161, -0.01247658, -0.03007694, 0.09740572, 0.04820784, -0.07556286, -0.0467682, 0.0975028, 0.04826457
 18440954, 0.08125891, 0.04052598, 0.09751906, 0.04824457, -0.01247658, -0.03007694, 0.09740572, 0.04820784
 18540914, -0.03042076, 0.05493544, 0.09745933, 0.04820619, 0.08125891, 0.04052598, 0.09751906, 0.04824457
 18640874, 0.06282298, 0.05602502, 0.09747689, 0.0482869, -0.03042076, 0.05493544, 0.09745933, 0.04820619
 18740834, 0.02179882, -0.03379645, 0.0974258, 0.04818786, 0.06282298, 0.05602502, 0.09747689, 0.0482869
 18840794, -0.03788213, 0.04756543, 0.09746491, 0.04818583, 0.02179882, -0.03379645, 0.0974258, 0.04818786
 18940754, -0.004152641, 0.06496675, 0.09743967, 0.0482568, -0.03788213, 0.04756543, 0.09746491, 0.04818583
 19040714, 0.00932905, 0.01560012, 0.09740184, 0.04818868, -0.004152641, 0.06496675, 0.09743967, 0.0482568
 19140674, 0.004978979, -0.05817202, 0.09743237, 0.04824089, 0.00932905, 0.01560012, 0.09740184, 0.04818868
 19240634, 0.03161547, -0.07780679, 0.09749528, 0.04824861, 0.004978979, -0.05817202, 0.09743237, 0.04824089
 19340594, 0.01181184, -0.05860443, 0.09743873, 0.04823417, 0.03161547, -0.07780679, 0.09749528, 0.04824861
 19440554, 0.07775071, 0.0279003, 0.09739207, 0.04844814, 0.01181184, -0.05860443, 0.09743873, 0.04823417
 19540514, 0.05057651, -0.007927492, 0.09719524, 0.04868809, 0.07775071, 0.0279003, 0.09739207, 0.04844814
 19640474, -0.02166085, 0.03301464, 0.0969595, 0.04911729, 0.05057651, -0.007927492, 0.09719524, 0.04868809
 19740434, 0.05923495, 0.02466233, 0.09673358, 0.04965275, -0.02166085, 0.03301464, 0.0969595, 0.04911729
 19840394, -0.003364878, -0.03779808, 0.09636132, 0.05027649, 0.05923495, 0.02466233, 0.09673358, 0.04965275
 19940354, 0.02008295, 0.06441104, 0.09601966, 0.05103486, -0.003364878, -0.03779808, 0.09636132, 0.05027649
 20040314, -0.0392151, -0.05700657, 0.09563205, 0.05176568, 0.02008295, 0.06441104, 0.09601966, 0.05103486
 20140274, -0.007909493, 0.04884937, 0.09519628, 0.05248328, -0.0392151, -0.05700657, 0.09563205, 0.05176568
 20240234, 0.05194515, 0.02015573, 0.09478933, 0.05323672, -0.007909493, 0.04884937, 0.09519628, 0.05248328
 20340194, -0.01731801, -0.0005016504, 0.09430076, 0.0540049, 0.05194515, 0.02015573, 0.09478933, 0.05323672
 20440154, 0.05574936, 0.06209113, 0.09391433, 0.05489109, -0.01731801, -0.0005016504, 0.09430076, 0.0540049
 20540947, 0.07243463, 0.01865124, 0.09351087, 0.05553171, 0.05574936, 0.06209113, 0.09391433, 0.05489109
 20640907, -0.008296577, 0.04735776, 0.09299111, 0.05629382, 0.07243463, 0.01865124, 0.09351087, 0.05553171
 20740867, 0.04378353, -0.08349873, 0.09266061, 0.05704228, -0.008296577, 0.04735776, 0.09299111, 0.05629382
 20840827, 0.3392577, -0.03013398, 0.09467686, 0.05708161, 0.04378353, -0.08349873, 0.09266061, 0.05704228
 20940787, 0.6096423, -0.1951955, 0.1004539, 0.05638484, 0.3392577, -0.03013398, 0.09467686, 0.05708161
 21040747, 0.988008, -0.1925493, 0.1116006, 0.05448955, 0.6096423, -0.1951955, 0.1004539, 0.05638484
 21140707, 1.500774, -0.3398147, 0.1330129, 0.05064546, 0.988008, -0.1925493, 0.1116006, 0.05448955
 21240667, 2.150964, -0.3890013, 0.1637474, 0.0451936, 1.500774, -0.3398147, 0.1330129, 0.05064546
 21340627, 2.99744, -0.5406544, 0.2085823, 0.03728656, 2.150964, -0.3890013, 0.1637474, 0.0451936
 21440587, 3.69387, -0.7344641, 0.2478293, 0.0309182, 2.99744, -0.5406544, 0.2085823, 0.03728656
 21540547, 4.728564, -0.8932981, 0.3063252, 0.0214858, 3.69387, -0.7344641, 0.2478293, 0.0309182
 21640507, 5.66816, -1.038286, 0.3602557, 0.01356522, 4.728564, -0.8932981, 0.3063252, 0.0214858
 21740467, 6.758317, -1.192339, 0.4232379, 0.004933588, 5.66816, -1.038286, 0.3602557, 0.01356522
 21840427, 7.812425, -1.304122, 0.484078, -0.002537951, 6.758317, -1.192339, 0.4232379, 0.004933588
 21940387, 8.731793, -1.390921, 0.537141, -0.007461093, 7.812425, -1.304122, 0.484078, -0.002537951
 22040347, 9.64618, -1.455459, 0.5897729, -0.01151939, 8.731793, -1.390921, 0.537141, -0.007461093
 22140307, 10.60921, -1.571574, 0.6456953, -0.01472534, 9.64618, -1.455459, 0.5897729, -0.01151939
 22240267, 11.3204, -1.573451, 0.6861016, -0.01513401, 10.60921, -1.571574, 0.6456953, -0.01472534
 22340227, 12.17006, -1.480511, 0.7329611, -0.01491217, 11.3204, -1.573451, 0.6861016, -0.01513401
 22440187, 12.9949, -1.62958, 0.7779151, -0.01342461, 12.17006, -1.480511, 0.7329611, -0.01491217
 22540147, 13.68738, -1.525459, 0.8147129, -0.0110434, 12.9949, -1.62958, 0.7779151, -0.01342461
 22640940, 14.20067, -1.508607, 0.8425065, -0.007865205, 13.68738, -1.525459, 0.8147129, -0.0110434
 22740900, 15.10294, -1.529066, 0.8911632, -0.006113194, 14.20067, -1.508607, 0.8425065, -0.007865205
 22840860, 15.88633, -1.497086, 0.9253847, -0.001215465, 15.10294, -1.529066, 0.8911632, -0.006113194
 22940820, 16.29302, -1.439129, 0.9301077, 0.008204184, 15.88633, -1.497086, 0.9253847, -0.001215465
 23040780, 16.56492, -1.386429, 0.9219962, 0.02148773, 16.29302, -1.439129, 0.9301077, 0.008204184
 23140740, 16.99494, -1.283731, 0.9216658, 0.03628579, 16.56492, -1.386429, 0.9219962, 0.02148773
 23240700, 17.68478, -1.176445, 0.9368037, 0.05461169, 16.99494, -1.283731, 0.9216658, 0.03628579
 23340660, 18.27348, -1.22042, 0.9528943, 0.07103354, 17.68478, -1.176445, 0.9368037, 0.05461169
 23440620, 18.92369, -1.35798, 0.9759811, 0.0880406, 18.27348, -1.22042, 0.9528943, 0.07103354
 23540580, 19.85267, -1.463204, 1.013859, 0.1073666, 18.92369, -1.35798, 0.9759811, 0.0880406
 23640540, 20.69929, -1.485489, 1.048019, 0.1250345, 19.85267, -1.463204, 1.013859, 0.1073666
 23740500, 21.52833, -1.327312, 1.080854, 0.1437325, 20.69929, -1.485489, 1.048019, 0.1250345
 23840460, 21.97094, -1.316209, 1.097391, 0.1643348, 21.52833, -1.327312, 1.080854, 0.1437325
 23940420, 22.58463, -1.488199, 1.124073, 0.1859554, 21.97094, -1.316209, 1.097391, 0.1643348
 24040380, 23.05195, -1.436395, 1.14528, 0.2070685, 22.58463, -1.488199, 1.124073, 0.1859554
 24140340, 23.60747, -1.914663, 1.173586, 0.2284653, 23.05195, -1.436395, 1.14528, 0.2070685
 24240300, 24.5192, -2.099993, 1.216474, 0.2542473, 23.60747, -1.914663, 1.173586, 0.2284653
 24340260, 24.484, -1.927416, 1.217891, 0.2865791, 24.5192, -2.099993, 1.216474, 0.2542473
 24440220, 25.32769, -1.318125, 1.259627, 0.3148008, 24.484, -1.927416, 1.217891, 0.2865791
 24540180, 25.86263, -1.798699, 1.295444, 0.3396891, 25.32769, -1.318125, 1.259627, 0.3148008
 24640973, 25.74408, -2.126493, 1.303718, 0.3690138, 25.86263, -1.798699, 1.295444, 0.3396891
 24740933, 25.82509, -1.946304, 1.319468, 0.3961678, 25.74408, -2.126493, 1.303718, 0.3690138
 24840893, 26.66972, -1.929047, 1.368682, 0.4221435, 25.82509, -1.946304, 1.319468, 0.3961678
 24940853, 26.30476, -2.384679, 1.368573, 0.4582205, 26.66972, -1.929047, 1.368682, 0.4221435
 25040813, 26.503, -2.148655, 1.391535, 0.4932138, 26.30476, -2.384679, 1.368573, 0.4582205
 25140773, 27.44526, -1.946846, 1.445817, 0.5244809, 26.503, -2.148655, 1.391535, 0.4932138
 25240733, 27.05017, -1.659742, 1.447328, 0.5592604, 27.44526, -1.946846, 1.445817, 0.5244809
 25340693, 27.66588, -2.829031, 1.494683, 0.5894972, 27.05017, -1.659742, 1.447328, 0.5592604
 25440653, 27.79909, -2.211707, 1.518904, 0.6215503, 27.66588, -2.829031, 1.494683, 0.5894972
 25540613, 27.52193, -2.156925, 1.531225, 0.6585658, 27.79909, -2.211707, 1.518904, 0.6215503
 25640573, 28.52907, -2.026147, 1.594607, 0.6933356, 27.52193, -2.156925, 1.531225, 0.6585658
 25740533, 28.55876, -1.76044, 1.622386, 0.7317694, 28.52907, -2.026147, 1.594607, 0.6933356
 25840493, 27.91177, -2.943892, 1.631326, 0.7717683, 28.55876, -1.76044, 1.622386, 0.7317694
 25940453, 28.17353, -3.089807, 1.672105, 0.8065588, 27.91177, -2.943892, 1.631326, 0.7717683
 26040413, 29.18851, -2.344183, 1.736289, 0.8404683, 28.17353, -3.089807, 1.672105, 0.8065588
 26140373, 28.28297, -2.81036, 1.735662, 0.8802429, 29.18851, -2.344183, 1.736289, 0.8404683
 26240333, 29.12247, -2.208633, 1.792563, 0.915208, 28.28297, -2.81036, 1.735662, 0.8802429
 26340293, 29.42529, -2.644385, 1.832886, 0.9536501, 29.12247, -2.208633, 1.792563, 0.915208
 26440253, 27.54953, -2.595404, 1.797269, 0.9978783, 29.42529, -2.644385, 1.832886, 0.9536501
 26540213, 29.3594, -1.446398, 1.886489, 1.029606, 27.54953, -2.595404, 1.797269, 0.9978783
 26640173, 28.64535, -3.24955, 1.897125, 1.067128, 29.3594, -1.446398, 1.886489, 1.029606
 26740966, 29.51137, -2.583797, 1.955556, 1.097471, 28.64535, -3.24955, 1.897125, 1.067128
 26840926, 28.01068, -2.530241, 1.9364, 1.136114, 29.51137, -2.583797, 1.955556, 1.097471
 26940886, 28.44852, -1.097246, 1.976159, 1.171199, 28.01068, -2.530241, 1.9364, 1.136114
 27040846, 28.54867, -1.000572, 2.009218, 1.203333, 28.44852, -1.097246, 1.976159, 1.171199
 27140806, 27.80657, -2.184922, 2.019993, 1.233233, 28.54867, -1.000572, 2.009218, 1.203333
 27240766, 27.82652, -3.243452, 2.053457, 1.264488, 27.80657, -2.184922, 2.019993, 1.233233
 27340726, 30.36179, -2.975406, 2.165344, 1.281944, 27.82652, -3.243452, 2.053457, 1.264488
 27440686, 28.83494, -1.286632, 2.142659, 1.316341, 30.36179, -2.975406, 2.165344, 1.281944
 27540646, 28.98895, -3.568293, 2.186427, 1.340003, 28.83494, -1.286632, 2.142659, 1.316341
 27640606, 30.54019, -2.402625, 2.263978, 1.359339, 28.98895, -3.568293, 2.186427, 1.340003
 27740566, 30.26307, -1.729143, 2.284406, 1.386884, 30.54019, -2.402625, 2.263978, 1.359339
 27840526, 29.0177, -1.303828, 2.279158, 1.414935, 30.26307, -1.729143, 2.284406, 1.386884
 27940486, 29.95806, -1.999057, 2.341619, 1.4366, 29.0177, -1.303828, 2.279158, 1.414935
 28040446, 27.44582, -4.295104, 2.308663, 1.46771, 29.95806, -1.999057, 2.341619, 1.4366
 28140406, 29.2326, -1.643138, 2.385233, 1.488063, 27.44582, -4.295104, 2.308663, 1.46771
 28240366, 29.68474, -2.444275, 2.43356, 1.508653, 29.2326, -1.643138, 2.385233, 1.488063
 28340326, 28.76001, -1.882945, 2.438283, 1.535256, 29.68474, -2.444275, 2.43356, 1.508653
 28440286, 30.40188, -3.2936, 2.521451, 1.549497, 28.76001, -1.882945, 2.438283, 1.535256
 28540246, 29.88761, -2.007117, 2.519683, 1.579703, 30.40188, -3.2936, 2.521451, 1.549497
 28640206, 29.74124, -2.287628, 2.519754, 1.615792, 29.88761, -2.007117, 2.519683, 1.579703
 28740166, 28.26849, -0.5265179, 2.491922, 1.66354, 29.74124, -2.287628, 2.519754, 1.615792
 28840959, 27.03929, -0.4728806, 2.51107, 1.70943, 28.26849, -0.5265179, 2.491922, 1.66354
 28940919, 28.90371, -1.845475, 2.626204, 1.728588, 27.03929, -0.4728806, 2.51107, 1.70943
 29040879, 29.59422, -4.702422, 2.697592, 1.746415, 28.90371, -1.845475, 2.626204, 1.728588
 29140839, 28.65489, -4.410948, 2.695412, 1.771366, 29.59422, -4.702422, 2.697592, 1.746415
 29240799, 27.56499, -5.380225, 2.668253, 1.789399, 28.65489, -4.410948, 2.695412, 1.771366
 29340759, 28.14133, -4.198628, 2.659635, 1.800059, 27.56499, -5.380225, 2.668253, 1.789399
 29440719, 27.18119, -4.975792, 2.61264, 1.819896, 28.14133, -4.198628, 2.659635, 1.800059
 29540679, 27.39829, -4.556869, 2.594327, 1.833369, 27.18119, -4.975792, 2.61264, 1.819896
 29640639, 28.05275, -3.330845, 2.590626, 1.843721, 27.39829, -4.556869, 2.594327, 1.833369
 29740599, 27.4126, -0.8535619, 2.557142, 1.857321, 28.05275, -3.330845, 2.590626, 1.843721
 29840559, 27.65543, -3.66537, 2.558181, 1.876274, 27.4126, -0.8535619, 2.557142, 1.857321
 29940519, 28.74257, -2.568843, 2.576155, 1.893068, 27.65543, -3.66537, 2.558181, 1.876274
 30040479, 29.56978, -1.776681, 2.592785, 1.907229, 28.74257, -2.568843, 2.576155, 1.893068
 30140439, 28.80335, -1.682509, 2.56691, 1.924284, 29.56978, -1.776681, 2.592785, 1.907229
 30240399, 29.50007, -0.8238727, 2.578282, 1.941773, 28.80335, -1.682509, 2.56691, 1.924284
 30340359, 27.6129, -0.2744097, 2.515726, 1.964643, 29.50007, -0.8238727, 2.578282, 1.941773
 30440319, 26.66006, -1.220245, 2.479934, 1.986797, 27.6129, -0.2744097, 2.515726, 1.964643
 30540279, 27.84409, -0.4042492, 2.500926, 2.007292, 26.66006, -1.220245, 2.479934, 1.986797
 30640239, 27.35086, 1.002952, 2.475374, 2.030289, 27.84409, -0.4042492, 2.500926, 2.007292
 30740199, 24.73637, -2.017673, 2.399987, 2.047038, 27.35086, 1.002952, 2.475374, 2.030289
 30840159, 27.51793, 0.5850542, 2.464857, 2.056747, 24.73637, -2.017673, 2.399987, 2.047038
 30940952, 25.61577, -1.230143, 2.410039, 2.064719, 27.51793, 0.5850542, 2.464857, 2.056747
 31040912, 25.3506, 0.9772594, 2.40048, 2.067785, 25.61577, -1.230143, 2.410039, 2.064719
 31140872, 25.28814, 1.298435, 2.397338, 2.071669, 25.3506, 0.9772594, 2.40048, 2.067785
 31240832, 27.12061, 0.7019008, 2.444021, 2.073515, 25.28814, 1.298435, 2.397338, 2.071669
 31340792, 23.71092, 1.272991, 2.35363, 2.074107, 27.12061, 0.7019008, 2.444021, 2.073515
 31440752, 27.14122, -1.615662, 2.438891, 2.076009, 23.71092, 1.272991, 2.35363, 2.074107
 31540712, 26.42096, 1.716172, 2.416001, 2.074703, 27.14122, -1.615662, 2.438891, 2.076009
 31640672, 26.85888, -1.076788, 2.422426, 2.073179, 26.42096, 1.716172, 2.416001, 2.074703
 31740632, 24.35617, -0.4494049, 2.350853, 2.06856, 26.85888, -1.076788, 2.422426, 2.073179
 31840592, 24.97416, -1.271507, 2.356942, 2.069134, 24.35617, -0.4494049, 2.350853, 2.06856
 31940552, 23.28411, 1.559143, 2.307511, 2.064217, 24.97416, -1.271507, 2.356942, 2.069134
 32040512, 23.04789, 0.07611585, 2.292282, 2.059722, 23.28411, 1.559143, 2.307511, 2.064217
 32140472, 25.15173, -1.239251, 2.338644, 2.056332, 23.04789, 0.07611585, 2.292282, 2.059722
 32240432, 24.31575, 0.8160444, 2.307751, 2.051852, 25.15173, -1.239251, 2.338644, 2.056332
 32340392, 23.74331, 0.06068653, 2.283931, 2.047163, 24.31575, 0.8160444, 2.307751, 2.051852
 32440352, 25.68963, 2.165301, 2.325899, 2.046159, 23.74331, 0.06068653, 2.283931, 2.047163
 32540312, 26.03454, 2.082026, 2.324852, 2.042618, 25.68963, 2.165301, 2.325899, 2.046159
 32640272, 23.16172, 0.9623852, 2.239177, 2.034676, 26.03454, 2.082026, 2.324852, 2.042618
 32740232, 24.26057, 1.581817, 2.257259, 2.03009, 23.16172, 0.9623852, 2.239177, 2.034676
 32840192, 26.93914, 0.3856516, 2.3173, 2.026449, 24.26057, 1.581817, 2.257259, 2.03009
 32940152, 24.96275, 2.129447, 2.254783, 2.018355, 26.93914, 0.3856516, 2.3173, 2.026449
 33040945, 26.23491, -0.9085467, 2.275989, 2.014092, 24.96275, 2.129447, 2.254783, 2.018355
 33140905, 26.39452, 0.1048547, 2.269293, 2.007921, 26.23491, -0.9085467, 2.275989, 2.014092
 33240865, 27.15216, -0.2452093, 2.278755, 2.004715, 26.39452, 0.1048547, 2.269293, 2.007921
 33340825, 26.337, -0.1264298, 2.244647, 1.99756, 27.15216, -0.2452093, 2.278755, 2.004715
 33440785, 26.61298, -0.8933291, 2.240444, 1.994157, 26.337, -0.1264298, 2.244647, 1.99756
 33540745, 26.26474, 2.251631, 2.22271, 1.987461, 26.61298, -0.8933291, 2.240444, 1.994157
 33640705, 25.3523, -0.6076573, 2.181434, 1.981976, 26.26474, 2.251631, 2.22271, 1.987461
 33740665, 24.90537, 0.9363819, 2.161689, 1.970715, 25.3523, -0.6076573, 2.181434, 1.981976
 33840625, 26.00478, 0.1932571, 2.179695, 1.967467, 24.90537, 0.9363819, 2.161689, 1.970715
 33940585, 27.06747, 0.02038085, 2.197819, 1.963758, 26.00478, 0.1932571, 2.179695, 1.967467
 34040545, 27.46708, 1.512763, 2.202606, 1.955708, 27.06747, 0.02038085, 2.197819, 1.963758
 34140505, 27.12712, -0.09379804, 2.182493, 1.94688, 27.46708, 1.512763, 2.202606, 1.955708
 34240465, 24.77208, 1.404734, 2.107734, 1.934072, 27.12712, -0.09379804, 2.182493, 1.94688
 34340425, 24.68427, 0.7987655, 2.094572, 1.926602, 24.77208, 1.404734, 2.107734, 1.934072
 34440385, 26.452, 1.000778, 2.134227, 1.922711, 24.68427, 0.7987655, 2.094572, 1.926602
 34540345, 27.65797, 1.249901, 2.163288, 1.913812, 26.452, 1.000778, 2.134227, 1.922711
 34640305, 25.21663, 1.092649, 2.084141, 1.898928, 27.65797, 1.249901, 2.163288, 1.913812
 34740265, 27.57656, 2.85489, 2.147528, 1.895688, 25.21663, 1.092649, 2.084141, 1.898928
 34840225, 27.31857, -0.2280047, 2.12509, 1.888172, 27.57656, 2.85489, 2.147528, 1.895688
 34940185, 26.59621, 2.249538, 2.098901, 1.876041, 27.31857, -0.2280047, 2.12509, 1.888172
 35040145, 25.20745, 0.1148943, 2.050131, 1.860773, 26.59621, 2.249538, 2.098901, 1.876041
 35140938, 27.14333, 2.786763, 2.106841, 1.851911, 25.20745, 0.1148943, 2.050131, 1.860773
 35240898, 27.28677, 0.4911878, 2.099756, 1.842403, 27.14333, 2.786763, 2.106841, 1.851911
 35340858, 24.99613, 0.7441719, 2.023919, 1.829374, 27.28677, 0.4911878, 2.099756, 1.842403
 35440818, 26.56836, 2.571267, 2.065342, 1.824205, 24.99613, 0.7441719, 2.023919, 1.829374
 35540778, 24.79168, 1.259927, 2.002687, 1.810897, 26.56836, 2.571267, 2.065342, 1.824205
 35640738, 25.66814, 0.6229504, 2.020792, 1.802915, 24.79168, 1.259927, 2.002687, 1.810897
 35740698, 27.30278, 0.6782626, 2.066199, 1.793369, 25.66814, 0.6229504, 2.020792, 1.802915
 35840658, 25.78598, 0.2941955, 2.014092, 1.779086, 27.30278, 0.6782626, 2.066199, 1.793369
 35940618, 27.96944, 1.821788, 2.079593, 1.770448, 25.78598, 0.2941955, 2.014092, 1.779086
 36040578, 27.97738, 0.04110658, 2.069203, 1.760868, 27.96944, 1.821788, 2.079593, 1.770448
 36140538, 28.28436, 0.9905797, 2.076899, 1.747157, 27.97738, 0.04110658, 2.069203, 1.760868
 36240498, 27.41685, -0.2288344, 2.042289, 1.735447, 28.28436, 0.9905797, 2.076899, 1.747157
 36340458, 26.255, 2.15478, 2.004377, 1.720913, 27.41685, -0.2288344, 2.042289, 1.735447
 36440418, 26.64497, 0.7283829, 2.00855, 1.711577, 26.255, 2.15478, 2.004377, 1.720913
 36540378, 27.04547, 0.1514671, 2.013771, 1.704995, 26.64497, 0.7283829, 2.00855, 1.711577
 36640338, 26.33985, 2.801739, 1.990756, 1.693757, 27.04547, 0.1514671, 2.013771, 1.704995
 36740298, 25.52249, 0.8737224, 1.9583, 1.678915, 26.33985, 2.801739, 1.990756, 1.693757
 36840258, 26.21173, 2.129808, 1.975929, 1.670037, 25.52249, 0.8737224, 1.9583, 1.678915
 36940218, 27.10222, 2.204714, 1.998699, 1.661633, 26.21173, 2.129808, 1.975929, 1.670037
 37040178, 26.92126, 0.7240151, 1.986454, 1.649387, 27.10222, 2.204714, 1.998699, 1.661633
 37140971, 26.92813, 1.964368, 1.985367, 1.638858, 26.92126, 0.7240151, 1.986454, 1.649387
 37240931, 26.61253, 1.538054, 1.971504, 1.627245, 26.92813, 1.964368, 1.985367, 1.638858
 37340891, 26.07082, 1.659259, 1.951624, 1.61663, 26.61253, 1.538054, 1.971504, 1.627245
 37440851, 28.49583, 0.4617492, 2.026207, 1.612135, 26.07082, 1.659259, 1.951624, 1.61663
 37540811, 27.28339, -0.0875448, 1.980346, 1.605064, 28.49583, 0.4617492, 2.026207, 1.612135
 37640771, 26.06053, 2.339808, 1.938424, 1.598241, 27.28339, -0.0875448, 1.980346, 1.605064
 37740731, 28.09769, 1.390345, 2.000531, 1.592984, 26.06053, 2.339808, 1.938424, 1.598241
 37840691, 28.79394, 1.397578, 2.021235, 1.586835, 28.09769, 1.390345, 2.000531, 1.592984
 37940651, 28.71208, 2.419644, 2.017471, 1.579858, 28.79394, 1.397578, 2.021235, 1.586835
 38040611, 27.24831, 0.8525055, 1.962972, 1.568515, 28.71208, 2.419644, 2.017471, 1.579858
 38140571, 28.65632, -0.1072862, 2.005764, 1.565596, 27.24831, 0.8525055, 1.962972, 1.568515
 38240531, 27.05138, -0.4060776, 1.948222, 1.556877, 28.65632, -0.1072862, 2.005764, 1.565596
 38340491, 28.5744, 0.8384656, 1.996906, 1.553423, 27.05138, -0.4060776, 1.948222, 1.556877
 38440451, 28.09035, -0.01605654, 1.973926, 1.549552, 28.5744, 0.8384656, 1.996906, 1.553423
 38540411, 28.44228, 1.899728, 1.986104, 1.541921, 28.09035, -0.01605654, 1.973926, 1.549552
 38640371, 27.34432, 1.465574, 1.94595, 1.532088, 28.44228, 1.899728, 1.986104, 1.541921
 38740331, 27.37607, -0.3046116, 1.941049, 1.529023, 27.34432, 1.465574, 1.94595, 1.532088
 38840291, 26.77166, 1.344504, 1.919707, 1.521975, 27.37607, -0.3046116, 1.941049, 1.529023
 38940251, 28.71932, 0.4528708, 1.984544, 1.518321, 26.77166, 1.344504, 1.919707, 1.521975
 39040211, 27.69049, 1.483067, 1.947608, 1.512257, 28.71932, 0.4528708, 1.984544, 1.518321
 39140171, 28.07542, 1.084509, 1.95674, 1.509247, 27.69049, 1.483067, 1.947608, 1.512257
 39240964, 27.68026, 1.77981, 1.940239, 1.506022, 28.07542, 1.084509, 1.95674, 1.509247
 39340924, 27.90479, 1.28827, 1.945787, 1.500402, 27.68026, 1.77981, 1.940239, 1.506022
 39440884, 27.87836, 0.5256748, 1.941694, 1.496596, 27.90479, 1.28827, 1.945787, 1.500402
 39540844, 29.00064, -0.1517211, 1.976932, 1.497315, 27.87836, 0.5256748, 1.941694, 1.496596
 39640804, 26.97508, 0.8248495, 1.904457, 1.490786, 29.00064, -0.1517211, 1.976932, 1.497315
 39740764, 26.89814, -0.1280379, 1.899557, 1.486949, 26.97508, 0.8248495, 1.904457, 1.490786
 39840724, 27.74293, 0.7863235, 1.927337, 1.48454, 26.89814, -0.1280379, 1.899557, 1.486949
 39940684, 28.04704, 2.258508, 1.936593, 1.483922, 27.74293, 0.7863235, 1.927337, 1.48454
 40040644, 26.51004, 0.2964658, 1.880009, 1.475845, 28.04704, 2.258508, 1.936593, 1.483922
 40140604, 28.87605, -0.09455729, 1.961046, 1.475418, 26.51004, 0.2964658, 1.880009, 1.475845
 40240564, 27.82667, 0.3535094, 1.92218, 1.471943, 28.87605, -0.09455729, 1.961046, 1.475418
 40340524, 26.6098, 0.3176695, 1.878216, 1.467252, 27.82667, 0.3535094, 1.92218, 1.471943
 40440484, 26.7454, -0.435625, 1.880691, 1.465426, 26.6098, 0.3176695, 1.878216, 1.467252
 40540444, 28.72371, 0.9748941, 1.950848, 1.463928, 26.7454, -0.435625, 1.880691, 1.465426
 40640404, 27.59752, -0.06410974, 1.908835, 1.460276, 28.72371, 0.9748941, 1.950848, 1.463928
 40740364, 26.90001, 1.663104, 1.885424, 1.4606, 27.59752, -0.06410974, 1.908835, 1.460276
 40840324, 26.88347, 0.9470966, 1.884723, 1.461584, 26.90001, 1.663104, 1.885424, 1.4606
 40940284, 27.0234, 0.5690517, 1.891184, 1.464222, 26.88347, 0.9470966, 1.884723, 1.461584
 41040244, 28.85667, 0.1301985, 1.956339, 1.470572, 27.0234, 0.5690517, 1.891184, 1.464222
 41140204, 28.29304, 2.093417, 1.940748, 1.471942, 28.85667, 0.1301985, 1.956339, 1.470572
 41240164, 27.93147, -0.0513494, 1.926736, 1.474287, 28.29304, 2.093417, 1.940748, 1.471942
 41340957, 27.61235, 1.765313, 1.919453, 1.476264, 27.93147, -0.0513494, 1.926736, 1.474287
 41440917, 29.20988, 0.1700829, 1.973341, 1.484416, 27.61235, 1.765313, 1.919453, 1.476264
 41540877, 29.21283, 0.5510828, 1.975109, 1.487843, 29.20988, 0.1700829, 1.973341, 1.484416
 41640837, 28.28394, 1.10367, 1.945098, 1.488924, 29.21283, 0.5510828, 1.975109, 1.487843
 41740797, 28.14047, 0.3859764, 1.941304, 1.491965, 28.28394, 1.10367, 1.945098, 1.488924
 41840757, 27.32166, 0.8177878, 1.915527, 1.494343, 28.14047, 0.3859764, 1.941304, 1.491965
 41940717, 28.44827, 0.9657217, 1.956543, 1.500604, 27.32166, 0.8177878, 1.915527, 1.494343
 42040677, 29.04625, 1.248394, 1.980491, 1.504812, 28.44827, 0.9657217, 1.956543, 1.500604
 42140637, 27.56233, 0.5607259, 1.929211, 1.507226, 29.04625, 1.248394, 1.980491, 1.504812
 42240597, 29.02143, 1.878881, 1.984502, 1.513858, 27.56233, 0.5607259, 1.929211, 1.507226
 42340557, 28.69404, 1.458448, 1.974168, 1.51759, 29.02143, 1.878881, 1.984502, 1.513858
 42440517, 27.96958, 2.433452, 1.953047, 1.521047, 28.69404, 1.458448, 1.974168, 1.51759
 42540477, 27.29902, 1.078048, 1.931312, 1.52123, 27.96958, 2.433452, 1.953047, 1.521047
 42640437, 27.15588, 1.705678, 1.928227, 1.526455, 27.29902, 1.078048, 1.931312, 1.52123
 42740397, 26.81809, 1.934441, 1.918545, 1.531207, 27.15588, 1.705678, 1.928227, 1.526455
 42840357, 27.50457, 2.065348, 1.944444, 1.536384, 26.81809, 1.934441, 1.918545, 1.531207
 42940317, 27.43079, 0.3894988, 1.940215, 1.542002, 27.50457, 2.065348, 1.944444, 1.536384
 43040277, 27.31871, 0.8117506, 1.939298, 1.54624, 27.43079, 0.3894988, 1.940215, 1.542002
 43140237, 28.68554, 0.4401032, 1.988447, 1.55318, 27.31871, 0.8117506, 1.939298, 1.54624
 43240197, 28.2784, 2.437936, 1.979921, 1.558753, 28.68554, 0.4401032, 1.988447, 1.55318
 43340157, 28.41538, 0.9944021, 1.983935, 1.564351, 28.2784, 2.437936, 1.979921, 1.558753
 43440950, 28.90559, 0.1102318, 2.001824, 1.57229, 28.41538, 0.9944021, 1.983935, 1.564351
 43540910, 27.99137, 1.374255, 1.973894, 1.577315, 28.90559, 0.1102318, 2.001824, 1.57229
 43640870, 29.71136, 0.6007683, 2.03287, 1.588908, 27.99137, 1.374255, 1.973894, 1.577315
 43740830, 27.40768, 1.578227, 1.957675, 1.591052, 29.71136, 0.6007683, 2.03287, 1.588908
 43840790, 27.07186, 0.9630458, 1.946598, 1.598164, 27.40768, 1.578227, 1.957675, 1.591052
 43940750, 28.90344, 1.607965, 2.008138, 1.612965, 27.07186, 0.9630458, 1.946598, 1.598164
 44040710, 26.84617, 2.553488, 1.934654, 1.631693, 28.90344, 1.607965, 2.008138, 1.612965
 44140670, 28.95566, 1.706877, 1.995669, 1.666472, 26.84617, 2.553488, 1.934654, 1.631693
 44240630, 27.23658, 2.750483, 1.954506, 1.663977, 28.95566, 1.706877, 1.995669, 1.666472
 44340590, 29.43461, 1.930891, 2.043202, 1.645148, 27.23658, 2.750483, 1.954506, 1.663977
 44440550, 29.47834, 1.569854, 2.049595, 1.63578, 29.43461, 1.930891, 2.043202, 1.645148
 44540510, 29.67731, 0.9942136, 2.051575, 1.644567, 29.47834, 1.569854, 2.049595, 1.63578
 44640470, 28.00756, 0.7382678, 1.987603, 1.66114, 29.67731, 0.9942136, 2.051575, 1.644567
 44740430, 26.92239, 2.89176, 1.949985, 1.681122, 28.00756, 0.7382678, 1.987603, 1.66114
 44840390, 27.83086, 1.026804, 1.971607, 1.697672, 26.92239, 2.89176, 1.949985, 1.681122
 44940350, 28.50307, 1.945577, 1.996005, 1.705222, 27.83086, 1.026804, 1.971607, 1.697672
 45040310, 27.20441, 3.368917, 1.961053, 1.703575, 28.50307, 1.945577, 1.996005, 1.705222
 45140270, 27.09285, 0.8557844, 1.960192, 1.697617, 27.20441, 3.368917, 1.961053, 1.703575
 45240230, 27.32214, 1.547474, 1.978477, 1.693855, 27.09285, 0.8557844, 1.960192, 1.697617
 45340190, 29.69687, 1.696331, 2.067221, 1.696714, 27.32214, 1.547474, 1.978477, 1.693855
 45440150, 29.91592, 1.476581, 2.08126, 1.697969, 29.69687, 1.696331, 2.067221, 1.696714
 45540943, 28.24836, 1.397629, 2.030206, 1.69712, 29.91592, 1.476581, 2.08126, 1.697969
 45640903, 29.35927, 2.897574, 2.077242, 1.70155, 28.24836, 1.397629, 2.030206, 1.69712
 45740863, 26.89373, 0.487573, 1.996639, 1.70071, 29.35927, 2.897574, 2.077242, 1.70155
 45840823, 28.69942, 2.17732, 2.063043, 1.708316, 26.89373, 0.487573, 1.996639, 1.70071
 45940783, 27.01751, 1.302371, 2.010656, 1.710618, 28.69942, 2.17732, 2.063043, 1.708316
 46040743, 27.42104, 2.299644, 2.031734, 1.714622, 27.01751, 1.302371, 2.010656, 1.710618
 46140703, 29.02077, 2.845641, 2.089763, 1.721888, 27.42104, 2.299644, 2.031734, 1.714622
 46240663, 29.04789, 0.9188185, 2.092765, 1.72389, 29.02077, 2.845641, 2.089763, 1.721888
 46340623, 28.63145, 1.20554, 2.085059, 1.72689, 29.04789, 0.9188185, 2.092765, 1.72389
 46440583, 28.36409, 1.813811, 2.082921, 1.728242, 28.63145, 1.20554, 2.085059, 1.72689
 46540543, 28.03061, 1.920393, 2.079164, 1.728701, 28.36409, 1.813811, 2.082921, 1.728242
 46640503, 28.40161, -0.02897131, 2.094769, 1.731436, 28.03061, 1.920393, 2.079164, 1.728701
 46740463, 27.98211, 0.1972044, 2.087351, 1.732425, 28.40161, -0.02897131, 2.094769, 1.731436
 46840423, 26.76908, 1.720314, 2.056733, 1.733559, 27.98211, 0.1972044, 2.087351, 1.732425
 46940383, 27.29024, 2.161938, 2.079673, 1.737602, 26.76908, 1.720314, 2.056733, 1.733559
 47040343, 28.69969, 1.366257, 2.127676, 1.743611, 27.29024, 2.161938, 2.079673, 1.737602
 47140303, 29.14748, 2.036694, 2.149876, 1.745831, 28.69969, 1.366257, 2.127676, 1.743611
 47240263, 28.30084, 1.034888, 2.123898, 1.749964, 29.14748, 2.036694, 2.149876, 1.745831
 47340223, 27.48965, 0.74946, 2.102913, 1.751872, 28.30084, 1.034888, 2.123898, 1.749964
 47440183, 28.33725, 0.4280941, 2.137265, 1.753534, 27.48965, 0.74946, 2.102913, 1.751872
 47540976, 28.47065, 0.5137033, 2.147801, 1.755906, 28.33725, 0.4280941, 2.137265, 1.753534
 47640936, 30.00722, 1.719128, 2.203602, 1.761647, 28.47065, 0.5137033, 2.147801, 1.755906
 47740896, 28.14937, 1.626716, 2.146335, 1.763676, 30.00722, 1.719128, 2.203602, 1.761647
 47840856, 27.11872, -0.6351924, 2.114923, 1.764547, 28.14937, 1.626716, 2.146335, 1.763676
 47940816, 28.44657, 0.03225178, 2.15987, 1.766458, 27.11872, -0.6351924, 2.114923, 1.764547
 48040776, 29.45672, 0.3454575, 2.195936, 1.767521, 28.44657, 0.03225178, 2.15987, 1.766458
 48140736, 30.03007, -0.5906619, 2.216652, 1.768825, 29.45672, 0.3454575, 2.195936, 1.767521
 48240696, 27.1062, 1.225999, 2.126289, 1.765514, 30.03007, -0.5906619, 2.216652, 1.768825
 48340656, 28.32879, -0.8022122, 2.164567, 1.769335, 27.1062, 1.225999, 2.126289, 1.765514
 48440616, 29.7819, -0.7544324, 2.215946, 1.768268, 28.32879, -0.8022122, 2.164567, 1.769335
 48540576, 30.16349, 0.9034572, 2.2332, 1.765913, 29.7819, -0.7544324, 2.215946, 1.768268
 48640536, 29.66556, 2.006325, 2.220685, 1.766421, 30.16349, 0.9034572, 2.2332, 1.765913
 48740496, 29.68711, 0.7449209, 2.222206, 1.765582, 29.66556, 2.006325, 2.220685, 1.766421
 48840456, 29.44789, 1.322054, 2.21662, 1.766831, 29.68711, 0.7449209, 2.222206, 1.765582
 48940416, 28.13645, 1.849207, 2.176528, 1.767141, 29.44789, 1.322054, 2.21662, 1.766831
 49040376, 28.40171, 0.06752938, 2.188274, 1.764839, 28.13645, 1.849207, 2.176528, 1.767141
 49140336, 28.92277, 1.18726, 2.209098, 1.764026, 28.40171, 0.06752938, 2.188274, 1.764839
 49240296, 29.902, 2.091812, 2.243925, 1.766133, 28.92277, 1.18726, 2.209098, 1.764026
 49340256, 28.81674, 0.7560575, 2.210511, 1.76284, 29.902, 2.091812, 2.243925, 1.766133
 49440216, 27.65794, 0.4199293, 2.177792, 1.76035, 28.81674, 0.7560575, 2.210511, 1.76284
 49540176, 29.53661, 1.859856, 2.241793, 1.760277, 27.65794, 0.4199293, 2.177792, 1.76035
 49640969, 27.66878, 0.6124003, 2.184057, 1.758829, 29.53661, 1.859856, 2.241793, 1.760277
 49740929, 29.78501, 1.661453, 2.254944, 1.760817, 27.66878, 0.6124003, 2.184057, 1.758829
 49840889, 27.85907, 1.348503, 2.197505, 1.757422, 29.78501, 1.661453, 2.254944, 1.760817
 49940849, 28.61896, 0.7087113, 2.224998, 1.756944, 27.85907, 1.348503, 2.197505, 1.757422
 50040809, 28.89409, 1.861862, 2.236362, 1.759956, 28.61896, 0.7087113, 2.224998, 1.756944
 50140769, 27.08881, 1.912649, 2.182431, 1.759977, 28.89409, 1.861862, 2.236362, 1.759956
 50240729, 28.76833, 1.078258, 2.238136, 1.759524, 27.08881, 1.912649, 2.182431, 1.759977
 50340689, 27.15969, 0.7140123, 2.188335, 1.760912, 28.76833, 1.078258, 2.238136, 1.759524
 50440649, 30.33518, -0.3819513, 2.290943, 1.763204, 27.15969, 0.7140123, 2.188335, 1.760912
 50540609, 30.21578, 1.841781, 2.289253, 1.76442, 30.33518, -0.3819513, 2.290943, 1.763204
 50640569, 27.99928, 1.541529, 2.220505, 1.763808, 30.21578, 1.841781, 2.289253, 1.76442
 50740529, 29.48538, -1.427217, 2.270962, 1.762014, 27.99928, 1.541529, 2.220505, 1.763808
 50840489, 27.70925, 0.1998897, 2.217491, 1.76038, 29.48538, -1.427217, 2.270962, 1.762014
 50940449, 28.15093, -0.9695858, 2.233048, 1.76217, 27.70925, 0.1998897, 2.217491, 1.76038
 51040409, 28.4749, -1.050446, 2.243625, 1.765206, 28.15093, -0.9695858, 2.233048, 1.76217
 51140369, 27.31255, 0.2899457, 2.209474, 1.766026, 28.4749, -1.050446, 2.243625, 1.765206
 51240329, 27.21397, 1.696252, 2.208619, 1.767887, 27.31255, 0.2899457, 2.209474, 1.766026
 51340289, 30.49385, 0.1489316, 2.314792, 1.762012, 27.21397, 1.696252, 2.208619, 1.767887
 51440249, 28.27173, -1.583346, 2.243718, 1.762053, 30.49385, 0.1489316, 2.314792, 1.762012
 51540209, 29.79221, 0.09806607, 2.292528, 1.757283, 28.27173, -1.583346, 2.243718, 1.762053
 51640169, 30.03811, -1.540366, 2.344158, 1.698083, 29.79221, 0.09806607, 2.292528, 1.757283
 51740962, 28.91232, -0.2862139, 2.305356, 1.697559, 30.03811, -1.540366, 2.344158, 1.698083
 51840922, 29.11585, 0.7613873, 2.311718, 1.695268, 28.91232, -0.2862139, 2.305356, 1.697559
 51940882, 30.52891, 0.733496, 2.357411, 1.690751, 29.11585, 0.7613873, 2.311718, 1.695268
 52040842, 28.07653, -2.305073, 2.280654, 1.690871, 30.52891, 0.733496, 2.357411, 1.690751
 52140802, 29.97304, 0.2065123, 2.338368, 1.685503, 28.07653, -2.305073, 2.280654, 1.690871
 52240762, 28.92267, -1.809099, 2.30368, 1.685404, 29.97304, 0.2065123, 2.338368, 1.685503
 52340722, 28.65373, -0.1867355, 2.295427, 1.678236, 28.92267, -1.809099, 2.30368, 1.685404
 52440682, 30.14522, -0.4791216, 2.345574, 1.669124, 28.65373, -0.1867355, 2.295427, 1.678236
 52540642, 28.48229, -0.654554, 2.291509, 1.666643, 30.14522, -0.4791216, 2.345574, 1.669124
 52640602, 27.92089, -0.490357, 2.272309, 1.663966, 28.48229, -0.654554, 2.291509, 1.666643
 52740562, 29.69658, -0.2041054, 2.326916, 1.659967, 27.92089, -0.490357, 2.272309, 1.663966
 52840522, 29.08151, -1.517605, 2.307879, 1.656786, 29.69658, -0.2041054, 2.326916, 1.659967
 52940482, 28.40014, -1.483754, 2.285643, 1.65359, 29.08151, -1.517605, 2.307879, 1.656786
 53040442, 28.34317, -1.544589, 2.283088, 1.650677, 28.40014, -1.483754, 2.285643, 1.65359
 53140402, 27.63716, -2.233575, 2.262701, 1.646436, 28.34317, -1.544589, 2.283088, 1.650677
 53240362, 30.45188, -1.44201, 2.352571, 1.638291, 27.63716, -2.233575, 2.262701, 1.646436
 53340322, 27.67594, -1.115515, 2.260527, 1.639426, 30.45188, -1.44201, 2.352571, 1.638291
 53440282, 29.21735, -2.526577, 2.310892, 1.635897, 27.67594, -1.115515, 2.260527, 1.639426
 53540242, 29.32715, -2.208728, 2.314001, 1.631669, 29.21735, -2.526577, 2.310892, 1.635897
 53640202, 29.55373, -0.09941959, 2.322017, 1.622207, 29.32715, -2.208728, 2.314001, 1.631669
 53740162, 30.45819, -2.482012, 2.354568, 1.618972, 29.55373, -0.09941959, 2.322017, 1.622207
 53840955, 28.79224, 0.3588316, 2.295996, 1.617771, 30.45819, -2.482012, 2.354568, 1.618972
 53940915, 29.90198, -1.133251, 2.335363, 1.609642, 28.79224, 0.3588316, 2.295996, 1.617771
 54040875, 30.2896, -1.675369, 2.349569, 1.604207, 29.90198, -1.133251, 2.335363, 1.609642
 54140835, 30.33468, 0.05990553, 2.347769, 1.603271, 30.2896, -1.675369, 2.349569, 1.604207
 54240795, 27.87429, -0.2705868, 2.268893, 1.602096, 30.33468, 0.05990553, 2.347769, 1.603271
 54340755, 27.37979, 0.2591274, 2.251462, 1.600955, 27.87429, -0.2705868, 2.268893, 1.602096
 54440715, 27.91627, -1.283586, 2.269983, 1.595637, 27.37979, 0.2591274, 2.251462, 1.600955
 54540675, 28.40761, -0.1950988, 2.282022, 1.595005, 27.91627, -1.283586, 2.269983, 1.595637
 54640635, 28.91286, -2.059469, 2.302301, 1.588843, 28.40761, -0.1950988, 2.282022, 1.595005
 54740595, 27.79598, -1.177643, 2.268465, 1.5854, 28.91286, -2.059469, 2.302301, 1.588843
 54840555, 28.88883, -1.929807, 2.307947, 1.580714, 27.79598, -1.177643, 2.268465, 1.5854
 54940515, 28.01462, -0.9906592, 2.2796, 1.582306, 28.88883, -1.929807, 2.307947, 1.580714
 55040475, 28.1636, -1.050436, 2.287709, 1.581015, 28.01462, -0.9906592, 2.2796, 1.582306
 55140435, 29.56707, -3.217663, 2.339117, 1.580122, 28.1636, -1.050436, 2.287709, 1.581015
 55240395, 29.49973, -1.172854, 2.336354, 1.577778, 29.56707, -3.217663, 2.339117, 1.580122
 55340355, 28.44184, -0.8461258, 2.304838, 1.577066, 29.49973, -1.172854, 2.336354, 1.577778
 55440315, 27.63257, -2.869945, 2.28429, 1.580421, 28.44184, -0.8461258, 2.304838, 1.577066
 55540275, 30.31028, -3.037482, 2.371706, 1.577516, 27.63257, -2.869945, 2.28429, 1.580421
 55640235, 29.73339, -2.272527, 2.354492, 1.577218, 30.31028, -3.037482, 2.371706, 1.577516
 55740195, 29.32794, -0.6387638, 2.340524, 1.578393, 29.73339, -2.272527, 2.354492, 1.577218
 55840155, 28.21873, -3.030899, 2.314243, 1.577633, 29.32794, -0.6387638, 2.340524, 1.578393
 55940948, 29.68624, -0.1324344, 2.359174, 1.57478, 28.21873, -3.030899, 2.314243, 1.577633
 56040908, 28.31879, -3.199219, 2.323207, 1.577151, 29.68624, -0.1324344, 2.359174, 1.57478
 56140868, 28.75369, -0.6424124, 2.336584, 1.574328, 28.31879, -3.199219, 2.323207, 1.577151
 56240828, 28.06479, -0.4246249, 2.316776, 1.576556, 28.75369, -0.6424124, 2.336584, 1.574328
 56340788, 28.45253, -1.245602, 2.333592, 1.573722, 28.06479, -0.4246249, 2.316776, 1.576556
 56440748, 27.12671, -2.42215, 2.297055, 1.576066, 28.45253, -1.245602, 2.333592, 1.573722
 56540708, 27.61952, -3.023031, 2.313236, 1.5789, 27.12671, -2.42215, 2.297055, 1.576066
 56640668, 27.45466, -2.000993, 2.307403, 1.578313, 27.61952, -3.023031, 2.313236, 1.5789
 56740628, 29.70158, -1.406041, 2.381571, 1.571716, 27.45466, -2.000993, 2.307403, 1.578313
 56840588, 28.01132, -1.058432, 2.331129, 1.573398, 29.70158, -1.406041, 2.381571, 1.571716
 56940548, 29.21017, -1.212292, 2.370953, 1.571444, 28.01132, -1.058432, 2.331129, 1.573398
 57040508, 29.36445, -2.393295, 2.380045, 1.571419, 29.21017, -1.212292, 2.370953, 1.571444
 57140468, 27.50389, -0.7143118, 2.320356, 1.576952, 29.36445, -2.393295, 2.380045, 1.571419
 57240428, 27.21891, -1.659749, 2.31829, 1.57402, 27.50389, -0.7143118, 2.320356, 1.576952
 57340388, 30.13711, -1.271755, 2.415385, 1.565494, 27.21891, -1.659749, 2.31829, 1.57402
 57440348, 29.4683, -0.4212095, 2.394455, 1.569717, 30.13711, -1.271755, 2.415385, 1.565494
 57540308, 29.63435, -3.685459, 2.410297, 1.568112, 29.4683, -0.4212095, 2.394455, 1.569717
 57640268, 27.66132, -0.5854484, 2.342233, 1.576395, 29.63435, -3.685459, 2.410297, 1.568112
 57740228, 28.4712, -1.895433, 2.373718, 1.571885, 27.66132, -0.5854484, 2.342233, 1.576395
 57840188, 27.98754, -0.8576926, 2.28136, 1.684442, 28.4712, -1.895433, 2.373718, 1.571885
 57940148, 29.56779, -1.92026, 2.33345, 1.684992, 27.98754, -0.8576926, 2.28136, 1.684442
 58040941, 27.91875, -1.262299, 2.283233, 1.685561, 29.56779, -1.92026, 2.33345, 1.684992
 58140901, 29.60695, -2.145302, 2.339077, 1.686237, 27.91875, -1.262299, 2.283233, 1.685561
 58240861, 29.10686, -1.893553, 2.324924, 1.6881, 29.60695, -2.145302, 2.339077, 1.686237
 58340821, 27.70525, -1.445439, 2.283869, 1.688192, 29.10686, -1.893553, 2.324924, 1.6881
 58440781, 27.60644, -0.8067709, 2.284235, 1.687649, 27.70525, -1.445439, 2.283869, 1.688192
 58540741, 29.5249, -0.05135804, 2.347431, 1.686665, 27.60644, -0.8067709, 2.284235, 1.687649
 58640701, 28.79773, -0.4771269, 2.324623, 1.692438, 29.5249, -0.05135804, 2.347431, 1.686665
 58740661, 28.43391, 0.6017947, 2.31339, 1.698567, 28.79773, -0.4771269, 2.324623, 1.692438
 58840621, 30.41403, 0.6821109, 2.378563, 1.700649, 28.43391, 0.6017947, 2.31339, 1.698567
 58940581, 28.62008, -0.3471458, 2.324448, 1.704148, 30.41403, 0.6821109, 2.378563, 1.700649
 59040541, 29.47171, -0.5991917, 2.35486, 1.70466, 28.62008, -0.3471458, 2.324448, 1.704148
 59140501, 27.75415, -2.105336, 2.305017, 1.709753, 29.47171, -0.5991917, 2.35486, 1.70466
 59240461, 29.67106, -0.8613442, 2.367103, 1.708379, 27.75415, -2.105336, 2.305017, 1.709753
 59340421, 28.18735, 0.5828547, 2.321517, 1.713049, 29.67106, -0.8613442, 2.367103, 1.708379
 59440381, 30.15528, -0.7134189, 2.388278, 1.709821, 28.18735, 0.5828547, 2.321517, 1.713049
 59540341, 28.1208, -1.077892, 2.324638, 1.716339, 30.15528, -0.7134189, 2.388278, 1.709821
 59640301, 28.43604, 0.79418, 2.33498, 1.720646, 28.1208, -1.077892, 2.324638, 1.716339
 59740261, 28.88534, 0.04170322, 2.352566, 1.720807, 28.43604, 0.79418, 2.33498, 1.720646
 59840221, 29.29349, -2.045188, 2.371296, 1.720214, 28.88534, 0.04170322, 2.352566, 1.720807
 59940181, 29.9093, -0.6585858, 2.393871, 1.717302, 29.29349, -2.045188, 2.371296, 1.720214
 60040974, 28.43243, -2.689309, 2.352616, 1.721291, 29.9093, -0.6585858, 2.393871, 1.717302
 60140934, 29.99073, -0.2191616, 2.398023, 1.72413, 28.43243, -2.689309, 2.352616, 1.721291
 60240894, 29.47875, -2.621439, 2.387068, 1.728842, 29.99073, -0.2191616, 2.398023, 1.72413
 60340854, 30.52617, 0.7724631, 2.42017, 1.729179, 29.47875, -2.621439, 2.387068, 1.728842
 60440814, 28.62412, -0.05916876, 2.36354, 1.731818, 30.52617, 0.7724631, 2.42017, 1.729179
 60540774, 29.42548, -2.714697, 2.395248, 1.732681, 28.62412, -0.05916876, 2.36354, 1.731818
 60640734, 30.2572, -0.06468034, 2.422658, 1.731237, 29.42548, -2.714697, 2.395248, 1.732681
 60740694, 27.5426, -0.05613732, 2.341317, 1.735478, 30.2572, -0.06468034, 2.422658, 1.731237
 60840654, 29.91292, -1.842079, 2.418256, 1.735296, 27.5426, -0.05613732, 2.341317, 1.735478
 60940614, 30.34953, -2.477067, 2.433275, 1.740186, 29.91292, -1.842079, 2.418256, 1.735296
 61040574, 27.57726, 0.7589018, 2.347504, 1.744385, 30.34953, -2.477067, 2.433275, 1.740186
 61140534, 29.52525, -0.7696468, 2.412177, 1.74027, 27.57726, 0.7589018, 2.347504, 1.744385
 61240494, 30.55785, -0.7169188, 2.447837, 1.738949, 29.52525, -0.7696468, 2.412177, 1.74027
 61340454, 28.57645, -0.03954041, 2.388426, 1.742791, 30.55785, -0.7169188, 2.447837, 1.738949
 61440414, 28.94908, -2.039457, 2.405777, 1.742213, 28.57645, -0.03954041, 2.388426, 1.742791
 61540374, 28.13133, -0.4023337, 2.381076, 1.744779, 28.94908, -2.039457, 2.405777, 1.742213
 61640334, 28.23659, -0.5702383, 2.384741, 1.74682, 28.13133, -0.4023337, 2.381076, 1.744779
 61740294, 28.43336, 0.3919642, 2.38965, 1.749197, 28.23659, -0.5702383, 2.384741, 1.74682
 61840254, 28.2, -0.0005391836, 2.384111, 1.750208, 28.43336, 0.3919642, 2.38965, 1.749197
 61940214, 30.60707, -1.105791, 2.460828, 1.748284, 28.2, -0.0005391836, 2.384111, 1.750208
 62040174, 29.86664, -0.9615574, 2.438034, 1.749493, 30.60707, -1.105791, 2.460828, 1.748284
 62140967, 29.17927, 0.5293289, 2.417562, 1.751955, 29.86664, -0.9615574, 2.438034, 1.749493
 62240927, 30.45708, -0.6283347, 2.461926, 1.746527, 29.17927, 0.5293289, 2.417562, 1.751955
 62340887, 28.95035, -1.706938, 2.418102, 1.748989, 30.45708, -0.6283347, 2.461926, 1.746527
 62440847, 28.1319, -2.42106, 2.39319, 1.755698, 28.95035, -1.706938, 2.418102, 1.748989
 62540807, 27.65018, 0.6005814, 2.375967, 1.76039, 28.1319, -2.42106, 2.39319, 1.755698
 62640767, 29.98196, -1.884205, 2.45309, 1.75576, 27.65018, 0.6005814, 2.375967, 1.76039
 62740727, 28.33305, -2.852867, 2.407375, 1.756612, 29.98196, -1.884205, 2.45309, 1.75576
 62840687, 28.51692, 0.4498245, 2.411329, 1.754901, 28.33305, -2.852867, 2.407375, 1.756612
 62940647, 30.11238, 0.2168891, 2.46237, 1.753627, 28.51692, 0.4498245, 2.411329, 1.754901
 63040607, 27.45955, -2.840736, 2.385359, 1.75892, 30.11238, 0.2168891, 2.46237, 1.753627
 63140567, 29.19137, -2.260116, 2.439049, 1.753316, 27.45955, -2.840736, 2.385359, 1.75892
 63240527, 28.40926, -1.449287, 2.415085, 1.755721, 29.19137, -2.260116, 2.439049, 1.753316
 63340487, 29.11068, -1.017742, 2.437308, 1.754974, 28.40926, -1.449287, 2.415085, 1.755721
 63440447, 27.20145, 0.09329629, 2.381332, 1.758793, 29.11068, -1.017742, 2.437308, 1.754974
 63540407, 29.65111, -0.5150683, 2.457558, 1.755157, 27.20145, 0.09329629, 2.381332, 1.758793
 63640367, 30.61813, 0.4701668, 2.489482, 1.756037, 29.65111, -0.5150683, 2.457558, 1.755157
 63740327, 28.37318, -1.028573, 2.425206, 1.75646, 30.61813, 0.4701668, 2.489482, 1.756037
 63840287, 30.27053, 0.548562, 2.480258, 1.761481, 28.37318, -1.028573, 2.425206, 1.75646
 63940247, 30.34059, -0.5861347, 2.486946, 1.758902, 30.27053, 0.548562, 2.480258, 1.761481
 64040207, 27.41168, -2.539876, 2.40378, 1.761972, 30.34059, -0.5861347, 2.486946, 1.758902
 64140167, 28.15003, -0.3703589, 2.425661, 1.758617, 27.41168, -2.539876, 2.40378, 1.761972
 64240960, 30.29246, -0.9600453, 2.493903, 1.755635, 28.15003, -0.3703589, 2.425661, 1.758617
 64340920, 30.19388, -1.161435, 2.492137, 1.755743, 30.29246, -0.9600453, 2.493903, 1.755635
 64440880, 30.26443, -3.021551, 2.499681, 1.756165, 30.19388, -1.161435, 2.492137, 1.755743
 64540840, 30.69045, -1.958662, 2.512058, 1.756106, 30.26443, -3.021551, 2.499681, 1.756165
 64640800, 29.94279, -2.254012, 2.49069, 1.759202, 30.69045, -1.958662, 2.512058, 1.756106
 64740760, 29.75611, -2.322856, 2.488079, 1.758453, 29.94279, -2.254012, 2.49069, 1.759202
 64840720, 29.67305, -1.687844, 2.488182, 1.757077, 29.75611, -2.322856, 2.488079, 1.758453
 64940680, 30.35369, -2.05301, 2.510983, 1.758799, 29.67305, -1.687844, 2.488182, 1.757077
 65040640, 27.14182, -1.097625, 2.414781, 1.764627, 30.35369, -2.05301, 2.510983, 1.758799
