TimeUS,CAN,CAE,CAD,CAe,NAN,NAE,NAD,NAe,m10,m00,Gye
 8040949, -0.01083339, -0.003921081, -0.05424276, 1.495416, -0.01529053, -0.008586386, -0.07605818, 1.491887, -0.3201157, 0.9473785, 11.1826
 8220877, -0.01541763, -0.008620534, -0.07823353, 1.529077, 9.41327E-05, -0.0001234065, -0.001013341, 0.03347886, -0.3201112, 0.94738, 3601.934
 8420797, 0.0002229193, -0.0002085789, -0.003370386, 0.07439747, 0.0001911634, 0.0002294642, -0.0008661619, 0.03719873, -0.3201211, 0.9473766, 5.563381
 8620717, 6.204499E-05, 0.0006384594, -0.003089012, 0.07811734, 0.0001918166, 6.073991E-05, -0.0009713101, 0.03719873, -0.3201395, 0.9473704, 5.84155
 8820637, -3.944215E-05, 0.0004507747, -0.003304561, 0.07811734, 0.000253286, -0.0001112646, -0.0009816056, 0.03719873, -0.3201652, 0.9473618, 5.84155
 9020557, 7.318091E-05, 0.0003944707, -0.003252587, 0.07811734, -0.0002426329, 0.0002112303, -0.001037373, 0.03719873, -0.3202031, 0.9473489, 5.84155
 9220477, -0.0003416819, 0.000679074, -0.003257039, 0.07810804, -0.0001124374, 0.0005058524, -0.001390187, 0.03718013, -0.320234, 0.9473385, 5.840384
 9420397, -0.000292153, 0.001073542, -0.003784763, 0.07807828, -0.0002733419, 0.000208635, -0.001004961, 0.03718013, -0.3202462, 0.9473344, 5.838631
 9620317, -0.0006220869, 0.0006688899, -0.003370281, 0.07807828, 7.043013E-05, 0.0003686706, -0.001078746, 0.03718013, -0.320246, 0.9473345, 5.838631
 9820237, -4.209649E-05, 0.0007192793, -0.003612655, 0.07807828, -0.0003315001, 0.0002051226, -0.001099242, 0.03718013, -0.3202395, 0.9473367, 5.838631
 10020157, -0.0004077002, 0.0006589745, -0.003259232, 0.07807828, 1.718848E-06, -2.521446E-05, -0.001062635, 0.03718013, -0.3202352, 0.9473382, 5.838631
 10220910, -0.0002748821, 0.0001708553, -0.003398313, 0.0782332, 0.0001351466, 2.713715E-06, -0.0008829811, 0.03733505, -0.3202523, 0.9473324, 5.850215
 10420830, -9.195467E-05, 0.0004613046, -0.003118024, 0.0782332, -8.335261E-07, 0.0001242394, -0.00120582, 0.03718013, -0.3202608, 0.9473295, 5.850215
 10620750, -3.578064E-05, 0.0005852109, -0.003629167, 0.07807828, -2.729441E-05, 0.0001003143, -0.0009977163, 0.03718013, -0.3202598, 0.9473298, 5.838631
 10820670, -0.0003002178, 0.0005648995, -0.003302292, 0.07807828, 0.0004141476, 0.0002549682, -0.001217355, 0.03718013, -0.3202408, 0.9473362, 5.838631
 11020590, 0.0005894823, 0.0006272485, -0.00347051, 0.07807828, -6.823145E-05, -0.0001756043, -0.00112193, 0.03718013, -0.3202166, 0.9473444, 5.838631
 11220510, -0.0003563079, 8.31965E-05, -0.003533409, 0.07808758, 0.0001048953, 0.0002570527, -0.001192093, 0.03719873, -0.3202035, 0.9473488, 5.839798
 11420430, -9.849323E-05, 0.0005774089, -0.003564534, 0.07811734, 4.613742E-06, -4.071999E-06, -0.0009230735, 0.03719873, -0.3202013, 0.9473496, 5.84155
 11620350, -0.000128379, 0.000167555, -0.003367821, 0.07811734, -0.0003606882, 5.770528E-05, -0.001546908, 0.03719873, -0.3202021, 0.9473493, 5.84155
 11820270, -0.0004828383, 0.0002016678, -0.003952228, 0.07811734, -0.0001295785, 0.0003700661, -0.001161206, 0.03719873, -0.3202079, 0.9473474, 5.84155
 12020190, -0.0003173315, 0.0008860752, -0.003569481, 0.07811734, 0.0002659035, -0.0002101757, -0.0009317484, 0.03719873, -0.3202232, 0.9473422, 5.84155
 12220943, 0.0002083919, 0.0002003941, -0.003307045, 0.07826295, 0.000155185, 6.133191E-05, -0.0009889504, 0.03733505, -0.3202263, 0.9473411, 5.851971
 12420863, 4.09513E-05, 0.0006513346, -0.003331439, 0.0782332, -3.87101E-05, 0.0003151562, -0.001046716, 0.03718013, -0.3202156, 0.9473447, 5.850215
 12620783, -0.0001316852, 0.0005808903, -0.003327002, 0.07807828, -2.54511E-05, 7.222876E-05, -0.001168832, 0.03718013, -0.3202007, 0.9473497, 5.838631
 12820703, -0.0001137363, 0.0002384707, -0.003706279, 0.07807828, 8.942356E-05, 0.0001717182, -0.001209443, 0.03718013, -0.3201753, 0.9473583, 5.838631
 13020623, -9.967729E-05, 0.0003608268, -0.003408069, 0.07807828, -0.000322181, 2.538856E-05, -0.001245763, 0.03718013, -0.3201615, 0.9473631, 5.838631
 13220543, -0.0006073989, 0.0004100588, -0.003530043, 0.07808758, -0.0002156948, 0.0001148979, -0.001115734, 0.03719873, -0.3201579, 0.9473643, 5.839798
 13420463, -0.0004123671, 0.0004506539, -0.003414246, 0.07811734, -0.000353237, 0.0001640579, -0.0008231684, 0.03719873, -0.3201765, 0.947358, 5.84155
 13620383, -0.000586203, 0.0007209759, -0.003061805, 0.07811734, -0.0001184155, 0.0002603415, -0.0008620627, 0.03719873, -0.3201922, 0.9473526, 5.84155
 13820303, -0.0002334015, 0.0006414068, -0.003365009, 0.07811734, -0.000233163, 8.597221E-05, -0.001035371, 0.03719873, -0.3201909, 0.9473531, 5.84155
 14020223, -0.0006892707, 0.0001839618, -0.003437555, 0.07811734, 1.462069E-06, 0.0002213462, -0.001047955, 0.03719873, -0.3201864, 0.9473546, 5.84155
 14220976, -0.0003340013, 0.0008637551, -0.003208924, 0.07826295, -0.0003278471, -0.0001075497, -0.0008582496, 0.03718013, -0.320195, 0.9473516, 5.851971
 14420896, -0.000672347, 0.000379954, -0.0030892, 0.0782332, 5.717516E-05, 0.0003338819, -0.001121723, 0.03733505, -0.3202212, 0.9473429, 5.850215
 14620816, -6.796289E-05, 0.001088822, -0.003512448, 0.0782332, -0.000193707, 0.0005463581, -0.001250148, 0.03718013, -0.3202637, 0.9473285, 5.850215
 14820736, -0.0001793257, 0.0008525135, -0.003708481, 0.07807828, -0.0001446461, 0.000187003, -0.000893426, 0.03718013, -0.3202786, 0.9473234, 5.838631
 15020656, -0.0004796063, 0.0004898596, -0.003423217, 0.07807828, -0.0002067986, 8.653163E-05, -0.001305058, 0.03718013, -0.3202701, 0.9473263, 5.838631
 15220576, -0.0004083085, 0.0006075814, -0.003915393, 0.07807828, -0.0001373697, -3.301579E-05, -0.001247193, 0.03718013, -0.320269, 0.9473267, 5.838631
 15420496, -0.0002546615, 0.0005294732, -0.003752895, 0.07807828, -0.000268059, 0.0001273236, -0.001236516, 0.03718013, -0.3202755, 0.9473245, 5.838631
 15620416, -0.0003239441, 0.0004327761, -0.003547832, 0.07807828, -0.0005332723, 0.0004229413, -0.0009659716, 0.03718013, -0.3202686, 0.9473267, 5.838631
 15820336, -0.0006305591, 0.0008896456, -0.003271225, 0.07807828, 0.0001412206, 0.000160889, -0.001081701, 0.03718013, -0.3202624, 0.9473288, 5.838631
 16020256, 8.354165E-06, 0.0006282555, -0.003636612, 0.07807828, 0.0001177146, 0.0001187694, -0.001063494, 0.03718013, -0.3202575, 0.9473306, 5.838631
 16220176, -0.0001510403, 0.0005407372, -0.003378451, 0.07808758, -0.000180377, 3.630933E-05, -0.0009961911, 0.03719873, -0.3202491, 0.9473334, 5.839798
 16420929, -2.25463E-05, 0.0005398608, -0.003401214, 0.07827234, 3.028406E-05, 0.0002978384, -0.0006781265, 0.03735373, -0.3202382, 0.947337, 5.853141
 16620849, -0.0002658791, 0.0006965769, -0.002881835, 0.07827234, -0.0002746227, 2.618034E-05, -0.001183322, 0.03719873, -0.3202187, 0.9473436, 5.853141
 16820769, -0.0005626527, 0.0004445223, -0.003530225, 0.07811734, -0.000394682, 0.0004227797, -0.001103151, 0.03719873, -0.3202011, 0.9473495, 5.84155
 17020689, -0.0009428627, 0.001046048, -0.003449166, 0.07811734, -8.33766E-05, -8.560946E-06, -0.001199338, 0.03719873, -0.3202085, 0.9473471, 5.84155
 17220609, -0.0005801116, 0.0005570503, -0.003430472, 0.07810804, -0.0001022353, 0.0005830342, -0.00123337, 0.03718013, -0.3202173, 0.9473441, 5.840384
 17420529, -0.0004461193, 0.001031271, -0.003617308, 0.07807828, -0.0002991076, 0.0002828715, -0.001250148, 0.03718013, -0.3202438, 0.9473351, 5.838631
 17620449, -0.0005846081, 0.0007998568, -0.003725506, 0.07807828, -0.0002277581, 0.0002752992, -0.001314019, 0.03718013, -0.3202509, 0.9473328, 5.838631
 17820369, -0.0004943779, 0.0008885937, -0.003604067, 0.07807828, -0.0002312219, 0.0002012503, -0.0008072484, 0.03718013, -0.3202438, 0.9473352, 5.838631
 18020289, -0.0006795362, 0.0006205125, -0.003034341, 0.07807828, 4.950682E-05, 0.0002199584, -0.0009924732, 0.03718013, -0.3202331, 0.9473388, 5.838631
 18220209, -0.0001366972, 0.0007779432, -0.003141663, 0.07808758, -0.0002145842, 0.000258937, -0.001059871, 0.03719873, -0.3202333, 0.9473386, 5.839798
 18420962, -0.000804662, 0.0006851834, -0.003612467, 0.07827234, 0.0002023027, 0.0004470283, -0.0009894291, 0.03735373, -0.3202462, 0.9473343, 5.853141
 18620882, -6.327078E-05, 0.001202649, -0.003522109, 0.07827234, -0.0004345865, 0.0002577727, -0.001190377, 0.03719873, -0.3202646, 0.9473281, 5.853141
 18820802, -0.001001468, 0.0006449014, -0.003648852, 0.07811734, 1.847416E-05, 0.0001649482, -0.00101316, 0.03719873, -0.3202722, 0.9473256, 5.84155
 19020722, -0.0002900207, 0.0005586238, -0.003452645, 0.07811734, -0.0005453397, 0.0003486777, -0.001018212, 0.03719873, -0.3202677, 0.947327, 5.84155
 19220642, -0.001169309, 0.0008113442, -0.003603457, 0.07810804, -7.574882E-05, 0.0002030892, -0.001199052, 0.03718013, -0.3202646, 0.9473281, 5.840384
 19420562, -0.000674472, 0.0005717904, -0.003499567, 0.07807828, -0.0004386254, 0.0002810566, -0.000791233, 0.03718013, -0.3202718, 0.9473257, 5.838631
 19620482, -0.0008271704, 0.0008327663, -0.003261834, 0.07807828, -0.0001510867, 0.0001667212, -0.0009194509, 0.03718013, -0.2920759, 0.9563951, 5.838631
 19820402, -0.0008761457, 0.0009515384, -0.003317583, 0.07807828, -0.0002918878, 0.0002382026, -0.001167974, 0.03718013, -0.2458722, 0.9693022, 5.838631
 20020322, -0.0006340547, 0.0009531279, -0.003421768, 0.07807828, -9.204341E-05, 0.0005538044, -0.0007529107, 0.03718013, -0.2108375, 0.9775211, 5.838631
 20220242, -0.0003107277, 0.001325424, -0.003182663, 0.07807828, 0.0001673602, 0.0004148215, -0.001198575, 0.03718013, -0.1951298, 0.9807774, 5.838631
 20420162, -0.000236359, 0.001343005, -0.004092763, 0.07807828, -0.0003853194, 0.000149149, -0.0008837978, 0.03718013, -0.1920997, 0.9813754, 5.838631
 20620915, 0.01295285, -0.001648332, -0.00328843, 0.0782332, 0.02514755, -0.004236735, -0.0008717811, 0.03733505, -0.1891597, 0.9819463, 5.850215
 20820835, 0.2885409, -0.05361797, -0.002193999, 0.0782332, 0.2092009, -0.03943552, 0.0001460445, 0.03718013, -0.1867453, 0.9824075, 5.850215
 21020755, 0.9494367, -0.1770411, 0.008594278, 0.07807828, 0.4409934, -0.08712552, 0.005366943, 0.03718013, -0.185637, 0.9825982, 5.838631
 21220675, 1.678489, -0.3217741, 0.01557367, 0.07808758, 0.6560084, -0.1243138, 0.003446154, 0.03719873, -0.1852722, 0.9824995, 5.839798
 21420595, 2.34421, -0.4425548, -0.007402148, 0.07811734, 0.8620671, -0.1522441, -0.01299472, 0.03719873, -0.1848681, 0.9819795, 5.84155
 21620515, 2.931826, -0.5373455, -0.07040591, 0.07811734, 0.9929935, -0.1826636, -0.03803991, 0.03719873, -0.1844014, 0.9807422, 5.84155
 21820435, 3.134166, -0.5817968, -0.1492325, 0.07811734, 0.9400655, -0.1802375, -0.06022275, 0.03719873, -0.1837402, 0.9786474, 5.84155
 22020355, 2.865007, -0.5412785, -0.2147912, 0.07811734, 0.8130135, -0.1478945, -0.07651948, 0.03719873, -0.1830362, 0.9757613, 5.84155
 22220275, 2.443867, -0.4502941, -0.2823292, 0.07810804, 0.6725923, -0.1296572, -0.1267496, 0.03718013, -0.1823613, 0.9723336, 5.840384
 22420195, 2.001482, -0.3757034, -0.4424785, 0.07807828, 0.5354561, -0.09555613, -0.1121755, 0.03718013, -0.1818078, 0.9687183, 5.838631
 22620948, 1.611053, -0.2990584, -0.2730795, 0.0782332, 0.4408464, -0.08889133, -0.05054789, 0.03733505, -0.1814509, 0.9651219, 5.850215
 22820868, 1.726259, -0.3248182, -1.117865, 0.0782332, 0.5607244, -0.1012435, -0.9747888, 0.03718013, -0.1795392, 0.9559076, 5.850215
 23020788, 1.498163, -0.2884133, -3.140358, 0.07807828, 0.3787958, -0.08206002, -0.8094745, 0.03718013, -0.1770644, 0.9381759, 5.838631
 23220708, 1.173612, -0.251989, -1.891053, 0.07808758, 0.3577468, -0.06553696, -0.2851243, 0.03719873, -0.1761944, 0.9314837, 5.839798
 23420628, 1.19941, -0.2348071, -0.6475261, 0.07811734, 0.3855968, -0.08265863, -0.1233292, 0.03719873, -0.1787935, 0.9314139, 5.84155
 23620548, 1.115233, -0.2413171, -0.504896, 0.07811734, 0.2656259, -0.05346521, -0.2408327, 0.03719873, -0.1788459, 0.9275424, 5.84155
 23820468, 0.6618108, -0.1474706, -0.9541764, 0.07811734, 0.1163263, -0.04043214, -0.3383562, 0.03719873, -0.1842876, 0.9173437, 5.84155
 24020388, 0.2699878, -0.108064, -1.095808, 0.07811734, 0.03553242, -0.03015821, -0.3207794, 0.03719873, -0.1954385, 0.9074062, 5.84155
 24220308, 0.01841631, -0.2610953, -0.9182684, 0.07810804, -0.06048922, -0.1395315, -0.2426461, 0.03718013, -0.2072222, 0.8999188, 5.840384
 24420228, -0.3143937, -0.4016514, -0.740659, 0.07807828, -0.1537119, -0.0893408, -0.1806616, 0.03718013, -0.210288, 0.894702, 5.838631
 24620148, -0.50189, -0.2394858, -0.384784, 0.07807828, -0.1728726, -0.04730614, -0.04455576, 0.03718013, -0.2202032, 0.8929847, 5.838631
 24820901, -0.6236612, -0.147935, -0.156785, 0.0782332, -0.2422979, -0.05978902, -0.0394217, 0.03733505, -0.2336703, 0.8904834, 5.850215
 25020821, -0.7628077, -0.2240547, -0.04452622, 0.0782332, -0.2272726, -0.07455151, 0.04204364, 0.03718013, -0.2399827, 0.8916962, 5.850215
 25220741, -0.7814786, -0.2081925, 0.07906923, 0.07807828, -0.2607934, -0.05783536, 0.004941107, 0.03718013, -0.2479044, 0.8921265, 5.838631
 25420661, -0.8550045, -0.1706685, 0.02365201, 0.07807828, -0.268271, -0.05031612, 0.01480959, 0.03718013, -0.2592207, 0.892032, 5.838631
 25620581, -0.8678783, -0.1607009, 0.03523616, 0.07807828, -0.2614326, -0.03935497, 0.01018469, 0.03718013, -0.2696056, 0.8921329, 5.838631
 25820501, -0.8693923, -0.1089611, 0.02385983, 0.07807828, -0.2788733, -0.02419669, -0.008374201, 0.03718013, -0.2794894, 0.8916858, 5.838631
 26020421, -0.8522133, -0.06819555, 0.05139798, 0.07807828, -0.2557072, -0.01060401, 0.04136776, 0.03718013, -0.2903078, 0.8920857, 5.838631
 26220341, -0.806225, -0.04900978, 0.1428493, 0.07808758, -0.2503791, -0.01436654, 0.04997247, 0.03719873, -0.3005023, 0.8928053, 5.839798
 26420261, -0.7935299, -0.03813944, 0.1725342, 0.07811734, -0.2521548, 0.008198372, 0.07703998, 0.03719873, -0.3084779, 0.8940212, 5.84155
 26620181, -0.9744483, 0.06995341, 0.298291, 0.07811734, -0.4007102, 0.05119345, 0.1329808, 0.03719873, -0.3176294, 0.8947632, 5.84155
 26820934, -1.456332, 0.2317804, 0.5367854, 0.07827234, -0.523473, 0.09859071, 0.1986398, 0.03735373, -0.3265392, 0.897112, 5.853141
 27020854, -1.6221, 0.3205436, 0.6184499, 0.07827234, -0.4563417, 0.1003264, 0.1816251, 0.03719873, -0.3343155, 0.9011896, 5.853141
 27220774, -1.369552, 0.2864893, 0.4941756, 0.07810804, -0.3726241, 0.07239636, 0.1274254, 0.03718013, -0.3424058, 0.9044423, 5.840384
 27420694, -1.076566, 0.2126972, 0.4568779, 0.07807828, -0.2887758, 0.05299023, 0.1516777, 0.03718013, -0.3513685, 0.9073107, 5.838631
 27620614, -0.8866384, 0.164126, 0.426104, 0.07807828, -0.2543282, 0.04249861, 0.1152183, 0.03718013, -0.3597865, 0.9085635, 5.838631
 27820534, -0.7851274, 0.1466735, 0.3579668, 0.07807828, -0.2287555, 0.0486152, 0.09335034, 0.03718013, -0.3675665, 0.9090306, 5.838631
 28020454, -0.7193851, 0.1475051, 0.2231007, 0.07807828, -0.2143913, 0.04559286, 0.06245679, 0.03718013, -0.3738753, 0.9086991, 5.838631
 28220374, -0.6675113, 0.1548211, 0.1650551, 0.07808758, -0.19411, 0.0503468, 0.03833896, 0.03719873, -0.3792721, 0.9082441, 5.839798
 28420294, -0.5344691, 0.1393616, 0.1117518, 0.07811734, -0.1210714, 0.02674116, 0.02567313, 0.03719873, -0.3844418, 0.9076756, 5.84155
 28620214, -0.4427732, 0.1341659, 0.09135334, 0.07811734, -0.1625847, 0.05726462, 0.04590744, 0.03719873, -0.3894864, 0.9067573, 5.84155
 28820967, -0.5243337, 0.1877297, 0.1555755, 0.07827234, -0.1566799, 0.05711422, 0.05587, 0.03735373, -0.3940496, 0.9061288, 5.853141
 29020887, -0.4795434, 0.1882253, 0.1810073, 0.07827234, -0.1417553, 0.05901189, 0.05512464, 0.03719873, -0.3982167, 0.9058176, 5.853141
 29220807, -0.4437127, 0.1918313, 0.1533087, 0.07810804, -0.1310127, 0.05969586, 0.04599352, 0.03718013, -0.4008318, 0.9058451, 5.840384
 29420727, -0.4094462, 0.194827, 0.1298274, 0.07807828, -0.1199838, 0.05845598, 0.03228174, 0.03718013, -0.4028673, 0.905934, 5.838631
 29620647, -0.3689223, 0.2052911, 0.1311156, 0.07807828, -0.1082054, 0.06086665, 0.05667869, 0.03718013, -0.4038681, 0.9066118, 5.838631
 29820567, -0.3347113, 0.195209, 0.1971068, 0.07807828, -0.1016137, 0.05915292, 0.05769109, 0.03718013, -0.4062109, 0.9067054, 5.838631
 30020487, -0.1998689, 0.09716154, 0.6850934, 0.07807828, 0.04551971, -0.07356908, 0.8024079, 0.03718013, -0.4067477, 0.9125602, 5.838631
 30220407, 0.2108219, -0.3774537, 4.847785, 0.07807828, -0.01865001, -0.1659942, 2.495385, 0.03718013, -0.3984484, 0.8956745, 5.838631
 30420327, -0.4041959, -0.5330072, 7.650217, 0.07807828, -0.2017736, -0.1405241, 1.931468, 0.03718013, -0.4232015, 0.8271344, 5.838631
 30620247, 0.2021462, -0.1403078, 3.950634, 0.07807828, 0.5611403, 0.1302776, 0.06745262, 0.03718013, -0.435263, 0.8227183, 5.838631
 30820167, 2.304786, 0.7019304, -1.471226, 0.07807828, 0.8416767, 0.3294322, -1.110487, 0.03718013, -0.4021483, 0.8808185, 5.838631
 31020920, 2.352793, 0.9919697, -3.272957, 0.0782332, 0.5435024, 0.2401581, -0.71593, 0.03733505, -0.3624225, 0.9169734, 5.850215
 31220840, 1.488948, 0.5466411, -1.237695, 0.0782332, 0.3616731, 0.06780513, 0.1148065, 0.03718013, -0.3447212, 0.9253773, 5.850215
 31420760, 1.034731, 0.07083902, 0.9057291, 0.07807828, 0.2680054, -0.02900433, 0.4737131, 0.03718013, -0.3385113, 0.9234829, 5.838631
 31620680, 0.8431065, -0.04841745, 1.345389, 0.07807828, 0.2623498, 0.006287276, 0.2968954, 0.03718013, -0.3309106, 0.9247883, 5.838631
 31820600, 0.8737986, 0.1397117, 0.362963, 0.07807828, 0.3138468, 0.1180164, -0.2376287, 0.03718013, -0.3176019, 0.9346006, 5.838631
 32020520, 0.9537257, 0.5416383, -1.41972, 0.07807828, 0.2673779, 0.2488226, -0.7231122, 0.03718013, -0.2992107, 0.9491018, 5.838631
 32220440, 0.7285047, 0.8134999, -2.41684, 0.07807828, 0.1712711, 0.2671837, -0.7686564, 0.03718013, -0.2804407, 0.9592378, 5.838631
 32420360, 0.4112643, 0.800432, -2.18955, 0.07807828, 0.07623502, 0.2059061, -0.5025178, 0.03718013, -0.2655025, 0.9640681, 5.838631
 32620280, 0.1926637, 0.5589533, -1.218421, 0.07807828, 0.04526823, 0.1317399, -0.2109145, 0.03718013, -0.2543816, 0.9667174, 5.838631
 32820200, 0.09510134, 0.3882528, -0.6244381, 0.07807828, 0.003368585, 0.1084161, -0.1938408, 0.03718013, -0.2444395, 0.9688548, 5.838631
 33020953, -0.02312218, 0.3526767, -0.638685, 0.0782332, -0.0218562, 0.1199041, -0.2403301, 0.03733505, -0.2363318, 0.9701416, 5.850215
 33220873, -0.1034445, 0.3945038, -0.7891999, 0.0782332, -0.04893692, 0.1341219, -0.2570896, 0.03718013, -0.2271129, 0.9713102, 5.850215
 33420793, -0.1541578, 0.427165, -0.742373, 0.07807828, -0.0430783, 0.1217076, -0.1836552, 0.03718013, -0.219638, 0.9720871, 5.838631
 33620713, -0.1491775, 0.3983917, -0.5330339, 0.07807828, -0.05157113, 0.1277783, -0.1408187, 0.03718013, -0.2109064, 0.9733297, 5.838631
 33820633, -0.1793592, 0.3879692, -0.4672385, 0.07807828, -0.06999838, 0.1189771, -0.1623171, 0.03718013, -0.2039721, 0.974078, 5.838631
 34020553, -0.2010689, 0.3787468, -0.4929928, 0.07807828, -0.05268414, 0.1189917, -0.1067777, 0.03718013, -0.195481, 0.9751487, 5.838631
 34220473, -0.1839138, 0.2982563, -0.3297565, 0.07807828, -0.07154689, 0.07007395, -0.1075717, 0.03718013, -0.1890847, 0.9759967, 5.838631
 34420393, -0.2213034, 0.2279931, -0.3207132, 0.07807828, -0.07808701, 0.07959638, -0.09774856, 0.03718013, -0.1795565, 0.977443, 5.838631
 34620313, -0.2323225, 0.2423543, -0.349171, 0.07807828, -0.08414928, 0.06567466, -0.1275015, 0.03718013, -0.1732313, 0.9779385, 5.838631
 34820233, -0.2584774, 0.2149296, -0.4003727, 0.07807828, -0.06532608, 0.07342112, -0.1454874, 0.03718013, -0.1636841, 0.9790396, 5.838631
 35020153, -0.2246598, 0.2417401, -0.3584335, 0.07807828, -0.06933479, 0.07070443, -0.08870723, 0.03718013, -0.1573026, 0.9796941, 5.838631
 35220906, -0.2564699, 0.1754112, -0.3059022, 0.0782332, -0.08964608, 0.04863558, -0.06493741, 0.03733505, -0.1508523, 0.9803201, 5.850215
 35420826, -0.3192797, 0.150878, -0.2734705, 0.0782332, -0.1106314, 0.04776312, -0.09245615, 0.03718013, -0.1422818, 0.9812133, 5.850215
 35620746, -0.3234003, 0.1646035, -0.1961171, 0.07807828, -0.09410816, 0.0537411, -0.009332451, 0.03718013, -0.1344127, 0.982492, 5.838631
 35820666, -0.3337199, 0.1446411, -0.1589212, 0.07807828, -0.1041102, 0.03775112, -0.03859444, 0.03718013, -0.1292681, 0.9830281, 5.838631
 36020586, -0.316132, 0.0810172, -0.05186664, 0.07807828, -0.1051459, 0.02971367, -0.001280463, 0.03718013, -0.1228914, 0.9842902, 5.838631
 36220506, -0.3818712, 0.07715485, -0.02528428, 0.07807828, -0.1393374, 0.01333703, 0.003786003, 0.03718013, -0.1182812, 0.9852946, 5.838631
 36420426, -0.463121, 0.03498098, 0.2446573, 0.07807828, -0.1550771, 0.007527898, 0.1734458, 0.03718013, -0.1132595, 0.987478, 5.838631
 36620346, -0.4888683, 0.04760837, 0.6360073, 0.07807828, -0.1473622, 0.0127774, 0.2468681, 0.03718013, -0.1072929, 0.9902259, 5.838631
 36820266, -0.4921781, 0.03747224, 0.6772548, 0.07807828, -0.1566011, 0.01142153, 0.1948172, 0.03718013, -0.1034675, 0.9921337, 5.838631
 37020186, -0.4990543, 0.03206974, 0.5938358, 0.07807828, -0.159738, 0.01629967, 0.1548239, 0.03718013, -0.09934606, 0.993663, 5.838631
 37220939, -0.4978903, 0.01938961, 0.4663143, 0.0782332, -0.1409055, -0.006705752, 0.1433677, 0.03733505, -0.09689026, 0.9946304, 5.850215
 37420859, -0.4324434, -0.03754884, 0.4651102, 0.0782332, -0.1182334, -0.01910392, 0.1392411, 0.03718013, -0.09348152, 0.9954177, 5.850215
 37620779, -0.3812371, -0.03835927, 0.46712, 0.07807828, -0.1139833, 0.003868027, 0.1626002, 0.03718013, -0.08790504, 0.9961218, 5.838631
 37820699, -0.3439747, 0.009851984, 0.5014878, 0.07807828, -0.1062435, 0.01201919, 0.1464345, 0.03718013, -0.08365694, 0.9964263, 5.838631
 38020619, -0.3110341, 0.0106597, 0.4157662, 0.07807828, -0.08875555, -0.01299979, 0.1119101, 0.03718013, -0.08120184, 0.9963987, 5.838631
 38220539, -0.2749828, -0.04455721, 0.3861525, 0.07807828, -0.08746082, -0.01535564, 0.1502946, 0.03718013, -0.07747966, 0.9962674, 5.838631
 38420459, -0.2446941, -0.04336876, 0.410079, 0.07807828, -0.0587466, -0.01244121, 0.0762375, 0.03718013, -0.07223438, 0.9962096, 5.838631
 38620379, -0.1931787, -0.03691939, 0.1623035, 0.07807828, -0.05577879, -0.02272801, 0.01244028, 0.03718013, -0.07077607, 0.9960849, 5.838631
 38820299, -0.1730442, -0.07655188, 0.06067275, 0.07807828, -0.05141579, -0.02401947, 0.06942975, 0.03718013, -0.0675467, 0.9960051, 5.838631
 39020219, -0.1452305, -0.08287633, 0.2732548, 0.07807828, -0.04052911, -0.03311676, 0.08122246, 0.03718013, -0.06586982, 0.9955718, 5.838631
 39220972, -0.1157562, -0.09692989, 0.201347, 0.0782332, -0.03117096, -0.02195499, 0.02671384, 0.03718013, -0.06241062, 0.9955081, 5.850215
 39420892, -0.09380358, -0.07664611, 0.05528358, 0.0782332, -0.02998655, -0.02811944, 0.01384741, 0.03733505, -0.06110379, 0.9954152, 5.850215
 39620812, -0.08352198, -0.0745407, 0.1141432, 0.0782332, -0.01589004, -0.01057515, 0.03119298, 0.03718013, -0.05788907, 0.9953008, 5.850215
 39820732, -0.06331967, -0.05564732, 0.1112595, 0.07807828, -0.01185663, -0.0247962, 0.01600379, 0.03718013, -0.05709226, 0.9950877, 5.838631
 40020652, -0.04552733, -0.08101822, 0.008424558, 0.07807828, -0.03138164, -0.01970827, 0.009759527, 0.03718013, -0.05578998, 0.9951394, 5.838631
 40220572, -0.06728462, -0.08884628, -0.007217741, 0.07807828, -0.01448819, -0.03072283, -0.02200429, 0.03718013, -0.05476783, 0.9952558, 5.838631
 40420492, -0.04698863, -0.1011106, -0.06809509, 0.07807828, -0.01566437, -0.04138974, -0.01617328, 0.03718013, -0.0543024, 0.9953506, 5.838631
 40620412, -0.0335938, -0.1242332, -0.02033736, 0.07807828, -0.01358753, -0.04179959, -0.0008283161, 0.03718013, -0.05434278, 0.9953333, 5.838631
 40820332, -0.02313131, -0.1080121, 2.229773E-05, 0.07807828, -0.008273087, -0.02678856, 0.01646003, 0.03718013, -0.05270723, 0.9953387, 5.838631
 41020252, -0.0231147, -0.07299583, 0.07522039, 0.07807828, -0.003277385, -0.0115317, 0.02686961, 0.03718013, -0.05220599, 0.9952, 5.838631
 41220172, -0.01075668, -0.05230077, 0.1149303, 0.07807828, 1.813044E-05, -0.01815444, 0.04698027, 0.03718013, -0.052361, 0.9949336, 5.838631
 41420925, -0.01118897, -0.06468659, 0.02061236, 0.0782332, -0.006011175, -0.01121165, -0.02596571, 0.03733505, -0.05116908, 0.995156, 5.850215
 41620845, -0.0183499, -0.03342264, -0.08471401, 0.0782332, -0.01175099, -0.007937398, -0.04022276, 0.03718013, -0.05091702, 0.9953647, 5.850215
 41820765, -0.04266616, -0.03824304, -0.1784712, 0.07807828, -0.008311379, -0.02494206, -0.05353264, 0.03718013, -0.05142143, 0.9956769, 5.838631
 42020685, -0.04016593, -0.06655419, -0.1167755, 0.07807828, -0.01215284, -0.01013395, -0.02511879, 0.03718013, -0.05060118, 0.9958063, 5.838631
 42220605, -0.04744096, -0.02634792, -0.03043754, 0.07807828, -0.01438569, -0.003918245, 0.04049693, 0.03718013, -0.05017524, 0.9956673, 5.838631
 42420525, -0.03341836, -0.01687012, 0.1460078, 0.07807828, -0.008150845, -0.004460456, 0.01914221, 0.03718013, -0.04966653, 0.9954544, 5.838631
 42620445, -0.03593505, -0.0265467, 0.01322651, 0.07807828, -0.008252263, -0.02116755, -0.01296783, 0.03718013, -0.04928859, 0.9954727, 5.838631
 42820365, -0.0164878, -0.04185933, -0.05768585, 0.07807828, 0.001798411, -0.004262981, -0.01486918, 0.03718013, -0.04818382, 0.995613, 5.838631
 43020285, 0.002267456, -0.001419473, -0.08093093, 0.07807828, -0.009704211, 0.005782647, -0.05354884, 0.03718013, -0.04659607, 0.9959022, 5.838631
 43220205, -0.03370093, -0.003430904, -0.1185372, 0.07807828, -0.01462783, -0.01079387, 0.01254953, 0.03718013, -0.04679219, 0.9959362, 5.838631
 43420958, -0.03807719, -0.03528631, 0.01683266, 0.0782332, -0.004296432, -0.01384524, -0.04904662, 0.03733505, -0.04565484, 0.996012, 5.850215
 43620878, -0.01766148, -0.0250788, -0.05290584, 0.0782332, -0.009942868, 0.00175218, 0.01507585, 0.03718013, -0.04412521, 0.9959725, 5.850215
 43820798, -0.02522062, 0.005843882, 0.01896227, 0.07807828, 0.004238423, -0.009500111, -0.02768124, 0.03718013, -0.0439136, 0.9960213, 5.838631
 44020718, 0.002393455, -0.01268697, -0.08871922, 0.07807828, 0.006719493, -0.01844943, -0.01577976, 0.03718013, -0.04403282, 0.9961122, 5.838631
 44220638, 0.006377081, -0.03194707, -0.07034111, 0.07807828, 0.00213963, 0.0142719, -0.02615273, 0.03718013, -0.04080941, 0.9964009, 5.838631
 44420558, 0.001719289, 0.06489122, -0.06010505, 0.07807828, -0.0003467722, 0.02824697, -0.008320912, 0.03718013, -0.03861967, 0.9965317, 5.838631
 44620478, -0.005194198, 0.1011327, -0.0195292, 0.07807828, -0.00453249, 0.02181208, 0.01345983, 0.03718013, -0.03721743, 0.9965594, 5.838631
 44820398, 0.001188636, 0.09651578, 0.03704792, 0.07807828, 0.002813441, 0.0504371, -0.01150424, 0.03718013, -0.02803315, 0.99679, 5.838631
 45020318, 0.00599693, 0.6089218, -0.02550989, 0.07807828, -0.00467095, 0.3336072, 0.02072792, 0.03718013, -0.02655866, 0.9969808, 5.838631
 45220238, -0.004097631, 0.6300918, -0.0591681, 0.07807828, -0.001669943, -0.02815336, -0.1218889, 0.03718013, -0.03892313, 0.9970272, 5.838631
 45420158, -0.01700179, -0.3424079, -0.3153004, 0.07807828, -0.0165435, -0.1927024, -0.02291678, 0.03718013, -0.02351547, 0.9975293, 5.838631
 45620911, -0.03416732, -0.5518721, 0.02391907, 0.0782332, 0.004275223, -0.1393091, 0.02850706, 0.03733505, -0.009110828, 0.9977122, 5.850215
 45820831, -0.007047511, -0.3229646, 0.003592184, 0.0782332, -0.005041781, -0.04163365, -0.02851938, 0.03718013, -0.006689813, 0.997889, 5.850215
 46020751, -0.01443223, -0.05614894, -0.06670664, 0.07807828, -0.005476888, 0.009799942, -0.01554897, 0.03718013, -0.01195398, 0.9978228, 5.838631
 46220671, -0.02223779, 0.03631017, -0.04373083, 0.07807828, 0.01176712, 0.005923943, -0.01624239, 0.03718013, -0.01733514, 0.997763, 5.838631
 46420591, 0.01867129, 0.003813796, 0.04201672, 0.07807828, 0.0149652, -0.01007987, 0.001627938, 0.03718013, -0.01948813, 0.9975857, 5.838631
 46620511, 0.01489198, -0.06615483, -0.04620765, 0.07807828, 0.001269917, -0.03772924, -0.01614716, 0.03718013, -0.02055444, 0.9976843, 5.838631
 46820431, -0.02021914, -0.1232174, -0.1019695, 0.07807828, -0.01361893, -0.04031056, -0.04756998, 0.03718013, -0.02004473, 0.9979014, 5.838631
 47020351, -0.02428304, -0.1114889, -0.07721838, 0.07807828, 0.001362482, -0.0159486, 0.03884535, 0.03718013, -0.0197831, 0.9978493, 5.838631
 47220271, 0.001512736, -0.04750799, 0.06996694, 0.07807828, 0.001192182, 0.002657695, -0.02387484, 0.03718013, -0.0209338, 0.9978181, 5.838631
 47420191, -0.006137177, -0.006040599, -0.06750564, 0.07807828, -0.0143192, -0.006521921, -0.04540991, 0.03718013, -0.02284331, 0.9979048, 5.838631
 47620944, -0.02707633, -0.04976359, -0.1213707, 0.0782332, 0.001146935, -0.01184723, -0.001992451, 0.03733505, -0.02433262, 0.9979442, 5.850215
 47820864, 0.009206153, -0.01963618, -0.04733646, 0.0782332, 0.005211587, -0.006684999, -0.01019308, 0.03718013, -0.02432447, 0.9980053, 5.850215
 48020784, 0.003552534, -0.02248432, 0.01346119, 0.07807828, -0.004483825, -0.009392926, 0.01785012, 0.03718013, -0.02427637, 0.9979621, 5.838631
 48220704, -0.00726797, -0.01979653, 0.01996601, 0.07807828, -0.002870823, -0.008239847, -0.0130705, 0.03718013, -0.02466209, 0.997991, 5.838631
 48420624, 0.003401254, -0.008516774, -0.106326, 0.07807828, -0.006990002, -0.007638709, -0.03017734, 0.03718013, -0.02514451, 0.9981275, 5.838631
 48620544, -0.01169385, -0.0322247, -0.05170329, 0.07807828, 0.001887091, -0.005362518, -0.02619239, 0.03718013, -0.02655567, 0.9981115, 5.838631
 48820464, -0.005438184, -0.01723315, -0.07094696, 0.07807828, 0.00597664, 0.01002745, -0.02028092, 0.03718013, -0.02620325, 0.9982071, 5.838631
 49020384, -0.003170419, 0.01998194, -0.0901538, 0.07807828, -0.001431512, 0.0001367823, 0.01949608, 0.03718013, -0.02630745, 0.9982486, 5.838631
 49220304, -0.01227855, 0.007802031, 0.09327447, 0.07807828, -0.008449737, 0.001186879, 0.009567438, 0.03718013, -0.02654318, 0.9981246, 5.838631
 49420224, -0.01713184, 0.01213063, -0.04634424, 0.07807828, -0.007109026, 0.008214965, -0.05472101, 0.03718013, -0.02663403, 0.9982738, 5.838631
 49620977, -0.00787177, 0.008537188, -0.1490842, 0.0782332, -0.007052717, -0.005653036, -0.03853277, 0.03718013, -0.02678911, 0.998392, 5.850215
 49820897, -0.006905628, -0.00176696, -0.09970409, 0.0782332, 0.002977321, 0.0001297606, 0.03156945, 0.03733505, -0.0271939, 0.9984048, 5.850215
 50020817, -0.001844717, -0.007900211, 0.03374593, 0.0782332, -0.00595315, 0.002575971, -0.001494763, 0.03718013, -0.0273285, 0.99842, 5.850215
 50220737, -0.0008498458, 0.01778971, 0.09611706, 0.07807828, -0.00253143, 0.004669837, 0.06732144, 0.03718013, -0.02761542, 0.9982046, 5.838631
 50420657, 0.0004738013, 0.02058035, 0.06537955, 0.07807828, -0.003312216, 0.009959955, -0.02468199, 0.03718013, -0.0264204, 0.9983073, 5.838631
 50620577, -0.007634655, 0.02733109, -0.09359613, 0.07807828, 0.003921966, 0.01264854, -0.02633252, 0.03718013, -0.02614373, 0.9984448, 5.838631
 50820497, 0.01558159, 0.01611904, -0.08914254, 0.07807828, 0.005046211, -0.0109228, -0.03986623, 0.03718013, -0.02765858, 0.998486, 5.838631
 51020417, 0.0175007, -0.01411097, -0.1331125, 0.07807828, -0.0009736486, 0.001430672, -0.02650698, 0.03718013, -0.02715632, 0.998616, 5.838631
 51220337, 0.002315656, 0.03941507, -0.02070129, 0.07807828, -0.001454689, 0.004529875, 0.03779634, 0.03718013, -0.02675467, 0.9985667, 5.838631
 51420257, 0.001353986, 0.01195385, 0.06595417, 0.07807828, 0.001216431, -0.009197774, -0.02111639, 0.03718013, -0.02837213, 0.9985247, 5.838631
 51620177, -0.003596866, -0.01333406, 0.01297904, 0.07807828, -0.01632653, -0.005491813, 0.02118017, 0.03718013, -0.02884906, 0.9984446, 5.838631
 51820930, -0.02019965, 0.01571596, -0.03192363, 0.0782332, -0.00222177, 0.01371328, -0.01117846, 0.03733505, -0.02764603, 0.9985791, 5.850215
 52020850, -0.006928423, 0.03733895, -0.03901845, 0.0782332, 0.004344552, 0.003270414, -0.00806419, 0.03718013, -0.02764564, 0.9986033, 5.850215
 52220770, 0.0106955, 0.04473984, -0.0609544, 0.07807828, 0.004750676, 0.02698497, -0.007910805, 0.03718013, -0.0260843, 0.9987195, 5.838631
 52420690, 0.01777994, 0.07248447, -0.01371583, 0.07807828, 0.01157839, 0.01050401, 0.01647319, 0.03718013, -0.02829863, 0.9986347, 5.838631
 52620610, 0.01879559, 0.007664044, 0.01154901, 0.07807828, 0.00349697, 0.009278237, -0.03497098, 0.03718013, -0.02761785, 0.9987044, 5.838631
 52820530, 0.006240819, 0.02970726, -0.0608057, 0.07807828, -0.004133165, 0.004280328, 0.01322293, 0.03718013, -0.02623267, 0.9987444, 5.838631
 53020450, -0.00953475, 0.02437665, 0.03098208, 0.07807828, -0.0007387036, -7.380572E-07, -0.03174837, 0.03718013, -0.02552545, 0.9987564, 5.838631
 53220370, -0.003544802, 0.02045377, -0.08894172, 0.07807828, -0.002056768, 0.002677827, -0.02417741, 0.03718013, -0.02631435, 0.9988212, 5.838631
 53420290, -0.01462559, 0.0289089, -0.07991044, 0.07807828, -0.008550134, 0.01698997, 0.008424344, 0.03718013, -0.02466817, 0.9988938, 5.838631
 53620210, -0.02229638, 0.04879992, 0.0258086, 0.07807828, -0.003788061, 0.0002239099, 0.03923696, 0.03718013, -0.0261823, 0.9988077, 5.838631
 53820963, -0.01575422, -0.001934153, 0.04106396, 0.0782332, -0.01049246, 0.009909709, -0.03478298, 0.03733505, -0.02516285, 0.9988717, 5.850215
 54020883, -0.02111856, 0.01664288, -0.01338176, 0.0782332, -0.001474866, -0.001493061, 0.05513436, 0.03718013, -0.02620253, 0.9987578, 5.850215
 54220803, -0.003301672, 0.006796117, 0.07275975, 0.07807828, 0.0002886213, 0.005081298, 0.03440462, 0.03718013, -0.02538254, 0.9987398, 5.838631
 54420723, 0.01531409, 0.03639722, 0.1025278, 0.07807828, 0.001912651, 0.01571516, 0.04690268, 0.03718013, -0.02421077, 0.9986715, 5.838631
 54620643, -0.004565366, 0.06213084, 0.01390312, 0.07807828, -0.003372881, 0.02588365, -0.03259413, 0.03718013, -0.02285726, 0.9987895, 5.838631
 54820563, -0.005472794, 0.04210361, -0.06290856, 0.07807828, 0.0009927324, -0.008208006, -0.02289962, 0.03718013, -0.02461492, 0.9987976, 5.838631
 55020483, 0.008376216, -0.01627212, -0.05461779, 0.07807828, 0.0125797, 0.003375102, 0.01796223, 0.03718013, -0.02372917, 0.9988092, 5.838631
 55220403, 0.02331734, 0.01947668, 0.06030725, 0.07807828, -1.40998E-05, 0.0145722, 0.01553381, 0.03718013, -0.02345284, 0.9987801, 5.838631
 55420323, -0.006892423, 0.02676791, -0.01741461, 0.07807828, 0.004245114, 0.001446745, 0.003222225, 0.03718013, -0.02327898, 0.9988084, 5.838631
 55620243, 0.007345931, 0.04280537, 0.03639392, 0.07807828, 0.00699439, 0.02155349, -0.008357899, 0.03718013, -0.0214521, 0.9988214, 5.838631
 55820163, 0.01085279, 0.06078426, -0.1045177, 0.07807828, 0.007651408, 0.01594573, -0.05746364, 0.03718013, -0.02208152, 0.9989598, 5.838631
 56020916, 0.02366126, 0.02485989, -0.1256927, 0.0782332, 0.005243891, -0.001721069, 0.009017627, 0.03733505, -0.02193488, 0.9989857, 5.850215
 56220836, 0.01542862, 0.005319424, 0.07219173, 0.0782332, 0.01089549, 0.00129351, 0.07189687, 0.03718013, -0.02210416, 0.9988616, 5.850215
 56420756, 0.03121754, 0.01169454, 0.1446281, 0.07807828, 0.01249987, 0.007097504, 0.0009294605, 0.03718013, -0.0218154, 0.9988307, 5.838631
 56620676, 0.010848, 0.04644458, -0.04308777, 0.07807828, -0.005053, 0.02603265, -0.03753886, 0.03718013, -0.01887816, 0.9989773, 5.838631
 56820596, -0.01868527, 0.0618457, -0.05430313, 0.07807828, -0.0002524141, 0.004154551, 0.02751308, 0.03718013, -0.01997345, 0.9989378, 5.838631
 57020516, -0.01229846, 0.03305831, -0.07017062, 0.07807828, 0.004839478, 0.01585327, -0.08109786, 0.03718013, -0.01837022, 0.9991455, 5.838631
 57220436, -0.003633854, 0.05030305, -0.1533061, 0.07807828, -0.002754215, -0.006330586, -0.00578563, 0.03718013, -0.01839304, 0.9991572, 5.838631
 57420356, -0.01021435, -0.01967885, 0.03243723, 0.07807828, 0.001302779, -0.003511568, 0.02555254, 0.03718013, -0.0191548, 0.9990676, 5.838631
 57620276, -0.002481089, -0.01155763, 0.08184367, 0.07807828, -0.01080422, -0.002695593, 0.04497712, 0.03718013, -0.01747474, 0.9989952, 5.838631
 57820196, -0.02314731, 0.01680193, 0.08365895, 0.07807828, -0.001186811, 0.009314846, -0.007032918, 0.03718013, -0.01748811, 0.9989775, 5.838631
 58020949, -0.002494754, 0.0273701, 0.003263909, 0.0782332, -0.001907249, 0.0124136, 0.02584539, 0.03733505, -0.01760539, 0.9989319, 5.850215
 58220869, 0.002782356, 0.0358753, 0.07057508, 0.0782332, -0.009662016, 0.01577166, -0.007946077, 0.03718013, -0.01690364, 0.9989067, 5.850215
 58420789, -0.012527, 0.0372545, -0.08085614, 0.07807828, -0.00629736, 0.005912156, -0.05997851, 0.03718013, -0.01784283, 0.9990163, 5.838631
 58620709, -0.0228845, 0.009377338, -0.1628943, 0.07807828, 0.00125193, -0.003323314, -0.01568329, 0.03718013, -0.01734301, 0.99911, 5.838631
 58820629, -0.01039985, 0.02073187, 0.0512765, 0.07807828, -0.004371408, 0.01801653, 0.02887734, 0.03718013, -0.01523182, 0.9990283, 5.838631
 59020549, -0.008809341, 0.0657689, 0.08968909, 0.07807828, -0.002612475, 0.01200682, 0.06305517, 0.03718013, -0.01480094, 0.9989066, 5.838631
 59220469, -0.005567892, 0.03145956, 0.1302772, 0.07807828, -0.01515825, 0.003689827, -0.01465802, 0.03718013, -0.01466334, 0.9988555, 5.838631
 59420389, -0.0431712, 0.01619314, -0.01148225, 0.07807828, -0.01991829, 0.002535969, 0.02989431, 0.03718013, -0.01489757, 0.9988185, 5.838631
 59620309, -0.04153016, 0.007551969, 0.01071042, 0.07807828, -0.002112047, 0.01659275, 0.01123675, 0.03718013, -0.01331906, 0.9988312, 5.838631
 59820229, -0.002509819, 0.03667913, 0.07089671, 0.07807828, -0.003267274, -0.004574531, -0.003279423, 0.03718013, -0.01392139, 0.998748, 5.838631
 60020149, -0.02544357, -0.0437126, -0.05047151, 0.07807828, -0.01217109, -0.02718845, -0.053666, 0.03718013, -0.01577762, 0.9988093, 5.838631
 60220902, -0.03505907, -0.03389999, -0.08119942, 0.0782332, 0.005240888, 0.0001575254, 0.03360086, 0.03733505, -0.01347046, 0.9988, 5.850215
 60420822, -0.01031295, 0.002421203, 0.10969, 0.0782332, 0.001634117, -0.0004401314, 0.03971075, 0.03718013, -0.01384907, 0.9986728, 5.850215
 60620742, -0.01349685, -0.005683979, 0.06865394, 0.07807828, -0.008319175, -0.004744414, 0.01463486, 0.03718013, -0.0153736, 0.9986141, 5.838631
 60820662, -0.02793049, -0.01999575, -0.01579957, 0.07807828, -0.001480362, -0.008248938, -0.01832991, 0.03718013, -0.01588567, 0.998636, 5.838631
 61020582, -0.01522305, -0.002842311, 0.01519408, 0.07807828, -0.01777061, 0.0154606, 0.04720182, 0.03718013, -0.01531567, 0.9985321, 5.838631
 61220502, -0.03497988, 0.02088901, 0.06278663, 0.07807828, 0.0002331873, -0.003587683, -0.02956685, 0.03718013, -0.01681021, 0.9985291, 5.838631
 61420422, -0.003416664, -0.02603319, 0.04295789, 0.07807828, 0.009091953, -0.01112452, 0.09844808, 0.03718013, -0.0179896, 0.9982551, 5.838631
 61620342, 0.007849934, -0.03308409, 0.1793214, 0.07807828, 0.005430534, -0.007351873, 0.01426021, 0.03718013, -0.01779765, 0.9981834, 5.838631
 61820262, 0.003640883, -0.00740793, -0.04138996, 0.07807828, 0.0002962119, 0.01243535, -0.04006423, 0.03718013, -0.01771341, 0.9983206, 5.838631
 62020182, -0.01200226, 0.03273038, -0.08812677, 0.07807828, -0.005000605, 0.01832463, 0.003230424, 0.03718013, -0.01764578, 0.9983648, 5.838631
 62220935, -0.01479298, 0.04011511, -0.04705106, 0.0782332, 0.005253796, 0.01004897, -0.0260288, 0.03733505, -0.01889543, 0.9984471, 5.850215
 62420855, -0.003832882, 0.01974928, -0.0782083, 0.0782332, -0.005159977, 0.007030388, -0.001473028, 0.03718013, -0.01812422, 0.9984832, 5.850215
 62620775, -0.01314514, 0.04188127, 0.1306986, 0.07807828, -0.001545407, 0.005008333, 0.07873903, 0.03718013, -0.01757667, 0.9981819, 5.838631
 62820695, -0.01075274, 0.002942444, 0.1761735, 0.07807828, -0.0128164, -0.009112487, 0.008857806, 0.03718013, -0.0197121, 0.9980463, 5.838631
 63020615, -0.02669351, -0.02508853, -0.002847611, 0.07807828, -0.01116995, -0.0007147648, -0.02589248, 0.03718013, -0.01908943, 0.9980947, 5.838631
 63220535, -0.0350975, 0.003224712, -0.1144277, 0.07807828, -0.01368044, 0.007533285, -0.03018068, 0.03718013, -0.0193536, 0.9982278, 5.838631
 63420455, -0.02761554, 0.02391488, -0.07842819, 0.07807828, 0.001050034, 0.002237399, -0.02769907, 0.03718013, -0.01968028, 0.9982596, 5.838631
 63620375, 0.0006108824, 0.01315334, -0.01687844, 0.07807828, -0.002353114, 0.001774745, 0.0105092, 0.03718013, -0.02032173, 0.9981796, 5.838631
 63820295, -0.01814821, 0.006333435, 0.08681875, 0.07807828, -0.005287421, 0.003802241, 0.05410728, 0.03718013, -0.01953058, 0.9980036, 5.838631
 64020215, -0.001674462, 0.02784361, 0.1525452, 0.07807828, 0.008831185, 0.01431742, 0.04086909, 0.03718013, -0.02040573, 0.997795, 5.838631
 64220968, 0.01258116, 0.000741469, 0.07278112, 0.0782332, -0.006627324, -0.005294635, -0.01214903, 0.03733505, -0.02189854, 0.9977521, 5.850215
 64420888, -0.00582204, -0.01488944, -0.1091131, 0.0782332, 0.01086112, 0.006593982, -0.04168187, 0.03718013, -0.0222141, 0.9979538, 5.850215
 64620808, 0.01898951, 0.01003939, -0.08415261, 0.07807828, -0.004458008, 0.003175712, -0.00577848, 0.03718013, -0.02136627, 0.9980126, 5.838631
 64820728, -0.01079064, 0.008790483, 0.0009022709, 0.07807828, -0.01060056, 0.001422012, 0.01832553, 0.03718013, -0.02314677, 0.9979478, 5.838631
 65020648, -0.02407365, 0.01308626, 0.05935044, 0.07807828, -0.01402623, 0.002915147, 0.04452526, 0.03718013, -0.02275827, 0.997838, 5.838631
 65220568, -0.009270682, 0.02151431, 0.103784, 0.07807828, -0.0003148488, -0.009455727, 0.002925465, 0.03718013, -0.02361983, 0.9977162, 5.838631
 65420488, -0.003366119, 0.004071737, 0.018281, 0.07807828, -0.001155141, 0.01267321, 0.01386755, 0.03718013, -0.02344134, 0.9976553, 5.838631
 65620408, -0.002411529, 0.0353176, 0.04149651, 0.07807828, -0.005869025, 0.01376971, 0.00313376, 0.03718013, -0.02399541, 0.9976232, 5.838631
 65820328, -0.00730598, 0.03205245, -0.008615117, 0.07807828, -0.005958515, 0.01456521, 0.02370019, 0.03718013, -0.0237824, 0.9976305, 5.838631
 66020248, -0.00358993, 0.03480308, -0.01590944, 0.07807828, 0.01857152, 0.003834871, -0.002163879, 0.03718013, -0.02408936, 0.9977159, 5.838631
 66220168, 0.03639049, 0.04269577, 0.03123306, 0.07807828, 0.01307569, 0.02666473, 0.02798753, 0.03718013, -0.02290295, 0.997627, 5.838631
 66420921, 0.03741639, 0.06452713, 0.06881977, 0.0782332, 0.0103205, 0.02003174, 0.009565087, 0.03733505, -0.02222845, 0.9976068, 5.850215
 66620841, 0.02201807, 0.04240255, 0.02622982, 0.0782332, 0.003103618, 0.001963587, 0.005655314, 0.03718013, -0.02311591, 0.9975852, 5.850215
 66820761, 0.002290842, -0.003423451, 0.02290934, 0.07807828, -0.004341289, -0.0002525191, 0.01048651, 0.03718013, -0.02312912, 0.9975365, 5.838631
 67020681, -0.007952766, 0.01354418, 0.01341148, 0.07807828, -0.007512955, 0.01510309, 0.004337483, 0.03718013, -0.0222868, 0.9975731, 5.838631
 67220601, -0.003602675, 0.04430975, -0.05116703, 0.07807828, 0.01017131, 0.0112572, -0.01918616, 0.03718013, -0.0220329, 0.9976776, 5.838631
 67420521, 0.0131545, 0.03727939, -0.09210674, 0.07807828, -0.009140297, 0.01081173, -0.01540102, 0.03718013, -0.02184598, 0.9978397, 5.838631
 67620441, -0.02780722, 0.01884224, -0.05579445, 0.07807828, -0.01548469, 0.0002316032, 0.03891904, 0.03718013, -0.02198826, 0.9978222, 5.838631
 67820361, -0.02672137, -0.001946862, 0.1410807, 0.07807828, 0.001022985, -0.005744109, 0.0428323, 0.03718013, -0.02229026, 0.9976075, 5.838631
 68020281, -0.0009216383, -0.02431389, 0.07783814, 0.07807828, -0.002385037, -0.01919951, 0.001663877, 0.03718013, -0.02345841, 0.9975203, 5.838631
 68220201, -0.003703462, -0.03734657, 0.01239376, 0.07807828, -0.00464601, -0.002223784, -0.03126534, 0.03718013, -0.02307053, 0.997559, 5.838631
 68420954, -0.01795787, 0.02216504, -0.1790175, 0.0782332, -0.001579122, 0.02879972, -0.05188146, 0.03733505, -0.02265745, 0.9978467, 5.850215
 68620874, 0.007129369, 0.05874009, -0.0498439, 0.0782332, -0.000498745, 0.01020626, -0.001164066, 0.03718013, -0.02293008, 0.9977891, 5.850215
 68820794, -0.006064546, 0.01122857, -0.0282504, 0.07807828, -0.006584436, -0.04604594, -0.02986609, 0.03718013, -0.01930395, 0.9979221, 5.838631
 69020714, 0.03085395, 0.2154195, -0.07905235, 0.07807828, 0.05321831, 0.3136477, 0.01652867, 0.03718013, 0.0007099201, 0.9978341, 5.838631
 69220634, 0.234634, 1.402096, 0.09954397, 0.07807828, 0.1184782, 0.606092, 0.04919916, 0.03718013, 0.009665422, 0.9977743, 5.838631
 69420554, 0.3700137, 2.357004, 0.1531293, 0.07807828, 0.0841716, 0.9888059, 0.01006992, 0.03718013, 0.04565418, 0.997683, 5.838631
 69620474, 0.09588909, 3.791305, 0.04710273, 0.07807828, -0.09370161, 1.47789, 0.01553734, 0.03718013, 0.1204287, 0.9925412, 5.838631
 69820394, -0.7400608, 5.343531, -0.428968, 0.07807828, -0.4706445, 1.953576, -0.3961002, 0.03718013, 0.2392141, 0.9704806, 5.838631
 70020314, -2.218176, 6.515386, -1.873497, 0.07807828, -1.052408, 2.08841, -0.8539857, 0.03718013, 0.3863547, 0.9180916, 5.838631
 70220234, -3.638985, 6.071343, -2.721928, 0.07807828, -1.237437, 1.560602, -0.794079, 0.03718013, 0.5136494, 0.8468729, 5.838631
 70420154, -3.923162, 4.399053, -2.254592, 0.07807828, -1.163146, 1.062518, -0.5609574, 0.03718013, 0.6070932, 0.7753541, 5.838631
 70620907, -3.681203, 3.045786, -1.569838, 0.0782332, -1.082266, 0.7553115, -0.3563503, 0.03733505, 0.6787583, 0.7073346, 5.850215
 70820827, -3.490796, 2.225698, -1.078659, 0.0782332, -1.097113, 0.5899663, -0.3035865, 0.03718013, 0.7376098, 0.6397977, 5.850215
 71020747, -3.479153, 1.696056, -0.9215779, 0.07807828, -1.070888, 0.426196, -0.2659273, 0.03718013, 0.7854763, 0.5733859, 5.838631
 71220667, -3.48484, 1.239999, -0.8716816, 0.07807828, -1.173872, 0.3301277, -0.3074286, 0.03718013, 0.8295934, 0.5000855, 5.838631
 71420587, -3.824337, 0.9138525, -1.005311, 0.07807828, -1.209478, 0.2074453, -0.3046001, 0.03718013, 0.8676404, 0.4199876, 5.838631
 71620507, -3.873605, 0.4810234, -0.986593, 0.07807828, -1.211001, 0.0618226, -0.3013603, 0.03718013, 0.8966773, 0.3393849, 5.838631
 71820427, -3.801499, 0.03592918, -0.9521266, 0.07807828, -1.155579, -0.07254288, -0.2986358, 0.03718013, 0.9176849, 0.2591847, 5.838631
 72020347, -3.684077, -0.3973026, -0.9821671, 0.07807828, -1.104531, -0.2054946, -0.2902454, 0.03718013, 0.9308116, 0.1791881, 5.838631
 72220267, -3.523623, -0.7852513, -0.9121327, 0.07807828, -1.092007, -0.3221676, -0.291677, 0.03718013, 0.9375553, 0.09886065, 5.838631
 72420187, -3.468084, -1.167917, -0.9193143, 0.07807828, -1.093763, -0.4426512, -0.3093031, 0.03718013, 0.9370931, 0.01713465, 5.838631
 72620940, -3.401286, -1.535295, -0.9346796, 0.0782332, -1.021674, -0.5448796, -0.2791591, 0.03733505, 0.9296063, -0.06269503, 5.850215
 72820860, -3.230589, -1.895063, -0.9147816, 0.0782332, -0.9559603, -0.6568589, -0.2751312, 0.03718013, 0.9145189, -0.1414028, 5.850215
 73020780, -2.991135, -2.227633, -0.9063058, 0.07807828, -0.9270697, -0.780984, -0.3072322, 0.03718013, 0.8925436, -0.218012, 5.838631
 73220700, -2.790764, -2.585359, -0.9654696, 0.07807828, -0.7851422, -0.8458877, -0.2901752, 0.03718013, 0.8645675, -0.2898837, 5.838631
 73420620, -2.384115, -2.771839, -0.8951186, 0.07807828, -0.6677243, -0.8745649, -0.2584099, 0.03718013, 0.832364, -0.3578866, 5.838631
 73620540, -1.993176, -2.905831, -0.8461851, 0.07807828, -0.5313414, -0.9230362, -0.2408586, 0.03718013, 0.7968972, -0.4180942, 5.838631
 73820460, -1.529087, -2.907043, -0.7072369, 0.07807828, -0.3966476, -0.8874238, -0.2034263, 0.03718013, 0.7620428, -0.4714166, 5.838631
 74020380, -1.147089, -2.843292, -0.6138045, 0.07807828, -0.2946876, -0.8661256, -0.1518128, 0.03718013, 0.7258831, -0.5212848, 5.838631
 74220300, -0.8529688, -2.864071, -0.5901808, 0.07807828, -0.2061284, -0.9043138, -0.195641, 0.03718013, 0.6867919, -0.5650007, 5.838631
 74420220, -0.4956793, -2.746612, -0.5441171, 0.07807828, -0.07881188, -0.7684374, -0.1052754, 0.03718013, 0.6516828, -0.6041723, 5.838631
 74620973, -0.1901155, -2.427991, -0.316231, 0.0782332, -0.0265911, -0.7217082, -0.09025262, 0.03718013, 0.6183422, -0.6395942, 5.850215
 74820893, 0.03084516, -2.251351, -0.2820834, 0.0782332, 0.05661713, -0.6868063, -0.105944, 0.03733505, 0.5865837, -0.6702555, 5.850215
 75020813, 0.2525631, -2.131383, -0.3153518, 0.0782332, 0.1173853, -0.6038672, -0.05384026, 0.03718013, 0.5546977, -0.6988587, 5.850215
 75220733, 0.4185615, -1.958774, -0.2414834, 0.07807828, 0.1511338, -0.5950131, -0.08326632, 0.03718013, 0.523046, -0.7244569, 5.838631
 75420653, 0.5422666, -1.803324, -0.2382962, 0.07807828, 0.1924299, -0.5042521, -0.03447869, 0.03718013, 0.4951082, -0.7465244, 5.838631
 75620573, 0.6439466, -1.52969, -0.08494607, 0.07807828, 0.2216508, -0.4596792, -0.04960822, 0.03718013, 0.4684148, -0.7677051, 5.838631
 75820493, 0.7295427, -1.354821, -0.09095456, 0.07807828, 0.2332896, -0.3546038, 0.009835981, 0.03718013, 0.4434856, -0.7870862, 5.838631
 76020413, 0.7873625, -1.131922, -0.01563878, 0.07807828, 0.2465255, -0.3478728, 0.01106058, 0.03718013, 0.4185061, -0.8051705, 5.838631
 76220333, 0.8456763, -1.103893, -0.08969946, 0.07807828, 0.2883242, -0.3198338, -0.03947758, 0.03718013, 0.3940418, -0.8197036, 5.838631
 76420253, 0.9563591, -0.9618206, -0.1731453, 0.07807828, 0.2985013, -0.2571322, -0.05350452, 0.03718013, 0.3725475, -0.8317191, 5.838631
 76620173, 0.9592877, -0.7805887, -0.1154672, 0.07807828, 0.3087018, -0.2364133, -0.04037271, 0.03718013, 0.3503164, -0.8446531, 5.838631
 76820926, 0.9463148, -0.6452219, -0.02486562, 0.0782332, 0.281995, -0.1501326, 0.04595714, 0.03733505, 0.3318559, -0.8569838, 5.850215
 77020846, 0.9048339, -0.4991622, 0.0717488, 0.0782332, 0.2919721, -0.1478279, 0.01929617, 0.03718013, 0.3118041, -0.8681909, 5.850215
 77220766, 0.9414244, -0.4604911, 0.006494941, 0.07807828, 0.3058238, -0.1291174, -0.03340815, 0.03718013, 0.2941511, -0.8771403, 5.838631
 77420686, 0.9621885, -0.364848, -0.06507038, 0.07807828, 0.2836367, -0.08443011, 0.01889751, 0.03718013, 0.2795258, -0.8849488, 5.838631
 77620606, 0.940306, -0.2468681, -0.008300208, 0.07807828, 0.324179, -0.06780495, -0.05957928, 0.03718013, 0.2639344, -0.8919372, 5.838631
 77820526, 0.9716489, -0.1986709, -0.1041712, 0.07807828, 0.2821389, -0.05068342, 0.001202579, 0.03718013, 0.2499987, -0.8988754, 5.838631
 78020446, 0.9006634, -0.1336201, 0.006564918, 0.07807828, 0.2680064, -0.02973028, 0.02171763, 0.03718013, 0.2357681, -0.9057095, 5.838631
 78220366, 0.8366507, -0.06001884, 0.1119414, 0.07807828, 0.2495406, 0.01010886, 0.04051133, 0.03718013, 0.2240003, -0.9125115, 5.838631
 78420286, 0.8067651, 0.01631711, 0.1062113, 0.07807828, 0.263097, -0.006245647, -0.006470856, 0.03718013, 0.2127889, -0.9180224, 5.838631
 78620206, 0.8359618, 0.0146203, -0.005428879, 0.07807828, 0.2434501, 0.02714233, 0.007983732, 0.03718013, 0.2028899, -0.9226159, 5.838631
 78820959, 0.8022817, 0.06220619, -0.01956357, 0.0782332, 0.2340283, 0.01772927, 0.03131702, 0.03733505, 0.1928622, -0.927092, 5.850215
 79020879, 0.6879536, 0.1045817, 0.2208847, 0.0782332, 0.2135773, 0.03776285, 0.04860163, 0.03718013, 0.1851482, -0.9326954, 5.850215
 79220799, 0.7397209, 0.1333777, 0.02170597, 0.07807828, 0.2442542, 0.03563115, -0.04376443, 0.03718013, 0.1757664, -0.9356832, 5.838631
 79420719, 0.7591687, 0.1446962, -0.07425997, 0.07807828, 0.2260647, 0.05417395, -0.008812143, 0.03718013, 0.1686273, -0.9387864, 5.838631
 79620639, 0.7041404, 0.1697249, 0.01765075, 0.07807828, 0.2086832, 0.05554349, 0.04764682, 0.03718013, 0.1615159, -0.9425197, 5.838631
 79820559, 0.6390989, 0.1756082, 0.1379718, 0.07807828, 0.177193, 0.06783414, 0.04827055, 0.03718013, 0.1551377, -0.9463112, 5.838631
 80020479, 0.6024641, 0.2391969, 0.08327439, 0.07807828, 0.2082316, 0.09534083, -0.01798845, 0.03718013, 0.1518843, -0.9485588, 5.838631
 80220399, 0.6304032, 0.2779991, -0.004377159, 0.07807828, 0.1946167, 0.07476183, -0.003754544, 0.03718013, 0.1461866, -0.951056, 5.838631
 80420319, 0.6123703, 0.2222759, -0.02050598, 0.07807828, 0.194231, 0.05728983, -0.01425926, 0.03718013, 0.138608, -0.9535056, 5.838631
 80620239, 0.5636574, 0.2122996, 0.06835277, 0.07807828, 0.1527921, 0.08342507, 0.06465509, 0.03718013, 0.1354279, -0.9565119, 5.838631
 80820159, 0.4722022, 0.2633871, 0.2180775, 0.07807828, 0.167407, 0.08857016, 0.03802361, 0.03718013, 0.131626, -0.9593995, 5.838631
 81020912, 0.5185465, 0.2804493, 0.07866068, 0.0782332, 0.1652327, 0.09276929, -0.008596909, 0.03733505, 0.1278158, -0.9611716, 5.850215
 81220832, 0.5842514, 0.279015, -0.2031288, 0.0782332, 0.2097741, 0.07780936, -0.1322085, 0.03718013, 0.1250263, -0.9606692, 5.850215
 81420752, 0.6199321, 0.2755083, -0.2756896, 0.07807828, 0.1623972, 0.07665817, -0.01108527, 0.03718013, 0.1215152, -0.9618149, 5.838631
 81620672, 0.4619423, 0.2347826, 0.08408979, 0.07807828, 0.1118017, 0.06858678, 0.09028979, 0.03718013, 0.1191731, -0.9645756, 5.838631
 81820592, 0.3746242, 0.2427587, 0.2447343, 0.07807828, 0.1292747, 0.08806379, 0.03618156, 0.03718013, 0.1167857, -0.9668431, 5.838631
 82020512, 0.3860667, 0.2687409, 0.1734351, 0.07807828, 0.1133384, 0.08036144, 0.04804424, 0.03718013, 0.114561, -0.9690148, 5.838631
 82220432, 0.3951647, 0.2612543, 0.02898885, 0.07807828, 0.1367897, 0.07772492, -0.07612997, 0.03718013, 0.1124175, -0.9694907, 5.838631
 82420352, 0.4218605, 0.2493247, -0.09110671, 0.07807828, 0.1321004, 0.06724066, -0.002324128, 0.03718013, 0.1103726, -0.9707327, 5.838631
 82620272, 0.3942085, 0.2245565, -0.02009147, 0.07807828, 0.1058218, 0.06973432, 0.01206916, 0.03718013, 0.1079442, -0.9718528, 5.838631
 82820192, 0.3558579, 0.1996297, -0.0140913, 0.07807828, 0.1279439, 0.06506749, -0.05561548, 0.03718013, 0.1038008, -0.9727269, 5.838631
 83020945, 0.3789001, 0.195208, -0.06977412, 0.0782332, 0.1126344, 0.07025392, 0.002527562, 0.03733505, 0.1025083, -0.9737254, 5.850215
 83220865, 0.3077255, 0.1932751, 0.1214919, 0.07823878, 0.06380697, 0.04598037, 0.09863073, 0.03719873, 0.09924992, -0.9760111, 5.8508
 83420785, 0.1659049, 0.1742115, 0.4673127, 0.07811734, 0.03282726, 0.07658916, 0.1698165, 0.03719873, 0.09729764, -0.9791667, 5.84155
 83620705, 0.1153864, 0.2304533, 0.5273193, 0.07811734, 0.05103271, 0.06713919, 0.1553507, 0.03719873, 0.09461471, -0.98164, 5.84155
 83820625, 0.1376159, 0.1942215, 0.511216, 0.07811734, 0.0446144, 0.05524404, 0.1425228, 0.03719873, 0.09208734, -0.9837919, 5.84155
 84020545, 0.227444, 0.1814051, 0.2863097, 0.07811734, 0.1195667, 0.03999207, 0.02245844, 0.03719873, 0.08942073, -0.9846139, 5.84155
 84220465, 0.4259499, 0.1428969, 0.09718102, 0.07811176, 0.1676775, 0.05440037, 0.01891876, 0.03718013, 0.08792299, -0.9854972, 5.840967
 84420385, 0.5132023, 0.1536078, 0.2614497, 0.07807828, 0.1541156, 0.05112001, 0.1489794, 0.03718013, 0.08615097, -0.9874994, 5.838631
 84620305, 0.4846715, 0.1311582, 0.4835192, 0.07807828, 0.144688, 0.01824948, 0.1808499, 0.03718013, 0.08255094, -0.9898393, 5.838631
 84820225, 0.454388, 0.09270058, 0.6143202, 0.07807828, 0.1345363, 0.03096445, 0.2175999, 0.03718013, 0.08068504, -0.9920937, 5.838631
 85020145, 0.4198524, 0.08852412, 0.6398102, 0.07807828, 0.1262369, 0.01362284, 0.155017, 0.03718013, 0.07683314, -0.9939325, 5.838631
 85220898, 0.4243479, 0.07731826, 0.391066, 0.0782332, 0.126886, 0.03763861, 0.1157156, 0.03733505, 0.07565731, -0.994926, 5.850215
 85420818, 0.3915233, 0.1293846, 0.3665444, 0.0782332, 0.1038456, 0.04891165, 0.1422415, 0.03718013, 0.07394591, -0.995856, 5.850215
 85620738, 0.3351955, 0.1184649, 0.4720986, 0.07807828, 0.0946177, 0.0175389, 0.1547812, 0.03718013, 0.07014963, -0.996838, 5.838631
 85820658, 0.2917917, 0.06362259, 0.5040238, 0.07807828, 0.08536474, 0.02085359, 0.1542062, 0.03718013, 0.06766722, -0.9974657, 5.838631
 86020578, 0.273221, 0.08594656, 0.3735858, 0.07807828, 0.08431435, 0.01714876, 0.08752382, 0.03718013, 0.0649837, -0.9978152, 5.838631
 86220498, 0.256336, 0.09055323, 0.2727847, 0.07807828, 0.07896014, 0.03715657, 0.08862831, 0.03718013, 0.06380907, -0.9979587, 5.838631
 86420418, 0.2444637, 0.1184326, 0.2613066, 0.07807828, 0.06392702, 0.04199978, 0.1038139, 0.03718013, 0.06159707, -0.9980801, 5.838631
 86620338, 0.1101102, 0.1211754, 0.3609449, 0.07807828, 0.0001548647, 0.03442322, 0.1689412, 0.03718013, 0.05926522, -0.9980513, 5.838631
 86820258, 0.05397173, 0.1034475, 0.5153139, 0.07807828, 0.0533056, 0.03316169, 0.09406369, 0.03718013, 0.05681635, -0.9979369, 5.838631
 87020178, 0.1922783, 0.1085889, 0.170094, 0.07807828, 0.06448223, 0.03631769, -0.004373136, 0.03718013, 0.05510397, -0.997968, 5.838631
 87220931, 0.200838, 0.1080224, -0.04674995, 0.0782332, 0.0534368, 0.03162412, -0.04748474, 0.03733505, 0.05322361, -0.9980811, 5.850215
 87420851, 0.1656331, 0.1007203, -0.08763568, 0.0782332, 0.04257964, 0.02925752, 0.01427947, 0.03718013, 0.05237702, -0.9980209, 5.850215
 87620771, 0.1141989, 0.1038768, 0.2106641, 0.07807828, 0.03066194, 0.03144693, 0.1131566, 0.03718013, 0.05043715, -0.9977125, 5.838631
 87820691, 0.1004375, 0.0946132, 0.3131517, 0.07807828, 0.03889842, 0.02596385, 0.0358562, 0.03718013, 0.04893889, -0.9974514, 5.838631
 88020611, 0.09735594, 0.08054634, 0.1443593, 0.07807828, 0.02543381, 0.009767553, 0.08273657, 0.03718013, 0.04570882, -0.9972763, 5.838631
 88220531, 0.06392936, 0.06543202, 0.1497617, 0.07808387, 0.01671939, 0.03693828, -0.006719094, 0.03719873, 0.04447036, -0.9972437, 5.839214
 88420451, 0.05181801, 0.0867242, 0.02476937, 0.07811734, 0.01382537, 0.02738082, 0.02067092, 0.03719873, 0.04205876, -0.997196, 5.84155
 88620371, 0.02480894, 0.09597335, 0.04946507, 0.07811734, 0.002603478, 0.02539119, 0.002087235, 0.03719873, 0.03992331, -0.9971834, 5.84155
 88820291, -0.0003328434, 0.08458814, 0.06280687, 0.07811734, -0.007541839, 0.025853, 0.02849745, 0.03719873, 0.03812184, -0.9970589, 5.84155
 89020211, -0.01579498, 0.07591879, 0.137652, 0.07811734, 0.002195368, 0.01593705, 0.05710996, 0.03719873, 0.03563468, -0.9968606, 5.84155
 89220964, 0.006044432, 0.06965211, 0.1268007, 0.07826667, 0.0006699, 0.02366192, 0.02626945, 0.03733505, 0.03492393, -0.9967469, 5.852556
 89420884, 0.006489084, 0.0767765, 0.01563294, 0.0782332, 0.004492804, 0.02070076, -0.001820217, 0.03718013, 0.03279775, -0.9968611, 5.850215
 89620804, 0.01574217, 0.07989638, -0.005036018, 0.07807828, 0.01415136, 0.02123436, 0.01467957, 0.03718013, 0.02991237, -0.9969072, 5.838631
 89820724, 0.01209621, 0.0552113, 0.0289544, 0.07807828, 0.0005890039, 0.01069574, 0.01632209, 0.03718013, 0.02715476, -0.9969074, 5.838631
 90020644, -0.004650951, 0.05231445, 0.04515943, 0.07807828, 0.004286904, 0.02249125, 0.0001913259, 0.03718013, 0.02549248, -0.9968647, 5.838631
 90220564, 0.004602534, 0.07833276, -0.03376802, 0.07807828, -0.007455835, 0.02493665, -0.003992772, 0.03718013, 0.02435541, -0.9969296, 5.838631
 90420484, -0.0217532, 0.07662728, 0.01969309, 0.07807828, -0.0150684, 0.02193201, -0.002479419, 0.03718013, 0.02172278, -0.9969235, 5.838631
 90620404, -0.04520911, 0.06275611, 0.042046, 0.07807828, -0.01259627, 0.02291616, 0.05541844, 0.03718013, 0.01923093, -0.9967979, 5.838631
 90820324, -0.04067733, 0.06178021, 0.05600577, 0.07807828, -0.008538787, 0.02709659, -0.02879964, 0.03718013, 0.01742582, -0.9969334, 5.838631
 91020244, -0.02636874, 0.07069253, -0.01786194, 0.07807828, -0.006034236, 0.01463832, 0.022247, 0.03718013, 0.01530878, -0.9968855, 5.838631
 91220164, -0.01736426, 0.06089128, 0.01670066, 0.07807828, -0.01581063, 0.01198174, 0.01051539, 0.03718013, 0.01389027, -0.99691, 5.838631
 91420917, -0.03498825, 0.05504664, 0.03086417, 0.0782332, -0.01181283, 0.01265089, 0.009232054, 0.03733505, 0.01111782, -0.9969265, 5.850215
 91620837, -0.03267631, 0.02980476, -0.04631966, 0.0782332, -0.01070621, 0.008024049, 0.009541508, 0.03718013, 0.008677031, -0.9970669, 5.850215
 91820757, -0.04010558, 0.02787043, 0.001905508, 0.07807828, -0.01416576, 0.01075786, -0.01140338, 0.03718013, 0.006707103, -0.9971172, 5.838631
 92020677, -0.04928634, 0.04052074, -0.0273306, 0.07807828, -0.01164299, 0.007714643, 0.001389329, 0.03718013, 0.004442058, -0.9971532, 5.838631
 92220597, -0.03906427, 0.03660907, 0.02787628, 0.07807828, -0.006682589, 0.016977, 0.02242545, 0.03718013, 0.002278091, -0.9970833, 5.838631
 92420517, -0.03309977, 0.05545118, 0.0272119, 0.07807828, -0.01501046, 0.02287918, 0.003784954, 0.03718013, 0.001629257, -0.9970887, 5.838631
