TimeUS,COFN,COFE,CNe,CEe,POFN,POFE,PNe,PEe
 8040949, 0.03954163, 0.0236364, 0.09728408, 0.04849193, 0, 0, 0, 0
 8220877, -0.006434309, 0.006648168, 0.09739286, 0.04819769, 0.03954163, 0.0236364, 0.09728408, 0.04849193
 8420797, 0.03769812, 0.002086445, 0.09741965, 0.04819313, -0.006434309, 0.006648168, 0.09739286, 0.04819769
 8620717, 0.03032751, -0.0006435309, 0.09741046, 0.04819303, 0.03769812, 0.002086445, 0.09741965, 0.04819313
 8820637, 0.04969921, -0.0160656, 0.09745217, 0.04817558, 0.03032751, -0.0006435309, 0.09741046, 0.04819303
 9020557, 0.0002767295, -0.04030844, 0.09740798, 0.0482241, 0.04969921, -0.0160656, 0.09745217, 0.04817558
 9220477, -0.04996216, 0.002063199, 0.09744712, 0.04817738, 0.0002767295, -0.04030844, 0.09740798, 0.0482241
 9420397, 0.02350826, -0.03506364, 0.0974265, 0.04819249, -0.04996216, 0.002063199, 0.09744712, 0.04817738
 9620317, -0.01804456, -0.01122489, 0.09740388, 0.04818894, 0.02350826, -0.03506364, 0.0974265, 0.04819249
 9820237, -0.03103259, 0.006042566, 0.09741983, 0.04817702, -0.01804456, -0.01122489, 0.09740388, 0.04818894
 10020157, 0.01777956, 0.06497129, 0.09743181, 0.04828366, -0.03103259, 0.006042566, 0.09741983, 0.04817702
 10220910, -0.0267322, 0.02415234, 0.09742301, 0.04818163, 0.01777956, 0.06497129, 0.09743181, 0.04828366
 10420830, 0.03656962, -0.02771936, 0.09744124, 0.04817467, -0.0267322, 0.02415234, 0.09742301, 0.04818163
 10620750, 0.05959442, 0.02351568, 0.09746403, 0.04820256, 0.03656962, -0.02771936, 0.09744124, 0.04817467
 10820670, -0.003861173, 0.03989255, 0.09741469, 0.04820988, 0.05959442, 0.02351568, 0.09746403, 0.04820256
 11020590, 0.01114811, 0.01257255, 0.09740099, 0.04818856, -0.003861173, 0.03989255, 0.09741469, 0.04820988
 11220510, 0.03217082, -0.07623551, 0.09749176, 0.04824796, 0.01114811, 0.01257255, 0.09740099, 0.04818856
 11420430, -0.002797179, 0.01322106, 0.09739814, 0.04819062, 0.03217082, -0.07623551, 0.09749176, 0.04824796
 11620350, -0.03851396, 0.04449806, 0.09745897, 0.04818908, -0.002797179, 0.01322106, 0.09739814, 0.04819062
 11820270, -0.03930953, -0.02946215, 0.09742501, 0.04821885, -0.03851396, 0.04449806, 0.09745897, 0.04818908
 12020190, -0.01991663, -0.01628918, 0.09740353, 0.04819747, -0.03930953, -0.02946215, 0.09742501, 0.04821885
 12220943, 0.007900821, 0.01969255, 0.0974, 0.04819675, -0.01991663, -0.01628918, 0.09740353, 0.04819747
 12420863, 0.03449216, -0.02979753, 0.09743845, 0.04817925, 0.007900821, 0.01969255, 0.0974, 0.04819675
 12620783, 0.04327349, 0.008703567, 0.09743249, 0.04818652, 0.03449216, -0.02979753, 0.09743845, 0.04817925
 12820703, -0.01808055, 0.04089917, 0.09742423, 0.04820511, 0.04327349, 0.008703567, 0.09743249, 0.04818652
 13020623, -0.0201923, 0.01024337, 0.09740607, 0.04818679, -0.01808055, 0.04089917, 0.09742423, 0.04820511
 13220543, -0.06667311, -0.01891348, 0.09747709, 0.048202, -0.0201923, 0.01024337, 0.09740607, 0.04818679
 13420463, 0.005993212, -0.05749573, 0.09742686, 0.04824945, -0.06667311, -0.01891348, 0.09747709, 0.048202
 13620383, 0.004543804, 0.06800494, 0.09743299, 0.04828528, 0.005993212, -0.05749573, 0.09742686, 0.04824945
 13820303, -0.01238269, -0.01974778, 0.09739953, 0.04820114, 0.004543804, 0.06800494, 0.09743299, 0.04828528
 14020223, -0.04920838, -0.05188633, 0.09744646, 0.04827539, -0.01238269, -0.01974778, 0.09739953, 0.04820114
 14220976, -0.04595136, 0.06072786, 0.09749585, 0.04820096, -0.04920838, -0.05188633, 0.09744646, 0.04827539
 14420896, -0.009280308, -0.0102666, 0.09739707, 0.04819311, -0.04595136, 0.06072786, 0.09749585, 0.04820096
 14620816, -0.04498403, 0.002284789, 0.09743854, 0.04817729, -0.009280308, -0.0102666, 0.09739707, 0.04819311
 14820736, -0.04809083, 0.02687044, 0.09746343, 0.04816416, -0.04498403, 0.002284789, 0.09743854, 0.04817729
 15020656, -0.04761813, -0.05107975, 0.09744783, 0.04826388, -0.04809083, 0.02687044, 0.09746343, 0.04816416
 15220576, 0.03961936, -0.08042234, 0.0975175, 0.04823998, -0.04761813, -0.05107975, 0.09744783, 0.04826388
 15420496, 0.07805178, 0.04806111, 0.09751149, 0.0482656, 0.03961936, -0.08042234, 0.0975175, 0.04823998
 15620416, -0.01876058, -0.0004119142, 0.09740654, 0.04817991, 0.07805178, 0.04806111, 0.09751149, 0.0482656
 15820336, -0.06254432, 0.007034698, 0.09748389, 0.0481571, -0.01876058, -0.0004119142, 0.09740654, 0.04817991
 16020256, -0.03295692, 0.07464485, 0.09749265, 0.0482392, -0.06254432, 0.007034698, 0.09748389, 0.0481571
 16220176, -0.01683199, -0.04923777, 0.09741888, 0.04824213, -0.03295692, 0.07464485, 0.09749265, 0.0482392
 16420929, 0.01572842, -0.06296074, 0.09744756, 0.04823982, -0.01683199, -0.04923777, 0.09741888, 0.04824213
 16620849, -0.06213895, -0.04101275, 0.09746952, 0.04824467, 0.01572842, -0.06296074, 0.09744756, 0.04823982
 16820769, -0.03205011, 0.08599329, 0.09750848, 0.04827242, -0.06213895, -0.04101275, 0.09746952, 0.04824467
 17020689, 0.04310196, -0.04239391, 0.09746617, 0.04818162, -0.03205011, 0.08599329, 0.09750848, 0.04827242
 17220609, -0.02354437, 0.00757248, 0.09740946, 0.04818361, 0.04310196, -0.04239391, 0.09746617, 0.04818162
 17420529, -0.02453115, 0.0691555, 0.09746635, 0.04824522, -0.02354437, 0.00757248, 0.09740946, 0.04818361
 17620449, -0.02851463, -0.03789748, 0.09741732, 0.04822831, -0.02453115, 0.0691555, 0.09746635, 0.04824522
 17820369, -0.00988478, -0.005002364, 0.09740003, 0.04818454, -0.02851463, -0.03789748, 0.09741732, 0.04822831
 18020289, 0.05779425, -0.01565975, 0.09747676, 0.0481576, -0.00988478, -0.005002364, 0.09740003, 0.04818454
 18220209, -0.02709725, 0.04502113, 0.09744152, 0.04819838, 0.05779425, -0.01565975, 0.09747676, 0.0481576
 18420962, -0.04642937, 0.02552343, 0.09745778, 0.0481672, -0.02709725, 0.04502113, 0.09744152, 0.04819838
 18620882, -0.07096912, -0.04555231, 0.09749091, 0.04825947, -0.04642937, 0.02552343, 0.09745778, 0.0481672
 18820802, 0.07312668, 0.04157455, 0.09749679, 0.04824628, -0.07096912, -0.04555231, 0.09749091, 0.04825947
 19020722, 0.05983586, 0.04948383, 0.09746841, 0.04826489, 0.07312668, 0.04157455, 0.09749679, 0.04824628
 19220642, -0.03542604, 0.04883249, 0.09746152, 0.04819045, 0.05983586, 0.04948383, 0.09746841, 0.04826489
 19420562, 0.009012252, 0.010228, 0.09740084, 0.04818524, -0.03542604, 0.04883249, 0.09746152, 0.04819045
 19620482, 0.03017326, -0.07640847, 0.09749019, 0.04824753, 0.009012252, 0.010228, 0.09740084, 0.04818524
 19820402, 0.07569607, 0.02550153, 0.09724505, 0.04872628, 0.03017326, -0.07640847, 0.09749019, 0.04824753
 20020322, -0.01593432, 0.03229795, 0.09668716, 0.04964175, 0.07569607, 0.02550153, 0.09724505, 0.04872628
 20220242, -0.001406833, -0.03037655, 0.09599584, 0.05095274, -0.01593432, 0.03229795, 0.09668716, 0.04964175
 20420162, -0.03650794, -0.04958958, 0.09520499, 0.05251306, -0.001406833, -0.03037655, 0.09599584, 0.05095274
 20620915, 0.04674514, 0.01904918, 0.09433618, 0.05401722, -0.03650794, -0.04958958, 0.09520499, 0.05251306
 20820835, 0.05650081, 0.05934066, 0.09347208, 0.05563279, 0.04674514, 0.01904918, 0.09433618, 0.05401722
 21020755, -0.004833601, 0.0377697, 0.09255773, 0.05697651, 0.05650081, 0.05934066, 0.09347208, 0.05563279
 21220675, 0.3591343, -0.03997499, 0.09460932, 0.05764691, -0.004833601, 0.0377697, 0.09255773, 0.05697651
 21420595, 1.026523, -0.1974561, 0.1126688, 0.05490299, 0.3591343, -0.03997499, 0.09460932, 0.05764691
 21620515, 2.215213, -0.3884221, 0.1666728, 0.04554542, 1.026523, -0.1974561, 0.1126688, 0.05490299
 21820435, 3.775101, -0.726948, 0.2519342, 0.03157855, 2.215213, -0.3884221, 0.1666728, 0.04554542
 22020355, 5.758824, -1.018184, 0.3648663, 0.01504398, 3.775101, -0.726948, 0.2519342, 0.03157855
 22220275, 7.898091, -1.260674, 0.4881562, 0.0003573969, 5.758824, -1.018184, 0.3648663, 0.01504398
 22420195, 9.742057, -1.395105, 0.5942119, -0.007338129, 7.898091, -1.260674, 0.4881562, 0.0003573969
 22620948, 11.45994, -1.489652, 0.6919648, -0.009790882, 9.742057, -1.395105, 0.5942119, -0.007338129
 22820868, 13.16237, -1.542935, 0.7846156, -0.007576995, 11.45994, -1.489652, 0.6919648, -0.009790882
 23020788, 14.39919, -1.432422, 0.850217, -0.002107836, 13.16237, -1.542935, 0.7846156, -0.007576995
 23220708, 16.7884, -1.491768, 0.9579434, 0.005793661, 14.39919, -1.432422, 0.850217, -0.002107836
 23420628, 18.41055, -1.469321, 0.997026, 0.03031576, 16.7884, -1.491768, 0.9579434, 0.005793661
 23620548, 19.90541, -1.299424, 1.03521, 0.06515072, 18.41055, -1.469321, 0.997026, 0.03031576
 23820468, 21.06947, -1.450349, 1.07309, 0.1032305, 19.90541, -1.299424, 1.03521, 0.06515072
 24020388, 22.79308, -1.61664, 1.141688, 0.139601, 21.06947, -1.450349, 1.07309, 0.1032305
 24220308, 24.03685, -1.450161, 1.191024, 0.1816211, 22.79308, -1.61664, 1.141688, 0.139601
 24420228, 25.06392, -1.658771, 1.238366, 0.223673, 24.03685, -1.450161, 1.191024, 0.1816211
 24620148, 26.5241, -2.201398, 1.308476, 0.2806898, 25.06392, -1.658771, 1.238366, 0.223673
 24820901, 27.16908, -1.502586, 1.351051, 0.3363644, 26.5241, -2.201398, 1.308476, 0.2806898
 25020821, 27.44449, -2.341317, 1.389219, 0.3911719, 27.16908, -1.502586, 1.351051, 0.3363644
 25220741, 28.2989, -2.07389, 1.449824, 0.4516245, 27.44449, -2.341317, 1.389219, 0.3911719
 25420661, 28.0347, -2.259258, 1.470562, 0.5225129, 28.2989, -2.07389, 1.449824, 0.4516245
 25620581, 28.51709, -1.914732, 1.525063, 0.5867122, 28.0347, -2.259258, 1.470562, 0.5225129
 25820501, 29.1958, -2.385108, 1.595206, 0.6528569, 28.51709, -1.914732, 1.525063, 0.5867122
 26020421, 29.84605, -2.124266, 1.671098, 0.7267536, 29.1958, -2.385108, 1.595206, 0.6528569
 26220341, 29.02436, -3.078854, 1.702706, 0.8036625, 29.84605, -2.124266, 1.671098, 0.7267536
 26420261, 30.17266, -2.443272, 1.801911, 0.8743181, 29.02436, -3.078854, 1.702706, 0.8036625
 26620181, 30.13452, -2.268017, 1.856746, 0.9517166, 30.17266, -2.443272, 1.801911, 0.8743181
 26820934, 28.55356, -2.614108, 1.862374, 1.03032, 30.13452, -2.268017, 1.856746, 0.9517166
 27020854, 29.52265, -3.317571, 1.958097, 1.097993, 28.55356, -2.614108, 1.862374, 1.03032
 27220774, 28.74255, -2.464968, 1.989252, 1.168247, 29.52265, -3.317571, 1.958097, 1.097993
 27420694, 29.17045, -1.141484, 2.060558, 1.23161, 28.74255, -2.464968, 1.989252, 1.168247
 27620614, 28.59234, -3.359103, 2.110217, 1.2874, 29.17045, -1.141484, 2.060558, 1.23161
 27820534, 29.44705, -1.554443, 2.194907, 1.339717, 28.59234, -3.359103, 2.110217, 1.2874
 28020454, 31.09914, -2.45337, 2.31252, 1.383149, 29.44705, -1.554443, 2.194907, 1.339717
 28220374, 29.63664, -1.436133, 2.330396, 1.438945, 31.09914, -2.45337, 2.31252, 1.383149
 28420294, 28.05869, -4.234001, 2.359397, 1.490267, 29.63664, -1.436133, 2.330396, 1.438945
 28620214, 30.09884, -2.506464, 2.478595, 1.529964, 28.05869, -4.234001, 2.359397, 1.490267
 28820967, 30.65897, -3.101639, 2.545703, 1.575777, 30.09884, -2.506464, 2.478595, 1.529964
 29020887, 30.11958, -2.062979, 2.548633, 1.656424, 30.65897, -3.101639, 2.545703, 1.575777
 29220807, 28.22619, -0.7060332, 2.61272, 1.765848, 30.11958, -2.062979, 2.548633, 1.656424
 29420727, 30.12384, -4.481834, 2.765075, 1.846332, 28.22619, -0.7060332, 2.61272, 1.765848
 29620647, 27.25817, -4.825457, 2.676283, 1.896661, 30.12384, -4.481834, 2.765075, 1.846332
 29820567, 26.74437, -4.479754, 2.589168, 1.914263, 27.25817, -4.825457, 2.676283, 1.896661
 30020487, 27.77024, -2.713577, 2.560858, 1.922772, 26.74437, -4.479754, 2.589168, 1.914263
 30220407, 27.71858, -3.030895, 2.525726, 1.961133, 27.77024, -2.713577, 2.560858, 1.922772
 30420327, 29.5357, -1.110584, 2.556494, 1.99158, 27.71858, -3.030895, 2.525726, 1.961133
 30620247, 29.33944, 0.01171237, 2.529484, 2.03442, 29.5357, -1.110584, 2.556494, 1.99158
 30820167, 26.7042, -0.4053752, 2.433205, 2.080868, 29.33944, 0.01171237, 2.529484, 2.03442
 31020920, 27.02495, 1.531904, 2.418553, 2.116877, 26.7042, -0.4053752, 2.433205, 2.080868
 31220840, 27.23862, 1.117075, 2.411138, 2.130769, 27.02495, 1.531904, 2.418553, 2.116877
 31420760, 25.21885, 1.560943, 2.353425, 2.133115, 27.23862, 1.117075, 2.411138, 2.130769
 31620680, 26.75778, 1.3491, 2.388556, 2.13637, 25.21885, 1.560943, 2.353425, 2.133115
 31820600, 27.01962, -0.7279096, 2.385227, 2.138397, 26.75778, 1.3491, 2.388556, 2.13637
 32020520, 26.56406, -0.384486, 2.361869, 2.133434, 27.01962, -0.7279096, 2.385227, 2.138397
 32220440, 24.7335, -0.4471327, 2.295837, 2.12849, 26.56406, -0.384486, 2.361869, 2.133434
 32420360, 23.05052, 0.5600374, 2.237356, 2.117927, 24.7335, -0.4471327, 2.295837, 2.12849
 32620280, 24.09435, 1.413236, 2.243529, 2.113362, 23.05052, 0.5600374, 2.237356, 2.117927
 32820200, 25.48219, 2.88868, 2.259543, 2.111226, 24.09435, 1.413236, 2.243529, 2.113362
 33020953, 23.02855, 1.687749, 2.172004, 2.097924, 25.48219, 2.88868, 2.259543, 2.111226
 33220873, 26.58788, 1.320639, 2.242589, 2.092844, 23.02855, 1.687749, 2.172004, 2.097924
 33420793, 26.08571, 0.01347506, 2.20204, 2.084109, 26.58788, 1.320639, 2.242589, 2.092844
 33620713, 26.92196, 0.6282506, 2.203676, 2.074347, 26.08571, 0.01347506, 2.20204, 2.084109
 33820633, 26.44313, 0.1885437, 2.166379, 2.062849, 26.92196, 0.6282506, 2.203676, 2.074347
 34020553, 25.18243, 0.2760034, 2.110589, 2.044492, 26.44313, 0.1885437, 2.166379, 2.062849
 34220473, 25.92952, 1.008548, 2.109057, 2.032524, 25.18243, 0.2760034, 2.110589, 2.044492
 34420393, 27.26994, 2.216092, 2.133785, 2.016269, 25.92952, 1.008548, 2.109057, 2.032524
 34620313, 24.61032, 2.120755, 2.038981, 1.9934, 27.26994, 2.216092, 2.133785, 2.016269
 34820233, 26.3858, 1.805802, 2.069999, 1.979197, 24.61032, 2.120755, 2.038981, 1.9934
 35020153, 25.22401, 2.003119, 2.020535, 1.955889, 26.3858, 1.805802, 2.069999, 1.979197
 35220906, 27.13298, 0.7950093, 2.055397, 1.94436, 25.22401, 2.003119, 2.020535, 1.955889
 35420826, 25.22555, 1.049841, 1.990981, 1.912149, 27.13298, 0.7950093, 2.055397, 1.94436
 35620746, 26.96493, 1.335497, 2.027599, 1.897081, 25.22555, 1.049841, 1.990981, 1.912149
 35820666, 26.21859, 3.268917, 1.994478, 1.877286, 26.96493, 1.335497, 2.027599, 1.897081
 36020586, 25.61655, 1.378659, 1.960083, 1.852409, 26.21859, 3.268917, 1.994478, 1.877286
 36220506, 25.77833, 1.174567, 1.95453, 1.829228, 25.61655, 1.378659, 1.960083, 1.852409
 36420426, 27.82336, 0.9359221, 2.006356, 1.812219, 25.77833, 1.174567, 1.95453, 1.829228
 36620346, 27.17163, 0.7730547, 1.97566, 1.786927, 27.82336, 0.9359221, 2.006356, 1.812219
 36820266, 26.50138, 1.526956, 1.943496, 1.765907, 27.17163, 0.7730547, 1.97566, 1.786927
 37020186, 26.05177, 3.444215, 1.92546, 1.743287, 26.50138, 1.526956, 1.943496, 1.765907
 37220939, 26.06284, 2.949824, 1.912915, 1.721118, 26.05177, 3.444215, 1.92546, 1.743287
 37420859, 26.76936, 1.629743, 1.925404, 1.699306, 26.06284, 2.949824, 1.912915, 1.721118
 37620779, 26.43364, 2.345172, 1.911205, 1.676949, 26.76936, 1.629743, 1.925404, 1.699306
 37820699, 28.29635, 1.318429, 1.961488, 1.665449, 26.43364, 2.345172, 1.911205, 1.676949
 38020619, 26.07043, 3.075176, 1.883196, 1.647996, 28.29635, 1.318429, 1.961488, 1.665449
 38220539, 28.64788, 2.337259, 1.961811, 1.635599, 26.07043, 3.075176, 1.883196, 1.647996
 38420459, 27.25398, 1.635748, 1.906576, 1.617165, 28.64788, 2.337259, 1.961811, 1.635599
 38620379, 27.10042, 0.5576053, 1.891134, 1.604925, 27.25398, 1.635748, 1.906576, 1.617165
 38820299, 28.02732, 0.9779791, 1.916005, 1.593098, 27.10042, 0.5576053, 1.891134, 1.604925
 39020219, 27.2357, 2.185505, 1.886041, 1.577291, 28.02732, 0.9779791, 1.916005, 1.593098
 39220972, 26.80891, 2.086414, 1.866716, 1.564084, 27.2357, 2.185505, 1.886041, 1.577291
 39420892, 27.59852, 2.32196, 1.888139, 1.557387, 26.80891, 2.086414, 1.866716, 1.564084
 39620812, 27.57105, 2.572631, 1.88209, 1.547586, 27.59852, 2.32196, 1.888139, 1.557387
 39820732, 27.86241, 1.360514, 1.883165, 1.540237, 27.57105, 2.572631, 1.88209, 1.547586
 40020652, 26.89222, 1.560815, 1.846048, 1.528884, 27.86241, 1.360514, 1.883165, 1.540237
 40220572, 27.66595, 1.739075, 1.86721, 1.523715, 26.89222, 1.560815, 1.846048, 1.528884
 40420492, 26.63466, 1.056711, 1.827372, 1.511124, 27.66595, 1.739075, 1.86721, 1.523715
 40620412, 27.67994, 1.189904, 1.859332, 1.507452, 26.63466, 1.056711, 1.827372, 1.511124
 40820332, 26.8949, 0.5023223, 1.827206, 1.499748, 27.67994, 1.189904, 1.859332, 1.507452
 41020252, 27.56856, 0.9377757, 1.849649, 1.498539, 26.8949, 0.5023223, 1.827206, 1.499748
 41220172, 26.93822, 1.738931, 1.831726, 1.499524, 27.56856, 0.9377757, 1.849649, 1.498539
 41420925, 28.85929, 1.148518, 1.901615, 1.509543, 26.93822, 1.738931, 1.831726, 1.499524
 41620845, 27.98484, 0.9371142, 1.873003, 1.512759, 28.85929, 1.148518, 1.901615, 1.509543
 41820765, 29.26601, 1.094628, 1.919345, 1.524566, 27.98484, 0.9371142, 1.873003, 1.512759
 42020685, 28.32268, 1.883896, 1.89205, 1.526679, 29.26601, 1.094628, 1.919345, 1.524566
 42220605, 27.47093, 1.65676, 1.86407, 1.531739, 28.32268, 1.883896, 1.89205, 1.526679
 42420525, 28.97967, 2.064844, 1.92253, 1.543931, 27.47093, 1.65676, 1.86407, 1.531739
 42620445, 29.01789, 2.717676, 1.929359, 1.554149, 28.97967, 2.064844, 1.92253, 1.543931
 42820365, 27.90823, 3.140978, 1.896811, 1.557835, 29.01789, 2.717676, 1.929359, 1.554149
 43020285, 27.14056, 2.533523, 1.871633, 1.564552, 27.90823, 3.140978, 1.896811, 1.557835
 43220205, 27.50568, 2.758854, 1.888753, 1.575075, 27.14056, 2.533523, 1.871633, 1.564552
 43420958, 27.47316, 1.558577, 1.890784, 1.581629, 27.50568, 2.758854, 1.888753, 1.575075
 43620878, 28.29573, 3.087603, 1.928355, 1.593629, 27.47316, 1.558577, 1.890784, 1.581629
 43820798, 28.90058, 0.9456141, 1.94961, 1.604429, 28.29573, 3.087603, 1.928355, 1.593629
 44020718, 29.60489, 1.351479, 1.981018, 1.616448, 28.90058, 0.9456141, 1.94961, 1.604429
 44220638, 27.28939, 1.560687, 1.906846, 1.619875, 29.60489, 1.351479, 1.981018, 1.616448
 44420558, 27.1068, 2.513498, 1.910127, 1.628057, 27.28939, 1.560687, 1.906846, 1.619875
 44620478, 27.57781, 3.090363, 1.930356, 1.645588, 27.1068, 2.513498, 1.910127, 1.628057
 44820398, 29.522, 2.951709, 2.002138, 1.662848, 27.57781, 3.090363, 1.930356, 1.645588
 45020318, 27.9439, 1.706044, 1.953911, 1.668458, 29.522, 2.951709, 2.002138, 1.662848
 45220238, 27.9241, 1.212454, 1.956645, 1.682515, 27.9439, 1.706044, 1.953911, 1.668458
 45420158, 27.29471, 3.055992, 1.94853, 1.6916, 27.9241, 1.212454, 1.956645, 1.682515
 45620911, 27.59055, 1.698019, 1.962846, 1.702723, 27.29471, 3.055992, 1.94853, 1.6916
 45820831, 29.8511, 1.955215, 2.045144, 1.722896, 27.59055, 1.698019, 1.962846, 1.702723
 46020751, 29.22244, 3.32134, 2.036631, 1.733145, 29.8511, 1.955215, 2.045144, 1.722896
 46220671, 28.62327, 2.712591, 2.023347, 1.742807, 29.22244, 3.32134, 2.036631, 1.733145
 46420591, 27.58263, 2.884719, 2.000701, 1.750874, 28.62327, 2.712591, 2.023347, 1.742807
 46620511, 29.08338, 1.530659, 2.056554, 1.765599, 27.58263, 2.884719, 2.000701, 1.750874
 46820431, 28.38244, 2.415519, 2.047163, 1.77254, 29.08338, 1.530659, 2.056554, 1.765599
 47020351, 28.44103, 0.6445266, 2.055796, 1.78156, 28.38244, 2.415519, 2.047163, 1.77254
 47220271, 26.83681, 2.414005, 2.019238, 1.788385, 28.44103, 0.6445266, 2.055796, 1.78156
 47420191, 28.76352, 2.144537, 2.089853, 1.803615, 26.83681, 2.414005, 2.019238, 1.788385
 47620944, 28.28816, 1.793371, 2.080604, 1.816834, 28.76352, 2.144537, 2.089853, 1.803615
 47820864, 28.40271, 1.245898, 2.095184, 1.825183, 28.28816, 1.793371, 2.080604, 1.816834
 48020784, 29.8828, 2.655716, 2.151769, 1.841258, 28.40271, 1.245898, 2.095184, 1.825183
 48220704, 27.26013, 0.2926753, 2.065962, 1.842047, 29.8828, 2.655716, 2.151769, 1.841258
 48420624, 29.50794, 1.249422, 2.143139, 1.847266, 27.26013, 0.2926753, 2.065962, 1.842047
 48620544, 27.17031, 2.013731, 2.071316, 1.844472, 29.50794, 1.249422, 2.143139, 1.847266
 48820464, 29.86635, 0.3733139, 2.160454, 1.848404, 27.17031, 2.013731, 2.071316, 1.844472
 49020384, 29.63124, 2.957521, 2.1615, 1.848591, 29.86635, 0.3733139, 2.160454, 1.848404
 49220304, 29.31152, 2.423006, 2.151144, 1.850436, 29.63124, 2.957521, 2.1615, 1.848591
 49420224, 28.43473, 1.193175, 2.12527, 1.847422, 29.31152, 2.423006, 2.151144, 1.850436
 49620977, 29.72528, 3.149803, 2.171665, 1.853013, 28.43473, 1.193175, 2.12527, 1.847422
 49820897, 27.76402, 1.634833, 2.110634, 1.847352, 29.72528, 3.149803, 2.171665, 1.853013
 50020817, 27.79153, 1.870996, 2.112985, 1.850824, 27.76402, 1.634833, 2.110634, 1.847352
 50220737, 27.86517, 2.52497, 2.121056, 1.851758, 27.79153, 1.870996, 2.112985, 1.850824
 50420657, 28.67056, 3.171731, 2.14914, 1.857869, 27.86517, 2.52497, 2.121056, 1.851758
 50620577, 28.57166, 2.410645, 2.145209, 1.859411, 28.67056, 3.171731, 2.14914, 1.857869
 50820497, 30.30991, 1.225587, 2.200977, 1.864982, 28.57166, 2.410645, 2.145209, 1.859411
 51020417, 28.03098, 2.642515, 2.135056, 1.860037, 30.30991, 1.225587, 2.200977, 1.864982
 51220337, 27.72559, 1.469211, 2.125418, 1.859131, 28.03098, 2.642515, 2.135056, 1.860037
 51420257, 28.44418, 0.4622201, 2.146347, 1.865937, 27.72559, 1.469211, 2.125418, 1.859131
 51620177, 27.35472, 2.900016, 2.119512, 1.860286, 28.44418, 0.4622201, 2.146347, 1.865937
 51820930, 28.40646, -0.03642583, 2.146654, 1.857486, 27.35472, 2.900016, 2.119512, 1.860286
 52020850, 29.92846, 0.8440481, 2.192385, 1.855729, 28.40646, -0.03642583, 2.146654, 1.857486
 52220770, 29.02831, 2.984099, 2.165155, 1.849871, 29.92846, 0.8440481, 2.192385, 1.855729
 52420690, 28.26064, 0.09736347, 2.132833, 1.844536, 29.02831, 2.984099, 2.165155, 1.849871
 52620610, 28.89776, 0.5620903, 2.151464, 1.840104, 28.26064, 0.09736347, 2.132833, 1.844536
 52820530, 29.8942, 1.902542, 2.186557, 1.834357, 28.89776, 0.5620903, 2.151464, 1.840104
 53020450, 27.94507, 1.825074, 2.119045, 1.82967, 29.8942, 1.902542, 2.186557, 1.834357
 53220370, 28.98732, 0.9029048, 2.147058, 1.827479, 27.94507, 1.825074, 2.119045, 1.82967
 53420290, 28.26035, 0.7881756, 2.121222, 1.820668, 28.98732, 0.9029048, 2.147058, 1.827479
 53620210, 30.16722, 1.226239, 2.178691, 1.820538, 28.26035, 0.7881756, 2.121222, 1.820668
 53820963, 29.25825, 0.08316731, 2.144067, 1.81641, 30.16722, 1.226239, 2.178691, 1.820538
 54020883, 29.46687, 2.365176, 2.156427, 1.807843, 29.25825, 0.08316731, 2.144067, 1.81641
 54220803, 28.68144, 2.822883, 2.130024, 1.800556, 29.46687, 2.365176, 2.156427, 1.807843
 54420723, 30.25043, 1.253598, 2.176571, 1.797169, 28.68144, 2.822883, 2.130024, 1.800556
 54620643, 27.70153, 2.363963, 2.091995, 1.789097, 30.25043, 1.253598, 2.176571, 1.797169
 54820563, 27.88553, 1.478042, 2.090301, 1.785927, 27.70153, 2.363963, 2.091995, 1.789097
 55020483, 28.85762, 0.7611206, 2.123827, 1.78293, 27.88553, 1.478042, 2.090301, 1.785927
 55220403, 28.85796, 0.9845439, 2.127801, 1.786055, 28.85762, 0.7611206, 2.123827, 1.78293
 55420323, 28.23792, 1.611653, 2.113223, 1.790413, 28.85796, 0.9845439, 2.127801, 1.786055
 55620243, 29.37607, 1.814399, 2.15601, 1.796415, 28.23792, 1.611653, 2.113223, 1.790413
 55820163, 27.98615, 0.03206229, 2.109411, 1.805691, 29.37607, 1.814399, 2.15601, 1.796415
 56020916, 29.77746, 0.9818441, 2.17244, 1.813801, 27.98615, 0.03206229, 2.109411, 1.805691
 56220836, 28.50608, 0.2045133, 2.137559, 1.815405, 29.77746, 0.9818441, 2.17244, 1.813801
 56420756, 28.56269, 0.04410326, 2.144938, 1.82174, 28.50608, 0.2045133, 2.137559, 1.815405
 56620676, 27.99809, 2.595554, 2.135663, 1.827518, 28.56269, 0.04410326, 2.144938, 1.82174
 56820596, 27.27499, 0.6052896, 2.111715, 1.83522, 27.99809, 2.595554, 2.135663, 1.827518
 57020516, 27.69346, 1.144471, 2.13097, 1.841261, 27.27499, 0.6052896, 2.111715, 1.83522
 57220436, 28.06017, 2.170791, 2.149079, 1.847993, 27.69346, 1.144471, 2.13097, 1.841261
 57420356, 29.33873, 1.136906, 2.19092, 1.85799, 28.06017, 2.170791, 2.149079, 1.847993
 57620276, 27.43936, 1.572839, 2.142092, 1.857548, 29.33873, 1.136906, 2.19092, 1.85799
 57820196, 29.39459, 2.881233, 2.210204, 1.870828, 27.43936, 1.572839, 2.142092, 1.857548
 58020949, 27.61673, 2.688257, 2.157533, 1.877002, 29.39459, 2.881233, 2.210204, 1.870828
 58220869, 28.12414, 1.157307, 2.175694, 1.882781, 27.61673, 2.688257, 2.157533, 1.877002
 58420789, 28.09563, 0.7486421, 2.179371, 1.888653, 28.12414, 1.157307, 2.175694, 1.882781
 58620709, 29.11344, 0.3057791, 2.215204, 1.897673, 28.09563, 0.7486421, 2.179371, 1.888653
 58820629, 27.73007, 1.377941, 2.181317, 1.898524, 29.11344, 0.3057791, 2.215204, 1.897673
 59020549, 28.75022, 1.87156, 2.214586, 1.91337, 27.73007, 1.377941, 2.181317, 1.898524
 59220469, 30.21474, 3.010787, 2.266667, 1.92646, 28.75022, 1.87156, 2.214586, 1.91337
 59420389, 29.36965, 1.588212, 2.244507, 1.930119, 30.21474, 3.010787, 2.266667, 1.92646
 59620309, 29.58059, 1.557157, 2.256819, 1.935382, 29.36965, 1.588212, 2.244507, 1.930119
 59820229, 30.03543, 1.643658, 2.275353, 1.942421, 29.58059, 1.557157, 2.256819, 1.935382
 60020149, 28.34681, 3.002512, 2.229701, 1.947677, 30.03543, 1.643658, 2.275353, 1.942421
 60220902, 29.45065, 0.3045186, 2.269561, 1.948988, 28.34681, 3.002512, 2.229701, 1.947677
 60420822, 28.69392, -0.2481309, 2.248177, 1.957882, 29.45065, 0.3045186, 2.269561, 1.948988
 60620742, 29.7156, -0.08899772, 2.286422, 1.964626, 28.69392, -0.2481309, 2.248177, 1.957882
 60820662, 28.65005, 2.020069, 2.263813, 1.967654, 29.7156, -0.08899772, 2.286422, 1.964626
 61020582, 30.03493, 2.347129, 2.313849, 1.973876, 28.65005, 2.020069, 2.263813, 1.967654
 61220502, 30.07026, 0.5028098, 2.314992, 1.98327, 30.03493, 2.347129, 2.313849, 1.973876
 61420422, 27.56865, 2.877393, 2.250391, 1.984251, 30.07026, 0.5028098, 2.314992, 1.98327
 61620342, 30.46052, 1.769055, 2.343985, 1.990351, 27.56865, 2.877393, 2.250391, 1.984251
 61820262, 28.98021, 0.3875816, 2.303494, 1.993379, 30.46052, 1.769055, 2.343985, 1.990351
 62020182, 28.20188, 1.800987, 2.282248, 1.995841, 28.98021, 0.3875816, 2.303494, 1.993379
 62220935, 28.39856, 2.936299, 2.257588, 2.049966, 28.20188, 1.800987, 2.282248, 1.995841
 62420855, 31.09943, 3.616974, 2.338442, 2.219683, 28.39856, 2.936299, 2.257588, 2.049966
 62620775, 33.09648, 4.654518, 2.487419, 2.622825, 31.09943, 3.616974, 2.338442, 2.219683
 62820695, 32.89434, 3.239301, 2.984401, 3.7441, 33.09648, 4.654518, 2.487419, 2.622825
 63020615, 32.82056, 5.46941, 3.24954, 4.937735, 32.89434, 3.239301, 2.984401, 3.7441
 63220535, 22.97098, 11.53131, 2.483012, 5.182172, 32.82056, 5.46941, 3.24954, 4.937735
 63420455, 22.20765, 7.421257, 1.554721, 4.984338, 22.97098, 11.53131, 2.483012, 5.182172
 63620375, 21.29075, 13.77422, 0.9103442, 4.849001, 22.20765, 7.421257, 1.554721, 4.984338
 63820295, 16.53131, 16.55013, 0.4175758, 4.822824, 21.29075, 13.77422, 0.9103442, 4.849001
 64020215, 17.80074, 21.91169, 0.03792572, 4.842542, 16.53131, 16.55013, 0.4175758, 4.822824
 64220968, 15.13051, 22.34525, -0.3469329, 4.774848, 17.80074, 21.91169, 0.03792572, 4.842542
 64420888, 14.40321, 16.13335, -0.7390566, 4.667665, 15.13051, 22.34525, -0.3469329, 4.774848
 64620808, 12.73287, 22.38381, -1.100045, 4.569782, 14.40321, 16.13335, -0.7390566, 4.667665
 64820728, 13.67355, 21.62721, -1.471865, 4.416227, 12.73287, 22.38381, -1.100045, 4.569782
 65020648, 10.41338, 22.14397, -1.823953, 4.252557, 13.67355, 21.62721, -1.471865, 4.416227
 65220568, 7.285849, 22.41462, -2.158023, 4.055391, 10.41338, 22.14397, -1.823953, 4.252557
 65420488, 3.663609, 18.57668, -2.468559, 3.803929, 7.285849, 22.41462, -2.158023, 4.055391
 65620408, 1.111699, 19.86736, -2.763078, 3.579215, 3.663609, 18.57668, -2.468559, 3.803929
 65820328, -1.978508, 19.45652, -3.036885, 3.328215, 1.111699, 19.86736, -2.763078, 3.579215
 66020248, 0.8537353, 22.64866, -3.296747, 3.082109, -1.978508, 19.45652, -3.036885, 3.328215
 66220168, -3.584363, 21.9739, -3.546202, 2.796162, 0.8537353, 22.64866, -3.296747, 3.082109
 66420921, -4.852252, 23.74729, -3.767853, 2.501128, -3.584363, 21.9739, -3.546202, 2.796162
 66620841, -5.309335, 19.52137, -3.94947, 2.145484, -4.852252, 23.74729, -3.767853, 2.501128
 66820761, -10.26376, 18.91079, -4.09982, 1.812964, -5.309335, 19.52137, -3.94947, 2.145484
 67020681, -8.243266, 23.54713, -4.222444, 1.499499, -10.26376, 18.91079, -4.09982, 1.812964
 67220601, -13.04095, 17.95643, -4.278501, 1.153923, -8.243266, 23.54713, -4.222444, 1.499499
 67420521, -10.06215, 17.74164, -4.304782, 0.8190711, -13.04095, 17.95643, -4.278501, 1.153923
 67620441, -14.72512, 14.57353, -4.296077, 0.5033259, -10.06215, 17.74164, -4.304782, 0.8190711
 67820361, -15.45969, 14.00336, -4.242437, 0.2124884, -14.72512, 14.57353, -4.296077, 0.5033259
 68020281, -18.40579, 14.98983, -4.177058, -0.0112772, -15.45969, 14.00336, -4.242437, 0.2124884
 68220201, -17.60838, 17.63203, -4.082979, -0.2174728, -18.40579, 14.98983, -4.177058, -0.0112772
 68420954, -20.10043, 15.30404, -3.980928, -0.3938628, -17.60838, 17.63203, -4.082979, -0.2174728
 68620874, -18.84204, 12.07217, -3.85178, -0.5972973, -20.10043, 15.30404, -3.980928, -0.3938628
 68820794, -18.61931, 13.6011, -3.755469, -0.7408973, -18.84204, 12.07217, -3.85178, -0.5972973
 69020714, -20.99819, 14.3577, -3.675336, -0.8624793, -18.61931, 13.6011, -3.755469, -0.7408973
 69220634, -19.32469, 10.49799, -3.472052, -0.9934015, -20.99819, 14.3577, -3.675336, -0.8624793
 69420554, -19.45823, 11.48023, -3.362419, -1.085625, -19.32469, 10.49799, -3.472052, -0.9934015
 69620474, -22.14274, 8.161574, -3.277391, -1.160168, -19.45823, 11.48023, -3.362419, -1.085625
 69820394, -22.87816, 9.988214, -3.207099, -1.239035, -22.14274, 8.161574, -3.277391, -1.160168
 70020314, -23.15826, 9.086838, -3.116446, -1.318126, -22.87816, 9.988214, -3.207099, -1.239035
 70220234, -24.49631, 7.175408, -3.041631, -1.375781, -23.15826, 9.086838, -3.116446, -1.318126
 70420154, -21.88852, 7.225829, -2.903083, -1.454387, -24.49631, 7.175408, -3.041631, -1.375781
 70620907, -25.52721, 6.148602, -2.893064, -1.48815, -21.88852, 7.225829, -2.903083, -1.454387
 70820827, -23.32024, 6.720441, -2.771334, -1.548134, -25.52721, 6.148602, -2.893064, -1.48815
 71020747, -24.24197, 4.854304, -2.711551, -1.585562, -23.32024, 6.720441, -2.771334, -1.548134
 71220667, -27.06717, 5.660932, -2.723562, -1.608081, -24.24197, 4.854304, -2.711551, -1.585562
 71420587, -25.25787, 3.608588, -2.612468, -1.642295, -27.06717, 5.660932, -2.723562, -1.608081
 71620507, -24.70687, 4.831627, -2.544104, -1.683488, -25.25787, 3.608588, -2.612468, -1.642295
 71820427, -27.9318, 1.299441, -2.56865, -1.703391, -24.70687, 4.831627, -2.544104, -1.683488
 72020347, -24.79113, 3.526738, -2.444513, -1.729814, -27.9318, 1.299441, -2.56865, -1.703391
 72220267, -27.287, 3.043735, -2.473972, -1.737941, -24.79113, 3.526738, -2.444513, -1.729814
 72420187, -25.7897, 2.706227, -2.391396, -1.756015, -27.287, 3.043735, -2.473972, -1.737941
 72620940, -25.80946, 1.024881, -2.351838, -1.768856, -25.7897, 2.706227, -2.391396, -1.756015
 72820860, -28.75501, 1.914599, -2.403516, -1.779016, -25.80946, 1.024881, -2.351838, -1.768856
 73020780, -27.53607, 1.706561, -2.335163, -1.790739, -28.75501, 1.914599, -2.403516, -1.779016
 73220700, -26.75101, -1.10346, -2.282696, -1.797444, -27.53607, 1.706561, -2.335163, -1.790739
 73420620, -28.21867, -1.355427, -2.302006, -1.801236, -26.75101, -1.10346, -2.282696, -1.797444
 73620540, -28.1834, 0.1962983, -2.274684, -1.807868, -28.21867, -1.355427, -2.302006, -1.801236
 73820460, -29.37412, 1.448303, -2.294101, -1.814821, -28.1834, 0.1962983, -2.274684, -1.807868
 74020380, -26.92803, 0.283343, -2.203742, -1.818116, -29.37412, 1.448303, -2.294101, -1.814821
 74220300, -27.80783, -0.9824033, -2.215966, -1.823611, -26.92803, 0.283343, -2.203742, -1.818116
 74420220, -28.61568, -1.21356, -2.226208, -1.830675, -27.80783, -0.9824033, -2.215966, -1.823611
 74620973, -26.70986, 0.8759859, -2.156694, -1.833369, -28.61568, -1.21356, -2.226208, -1.830675
 74820893, -29.4635, -1.181847, -2.22984, -1.84225, -26.70986, 0.8759859, -2.156694, -1.833369
 75020813, -28.99021, 0.08042026, -2.205077, -1.84462, -29.4635, -1.181847, -2.22984, -1.84225
 75220733, -27.61685, 0.364345, -2.153204, -1.845617, -28.99021, 0.08042026, -2.205077, -1.84462
 75420653, -27.6874, -1.320743, -2.14781, -1.84812, -27.61685, 0.364345, -2.153204, -1.845617
 75620573, -26.80642, -2.52936, -2.114498, -1.850211, -27.6874, -1.320743, -2.14781, -1.84812
 75820493, -28.67474, -1.48612, -2.16308, -1.854612, -26.80642, -2.52936, -2.114498, -1.850211
 76020413, -26.66589, -1.604637, -2.09575, -1.851398, -28.67474, -1.48612, -2.16308, -1.854612
 76220333, -28.55328, -0.2280648, -2.145152, -1.855888, -26.66589, -1.604637, -2.09575, -1.851398
 76420253, -28.03575, -0.2425984, -2.119808, -1.859424, -28.55328, -0.2280648, -2.145152, -1.855888
 76620173, -28.80478, -2.686062, -2.148266, -1.856318, -28.03575, -0.2425984, -2.119808, -1.859424
 76820926, -28.54085, -2.789095, -2.135472, -1.857842, -28.80478, -2.686062, -2.148266, -1.856318
 77020846, -29.39143, -1.289896, -2.15807, -1.854968, -28.54085, -2.789095, -2.135472, -1.857842
 77220766, -27.85235, -2.792648, -2.104982, -1.854863, -29.39143, -1.289896, -2.15807, -1.854968
 77420686, -28.27937, -1.954337, -2.111671, -1.85259, -27.85235, -2.792648, -2.104982, -1.854863
 77620606, -28.77753, -2.918882, -2.126495, -1.850705, -28.27937, -1.954337, -2.111671, -1.85259
 77820526, -26.90295, -2.857265, -2.063831, -1.845146, -28.77753, -2.918882, -2.126495, -1.850705
 78020446, -27.57462, -0.2310952, -2.074734, -1.846432, -26.90295, -2.857265, -2.063831, -1.845146
 78220366, -28.43599, -3.424917, -2.104853, -1.847984, -27.57462, -0.2310952, -2.074734, -1.846432
 78420286, -29.13033, -1.27432, -2.118981, -1.849938, -28.43599, -3.424917, -2.104853, -1.847984
 78620206, -27.35701, -0.4844449, -2.05869, -1.846763, -29.13033, -1.27432, -2.118981, -1.849938
 78820959, -28.38495, -1.025707, -2.090799, -1.846473, -27.35701, -0.4844449, -2.05869, -1.846763
 79020879, -28.99023, -3.585872, -2.113045, -1.851879, -28.38495, -1.025707, -2.090799, -1.846473
 79220799, -28.23278, -3.368476, -2.087421, -1.850101, -28.99023, -3.585872, -2.113045, -1.851879
 79420719, -27.14137, -0.6601669, -2.04428, -1.849793, -28.23278, -3.368476, -2.087421, -1.850101
 79620639, -29.78785, -3.690441, -2.1334, -1.855534, -27.14137, -0.6601669, -2.04428, -1.849793
 79820559, -27.60036, -1.473924, -2.055454, -1.850539, -29.78785, -3.690441, -2.1334, -1.855534
 80020479, -27.98475, -0.6836466, -2.062671, -1.855222, -27.60036, -1.473924, -2.055454, -1.850539
 80220399, -29.56911, -2.46638, -2.121194, -1.857906, -27.98475, -0.6836466, -2.062671, -1.855222
 80420319, -29.76867, -2.997321, -2.128031, -1.861381, -29.56911, -2.46638, -2.121194, -1.857906
 80620239, -27.98862, -3.248392, -2.067513, -1.861908, -29.76867, -2.997321, -2.128031, -1.861381
 80820159, -27.67281, -2.627623, -2.052894, -1.859863, -27.98862, -3.248392, -2.067513, -1.861908
 81020912, -29.62971, -1.679632, -2.1096, -1.860534, -27.67281, -2.627623, -2.052894, -1.859863
 81220832, -28.12802, -2.861392, -2.059361, -1.853246, -29.62971, -1.679632, -2.1096, -1.860534
 81420752, -28.83544, -2.560517, -2.076185, -1.850878, -28.12802, -2.861392, -2.059361, -1.853246
 81620672, -27.61592, -2.410142, -2.034873, -1.84211, -28.83544, -2.560517, -2.076185, -1.850878
 81820592, -29.27008, -1.472415, -2.079901, -1.846985, -27.61592, -2.410142, -2.034873, -1.84211
 82020512, -28.34705, -2.238074, -2.050423, -1.838622, -29.27008, -1.472415, -2.079901, -1.846985
 82220432, -29.33084, -2.118052, -2.079855, -1.83682, -28.34705, -2.238074, -2.050423, -1.838622
 82420352, -28.47197, -0.9375561, -2.044533, -1.831684, -29.33084, -2.118052, -2.079855, -1.83682
 82620272, -29.20733, -2.071338, -2.068781, -1.827364, -28.47197, -0.9375561, -2.044533, -1.831684
 82820192, -27.04511, -2.764341, -1.997209, -1.817289, -29.20733, -2.071338, -2.068781, -1.827364
 83020945, -28.47343, -2.444755, -2.035855, -1.819536, -27.04511, -2.764341, -1.997209, -1.817289
 83220865, -28.2377, -3.078274, -2.025322, -1.816108, -28.47343, -2.444755, -2.035855, -1.819536
 83420785, -27.57063, -1.222149, -1.994664, -1.811836, -28.2377, -3.078274, -2.025322, -1.816108
 83620705, -27.74723, -3.602834, -2.003561, -1.809677, -27.57063, -1.222149, -1.994664, -1.811836
 83820625, -29.56475, -3.336616, -2.061054, -1.80846, -27.74723, -3.602834, -2.003561, -1.809677
 84020545, -27.96817, -2.724636, -2.001981, -1.80064, -29.56475, -3.336616, -2.061054, -1.80846
 84220465, -29.5094, -2.652768, -2.049678, -1.79869, -27.96817, -2.724636, -2.001981, -1.80064
 84420385, -29.92909, -2.096297, -2.060166, -1.793797, -29.5094, -2.652768, -2.049678, -1.79869
 84620305, -29.60022, -3.986906, -2.053067, -1.789904, -29.92909, -2.096297, -2.060166, -1.793797
 84820225, -27.58716, -1.799479, -1.976136, -1.780922, -29.60022, -3.986906, -2.053067, -1.789904
 85020145, -28.7829, -3.820454, -2.019163, -1.782363, -27.58716, -1.799479, -1.976136, -1.780922
 85220898, -27.29841, -2.350116, -1.960915, -1.776913, -28.7829, -3.820454, -2.019163, -1.782363
 85420818, -28.16294, -1.083732, -1.981814, -1.775661, -27.29841, -2.350116, -1.960915, -1.776913
 85620738, -28.7417, -3.537196, -2.006586, -1.771936, -28.16294, -1.083732, -1.981814, -1.775661
 85820658, -27.48395, -1.489948, -1.955482, -1.764649, -28.7417, -3.537196, -2.006586, -1.771936
 86020578, -29.35122, -2.712485, -2.01607, -1.768098, -27.48395, -1.489948, -1.955482, -1.764649
 86220498, -29.95406, -2.672165, -2.031985, -1.765521, -29.35122, -2.712485, -2.01607, -1.768098
 86420418, -29.72051, -2.598715, -2.020024, -1.758952, -29.95406, -2.672165, -2.031985, -1.765521
 86620338, -29.67395, -2.022287, -2.012636, -1.752905, -29.72051, -2.598715, -2.020024, -1.758952
 86820258, -29.79103, -3.370126, -2.016921, -1.748277, -29.67395, -2.022287, -2.012636, -1.752905
 87020178, -27.55624, -2.076627, -1.933611, -1.737059, -29.79103, -3.370126, -2.016921, -1.748277
 87220931, -27.78399, -3.197548, -1.94127, -1.73133, -27.55624, -2.076627, -1.933611, -1.737059
 87420851, -28.50751, -3.067955, -1.959687, -1.727108, -27.78399, -3.197548, -1.94127, -1.73133
 87620771, -29.45481, -1.591491, -1.983699, -1.722552, -28.50751, -3.067955, -1.959687, -1.727108
 87820691, -29.97847, -2.417352, -2.001719, -1.718587, -29.45481, -1.591491, -1.983699, -1.722552
 88020611, -27.95685, -1.693791, -1.9308, -1.710558, -29.97847, -2.417352, -2.001719, -1.718587
 88220531, -28.08836, -2.375516, -1.934631, -1.709702, -27.95685, -1.693791, -1.9308, -1.710558
 88420451, -28.92085, -1.55833, -1.9612, -1.710075, -28.08836, -2.375516, -1.934631, -1.709702
 88620371, -27.60191, -2.686463, -1.916199, -1.705799, -28.92085, -1.55833, -1.9612, -1.710075
 88820291, -28.03035, -1.378166, -1.925994, -1.704476, -27.60191, -2.686463, -1.916199, -1.705799
 89020211, -28.20643, -3.777781, -1.938511, -1.704477, -28.03035, -1.378166, -1.925994, -1.704476
 89220964, -28.26408, -3.516267, -1.93763, -1.706098, -28.20643, -3.777781, -1.938511, -1.704477
 89420884, -27.13338, -3.454488, -1.90251, -1.699348, -28.26408, -3.516267, -1.93763, -1.706098
 89620804, -28.62865, -3.674133, -1.951612, -1.703017, -27.13338, -3.454488, -1.90251, -1.699348
 89820724, -28.80798, -1.936092, -1.953012, -1.699885, -28.62865, -3.674133, -1.951612, -1.703017
 90020644, -28.89876, -3.502124, -1.95768, -1.701102, -28.80798, -1.936092, -1.953012, -1.699885
 90220564, -28.31159, -2.870489, -1.935547, -1.697088, -28.89876, -3.502124, -1.95768, -1.701102
 90420484, -29.97756, -1.407293, -1.988296, -1.698587, -28.31159, -2.870489, -1.935547, -1.697088
 90620404, -27.46646, -1.509508, -1.90173, -1.689527, -29.97756, -1.407293, -1.988296, -1.698587
 90820324, -28.90442, -3.993041, -1.955982, -1.694062, -27.46646, -1.509508, -1.90173, -1.689527
 91020244, -28.73149, -1.259283, -1.941169, -1.689514, -28.90442, -3.993041, -1.955982, -1.694062
 91220164, -27.89825, -1.791133, -1.913579, -1.684932, -28.73149, -1.259283, -1.941169, -1.689514
 91420917, -27.28931, -1.300264, -1.895874, -1.68527, -27.89825, -1.791133, -1.913579, -1.684932
 91620837, -27.56185, -3.548206, -1.914942, -1.692963, -27.28931, -1.300264, -1.895874, -1.68527
 91820757, -27.39002, -3.552982, -1.910715, -1.701485, -27.56185, -3.548206, -1.914942, -1.692963
 92020677, -29.90151, -1.189239, -1.993611, -1.713794, -27.39002, -3.552982, -1.910715, -1.701485
 92220597, -27.57233, -3.952825, -1.925975, -1.714721, -29.90151, -1.189239, -1.993611, -1.713794
 92420517, -27.35222, -1.460593, -1.916323, -1.719153, -27.57233, -3.952825, -1.925975, -1.714721
 92620437, -28.91481, -2.582872, -1.976838, -1.728553, -27.35222, -1.460593, -1.916323, -1.719153
 92820357, -27.52991, -3.772711, -1.939123, -1.731326, -28.91481, -2.582872, -1.976838, -1.728553
 93020277, -29.79993, -4.084107, -2.015661, -1.748294, -27.52991, -3.772711, -1.939123, -1.731326
 93220197, -29.39941, -1.558643, -2.005817, -1.743011, -29.79993, -4.084107, -2.015661, -1.748294
 93420950, -27.61416, -3.467453, -1.961005, -1.743702, -29.39941, -1.558643, -2.005817, -1.743011
 93620870, -29.51129, -3.301702, -2.038455, -1.761338, -27.61416, -3.467453, -1.961005, -1.743702
 93820790, -28.92843, -0.4920197, -2.035582, -1.789025, -29.51129, -3.301702, -2.038455, -1.761338
 94020710, -29.75062, -1.420226, -2.097424, -1.814999, -28.92843, -0.4920197, -2.035582, -1.789025
 94220630, -27.16104, 0.3685253, -2.080081, -1.825048, -29.75062, -1.420226, -2.097424, -1.814999
 94420550, -28.7044, -1.375445, -2.193212, -1.824188, -27.16104, 0.3685253, -2.080081, -1.825048
 94620470, -29.29365, 1.01853, -2.29437, -1.806529, -28.7044, -1.375445, -2.193212, -1.824188
 94820390, -26.97874, 0.2105716, -2.334638, -1.788061, -29.29365, 1.01853, -2.29437, -1.806529
 95020310, -25.6529, 3.549362, -2.42197, -1.733471, -26.97874, 0.2105716, -2.334638, -1.788061
 95220230, -27.38537, 5.582513, -2.572896, -1.64892, -25.6529, 3.549362, -2.42197, -1.733471
 95420150, -27.99418, 3.863023, -2.718745, -1.561901, -27.38537, 5.582513, -2.572896, -1.64892
 95620903, -23.99909, 6.248387, -2.851151, -1.489041, -27.99418, 3.863023, -2.718745, -1.561901
 95820823, -24.81268, 7.908238, -3.053328, -1.364004, -23.99909, 6.248387, -2.851151, -1.489041
 96020743, -23.72356, 9.13727, -3.184426, -1.221036, -24.81268, 7.908238, -3.053328, -1.364004
 96220663, -23.11869, 12.72243, -3.305787, -1.050118, -23.72356, 9.13727, -3.184426, -1.221036
 96420583, -22.27102, 10.58682, -3.360096, -0.8767785, -23.11869, 12.72243, -3.305787, -1.050118
 96620503, -20.29979, 13.47492, -3.398004, -0.6830025, -22.27102, 10.58682, -3.360096, -0.8767785
 96820423, -23.73579, 13.83742, -3.445546, -0.4571373, -20.29979, 13.47492, -3.398004, -0.6830025
 97020343, -21.4543, 14.7908, -3.391373, -0.2865074, -23.73579, 13.83742, -3.445546, -0.4571373
 97220263, -20.46609, 16.57284, -3.320095, -0.1002543, -21.4543, 14.7908, -3.391373, -0.2865074
 97420183, -17.51619, 16.08712, -3.185375, 0.02685893, -20.46609, 16.57284, -3.320095, -0.1002543
 97620936, -16.68675, 16.09427, -3.067721, 0.1646192, -17.51619, 16.08712, -3.185375, 0.02685893
 97820856, -14.72467, 16.45305, -2.946283, 0.2760477, -16.68675, 16.09427, -3.067721, 0.1646192
 98020776, -17.00354, 16.80783, -2.904722, 0.4155605, -14.72467, 16.45305, -2.946283, 0.2760477
 98220696, -13.22346, 17.93711, -2.821435, 0.495116, -17.00354, 16.80783, -2.904722, 0.4155605
 98420616, -14.71548, 20.1219, -2.800552, 0.6363568, -13.22346, 17.93711, -2.821435, 0.495116
 98620536, -15.16798, 18.10225, -2.722877, 0.7021468, -14.71548, 20.1219, -2.800552, 0.6363568
 98820456, -13.47889, 21.69747, -2.695812, 0.8241086, -15.16798, 18.10225, -2.722877, 0.7021468
 99020376, -14.84086, 20.17571, -2.638004, 0.8758273, -13.47889, 21.69747, -2.695812, 0.8241086
 99220296, -14.12492, 20.88635, -2.592787, 0.9380423, -14.84086, 20.17571, -2.638004, 0.8758273
 99420216, -13.05632, 22.14799, -2.555696, 1.00966, -14.12492, 20.88635, -2.592787, 0.9380423
 99620969, -13.74111, 22.29523, -2.528019, 1.062543, -13.05632, 22.14799, -2.555696, 1.00966
 99820889, -12.28325, 23.52175, -2.502194, 1.109169, -13.74111, 22.29523, -2.528019, 1.062543
 100020809, -13.25263, 25.63321, -2.512609, 1.199445, -12.28325, 23.52175, -2.502194, 1.109169
 100220729, -13.9533, 25.11823, -2.494117, 1.216257, -13.25263, 25.63321, -2.512609, 1.199445
 100420649, -14.6844, 26.48923, -2.503634, 1.273029, -13.9533, 25.11823, -2.494117, 1.216257
 100620569, -12.40113, 25.27307, -2.466359, 1.218805, -14.6844, 26.48923, -2.503634, 1.273029
 100820489, -12.05814, 26.57165, -2.478935, 1.248247, -12.40113, 25.27307, -2.466359, 1.218805
 101020409, -12.43677, 27.02298, -2.487543, 1.260841, -12.05814, 26.57165, -2.478935, 1.248247
 101220329, -12.48138, 28.28874, -2.520744, 1.282275, -12.43677, 27.02298, -2.487543, 1.260841
 101420249, -13.91897, 26.19768, -2.531728, 1.230676, -12.48138, 28.28874, -2.520744, 1.282275
 101620169, -12.77281, 28.79064, -2.58658, 1.25424, -13.91897, 26.19768, -2.531728, 1.230676
 101820922, -14.62308, 28.22367, -2.617667, 1.236719, -12.77281, 28.79064, -2.58658, 1.25424
 102020842, -14.62948, 29.10577, -2.65705, 1.224762, -14.62308, 28.22367, -2.617667, 1.236719
 102220762, -12.78323, 26.78675, -2.650928, 1.116751, -14.62948, 29.10577, -2.65705, 1.224762
 102420682, -14.10287, 28.00737, -2.699481, 1.120615, -12.78323, 26.78675, -2.650928, 1.116751
 102620602, -16.7232, 26.31208, -2.727934, 1.072016, -14.10287, 28.00737, -2.699481, 1.120615
 102820522, -14.0072, 26.03274, -2.736385, 0.9888002, -16.7232, 26.31208, -2.727934, 1.072016
 103020442, -15.99979, 25.90367, -2.775242, 0.9570369, -14.0072, 26.03274, -2.736385, 0.9888002
 103220362, -17.41036, 24.56403, -2.793698, 0.8909919, -15.99979, 25.90367, -2.775242, 0.9570369
 103420282, -17.43479, 27.15557, -2.840618, 0.8834766, -17.41036, 24.56403, -2.793698, 0.8909919
 103620202, -16.51175, 24.34037, -2.816431, 0.7603071, -17.43479, 27.15557, -2.840618, 0.8834766
 103820955, -17.04564, 25.6038, -2.851204, 0.7260066, -16.51175, 24.34037, -2.816431, 0.7603071
 104020875, -18.76638, 22.885, -2.847319, 0.6373497, -17.04564, 25.6038, -2.851204, 0.7260066
 104220795, -20.05644, 24.35643, -2.888934, 0.6159149, -18.76638, 22.885, -2.847319, 0.6373497
 104420715, -19.26535, 22.65554, -2.864545, 0.5172765, -20.05644, 24.35643, -2.888934, 0.6159149
 104620635, -21.40104, 22.58612, -2.891839, 0.472517, -19.26535, 22.65554, -2.864545, 0.5172765
 104820555, -19.33669, 19.92276, -2.834863, 0.3465956, -21.40104, 22.58612, -2.891839, 0.472517
 105020475, -21.07531, 20.06995, -2.856448, 0.3037606, -19.33669, 19.92276, -2.834863, 0.3465956
 105220395, -21.12514, 22.21921, -2.881978, 0.2641783, -21.07531, 20.06995, -2.856448, 0.3037606
 105420315, -19.60053, 20.4775, -2.830878, 0.1612486, -21.12514, 22.21921, -2.881978, 0.2641783
 105620235, -23.31567, 18.7958, -2.850647, 0.127864, -19.60053, 20.4775, -2.830878, 0.1612486
 105820155, -20.97051, 17.55191, -2.790555, 0.0185312, -23.31567, 18.7958, -2.850647, 0.127864
 106020908, -22.03669, 17.90387, -2.806765, -0.02702069, -20.97051, 17.55191, -2.790555, 0.0185312
 106220828, -21.46214, 15.81018, -2.763717, -0.1180882, -22.03669, 17.90387, -2.806765, -0.02702069
 106420748, -24.28912, 16.07556, -2.812628, -0.1438613, -21.46214, 15.81018, -2.763717, -0.1180882
 106620668, -22.16382, 14.49999, -2.745785, -0.2492828, -24.28912, 16.07556, -2.812628, -0.1438613
 106820588, -23.20401, 16.14447, -2.773895, -0.2892218, -22.16382, 14.49999, -2.745785, -0.2492828
 107020508, -22.9126, 14.56933, -2.73412, -0.3729242, -23.20401, 16.14447, -2.773895, -0.2892218
 107220428, -22.11332, 13.61126, -2.690565, -0.4463661, -22.9126, 14.56933, -2.73412, -0.3729242
 107420348, -24.54489, 15.05862, -2.743643, -0.4683235, -22.11332, 13.61126, -2.690565, -0.4463661
 107620268, -25.34466, 13.87611, -2.731516, -0.5257019, -24.54489, 15.05862, -2.743643, -0.4683235
 107820188, -23.91934, 11.00888, -2.648482, -0.6186284, -25.34466, 13.87611, -2.731516, -0.5257019
 108020941, -25.13217, 10.92304, -2.661364, -0.6582662, -23.91934, 11.00888, -2.648482, -0.6186284
 108220861, -26.37617, 10.7907, -2.67707, -0.6974146, -25.13217, 10.92304, -2.661364, -0.6582662
 108420781, -24.95046, 11.34979, -2.627375, -0.774235, -26.37617, 10.7907, -2.67707, -0.6974146
 108620701, -23.95071, 9.477227, -2.563833, -0.8471566, -24.95046, 11.34979, -2.627375, -0.774235
 108820621, -25.74109, 10.79044, -2.607326, -0.8742299, -23.95071, 9.477227, -2.563833, -0.8471566
 109020541, -26.54399, 8.707648, -2.590528, -0.9223672, -25.74109, 10.79044, -2.607326, -0.8742299
 109220461, -24.53263, 8.435334, -2.516316, -0.989965, -26.54399, 8.707648, -2.590528, -0.9223672
 109420381, -25.07944, 7.571092, -2.504163, -1.036209, -24.53263, 8.435334, -2.516316, -0.989965
 109620301, -26.36752, 5.956433, -2.503551, -1.08597, -25.07944, 7.571092, -2.504163, -1.036209
 109820221, -27.03983, 5.805285, -2.501391, -1.13018, -26.36752, 5.956433, -2.503551, -1.08597
 110020974, -26.77808, 5.047916, -2.466089, -1.181818, -27.03983, 5.805285, -2.501391, -1.13018
 110220894, -26.18692, 6.372729, -2.433706, -1.231097, -26.77808, 5.047916, -2.466089, -1.181818
 110420814, -25.60325, 4.833216, -2.384374, -1.283845, -26.18692, 6.372729, -2.433706, -1.231097
 110620734, -26.72933, 3.575788, -2.388856, -1.324857, -25.60325, 4.833216, -2.384374, -1.283845
 110820654, -28.11224, 5.729364, -2.418325, -1.360509, -26.72933, 3.575788, -2.388856, -1.324857
 111020574, -27.22971, 4.296376, -2.360764, -1.405086, -28.11224, 5.729364, -2.418325, -1.360509
 111220494, -28.33131, 3.640887, -2.369184, -1.443623, -27.22971, 4.296376, -2.360764, -1.405086
 111420414, -28.11275, 3.609102, -2.336348, -1.49017, -28.33131, 3.640887, -2.369184, -1.443623
 111620334, -28.56266, 1.476648, -2.322122, -1.529544, -28.11275, 3.609102, -2.336348, -1.49017
 111820254, -25.69879, 1.467978, -2.209142, -1.575548, -28.56266, 1.476648, -2.322122, -1.529544
 112020174, -26.78159, 0.340176, -2.212152, -1.617787, -25.69879, 1.467978, -2.209142, -1.575548
 112220927, -26.84723, 2.053908, -2.188925, -1.655673, -26.78159, 0.340176, -2.212152, -1.617787
 112420847, -27.5751, 1.29278, -2.182476, -1.694675, -26.84723, 2.053908, -2.188925, -1.655673
 112620767, -27.17534, 0.1505766, -2.142728, -1.730771, -27.5751, 1.29278, -2.182476, -1.694675
 112820687, -26.35122, -1.740549, -2.091164, -1.769052, -27.17534, 0.1505766, -2.142728, -1.730771
 113020607, -26.23771, -1.384501, -2.060004, -1.80456, -26.35122, -1.740549, -2.091164, -1.769052
 113220527, -28.08761, -2.417423, -2.087062, -1.842641, -26.23771, -1.384501, -2.060004, -1.80456
 113420447, -26.9126, -1.853907, -2.016727, -1.873199, -28.08761, -2.417423, -2.087062, -1.842641
 113620367, -27.84713, -1.156734, -2.009039, -1.910434, -26.9126, -1.853907, -2.016727, -1.873199
 113820287, -28.31064, -2.622266, -1.997182, -1.939066, -27.84713, -1.156734, -2.009039, -1.910434
 114020207, -25.59932, -3.835518, -1.888004, -1.956267, -28.31064, -2.622266, -1.997182, -1.939066
 114220960, -27.25717, -2.373405, -1.89312, -1.995559, -25.59932, -3.835518, -1.888004, -1.956267
 114420880, -25.9677, -5.077348, -1.834107, -2.017291, -27.25717, -2.373405, -1.89312, -1.995559
 114620800, -27.66482, -3.967014, -1.847525, -2.050148, -25.9677, -5.077348, -1.834107, -2.017291
 114820720, -28.13379, -4.448249, -1.82565, -2.083088, -27.66482, -3.967014, -1.847525, -2.050148
 115020640, -25.81566, -5.050665, -1.72455, -2.094247, -28.13379, -4.448249, -1.82565, -2.083088
 115220560, -27.78782, -7.695937, -1.766609, -2.136232, -25.81566, -5.050665, -1.72455, -2.094247
 115420480, -26.67678, -6.951928, -1.694589, -2.149716, -27.78782, -7.695937, -1.766609, -2.136232
 115620400, -25.40508, -6.402279, -1.617579, -2.161661, -26.67678, -6.951928, -1.694589, -2.149716
 115820320, -26.18996, -7.596798, -1.604153, -2.199418, -25.40508, -6.402279, -1.617579, -2.161661
 116020240, -25.56439, -6.174993, -1.537306, -2.214665, -26.18996, -7.596798, -1.604153, -2.199418
 116220160, -25.73472, -8.818383, -1.532223, -2.240907, -25.56439, -6.174993, -1.537306, -2.214665
 116420913, -25.00568, -6.975319, -1.455687, -2.252527, -25.73472, -8.818383, -1.532223, -2.240907
 116620833, -24.80942, -8.838953, -1.429064, -2.276257, -25.00568, -6.975319, -1.455687, -2.252527
 116820753, -25.60122, -8.069484, -1.405246, -2.302403, -24.80942, -8.838953, -1.429064, -2.276257
 117020673, -26.89605, -10.1513, -1.425166, -2.342701, -25.60122, -8.069484, -1.405246, -2.302403
 117220593, -26.06109, -11.49023, -1.376084, -2.359928, -26.89605, -10.1513, -1.425166, -2.342701
 117420513, -24.44978, -12.08699, -1.29588, -2.366759, -26.06109, -11.49023, -1.376084, -2.359928
 117620433, -24.36578, -10.57944, -1.232979, -2.377747, -24.44978, -12.08699, -1.29588, -2.366759
 117820353, -24.52802, -12.01638, -1.216338, -2.40407, -24.36578, -10.57944, -1.232979, -2.377747
 118020273, -23.19398, -12.85622, -1.151549, -2.410677, -24.52802, -12.01638, -1.216338, -2.40407
 118220193, -25.65582, -12.41578, -1.165392, -2.456333, -23.19398, -12.85622, -1.151549, -2.410677
 118420946, -22.88493, -12.52106, -1.058207, -2.435648, -25.65582, -12.41578, -1.165392, -2.456333
 118620866, -25.0431, -14.14062, -1.091166, -2.491466, -22.88493, -12.52106, -1.058207, -2.435648
 118820786, -23.93993, -13.45528, -1.015871, -2.483741, -25.0431, -14.14062, -1.091166, -2.491466
 119020706, -23.52892, -15.03843, -0.9829875, -2.50537, -23.93993, -13.45528, -1.015871, -2.483741
 119220626, -22.99591, -12.79922, -0.893719, -2.492227, -23.52892, -15.03843, -0.9829875, -2.50537
 119420546, -22.45738, -14.60171, -0.8641579, -2.510636, -22.99591, -12.79922, -0.893719, -2.492227
 119620466, -22.96216, -14.97921, -0.8400381, -2.530853, -22.45738, -14.60171, -0.8641579, -2.510636
 119820386, -23.03591, -16.55426, -0.8246093, -2.55772, -22.96216, -14.97921, -0.8400381, -2.530853
 120020306, -21.88957, -16.70141, -0.7585088, -2.551225, -23.03591, -16.55426, -0.8246093, -2.55772
 120220226, -22.14491, -15.76817, -0.705492, -2.552805, -21.88957, -16.70141, -0.7585088, -2.551225
 120420146, -23.16019, -17.10906, -0.7064815, -2.591774, -22.14491, -15.76817, -0.705492, -2.552805
 120620899, -21.60267, -16.22917, -0.615473, -2.564839, -23.16019, -17.10906, -0.7064815, -2.591774
 120820819, -21.48519, -19.35056, -0.6183354, -2.61089, -21.60267, -16.22917, -0.615473, -2.564839
 121020739, -20.95986, -17.47888, -0.531219, -2.585546, -21.48519, -19.35056, -0.6183354, -2.61089
 121220659, -20.38038, -19.50792, -0.5091215, -2.611749, -20.95986, -17.47888, -0.531219, -2.585546
 121420579, -20.72954, -18.18642, -0.4542115, -2.603143, -20.38038, -19.50792, -0.5091215, -2.611749
 121620499, -20.60356, -19.17496, -0.4211571, -2.621183, -20.72954, -18.18642, -0.4542115, -2.603143
 121820419, -20.56255, -20.06609, -0.3909998, -2.639233, -20.60356, -19.17496, -0.4211571, -2.621183
 122020339, -18.97721, -20.03202, -0.3197479, -2.616095, -20.56255, -20.06609, -0.3909998, -2.639233
 122220259, -17.64441, -19.59198, -0.2503484, -2.588537, -18.97721, -20.03202, -0.3197479, -2.616095
 122420179, -18.23107, -21.41986, -0.2425456, -2.629531, -17.64441, -19.59198, -0.2503484, -2.588537
 122620932, -18.57813, -20.17965, -0.1811526, -2.612063, -18.23107, -21.41986, -0.2425456, -2.629531
 122820852, -18.15177, -20.8398, -0.1426098, -2.614761, -18.57813, -20.17965, -0.1811526, -2.612063
 123020772, -17.16971, -19.54975, -0.06574678, -2.572401, -18.15177, -20.8398, -0.1426098, -2.614761
 123220692, -17.63524, -21.92743, -0.06920695, -2.621635, -17.16971, -19.54975, -0.06574678, -2.572401
 123420612, -18.12237, -21.71114, -0.02661705, -2.62064, -17.63524, -21.92743, -0.06920695, -2.621635
 123620532, -15.75107, -22.14223, 0.03899014, -2.586058, -18.12237, -21.71114, -0.02661705, -2.62064
 123820452, -15.82745, -22.21044, 0.07833445, -2.581557, -15.75107, -22.14223, 0.03899014, -2.586058
 124020372, -15.4704, -23.65108, 0.1012967, -2.600106, -15.82745, -22.21044, 0.07833445, -2.581557
 124220292, -16.70806, -23.17965, 0.1375039, -2.600618, -15.4704, -23.65108, 0.1012967, -2.600106
 124420212, -16.19459, -23.73112, 0.1715008, -2.595661, -16.70806, -23.17965, 0.1375039, -2.600618
 124620965, -15.14702, -23.17408, 0.228222, -2.555717, -16.19459, -23.73112, 0.1715008, -2.595661
 124820885, -13.11024, -23.20132, 0.2874506, -2.514307, -15.14702, -23.17408, 0.228222, -2.555717
 125020805, -13.61331, -24.53537, 0.3005086, -2.543644, -13.11024, -23.20132, 0.2874506, -2.514307
 125220725, -12.61722, -25.64033, 0.3380555, -2.548233, -13.61331, -24.53537, 0.3005086, -2.543644
 125420645, -11.99582, -24.65259, 0.3979715, -2.502565, -12.61722, -25.64033, 0.3380555, -2.548233
 125620565, -12.71539, -23.46066, 0.4485028, -2.470838, -11.99582, -24.65259, 0.3979715, -2.502565
 125820485, -11.66113, -25.71007, 0.4639536, -2.507963, -12.71539, -23.46066, 0.4485028, -2.470838
 126020405, -11.61979, -25.05328, 0.5146008, -2.477236, -11.66113, -25.71007, 0.4639536, -2.507963
 126220325, -11.10558, -26.64928, 0.5379707, -2.504295, -11.61979, -25.05328, 0.5146008, -2.477236
 126420245, -10.84162, -25.75666, 0.5942564, -2.461732, -11.10558, -26.64928, 0.5379707, -2.504295
 126620165, -8.957843, -25.72158, 0.6420275, -2.426998, -10.84162, -25.75666, 0.5942564, -2.461732
 126820918, -9.222481, -24.60773, 0.6922147, -2.383756, -8.957843, -25.72158, 0.6420275, -2.426998
 127020838, -9.635453, -26.65487, 0.7093153, -2.433203, -9.222481, -24.60773, 0.6922147, -2.383756
 127220758, -9.454645, -26.78546, 0.74804, -2.42103, -9.635453, -26.65487, 0.7093153, -2.433203
 127420678, -8.175714, -26.11682, 0.8015172, -2.371916, -9.454645, -26.78546, 0.74804, -2.42103
 127620598, -7.097996, -27.14516, 0.8342493, -2.377225, -8.175714, -26.11682, 0.8015172, -2.371916
 127820518, -8.240259, -26.96361, 0.8707388, -2.365457, -7.097996, -27.14516, 0.8342493, -2.377225
 128020438, -7.984823, -26.57923, 0.9190807, -2.331933, -8.240259, -26.96361, 0.8707388, -2.365457
 128220358, -7.724294, -26.92535, 0.9540915, -2.322765, -7.984823, -26.57923, 0.9190807, -2.331933
 128420278, -5.999194, -27.07211, 0.9919409, -2.297505, -7.724294, -26.92535, 0.9540915, -2.322765
 128620198, -5.090134, -25.56185, 1.043656, -2.221664, -5.999194, -27.07211, 0.9919409, -2.297505
 128820951, -6.22074, -27.07594, 1.064525, -2.255307, -5.090134, -25.56185, 1.043656, -2.221664
 129020871, -6.062411, -27.27826, 1.09771, -2.23553, -6.22074, -27.07594, 1.064525, -2.255307
 129220791, -3.896728, -26.63921, 1.136724, -2.175974, -6.062411, -27.27826, 1.09771, -2.23553
 129420711, -4.511893, -27.74763, 1.160833, -2.19299, -3.896728, -26.63921, 1.136724, -2.175974
 129620631, -3.561013, -27.90141, 1.188608, -2.171453, -4.511893, -27.74763, 1.160833, -2.19299
 129820551, -1.809827, -27.16562, 1.224496, -2.115169, -3.561013, -27.90141, 1.188608, -2.171453
 130020471, -2.667209, -27.32331, 1.25653, -2.09625, -1.809827, -27.16562, 1.224496, -2.115169
 130220391, -1.396618, -26.55936, 1.289921, -2.040272, -2.667209, -27.32331, 1.25653, -2.09625
 130420311, -1.69017, -26.88341, 1.321055, -2.023484, -1.396618, -26.55936, 1.289921, -2.040272
 130620231, -1.703921, -27.94073, 1.347491, -2.034, -1.69017, -26.88341, 1.321055, -2.023484
 130820151, -1.332225, -26.27325, 1.376353, -1.949989, -1.703921, -27.94073, 1.347491, -2.034
 131020904, -0.01638917, -26.40412, 1.402441, -1.926836, -1.332225, -26.27325, 1.376353, -1.949989
 131220824, 0.4776995, -27.53279, 1.429523, -1.93887, -0.01638917, -26.40412, 1.402441, -1.926836
 131420744, -0.395637, -27.19261, 1.459538, -1.897097, 0.4776995, -27.53279, 1.429523, -1.93887
 131620664, 1.881807, -27.99844, 1.486142, -1.899307, -0.395637, -27.19261, 1.459538, -1.897097
 131820584, 2.085078, -28.12571, 1.512658, -1.876371, 1.881807, -27.99844, 1.486142, -1.899307
 132020504, 1.963001, -26.71202, 1.533172, -1.799261, 2.085078, -28.12571, 1.512658, -1.876371
 132220424, 2.952063, -26.39722, 1.555881, -1.764541, 1.963001, -26.71202, 1.533172, -1.799261
 132420344, 3.225711, -27.13725, 1.5868, -1.75962, 2.952063, -26.39722, 1.555881, -1.764541
 132620264, 2.855086, -27.10987, 1.614309, -1.725917, 3.225711, -27.13725, 1.5868, -1.75962
