TimeUS,COFN,COFE,COFD,CNe,CEe,CDe,POFN,POFE,POFD,PNe,PEe,PDe
 170953258, -0.01151975, -0.002561326, -0.003009367, 0.02610568, -0.0264825, 6.28872E-05, 0, 0, 0, 0, 0, 0
 171035725, 0.02468484, -0.01950994, 1.329684E-05, 0.0262221, -0.02755763, 0.4000041, -0.01151975, -0.002561326, -0.003009367, 0.02610568, -0.0264825, 6.28872E-05
 171135685, 0.003355049, -0.003230861, 8.554566E-07, 0.02568609, -0.0271582, 0.4000038, 0.02468484, -0.01950994, 1.329684E-05, 0.0262221, -0.02755763, 0.4000041
 171236478, -0.004329275, -0.02052639, -4.194854E-05, 0.02551449, -0.02758529, 0.4000027, 0.003355049, -0.003230861, 8.554566E-07, 0.02568609, -0.0271582, 0.4000038
 171336438, 0.01261543, 0.02307966, 6.152525E-05, 0.02590512, -0.02662727, 0.4000051, -0.004329275, -0.02052639, -4.194854E-05, 0.02551449, -0.02758529, 0.4000027
 171436398, -0.006309945, 0.01641848, 1.550149E-05, 0.02547145, -0.0267492, 0.4000041, 0.01261543, 0.02307966, 6.152525E-05, 0.02590512, -0.02662727, 0.4000051
 171536358, 0.01036559, 0.006274783, 2.964058E-05, 0.02584784, -0.02695209, 0.4000045, -0.006309945, 0.01641848, 1.550149E-05, 0.02547145, -0.0267492, 0.4000041
 171636318, 0.006943676, 0.02190677, 4.926819E-05, 0.02576423, -0.02664984, 0.4000049, 0.01036559, 0.006274783, 2.964058E-05, 0.02584784, -0.02695209, 0.4000045
 171736278, -0.01208286, -0.005347244, -3.142181E-05, 0.02534845, -0.02720924, 0.4000035, 0.006943676, 0.02190677, 4.926819E-05, 0.02576423, -0.02664984, 0.4000049
 171836238, -0.007344974, 0.002364224, -9.841679E-06, 0.02544212, -0.0270344, 0.4000041, -0.01208286, -0.005347244, -3.142181E-05, 0.02534845, -0.02720924, 0.4000035
 171936198, -0.009510557, 0.006913644, -6.399706E-06, 0.02539643, -0.02693729, 0.4000043, -0.007344974, 0.002364224, -9.841679E-06, 0.02544212, -0.0270344, 0.4000041
 172036158, -0.01467977, -0.0116527, -4.685587E-05, 0.02529334, -0.0273588, 0.4000035, -0.009510557, 0.006913644, -6.399706E-06, 0.02539643, -0.02693729, 0.4000043
 172136118, 0.009937458, -0.003183837, 1.342029E-05, 0.02582791, -0.02715814, 0.4000048, -0.01467977, -0.0116527, -4.685587E-05, 0.02529334, -0.0273588, 0.4000035
 172236078, 0.02271223, -0.003652012, 3.673866E-05, 0.02615342, -0.02716906, 0.4000055, 0.009937458, -0.003183837, 1.342029E-05, 0.02582791, -0.02715814, 0.4000048
 172336038, 0.01729855, 0.01124145, 5.126615E-05, 0.02601085, -0.02685103, 0.4000057, 0.02271223, -0.003652012, 3.673866E-05, 0.02615342, -0.02716906, 0.4000055
 172435998, 0.008385026, 0.01875404, 4.70376E-05, 0.02578945, -0.02670866, 0.4000054, 0.01729855, 0.01124145, 5.126615E-05, 0.02601085, -0.02685103, 0.4000057
 172535958, 0.008709343, -0.006054789, 6.284138E-06, 0.02579938, -0.02722785, 0.4000044, 0.008385026, 0.01875404, 4.70376E-05, 0.02578945, -0.02670866, 0.4000054
 172635918, 0.005058142, -0.02364368, -2.981321E-05, 0.02571545, -0.02767104, 0.4000034, 0.008709343, -0.006054789, 6.284138E-06, 0.02579938, -0.02722785, 0.4000044
 172735878, -0.01929644, -0.01089408, -5.402962E-05, 0.02521182, -0.02734045, 0.400003, 0.005058142, -0.02364368, -2.981321E-05, 0.02571545, -0.02767104, 0.4000034
 172835838, 0.02492991, -0.005553384, 3.717857E-05, 0.02622331, -0.02721069, 0.4000051, -0.01929644, -0.01089408, -5.402962E-05, 0.02521182, -0.02734045, 0.400003
 172935798, 0.01839069, -0.0230048, -4.019992E-06, 0.02605267, -0.02765077, 0.4000037, 0.02492991, -0.005553384, 3.717857E-05, 0.02622331, -0.02721069, 0.4000051
 173035758, -0.02356355, -0.01658069, -7.083396E-05, 0.02514508, -0.02748355, 0.400002, 0.01839069, -0.0230048, -4.019992E-06, 0.02605267, -0.02765077, 0.4000037
 173135718, 0.01981006, 0.003620026, 4.247081E-05, 0.02609271, -0.02700686, 0.4000046, -0.02356355, -0.01658069, -7.083396E-05, 0.02514508, -0.02748355, 0.400002
 173235678, -0.0145736, -0.0128567, -4.810589E-05, 0.02530923, -0.02738822, 0.4000026, 0.01981006, 0.003620026, 4.247081E-05, 0.02609271, -0.02700686, 0.4000046
 173336471, 0.01569874, 0.004119078, 3.572883E-05, 0.02598588, -0.02699503, 0.4000045, -0.0145736, -0.0128567, -4.810589E-05, 0.02530923, -0.02738822, 0.4000026
 173436431, 0.006837104, -0.0130487, -8.912401E-06, 0.02576912, -0.02739094, 0.4000035, 0.01569874, 0.004119078, 3.572883E-05, 0.02598588, -0.02699503, 0.4000045
 173536391, -0.00451544, -0.02514407, -4.991093E-05, 0.02551374, -0.02770979, 0.4000023, 0.006837104, -0.0130487, -8.912401E-06, 0.02576912, -0.02739094, 0.4000035
 173636351, 0.008861667, -0.01580305, -9.934309E-06, 0.02581716, -0.02746577, 0.4000031, -0.00451544, -0.02514407, -4.991093E-05, 0.02551374, -0.02770979, 0.4000023
 173736311, 0.004681354, -0.02168669, -2.743037E-05, 0.02571869, -0.02761956, 0.4000026, 0.008861667, -0.01580305, -9.934309E-06, 0.02581716, -0.02746577, 0.4000031
 173836271, -0.02345919, -0.0123369, -6.370072E-05, 0.02514659, -0.02738021, 0.4000019, 0.004681354, -0.02168669, -2.743037E-05, 0.02571869, -0.02761956, 0.4000026
 173936231, -0.007317556, -0.008859671, -2.815869E-05, 0.02545652, -0.02729424, 0.4000027, -0.02345919, -0.0123369, -6.370072E-05, 0.02514659, -0.02738021, 0.4000019
 174036191, 0.00960965, 0.01773475, 4.704153E-05, 0.02583811, -0.02672613, 0.4000043, -0.007317556, -0.008859671, -2.815869E-05, 0.02545652, -0.02729424, 0.4000027
 174136151, 0.005834628, -0.01632347, -1.634486E-05, 0.02574921, -0.02747715, 0.4000029, 0.00960965, 0.01773475, 4.704153E-05, 0.02583811, -0.02672613, 0.4000043
 174236111, -0.02462929, 0.0212029, -9.999927E-06, 0.02513085, -0.02666011, 0.4000031, 0.005834628, -0.01632347, -1.634486E-05, 0.02574921, -0.02747715, 0.4000029
 174336071, 0.01952805, 0.02439625, 7.602228E-05, 0.0260893, -0.0266037, 0.400005, -0.02462929, 0.0212029, -9.999927E-06, 0.02513085, -0.02666011, 0.4000031
 174436031, -0.0127164, -0.01051652, -4.063541E-05, 0.02534981, -0.02733028, 0.4000025, 0.01952805, 0.02439625, 7.602228E-05, 0.0260893, -0.0266037, 0.400005
 174535991, -0.003086755, 0.02512184, 3.575549E-05, 0.02554791, -0.0265897, 0.4000042, -0.0127164, -0.01051652, -4.063541E-05, 0.02534981, -0.02733028, 0.4000025
 174635951, -0.01068489, -0.01389894, -4.244731E-05, 0.02538968, -0.02741208, 0.4000026, -0.003086755, 0.02512184, 3.575549E-05, 0.02554791, -0.0265897, 0.4000042
 174735911, 0.004640201, -0.003646369, 2.507072E-06, 0.02572087, -0.02716481, 0.4000037, -0.01068489, -0.01389894, -4.244731E-05, 0.02538968, -0.02741208, 0.4000026
 174835871, 0.003863643, 0.01506267, 3.179754E-05, 0.02570269, -0.02676947, 0.4000044, 0.004640201, -0.003646369, 2.507072E-06, 0.02572087, -0.02716481, 0.4000037
 174935831, -0.006862064, -0.01280635, -3.355524E-05, 0.02546804, -0.02738201, 0.400003, 0.003863643, 0.01506267, 3.179754E-05, 0.02570269, -0.02676947, 0.4000044
 175035791, 0.01401344, -0.01676249, -1.81515E-06, 0.02594814, -0.02748123, 0.4000037, -0.006862064, -0.01280635, -3.355524E-05, 0.02546804, -0.02738201, 0.400003
 175135751, -0.01642654, -0.02118585, -6.471707E-05, 0.02527856, -0.02759639, 0.4000023, 0.01401344, -0.01676249, -1.81515E-06, 0.02594814, -0.02748123, 0.4000037
 175235711, -0.02368922, -0.003677962, -4.93764E-05, 0.02514633, -0.02716237, 0.4000028, -0.01642654, -0.02118585, -6.471707E-05, 0.02527856, -0.02759639, 0.4000023
 175335671, 0.02506423, -0.004389476, 3.875057E-05, 0.02623671, -0.02717835, 0.4000048, -0.02368922, -0.003677962, -4.93764E-05, 0.02514633, -0.02716237, 0.4000028
 175436464, 0.01795609, 0.01809699, 6.249789E-05, 0.02604666, -0.02670941, 0.4000053, 0.02506423, -0.004389476, 3.875057E-05, 0.02623671, -0.02717835, 0.4000048
 175536424, -0.001209107, 0.02461973, 3.798042E-05, 0.0255877, -0.02659205, 0.4000047, 0.01795609, 0.01809699, 6.249789E-05, 0.02604666, -0.02670941, 0.4000053
 175636384, -0.0148474, -0.01892386, -5.812916E-05, 0.02530634, -0.02753475, 0.4000027, -0.001209107, 0.02461973, 3.798042E-05, 0.0255877, -0.02659205, 0.4000047
 175736344, 0.02489269, 0.02360654, 8.408604E-05, 0.02623091, -0.02660757, 0.400006, -0.0148474, -0.01892386, -5.812916E-05, 0.02530634, -0.02753475, 0.4000027
 175836304, 0.02528061, -0.005056303, 3.816588E-05, 0.026242, -0.02718933, 0.4000052, 0.02489269, 0.02360654, 8.408604E-05, 0.02623091, -0.02660757, 0.400006
 175936264, 0.01836224, 0.01524298, 5.843373E-05, 0.02605754, -0.02675917, 0.4000055, 0.02528061, -0.005056303, 3.816588E-05, 0.026242, -0.02718933, 0.4000052
 176036224, 0.005147047, -0.01040084, -7.465084E-06, 0.02573288, -0.02731658, 0.400004, 0.01836224, 0.01524298, 5.843373E-05, 0.02605754, -0.02675917, 0.4000055
 176136184, 0.002926276, -0.01400199, -1.741754E-05, 0.02567875, -0.02740711, 0.4000038, 0.005147047, -0.01040084, -7.465084E-06, 0.02573288, -0.02731658, 0.400004
 176236144, -0.01979544, -0.003360908, -4.205775E-05, 0.02520945, -0.02715344, 0.4000034, 0.002926276, -0.01400199, -1.741754E-05, 0.02567875, -0.02740711, 0.4000038
 176336104, -0.0117596, -0.01291934, -4.286072E-05, 0.02536108, -0.02738189, 0.4000034, -0.01979544, -0.003360908, -4.205775E-05, 0.02520945, -0.02715344, 0.4000034
 176436064, -0.01429, 0.01718424, 1.582441E-06, 0.02531018, -0.02672586, 0.4000044, -0.0117596, -0.01291934, -4.286072E-05, 0.02536108, -0.02738189, 0.4000034
 176536024, 0.0004235399, 0.01574152, 2.656163E-05, 0.02561618, -0.02675439, 0.4000049, -0.01429, 0.01718424, 1.582441E-06, 0.02531018, -0.02672586, 0.4000044
 176635984, -0.01102619, -0.006611707, -3.131756E-05, 0.02537361, -0.02723188, 0.4000036, 0.0004235399, 0.01574152, 2.656163E-05, 0.02561618, -0.02675439, 0.4000049
 176735944, 0.003596088, 0.006736206, 1.771372E-05, 0.02568788, -0.02693441, 0.4000047, -0.01102619, -0.006611707, -3.131756E-05, 0.02537361, -0.02723188, 0.4000036
 176835904, -2.878998E-05, 0.01994378, 3.259401E-05, 0.02560591, -0.02667578, 0.4000051, 0.003596088, 0.006736206, 1.771372E-05, 0.02568788, -0.02693441, 0.4000047
 176935864, 0.01907465, -0.0213736, 3.601053E-07, 0.02606783, -0.02760167, 0.4000043, -2.878998E-05, 0.01994378, 3.259401E-05, 0.02560591, -0.02667578, 0.4000051
 177035824, -0.004315216, -0.01320746, -2.971723E-05, 0.02551241, -0.02739264, 0.4000036, 0.01907465, -0.0213736, 3.601053E-07, 0.02606783, -0.02760167, 0.4000043
 177135784, -0.02405781, 0.01765206, -1.6042E-05, 0.02512667, -0.02671703, 0.4000044, -0.004315216, -0.01320746, -2.971723E-05, 0.02551241, -0.02739264, 0.4000036
 177235744, -0.01651018, -0.0004363432, -3.168903E-05, 0.02525955, -0.02708466, 0.4000045, -0.02405781, 0.01765206, -1.6042E-05, 0.02512667, -0.02671703, 0.4000044
 177335704, -0.02342718, -0.01573191, -6.973519E-05, 0.0251314, -0.02745073, 0.4000038, -0.01651018, -0.0004363432, -3.168903E-05, 0.02525955, -0.02708466, 0.4000045
 177435664, -0.003998321, 0.003618907, -1.645797E-06, 0.02550711, -0.02699697, 0.4000053, -0.02342718, -0.01573191, -6.973519E-05, 0.0251314, -0.02745073, 0.4000038
 177536457, 0.003786072, 0.01251104, 2.756815E-05, 0.0256809, -0.02681425, 0.4000059, -0.003998321, 0.003618907, -1.645797E-06, 0.02550711, -0.02699697, 0.4000053
 177636417, 0.01880798, -0.01755082, 6.798871E-06, 0.02604969, -0.0274984, 0.4000055, 0.003786072, 0.01251104, 2.756815E-05, 0.0256809, -0.02681425, 0.4000059
 177736377, 0.01382435, -0.002934903, 2.120602E-05, 0.02592459, -0.02714173, 0.4000057, 0.01880798, -0.01755082, 6.798871E-06, 0.02604969, -0.0274984, 0.4000055
 177836337, -0.01024269, -0.01788736, -4.831704E-05, 0.02538268, -0.02750494, 0.400004, 0.01382435, -0.002934903, 2.120602E-05, 0.02592459, -0.02714173, 0.4000057
 177936297, 0.004981989, -0.005308343, 6.882492E-07, 0.02571625, -0.02719336, 0.4000051, -0.01024269, -0.01788736, -4.831704E-05, 0.02538268, -0.02750494, 0.400004
 178036257, -0.007553107, 0.02523877, 2.677047E-05, 0.02544396, -0.02657382, 0.4000055, 0.004981989, -0.005308343, 6.882492E-07, 0.02571625, -0.02719336, 0.4000051
 178136217, 0.02202844, -0.008757677, 2.671059E-05, 0.02614632, -0.02727379, 0.4000056, -0.007553107, 0.02523877, 2.677047E-05, 0.02544396, -0.02657382, 0.4000055
 178236177, -0.02544836, 0.009565412, -3.16744E-05, 0.02510779, -0.02686894, 0.4000042, 0.02202844, -0.008757677, 2.671059E-05, 0.02614632, -0.02727379, 0.4000056
 178336137, 0.008543911, 0.02432848, 5.516492E-05, 0.02580667, -0.02659015, 0.4000059, -0.02544836, 0.009565412, -3.16744E-05, 0.02510779, -0.02686894, 0.4000042
 178436097, 0.0114706, 0.02182628, 5.640721E-05, 0.02587952, -0.02663288, 0.4000059, 0.008543911, 0.02432848, 5.516492E-05, 0.02580667, -0.02659015, 0.4000059
 178536057, 0.02051354, -0.00174808, 3.499701E-05, 0.02611095, -0.02710727, 0.4000057, 0.0114706, 0.02182628, 5.640721E-05, 0.02587952, -0.02663288, 0.4000059
 178636017, -0.01172826, -0.02022147, -5.406891E-05, 0.0253657, -0.02755759, 0.4000037, 0.02051354, -0.00174808, 3.499701E-05, 0.02611095, -0.02710727, 0.4000057
 178735977, -0.01814208, -0.01728909, -6.108422E-05, 0.02524307, -0.02747984, 0.4000036, -0.01172826, -0.02022147, -5.406891E-05, 0.0253657, -0.02755759, 0.4000037
 178835937, -0.002492073, 0.008020327, 8.235366E-06, 0.02555914, -0.02689141, 0.4000052, -0.01814208, -0.01728909, -6.108422E-05, 0.02524307, -0.02747984, 0.4000036
 178935897, -0.02041937, -0.01060148, -5.439814E-05, 0.02520324, -0.02730968, 0.4000039, -0.002492073, 0.008020327, 8.235366E-06, 0.02555914, -0.02689141, 0.4000052
 179035857, -0.01134297, 0.003255119, -1.559483E-05, 0.02537716, -0.02699023, 0.4000047, -0.02041937, -0.01060148, -5.439814E-05, 0.02520324, -0.02730968, 0.4000039
 179135817, 0.01784166, 0.00807956, 4.552563E-05, 0.02604652, -0.0268893, 0.4000059, -0.01134297, 0.003255119, -1.559483E-05, 0.02537716, -0.02699023, 0.4000047
 179235777, -0.0009723156, -0.02400832, -4.013323E-05, 0.02559671, -0.0276557, 0.4000038, 0.01784166, 0.00807956, 4.552563E-05, 0.02604652, -0.0268893, 0.4000059
 179335737, 0.01045273, 0.007540499, 3.11522E-05, 0.02586238, -0.02690253, 0.4000053, -0.0009723156, -0.02400832, -4.013323E-05, 0.02559671, -0.0276557, 0.4000038
 179435697, 0.02107088, 0.0253951, 7.917249E-05, 0.02613282, -0.02656664, 0.4000062, 0.01045273, 0.007540499, 3.11522E-05, 0.02586238, -0.02690253, 0.4000053
 179535657, 0.02269745, 0.0140113, 6.392396E-05, 0.02617588, -0.0267746, 0.400006, 0.02107088, 0.0253951, 7.917249E-05, 0.02613282, -0.02656664, 0.4000062
 179636450, -0.003511771, -0.02313928, -4.355432E-05, 0.02554212, -0.02763528, 0.4000034, 0.02269745, 0.0140113, 6.392396E-05, 0.02617588, -0.0267746, 0.400006
 179736410, 0.01598609, 0.01202995, 4.846519E-05, 0.026002, -0.02681491, 0.4000054, -0.003511771, -0.02313928, -4.355432E-05, 0.02554212, -0.02763528, 0.4000034
 179836370, 0.005328542, -0.02109363, -2.431327E-05, 0.02574343, -0.02758312, 0.4000035, 0.01598609, 0.01202995, 4.846519E-05, 0.026002, -0.02681491, 0.4000054
 179936330, -0.007519417, 0.02424382, 2.565324E-05, 0.0254603, -0.02659353, 0.4000044, 0.005328542, -0.02109363, -2.431327E-05, 0.02574343, -0.02758312, 0.4000035
 180036290, 0.01155222, 0.01597849, 4.712513E-05, 0.02589144, -0.0267482, 0.4000046, -0.007519417, 0.02424382, 2.565324E-05, 0.0254603, -0.02659353, 0.4000044
 180136250, 0.008596704, -0.01194246, -3.8246E-06, 0.02581837, -0.02735727, 0.4000036, 0.01155222, 0.01597849, 4.712513E-05, 0.02589144, -0.0267482, 0.4000046
 180236210, -0.01490125, 0.02365527, 1.139417E-05, 0.02530989, -0.0266077, 0.400004, 0.008596704, -0.01194246, -3.8246E-06, 0.02581837, -0.02735727, 0.4000036
 180336170, -0.0252053, -0.0240261, -8.514938E-05, 0.02512275, -0.02766899, 0.400002, -0.01490125, 0.02365527, 1.139417E-05, 0.02530989, -0.0266077, 0.400004
 180436130, 0.01093017, -0.0164614, -6.828104E-06, 0.02587479, -0.02746795, 0.4000037, -0.0252053, -0.0240261, -8.514938E-05, 0.02512275, -0.02766899, 0.400002
 180536090, -0.0238372, -0.008263852, -5.690597E-05, 0.02514709, -0.02726458, 0.4000028, 0.01093017, -0.0164614, -6.828104E-06, 0.02587479, -0.02746795, 0.4000037
 180636050, 0.01938394, -0.01923705, 4.140336E-06, 0.02608863, -0.02753872, 0.4000041, -0.0238372, -0.008263852, -5.690597E-05, 0.02514709, -0.02726458, 0.4000028
 180736010, -0.01870027, -0.007591435, -4.639362E-05, 0.02524071, -0.02724946, 0.4000028, 0.01938394, -0.01923705, 4.140336E-06, 0.02608863, -0.02753872, 0.4000041
 180835970, 0.005773655, -0.006580609, -2.405695E-07, 0.0257545, -0.0272267, 0.4000036, -0.01870027, -0.007591435, -4.639362E-05, 0.02524071, -0.02724946, 0.4000028
 180935930, -0.01831342, 0.01183498, -1.394244E-05, 0.02524946, -0.02682833, 0.4000033, 0.005773655, -0.006580609, -2.405695E-07, 0.0257545, -0.0272267, 0.4000036
 181035890, 0.0222382, 0.005851518, 5.001183E-05, 0.02616682, -0.02695219, 0.4000047, -0.01831342, 0.01183498, -1.394244E-05, 0.02524946, -0.02682833, 0.4000033
 181135850, 0.02134213, -0.007380986, 2.673556E-05, 0.02614245, -0.0272492, 0.4000041, 0.0222382, 0.005851518, 5.001183E-05, 0.02616682, -0.02695219, 0.4000047
 181235810, -0.01784838, 0.01308698, -1.101911E-05, 0.02525651, -0.02680687, 0.4000032, 0.02134213, -0.007380986, 2.673556E-05, 0.02614245, -0.0272492, 0.4000041
 181335770, 0.003692245, 0.01250148, 2.725525E-05, 0.02570382, -0.0268185, 0.400004, -0.01784838, 0.01308698, -1.101911E-05, 0.02525651, -0.02680687, 0.4000032
 181435730, -0.002237304, 0.0004013884, -3.422893E-06, 0.02557035, -0.0270719, 0.4000034, 0.003692245, 0.01250148, 2.725525E-05, 0.02570382, -0.0268185, 0.400004
 181535690, -0.02000303, -0.001901437, -3.968862E-05, 0.0252143, -0.02712521, 0.4000026, -0.002237304, 0.0004013884, -3.422893E-06, 0.02557035, -0.0270719, 0.4000034
 181636483, -0.008573649, 0.0005470516, -1.479864E-05, 0.02543381, -0.02707194, 0.4000031, -0.02000303, -0.001901437, -3.968862E-05, 0.0252143, -0.02712521, 0.4000026
 181736443, -0.02077282, 0.003029761, -3.309204E-05, 0.02519791, -0.02701799, 0.4000028, -0.008573649, 0.0005470516, -1.479864E-05, 0.02543381, -0.02707194, 0.4000031
 181836403, -0.01197171, -0.01164729, -4.127056E-05, 0.02536285, -0.02735826, 0.4000025, -0.02077282, 0.003029761, -3.309204E-05, 0.02519791, -0.02701799, 0.4000028
 181936363, 0.02051961, 0.02462107, 7.858747E-05, 0.0261138, -0.02660229, 0.400005, -0.01197171, -0.01164729, -4.127056E-05, 0.02536285, -0.02735826, 0.4000025
 182036323, -0.02438856, -0.006789989, -5.61357E-05, 0.0251327, -0.02724619, 0.4000019, 0.02051961, 0.02462107, 7.858747E-05, 0.0261138, -0.02660229, 0.400005
 182136283, -0.004357126, -0.0102869, -2.520686E-05, 0.02551839, -0.02733118, 0.4000025, -0.02438856, -0.006789989, -5.61357E-05, 0.0251327, -0.02724619, 0.4000019
 182236243, -0.01988059, 0.001967621, -3.335315E-05, 0.02521061, -0.02704945, 0.4000024, -0.004357126, -0.0102869, -2.520686E-05, 0.02551839, -0.02733118, 0.4000025
 182336203, -0.01266384, -0.01356304, -4.606788E-05, 0.02534654, -0.02741327, 0.4000021, -0.01988059, 0.001967621, -3.335315E-05, 0.02521061, -0.02704945, 0.4000024
 182436163, 0.0057438, 0.006015896, 2.067497E-05, 0.02574249, -0.02696285, 0.4000036, -0.01266384, -0.01356304, -4.606788E-05, 0.02534654, -0.02741327, 0.4000021
 182536123, 0.02526908, -0.009944227, 3.013564E-05, 0.02623593, -0.02732523, 0.400004, 0.0057438, 0.006015896, 2.067497E-05, 0.02574249, -0.02696285, 0.4000036
 182636083, -0.012582, -0.001361919, -2.567602E-05, 0.02534283, -0.02712563, 0.4000028, 0.02526908, -0.009944227, 3.013564E-05, 0.02623593, -0.02732523, 0.400004
 182736043, -0.004869379, -0.01014069, -2.618238E-05, 0.02550218, -0.02733549, 0.4000023, -0.012582, -0.001361919, -2.567602E-05, 0.02534283, -0.02712563, 0.4000028
 182836003, 0.0106326, -0.01965801, -1.376126E-05, 0.02585731, -0.02758012, 0.4000022, -0.004869379, -0.01014069, -2.618238E-05, 0.02550218, -0.02733549, 0.4000023
 182935963, -0.01816734, -0.002830725, -3.844962E-05, 0.02523845, -0.02716371, 0.4000021, 0.0106326, -0.01965801, -1.376126E-05, 0.02585731, -0.02758012, 0.4000022
 183035923, -0.02450104, -0.0138218, -6.866567E-05, 0.02512459, -0.02742335, 0.4000016, -0.01816734, -0.002830725, -3.844962E-05, 0.02523845, -0.02716371, 0.4000021
 183135883, 0.007357792, -0.02348815, -2.595176E-05, 0.02578083, -0.02767501, 0.4000022, -0.02450104, -0.0138218, -6.866567E-05, 0.02512459, -0.02742335, 0.4000016
 183235843, 0.02153207, -0.004819705, 3.143713E-05, 0.02614096, -0.02720627, 0.4000034, 0.007357792, -0.02348815, -2.595176E-05, 0.02578083, -0.02767501, 0.4000022
 183335803, 0.01604983, 0.01683202, 5.769146E-05, 0.02600014, -0.02675101, 0.4000038, 0.02153207, -0.004819705, 3.143713E-05, 0.02614096, -0.02720627, 0.4000034
 183435763, 0.02219052, -0.02209589, 3.365927E-06, 0.02616281, -0.02763717, 0.4000025, 0.01604983, 0.01683202, 5.769146E-05, 0.02600014, -0.02675101, 0.4000038
 183535723, 0.008768343, 0.008434479, 3.015614E-05, 0.02582193, -0.02691473, 0.4000032, 0.02219052, -0.02209589, 3.365927E-06, 0.02616281, -0.02763717, 0.4000025
 183635683, -0.02209058, -0.008344124, -5.42954E-05, 0.0251775, -0.02728683, 0.4000014, 0.008768343, 0.008434479, 3.015614E-05, 0.02582193, -0.02691473, 0.4000032
 183736476, -0.01308968, -0.01281847, -4.523763E-05, 0.02534702, -0.02739376, 0.4000016, -0.02209058, -0.008344124, -5.42954E-05, 0.0251775, -0.02728683, 0.4000014
 183836436, -0.003807612, -0.002907234, -1.17522E-05, 0.02553943, -0.02715535, 0.4000024, -0.01308968, -0.01281847, -4.523763E-05, 0.02534702, -0.02739376, 0.4000016
 183936396, -0.0186385, -0.01329896, -5.600597E-05, 0.0252435, -0.0274049, 0.4000013, -0.003807612, -0.002907234, -1.17522E-05, 0.02553943, -0.02715535, 0.4000024
 184036356, -0.00462029, 0.01485977, 1.643729E-05, 0.02552231, -0.02678457, 0.4000028, -0.0186385, -0.01329896, -5.600597E-05, 0.0252435, -0.0274049, 0.4000013
 184136316, -0.02237403, -0.023418, -7.962253E-05, 0.02517681, -0.02766849, 0.4000007, -0.00462029, 0.01485977, 1.643729E-05, 0.02552231, -0.02678457, 0.4000028
 184236276, -0.01432705, 0.01046691, -8.511657E-06, 0.02532616, -0.02686986, 0.4000023, -0.02237403, -0.023418, -7.962253E-05, 0.02517681, -0.02766849, 0.4000007
 184336236, 0.005918441, 0.02213812, 4.777007E-05, 0.02575855, -0.02665132, 0.4000033, -0.01432705, 0.01046691, -8.511657E-06, 0.02532616, -0.02686986, 0.4000023
 184436196, -0.01307109, 0.006488003, -1.281713E-05, 0.02535002, -0.02695579, 0.400002, 0.005918441, 0.02213812, 4.777007E-05, 0.02575855, -0.02665132, 0.4000033
 184536156, 0.0001461247, -0.02476751, -4.133054E-05, 0.02562766, -0.02770958, 0.4000011, -0.01307109, 0.006488003, -1.281713E-05, 0.02535002, -0.02695579, 0.400002
 184636116, -0.01746314, -0.0211994, -6.720515E-05, 0.02526808, -0.02761445, 0.4000005, 0.0001461247, -0.02476751, -4.133054E-05, 0.02562766, -0.02770958, 0.4000011
 184736076, -0.005459669, -0.02110847, -4.529285E-05, 0.0255072, -0.02761081, 0.400001, -0.01746314, -0.0211994, -6.720515E-05, 0.02526808, -0.02761445, 0.4000005
 184836036, -0.0002747207, 0.006097969, 9.719155E-06, 0.02561963, -0.02696307, 0.4000023, -0.005459669, -0.02110847, -4.529285E-05, 0.0255072, -0.02761081, 0.400001
 184935996, -0.003674947, -0.01242918, -2.744802E-05, 0.02554329, -0.02738596, 0.4000017, -0.0002747207, 0.006097969, 9.719155E-06, 0.02561963, -0.02696307, 0.4000023
 185035956, -0.007381297, -0.02221888, -5.052728E-05, 0.02546302, -0.02763745, 0.4000013, -0.003674947, -0.01242918, -2.744802E-05, 0.02554329, -0.02738596, 0.4000017
 185135916, -0.002503594, -0.00345557, -1.032322E-05, 0.02556764, -0.02717215, 0.4000022, -0.007381297, -0.02221888, -5.052728E-05, 0.02546302, -0.02763745, 0.4000013
 185235876, -0.01702492, 0.01608589, -3.904921E-06, 0.02527426, -0.02676371, 0.4000022, -0.002503594, -0.00345557, -1.032322E-05, 0.02556764, -0.02717215, 0.4000022
 185335836, 0.01539119, -0.01331528, 5.64095E-06, 0.02598779, -0.0274097, 0.4000025, -0.01702492, 0.01608589, -3.904921E-06, 0.02527426, -0.02676371, 0.4000022
 185435796, 0.01843218, 0.009513177, 4.953927E-05, 0.02606387, -0.02689378, 0.4000036, 0.01539119, -0.01331528, 5.64095E-06, 0.02598779, -0.0274097, 0.4000025
 185535756, 0.01519145, -0.005185855, 1.895689E-05, 0.02598087, -0.02721532, 0.4000028, 0.01843218, 0.009513177, 4.953927E-05, 0.02606387, -0.02689378, 0.4000036
 185635716, -0.01801657, 0.01831003, -1.989756E-06, 0.02525212, -0.02672526, 0.4000022, 0.01519145, -0.005185855, 1.895689E-05, 0.02598087, -0.02721532, 0.4000028
 185735676, 0.0004844277, -0.01775136, -2.899739E-05, 0.02563066, -0.02752502, 0.4000016, -0.01801657, 0.01831003, -1.989756E-06, 0.02525212, -0.02672526, 0.4000022
 185836469, -0.02448348, 0.01666586, -1.65152E-05, 0.02513662, -0.02675595, 0.400002, 0.0004844277, -0.01775136, -2.899739E-05, 0.02563066, -0.02752502, 0.4000016
 185936429, -0.01617299, 0.01801068, 8.774696E-07, 0.02528784, -0.0267301, 0.4000022, -0.02448348, 0.01666586, -1.65152E-05, 0.02513662, -0.02675595, 0.400002
 186036389, 0.02290794, 0.006503892, 5.257496E-05, 0.02618384, -0.02695716, 0.4000035, -0.01617299, 0.01801068, 8.774696E-07, 0.02528784, -0.0267301, 0.4000022
 186136349, 0.0131225, -0.02019296, -1.010745E-05, 0.02592968, -0.02758865, 0.400002, 0.02290794, 0.006503892, 5.257496E-05, 0.02618384, -0.02695716, 0.4000035
 186236309, -0.003999473, -0.00967346, -2.358692E-05, 0.02553247, -0.02732372, 0.4000017, 0.0131225, -0.02019296, -1.010745E-05, 0.02592968, -0.02758865, 0.400002
 186336269, -0.01734921, -0.006422052, -4.253214E-05, 0.02526303, -0.02724893, 0.4000012, -0.003999473, -0.00967346, -2.358692E-05, 0.02553247, -0.02732372, 0.4000017
 186436229, 0.002380355, -0.01052375, -1.352083E-05, 0.02567062, -0.02734945, 0.4000017, -0.01734921, -0.006422052, -4.253214E-05, 0.02526303, -0.02724893, 0.4000012
 186536189, -0.02384116, 0.01277459, -2.195345E-05, 0.0251446, -0.02683501, 0.4000017, 0.002380355, -0.01052375, -1.352083E-05, 0.02567062, -0.02734945, 0.4000017
 186636149, 0.01278897, -0.0001724132, 2.311178E-05, 0.02591734, -0.02710488, 0.4000028, -0.02384116, 0.01277459, -2.195345E-05, 0.0251446, -0.02683501, 0.4000017
 186736109, -0.004388214, 0.01217177, 1.251258E-05, 0.0255206, -0.02684443, 0.4000026, 0.01278897, -0.0001724132, 2.311178E-05, 0.02591734, -0.02710488, 0.4000028
 186836069, -0.01088633, 0.02408015, 2.06716E-05, 0.02538627, -0.02662257, 0.4000028, -0.004388214, 0.01217177, 1.251258E-05, 0.0255206, -0.02684443, 0.4000026
 186936029, -0.005864386, 0.001927048, -7.490609E-06, 0.02548974, -0.02705445, 0.4000024, -0.01088633, 0.02408015, 2.06716E-05, 0.02538627, -0.02662257, 0.4000028
 187035989, 0.01481944, 0.006029838, 3.719321E-05, 0.02596897, -0.02696439, 0.4000035, -0.005864386, 0.001927048, -7.490609E-06, 0.02548974, -0.02705445, 0.4000024
 187135949, -0.0129325, -0.0005519515, -2.47131E-05, 0.02534211, -0.02710528, 0.4000025, 0.01481944, 0.006029838, 3.719321E-05, 0.02596897, -0.02696439, 0.4000035
 187235909, 0.0203401, 0.01408326, 6.112277E-05, 0.02610245, -0.0267985, 0.4000049, -0.0129325, -0.0005519515, -2.47131E-05, 0.02534211, -0.02710528, 0.4000025
 187335869, -0.01613264, 0.007777858, -1.689146E-05, 0.02527608, -0.02692465, 0.4000031, 0.0203401, 0.01408326, 6.112277E-05, 0.02610245, -0.0267985, 0.4000049
 187435829, 0.01723406, -0.0127945, 1.056471E-05, 0.02602171, -0.0273927, 0.4000037, -0.01613264, 0.007777858, -1.689146E-05, 0.02527608, -0.02692465, 0.4000031
 187535789, 0.01356569, 0.01517819, 5.054634E-05, 0.02592568, -0.02677821, 0.4000047, 0.01723406, -0.0127945, 1.056471E-05, 0.02602171, -0.0273927, 0.4000037
 187635749, -0.00753786, -1.581811E-05, -1.409026E-05, 0.0254407, -0.02709352, 0.4000034, 0.01356569, 0.01517819, 5.054634E-05, 0.02592568, -0.02677821, 0.4000047
 187735709, -0.01071975, -0.0003522181, -2.060476E-05, 0.02537541, -0.02710318, 0.4000032, -0.00753786, -1.581811E-05, -1.409026E-05, 0.0254407, -0.02709352, 0.4000034
 187835669, 0.02232282, 0.007662125, 5.460636E-05, 0.0261486, -0.02693326, 0.4000048, -0.01071975, -0.0003522181, -2.060476E-05, 0.02537541, -0.02710318, 0.4000032
 187936462, -0.007319469, -0.01944337, -4.637832E-05, 0.02544384, -0.0275677, 0.4000024, 0.02232282, 0.007662125, 5.460636E-05, 0.0261486, -0.02693326, 0.4000048
 188036422, 0.0004939166, -0.01329375, -2.142399E-05, 0.02561148, -0.02741014, 0.4000031, -0.007319469, -0.01944337, -4.637832E-05, 0.02544384, -0.0275677, 0.4000024
 188136382, 0.01305593, 0.006592787, 3.547552E-05, 0.02590965, -0.0269555, 0.4000043, 0.0004939166, -0.01329375, -2.142399E-05, 0.02561148, -0.02741014, 0.4000031
 188236342, -0.004295338, 0.01891736, 2.389463E-05, 0.02550993, -0.02671456, 0.4000037, 0.01305593, 0.006592787, 3.547552E-05, 0.02590965, -0.0269555, 0.4000043
 188336302, -0.01371754, 0.01727788, 3.57273E-06, 0.02531897, -0.02674394, 0.4000033, -0.004295338, 0.01891736, 2.389463E-05, 0.02550993, -0.02671456, 0.4000037
 188436262, -0.006985097, -0.007167915, -2.502265E-05, 0.02545524, -0.02726155, 0.4000027, -0.01371754, 0.01727788, 3.57273E-06, 0.02531897, -0.02674394, 0.4000033
 188536222, 0.011769, 0.01062116, 3.958793E-05, 0.02588352, -0.02687029, 0.4000041, -0.006985097, -0.007167915, -2.502265E-05, 0.02545524, -0.02726155, 0.4000027
 188636182, 0.02170469, -0.002220277, 3.635628E-05, 0.02614061, -0.02714285, 0.4000041, 0.011769, 0.01062116, 3.958793E-05, 0.02588352, -0.02687029, 0.4000041
 188736142, 0.002759981, -0.01925951, -2.70074E-05, 0.02567343, -0.02755742, 0.4000026, 0.02170469, -0.002220277, 3.635628E-05, 0.02614061, -0.02714285, 0.4000041
 188836102, -0.007710183, -0.02270265, -5.191228E-05, 0.02544697, -0.02764715, 0.4000021, 0.002759981, -0.01925951, -2.70074E-05, 0.02567343, -0.02755742, 0.4000026
 188936062, 0.02324424, -0.009722591, 2.654849E-05, 0.026186, -0.02731352, 0.400004, -0.007710183, -0.02270265, -5.191228E-05, 0.02544697, -0.02764715, 0.4000021
 189036022, -0.01248084, -0.02385277, -6.225125E-05, 0.02535365, -0.02767424, 0.4000019, 0.02324424, -0.009722591, 2.654849E-05, 0.026186, -0.02731352, 0.400004
 189135982, 0.02515891, -0.004891766, 3.799463E-05, 0.02623967, -0.02719556, 0.4000044, -0.01248084, -0.02385277, -6.225125E-05, 0.02535365, -0.02767424, 0.4000019
 189235942, 0.008815696, -0.02301603, -2.170429E-05, 0.02581974, -0.02764856, 0.400003, 0.02515891, -0.004891766, 3.799463E-05, 0.02623967, -0.02719556, 0.4000044
 189335902, 0.01368832, 0.01133304, 4.360788E-05, 0.02594078, -0.0268434, 0.4000044, 0.008815696, -0.02301603, -2.170429E-05, 0.02581974, -0.02764856, 0.400003
 189435862, -0.006040609, 0.008257073, 2.53323E-06, 0.02548819, -0.02690477, 0.4000035, 0.01368832, 0.01133304, 4.360788E-05, 0.02594078, -0.0268434, 0.4000044
 189535822, 0.003841942, -0.02485697, -3.370756E-05, 0.02570329, -0.0276965, 0.4000028, -0.006040609, 0.008257073, 2.53323E-06, 0.02548819, -0.02690477, 0.4000035
 189635782, 0.01481514, 0.007386081, 3.92638E-05, 0.02596596, -0.02692196, 0.4000047, 0.003841942, -0.02485697, -3.370756E-05, 0.02570329, -0.0276965, 0.4000028
 189735742, 0.002440847, 0.02298789, 4.206218E-05, 0.02566792, -0.02662192, 0.4000049, 0.01481514, 0.007386081, 3.92638E-05, 0.02596596, -0.02692196, 0.4000047
 189835702, -0.006242046, 0.0235829, 2.702086E-05, 0.02547731, -0.02661055, 0.4000046, 0.002440847, 0.02298789, 4.206218E-05, 0.02566792, -0.02662192, 0.4000049
 189935662, -0.01032464, -0.01265136, -3.958819E-05, 0.02539322, -0.02737441, 0.4000033, -0.006242046, 0.0235829, 2.702086E-05, 0.02547731, -0.02661055, 0.4000046
 190036455, 0.004088853, -0.006522134, -3.064181E-06, 0.02570553, -0.02722343, 0.4000043, -0.01032464, -0.01265136, -3.958819E-05, 0.02539322, -0.02737441, 0.4000033
 190136415, -0.02483172, -0.002405244, -4.946994E-05, 0.02512401, -0.02712822, 0.4000033, 0.004088853, -0.006522134, -3.064181E-06, 0.02570553, -0.02722343, 0.4000043
 190236375, -0.02142656, 0.008290296, -2.586305E-05, 0.02518399, -0.02689719, 0.4000038, -0.02483172, -0.002405244, -4.946994E-05, 0.02512401, -0.02712822, 0.4000033
 190336335, 0.003322531, -0.01727386, -2.194206E-05, 0.02568929, -0.02748913, 0.4000037, -0.02142656, 0.008290296, -2.586305E-05, 0.02518399, -0.02689719, 0.4000038
 190436295, -0.008424944, 0.01179357, 3.711766E-06, 0.02543414, -0.02682726, 0.4000043, 0.003322531, -0.01727386, -2.194206E-05, 0.02568929, -0.02748913, 0.4000037
 190536255, -0.02281459, 0.009089039, -2.70824E-05, 0.02515935, -0.02688232, 0.4000037, -0.008424944, 0.01179357, 3.711766E-06, 0.02543414, -0.02682726, 0.4000043
 190636215, 4.264934E-05, -0.0009954823, -1.542681E-06, 0.02561387, -0.02709907, 0.4000041, -0.02281459, 0.009089039, -2.70824E-05, 0.02515935, -0.02688232, 0.4000037
 190736175, -0.01506626, -0.001124367, -2.949683E-05, 0.02530119, -0.02710074, 0.4000036, 4.264934E-05, -0.0009954823, -1.542681E-06, 0.02561387, -0.02709907, 0.4000041
 190836135, -0.0002244629, 0.001240169, 1.600248E-06, 0.02560831, -0.0270471, 0.4000044, -0.01506626, -0.001124367, -2.949683E-05, 0.02530119, -0.02710074, 0.4000036
 190936095, 0.01045095, 0.01073853, 3.66914E-05, 0.02585535, -0.02684904, 0.4000051, -0.0002244629, 0.001240169, 1.600248E-06, 0.02560831, -0.0270471, 0.4000044
 191036055, -0.005970371, 0.002801124, -6.441077E-06, 0.0254813, -0.02701575, 0.4000041, 0.01045095, 0.01073853, 3.66914E-05, 0.02585535, -0.02684904, 0.4000051
 191136015, 0.008742124, 0.007757507, 2.87965E-05, 0.02581301, -0.02691349, 0.4000047, -0.005970371, 0.002801124, -6.441077E-06, 0.0254813, -0.02701575, 0.4000041
 191235975, -0.02327177, -0.01379308, -6.549252E-05, 0.02514877, -0.02740832, 0.4000025, 0.008742124, 0.007757507, 2.87965E-05, 0.02581301, -0.02691349, 0.4000047
 191335935, 0.01414456, -0.01079252, 8.306264E-06, 0.02594676, -0.02733384, 0.4000041, -0.02327177, -0.01379308, -6.549252E-05, 0.02514877, -0.02740832, 0.4000025
 191435895, 0.0008993624, -0.01079874, -1.606816E-05, 0.02563242, -0.02733373, 0.4000035, 0.01414456, -0.01079252, 8.306264E-06, 0.02594676, -0.02733384, 0.4000041
 191535855, 0.02000617, 0.01971428, 6.923763E-05, 0.02609531, -0.02668248, 0.4000056, 0.0008993624, -0.01079874, -1.606816E-05, 0.02563242, -0.02733373, 0.4000035
 191635815, 0.009630064, 0.02161808, 5.325273E-05, 0.02583089, -0.02664758, 0.4000053, 0.02000617, 0.01971428, 6.923763E-05, 0.02609531, -0.02668248, 0.4000056
 191735775, 0.01976479, -0.01368016, 1.420535E-05, 0.02608612, -0.02740386, 0.4000046, 0.009630064, 0.02161808, 5.325273E-05, 0.02583089, -0.02664758, 0.4000053
 191835735, 0.008723211, -0.01770073, -1.283439E-05, 0.02580802, -0.02750615, 0.400004, 0.01976479, -0.01368016, 1.420535E-05, 0.02608612, -0.02740386, 0.4000046
 191935695, -0.01733297, -0.007372313, -4.423691E-05, 0.02525174, -0.0272516, 0.4000033, 0.008723211, -0.01770073, -1.283439E-05, 0.02580802, -0.02750615, 0.400004
 192035655, 0.01793141, -0.02275652, -4.217032E-06, 0.02603843, -0.02764187, 0.400004, -0.01733297, -0.007372313, -4.423691E-05, 0.02525174, -0.0272516, 0.4000033
 192136448, 0.01743955, -0.02263361, -4.88622E-06, 0.02602644, -0.02763732, 0.400004, 0.01793141, -0.02275652, -4.217032E-06, 0.02603843, -0.02764187, 0.400004
 192236408, 0.01049987, -0.02021059, -1.373977E-05, 0.02585205, -0.02757275, 0.4000038, 0.01743955, -0.02263361, -4.88622E-06, 0.02602644, -0.02763732, 0.400004
 192336368, 0.01639812, -0.01947998, -1.59955E-06, 0.02599842, -0.02755399, 0.4000041, 0.01049987, -0.02021059, -1.373977E-05, 0.02585205, -0.02757275, 0.4000038
 192436328, 0.0041258, 0.0240457, 4.71991E-05, 0.0256987, -0.02660665, 0.4000052, 0.01639812, -0.01947998, -1.59955E-06, 0.02599842, -0.02755399, 0.4000041
 192536288, -0.01797343, -0.02360472, -7.221309E-05, 0.02523817, -0.02766437, 0.4000026, 0.0041258, 0.0240457, 4.71991E-05, 0.0256987, -0.02660665, 0.4000052
 192636248, 0.01545651, -0.01709397, 6.175105E-07, 0.02597282, -0.02749249, 0.4000043, -0.01797343, -0.02360472, -7.221309E-05, 0.02523817, -0.02766437, 0.4000026
 192736208, -0.002765704, -0.01555599, -3.069837E-05, 0.02554382, -0.02745223, 0.4000036, 0.01545651, -0.01709397, 6.175105E-07, 0.02597282, -0.02749249, 0.4000043
 192836168, -0.00480417, -0.007869515, -2.186127E-05, 0.0254997, -0.02726254, 0.4000039, -0.002765704, -0.01555599, -3.069837E-05, 0.02554382, -0.02745223, 0.4000036
 192936128, 0.01014378, -0.0176496, -1.005067E-05, 0.02583794, -0.02750557, 0.4000043, -0.00480417, -0.007869515, -2.186127E-05, 0.0254997, -0.02726254, 0.4000039
 193036088, 0.003242565, -0.01749599, -2.26845E-05, 0.02567269, -0.02750203, 0.4000041, 0.01014378, -0.0176496, -1.005067E-05, 0.02583794, -0.02750557, 0.4000043
 193136048, -0.003800346, 0.0213832, 2.804685E-05, 0.02551632, -0.02665312, 0.4000052, 0.003242565, -0.01749599, -2.26845E-05, 0.02567269, -0.02750203, 0.4000041
 193236008, 0.003081698, -0.02277114, -3.168853E-05, 0.0256687, -0.02764143, 0.4000039, -0.003800346, 0.0213832, 2.804685E-05, 0.02551632, -0.02665312, 0.4000052
 193335968, -0.01218714, 0.01864863, 7.803324E-06, 0.02534458, -0.02670146, 0.4000048, 0.003081698, -0.02277114, -3.168853E-05, 0.0256687, -0.02764143, 0.4000039
 193435928, -0.02433391, -0.001164456, -4.734438E-05, 0.02512093, -0.02710563, 0.4000037, -0.01218714, 0.01864863, 7.803324E-06, 0.02534458, -0.02670146, 0.4000048
 193535888, 0.01173046, -0.004195802, 1.496285E-05, 0.02587953, -0.02717315, 0.400005, -0.02433391, -0.001164456, -4.734438E-05, 0.02512093, -0.02710563, 0.4000037
 193635848, 0.00185949, 0.02004478, 3.612204E-05, 0.02564862, -0.02667177, 0.4000053, 0.01173046, -0.004195802, 1.496285E-05, 0.02587953, -0.02717315, 0.400005
 193735808, 0.005166718, 0.01630681, 3.612221E-05, 0.0257254, -0.02674054, 0.4000053, 0.00185949, 0.02004478, 3.612204E-05, 0.02564862, -0.02667177, 0.4000053
 193835768, 0.0001691852, 0.005945096, 9.983865E-06, 0.02561235, -0.02694685, 0.4000047, 0.005166718, 0.01630681, 3.612221E-05, 0.0257254, -0.02674054, 0.4000053
 193935728, -0.01448376, 0.01070753, -9.389732E-06, 0.02530867, -0.02684727, 0.4000044, 0.0001691852, 0.005945096, 9.983865E-06, 0.02561235, -0.02694685, 0.4000047
 194035688, 0.02341013, -0.0008341923, 4.187454E-05, 0.02618612, -0.02709053, 0.4000057, -0.01448376, 0.01070753, -9.389732E-06, 0.02530867, -0.02684727, 0.4000044
 194136481, 0.001139227, 0.02051528, 3.517027E-05, 0.02563705, -0.02665641, 0.4000054, 0.02341013, -0.0008341923, 4.187454E-05, 0.02618612, -0.02709053, 0.4000057
 194236441, -0.01917702, -0.006370628, -4.546232E-05, 0.02522445, -0.02721401, 0.4000038, 0.001139227, 0.02051528, 3.517027E-05, 0.02563705, -0.02665641, 0.4000054
 194336401, -0.001213392, -0.01487497, -2.610675E-05, 0.02558787, -0.02742055, 0.4000041, -0.01917702, -0.006370628, -4.546232E-05, 0.02522445, -0.02721401, 0.4000038
 194436361, -0.00748614, -0.0132556, -3.495474E-05, 0.02545503, -0.02737903, 0.4000039, -0.001213392, -0.01487497, -2.610675E-05, 0.02558787, -0.02742055, 0.4000041
 194536321, -0.01817663, -0.02488314, -7.301923E-05, 0.02524423, -0.02768005, 0.4000033, -0.00748614, -0.0132556, -3.495474E-05, 0.02545503, -0.02737903, 0.4000039
 194636281, -0.00475947, -0.01734629, -3.632414E-05, 0.0255101, -0.02747762, 0.4000043, -0.01817663, -0.02488314, -7.301923E-05, 0.02524423, -0.02768005, 0.4000033
 194736241, -0.02276927, 0.02471656, -2.630532E-06, 0.02515902, -0.02657247, 0.4000053, -0.00475947, -0.01734629, -3.632414E-05, 0.0255101, -0.02747762, 0.4000043
 194836201, -0.001422142, -0.00236087, -6.361106E-06, 0.02557989, -0.02711217, 0.4000053, -0.02276927, 0.02471656, -2.630532E-06, 0.02515902, -0.02657247, 0.4000053
 194936161, 0.01399134, -0.01837083, -3.216937E-06, 0.02593894, -0.02750167, 0.4000056, -0.001422142, -0.00236087, -6.361106E-06, 0.02557989, -0.02711217, 0.4000053
 195036121, 0.01355053, 0.01403325, 4.745703E-05, 0.02592391, -0.02676741, 0.400007, 0.01399134, -0.01837083, -3.216937E-06, 0.02593894, -0.02750167, 0.4000056
 195136081, 0.02306284, 0.02275198, 7.887588E-05, 0.02617157, -0.02660528, 0.4000077, 0.01355053, 0.01403325, 4.745703E-05, 0.02592391, -0.02676741, 0.400007
 195236041, 0.02138365, 0.008290325, 5.28167E-05, 0.02612738, -0.02688052, 0.4000072, 0.02306284, 0.02275198, 7.887588E-05, 0.02617157, -0.02660528, 0.4000077
 195336001, 0.02264709, 0.01347205, 6.337189E-05, 0.02616061, -0.02677639, 0.4000075, 0.02138365, 0.008290325, 5.28167E-05, 0.02612738, -0.02688052, 0.4000072
 195435961, -0.0215308, -0.01110965, -5.759539E-05, 0.02517248, -0.02731674, 0.4000049, 0.02264709, 0.01347205, 6.337189E-05, 0.02616061, -0.02677639, 0.4000075
 195535921, -0.005712276, -0.02458271, -4.932229E-05, 0.02547825, -0.02766243, 0.4000052, -0.0215308, -0.01110965, -5.759539E-05, 0.02517248, -0.02731674, 0.4000049
 195635881, 0.01157441, 0.02453307, 6.008053E-05, 0.02587032, -0.02656707, 0.400008, -0.005712276, -0.02458271, -4.932229E-05, 0.02547825, -0.02766243, 0.4000052
 195735841, 0.005154307, -0.01094684, -7.452738E-06, 0.02571672, -0.02730543, 0.4000067, 0.01157441, 0.02453307, 6.008053E-05, 0.02587032, -0.02656707, 0.400008
 195835801, 0.0005530559, 0.01649891, 2.676222E-05, 0.02561178, -0.02670946, 0.4000075, 0.005154307, -0.01094684, -7.452738E-06, 0.02571672, -0.02730543, 0.4000067
 195935761, 0.01303201, -0.01030706, 8.252664E-06, 0.02590832, -0.02728914, 0.4000069, 0.0005530559, 0.01649891, 2.676222E-05, 0.02561178, -0.02670946, 0.4000075
 196035721, -0.006486828, -0.001740695, -1.480991E-05, 0.0254629, -0.02708875, 0.4000063, 0.01303201, -0.01030706, 8.252664E-06, 0.02590832, -0.02728914, 0.4000069
 196135681, -0.005030675, -0.01208979, -2.826126E-05, 0.02549495, -0.02733386, 0.4000058, -0.006486828, -0.001740695, -1.480991E-05, 0.0254629, -0.02708875, 0.4000063
 196236474, 0.007115087, -0.0140973, -8.84486E-06, 0.02576943, -0.02738404, 0.4000061, -0.005030675, -0.01208979, -2.826126E-05, 0.02549495, -0.02733386, 0.4000058
 196336434, -0.0007870499, 0.01771595, 2.625894E-05, 0.02558763, -0.0266886, 0.4000069, 0.007115087, -0.0140973, -8.84486E-06, 0.02576943, -0.02738404, 0.4000061
 196436394, -0.01689952, 0.008477899, -1.819349E-05, 0.02525689, -0.02687006, 0.4000061, -0.0007870499, 0.01771595, 2.625894E-05, 0.02558763, -0.0266886, 0.4000069
 196536354, 0.01382098, -0.009368199, 1.116175E-05, 0.025927, -0.02726931, 0.4000069, -0.01689952, 0.008477899, -1.819349E-05, 0.02525689, -0.02687006, 0.4000061
 196636314, 0.00811283, -0.003978211, 8.999614E-06, 0.025784, -0.0271428, 0.400007, 0.01382098, -0.009368199, 1.116175E-05, 0.025927, -0.02726931, 0.4000069
 196736274, 0.02261154, -0.008065452, 2.984637E-05, 0.02615129, -0.02723959, 0.4000075, 0.00811283, -0.003978211, 8.999614E-06, 0.025784, -0.0271428, 0.400007
 196836234, 0.01257039, 0.01819866, 5.232766E-05, 0.02589135, -0.02668341, 0.4000079, 0.02261154, -0.008065452, 2.984637E-05, 0.02615129, -0.02723959, 0.4000075
 196936194, -0.01047011, -0.01144526, -3.77999E-05, 0.02537415, -0.02732418, 0.4000058, 0.01257039, 0.01819866, 5.232766E-05, 0.02589135, -0.02668341, 0.4000079
 197036154, -0.007461011, -0.02464069, -5.312983E-05, 0.02543536, -0.02766832, 0.4000052, -0.01047011, -0.01144526, -3.77999E-05, 0.02537415, -0.02732418, 0.4000058
 197136114, -0.02214549, 0.01611476, -1.617454E-05, 0.02515231, -0.02672722, 0.4000062, -0.007461011, -0.02464069, -5.312983E-05, 0.02543536, -0.02766832, 0.4000052
 197236074, 0.02486858, 0.01684708, 7.374157E-05, 0.02620992, -0.02671466, 0.4000082, -0.02214549, 0.01611476, -1.617454E-05, 0.02515231, -0.02672722, 0.4000062
 197336034, 0.004536417, -0.01086836, -8.814619E-06, 0.02569961, -0.02731612, 0.4000059, 0.02486858, 0.01684708, 7.374157E-05, 0.02620992, -0.02671466, 0.4000082
 197435994, -0.02313381, -0.02068, -7.658605E-05, 0.02513827, -0.02756879, 0.4000042, 0.004536417, -0.01086836, -8.814619E-06, 0.02569961, -0.02731612, 0.4000059
 197535954, -0.006783534, -0.009343766, -2.774318E-05, 0.02545202, -0.02728269, 0.4000052, -0.02313381, -0.02068, -7.658605E-05, 0.02513827, -0.02756879, 0.4000042
 197635914, -0.01337414, -0.004307828, -3.205828E-05, 0.02531865, -0.02716449, 0.4000051, -0.006783534, -0.009343766, -2.774318E-05, 0.02545202, -0.02728269, 0.4000052
 197735874, -0.01414913, -0.006630366, -3.731195E-05, 0.02530256, -0.02722009, 0.400005, -0.01337414, -0.004307828, -3.205828E-05, 0.02531865, -0.02716449, 0.4000051
 197835834, -0.01873022, -0.008295683, -4.869612E-05, 0.02521496, -0.02726095, 0.4000047, -0.01414913, -0.006630366, -3.731195E-05, 0.02530256, -0.02722009, 0.400005
 197935794, -0.01404767, 0.007768594, -1.400697E-05, 0.02530189, -0.02690201, 0.4000056, -0.01873022, -0.008295683, -4.869612E-05, 0.02521496, -0.02726095, 0.4000047
 198035754, -0.002640906, -0.02518791, -4.561055E-05, 0.02553461, -0.02769298, 0.4000049, -0.01404767, 0.007768594, -1.400697E-05, 0.02530189, -0.02690201, 0.4000056
 198135714, 0.006963531, -0.01598729, -1.271914E-05, 0.0257542, -0.02745201, 0.4000055, -0.002640906, -0.02518791, -4.561055E-05, 0.02553461, -0.02769298, 0.4000049
 198235674, -0.02104901, 0.01951163, -7.977949E-06, 0.02517288, -0.02667803, 0.4000053, 0.006963531, -0.01598729, -1.271914E-05, 0.0257542, -0.02745201, 0.4000055
 198336467, 0.02235784, 0.002317951, 4.58047E-05, 0.02614637, -0.02702539, 0.4000062, -0.02104901, 0.01951163, -7.977949E-06, 0.02517288, -0.02667803, 0.4000053
 198436427, 0.02100493, -0.02271394, 2.111177E-06, 0.02611288, -0.02763633, 0.4000048, 0.02235784, 0.002317951, 4.58047E-05, 0.02614637, -0.02702539, 0.4000062
 198536387, 0.00813893, 0.006985569, 2.662835E-05, 0.02578987, -0.02692623, 0.4000055, 0.02100493, -0.02271394, 2.111177E-06, 0.02611288, -0.02763633, 0.4000048
 198636347, -0.007101696, 0.005190013, -4.806802E-06, 0.0254507, -0.02696159, 0.4000048, 0.00813893, 0.006985569, 2.662835E-05, 0.02578987, -0.02692623, 0.4000055
 198736307, -0.01709113, 0.0220686, 3.978854E-06, 0.02525473, -0.02663099, 0.400005, -0.007101696, 0.005190013, -4.806802E-06, 0.0254507, -0.02696159, 0.4000048
 198836267, 0.00337957, -0.0003072677, 5.787726E-06, 0.02568223, -0.02707813, 0.4000051, -0.01709113, 0.0220686, 3.978854E-06, 0.02525473, -0.02663099, 0.400005
 198936227, -0.0229924, 0.01516456, -1.828056E-05, 0.02514884, -0.02675463, 0.4000048, 0.00337957, -0.0003072677, 5.787726E-06, 0.02568223, -0.02707813, 0.4000051
 199036187, -0.02044014, -0.02142447, -7.236825E-05, 0.02519434, -0.02758892, 0.4000037, -0.0229924, 0.01516456, -1.828056E-05, 0.02514884, -0.02675463, 0.4000048
 199136147, -0.005174752, 0.0114972, 8.796749E-06, 0.0254935, -0.02682218, 0.4000056, -0.02044014, -0.02142447, -7.236825E-05, 0.02519434, -0.02758892, 0.4000037
 199236107, 0.01904198, -0.004272747, 2.859425E-05, 0.02606572, -0.0271603, 0.4000062, -0.005174752, 0.0114972, 8.796749E-06, 0.0254935, -0.02682218, 0.4000056
 199336067, 0.0207851, -0.009656414, 2.322401E-05, 0.02611154, -0.02728773, 0.4000061, 0.01904198, -0.004272747, 2.859425E-05, 0.02606572, -0.0271603, 0.4000062
 199436027, -0.001606521, -0.01395404, -2.530674E-05, 0.02556967, -0.02739347, 0.400005, 0.0207851, -0.009656414, 2.322401E-05, 0.02611154, -0.02728773, 0.4000061
 199535987, -0.01522065, -0.003129302, -3.341179E-05, 0.0252878, -0.02713269, 0.4000051, -0.001606521, -0.01395404, -2.530674E-05, 0.02556967, -0.02739347, 0.400005
 199635947, 0.02233824, 0.01966314, 7.316945E-05, 0.02614737, -0.02666304, 0.4000077, -0.01522065, -0.003129302, -3.341179E-05, 0.0252878, -0.02713269, 0.4000051
 199735907, -0.0215705, 0.01333244, -1.910737E-05, 0.02516923, -0.02678218, 0.4000056, 0.02233824, 0.01966314, 7.316945E-05, 0.02614737, -0.02666304, 0.4000077
 199835867, -0.02333405, 0.0237432, -5.761733E-06, 0.02513915, -0.02658988, 0.4000058, -0.0215705, 0.01333244, -1.910737E-05, 0.02516923, -0.02678218, 0.4000056
 199935827, -0.01722711, 0.01821385, -3.290561E-06, 0.02524946, -0.02668684, 0.400006, -0.02333405, 0.0237432, -5.761733E-06, 0.02513915, -0.02658988, 0.4000058
 200035787, 0.01537252, 0.006310527, 3.869307E-05, 0.02596792, -0.02691955, 0.4000072, -0.01722711, 0.01821385, -3.290561E-06, 0.02524946, -0.02668684, 0.400006
 200135747, -0.024557, 0.007548514, -3.390482E-05, 0.02511793, -0.02689454, 0.4000055, 0.01537252, 0.006310527, 3.869307E-05, 0.02596792, -0.02691955, 0.4000072
 200235707, 0.0230478, 0.01609212, 6.847358E-05, 0.02616984, -0.02672593, 0.4000077, -0.024557, 0.007548514, -3.390482E-05, 0.02511793, -0.02689454, 0.4000055
 200335667, 0.007501849, -0.01375913, -7.855613E-06, 0.02577798, -0.02738293, 0.4000057, 0.0230478, 0.01609212, 6.847358E-05, 0.02616984, -0.02672593, 0.4000077
 200436460, -0.01435289, -0.005372554, -3.511849E-05, 0.02530966, -0.02717977, 0.400005, 0.007501849, -0.01375913, -7.855613E-06, 0.02577798, -0.02738293, 0.4000057
 200536420, -0.02457494, -0.002228801, -4.923531E-05, 0.02512015, -0.0271049, 0.4000051, -0.01435289, -0.005372554, -3.511849E-05, 0.02530966, -0.02717977, 0.400005
 200636380, -0.01235253, 0.004987155, -1.522487E-05, 0.02534352, -0.02694403, 0.4000061, -0.02457494, -0.002228801, -4.923531E-05, 0.02512015, -0.0271049, 0.4000051
 200736340, -0.01915336, 0.003695329, -2.996283E-05, 0.02521414, -0.02697023, 0.400006, -0.01235253, 0.004987155, -1.522487E-05, 0.02534352, -0.02694403, 0.4000061
 200836300, 0.01151174, -0.02299223, -1.447597E-05, 0.02587218, -0.02761444, 0.4000063, -0.01915336, 0.003695329, -2.996283E-05, 0.02521414, -0.02697023, 0.400006
 200936260, -0.005117023, 0.02446864, 2.855818E-05, 0.02548875, -0.02656394, 0.4000075, 0.01151174, -0.02299223, -1.447597E-05, 0.02587218, -0.02761444, 0.4000063
 201036220, -0.004117734, -0.0171013, -3.429588E-05, 0.02550731, -0.02745461, 0.4000065, -0.005117023, 0.02446864, 2.855818E-05, 0.02548875, -0.02656394, 0.4000075
 201136180, 0.02157428, 0.02111195, 7.343449E-05, 0.02612264, -0.0266204, 0.4000091, -0.004117734, -0.0171013, -3.429588E-05, 0.02550731, -0.02745461, 0.4000065
 201236140, -0.0215125, -0.01397544, -6.230935E-05, 0.02516291, -0.02737477, 0.4000062, 0.02157428, 0.02111195, 7.343449E-05, 0.02612264, -0.0266204, 0.4000091
 201336100, -0.0189506, -0.01954698, -6.617713E-05, 0.02520927, -0.02751879, 0.400006, -0.0215125, -0.01397544, -6.230935E-05, 0.02516291, -0.02737477, 0.4000062
 201436060, 0.004683283, 0.01879744, 3.813199E-05, 0.02570015, -0.02666434, 0.4000083, -0.0189506, -0.01954698, -6.617713E-05, 0.02520927, -0.02751879, 0.400006
 201536020, -0.01361102, -0.0227309, -6.11834E-05, 0.02530895, -0.02760473, 0.4000061, 0.004683283, 0.01879744, 3.813199E-05, 0.02570015, -0.02666434, 0.4000083
 201635980, -0.02520641, -0.01304901, -6.812662E-05, 0.02509567, -0.02735436, 0.4000061, -0.01361102, -0.0227309, -6.11834E-05, 0.02530895, -0.02760473, 0.4000061
 201735940, -0.01694254, -0.02314051, -6.823946E-05, 0.02524283, -0.02761574, 0.4000061, -0.02520641, -0.01304901, -6.812662E-05, 0.02509567, -0.02735436, 0.4000061
 201835900, 0.01355353, 0.02243806, 6.074507E-05, 0.02590934, -0.02659869, 0.400009, -0.01694254, -0.02314051, -6.823946E-05, 0.02524283, -0.02761574, 0.4000061
 201935860, -0.02545991, 0.02285239, -1.270974E-05, 0.02508952, -0.02659264, 0.4000073, 0.01355353, 0.02243806, 6.074507E-05, 0.02590934, -0.02659869, 0.400009
 202035820, 0.02462573, 0.02370496, 8.395231E-05, 0.02619909, -0.02657977, 0.4000093, -0.02545991, 0.02285239, -1.270974E-05, 0.02508952, -0.02659264, 0.4000073
 202135780, 0.01462277, 0.01022974, 4.393252E-05, 0.02593622, -0.02683592, 0.4000083, 0.02462573, 0.02370496, 8.395231E-05, 0.02619909, -0.02657977, 0.4000093
 202235740, -0.008463229, 0.00890572, -2.029135E-06, 0.0254072, -0.02686615, 0.4000071, 0.01462277, 0.01022974, 4.393252E-05, 0.02593622, -0.02683592, 0.4000083
 202335700, 0.01396081, -0.00742842, 1.486451E-05, 0.02591754, -0.02722761, 0.4000075, -0.008463229, 0.00890572, -2.029135E-06, 0.0254072, -0.02686615, 0.4000071
 202435660, -0.007437941, 0.01036717, 2.246303E-06, 0.02542678, -0.02683783, 0.4000072, 0.01396081, -0.00742842, 1.486451E-05, 0.02591754, -0.02722761, 0.4000075
 202536453, 0.01279259, 0.02126711, 5.814754E-05, 0.02588841, -0.0266301, 0.4000084, -0.007437941, 0.01036717, 2.246303E-06, 0.02542678, -0.02683783, 0.4000072
 202636413, 0.02056731, 0.009055034, 5.362901E-05, 0.0260878, -0.02686455, 0.4000084, 0.01279259, 0.02126711, 5.814754E-05, 0.02588841, -0.0266301, 0.4000084
 202736373, -0.0176532, -0.01184829, -5.249833E-05, 0.02522746, -0.02733628, 0.4000058, 0.02056731, 0.009055034, 5.362901E-05, 0.0260878, -0.02686455, 0.4000084
 202836333, -0.01075166, -0.006795368, -3.131352E-05, 0.02536164, -0.02721547, 0.4000062, -0.0176532, -0.01184829, -5.249833E-05, 0.02522746, -0.02733628, 0.4000058
 202936293, -0.02084349, 0.01434272, -1.669938E-05, 0.02517043, -0.02676489, 0.4000063, -0.01075166, -0.006795368, -3.131352E-05, 0.02536164, -0.02721547, 0.4000062
 203036253, -0.01989864, 0.01935477, -6.677281E-06, 0.0251885, -0.02667357, 0.4000062, -0.02084349, 0.01434272, -1.669938E-05, 0.02517043, -0.02676489, 0.4000063
 203136213, 0.01525582, 0.0254518, 7.001047E-05, 0.02595263, -0.02656575, 0.4000079, -0.01989864, 0.01935477, -6.677281E-06, 0.0251885, -0.02667357, 0.4000062
 203236173, 0.01635173, 0.009296329, 4.612398E-05, 0.02597987, -0.02686774, 0.4000075, 0.01525582, 0.0254518, 7.001047E-05, 0.02595263, -0.02656575, 0.4000079
 203336133, -0.005919764, 0.02398226, 2.733679E-05, 0.02546016, -0.02659116, 0.400007, 0.01635173, 0.009296329, 4.612398E-05, 0.02597987, -0.02686774, 0.4000075
 203436093, 0.01583302, 0.02527288, 7.101436E-05, 0.02596463, -0.02656973, 0.400008, -0.005919764, 0.02398226, 2.733679E-05, 0.02546016, -0.02659116, 0.400007
 203536053, -0.01975239, 0.02445061, 1.863751E-06, 0.02518778, -0.02658648, 0.4000063, 0.01583302, 0.02527288, 7.101436E-05, 0.02596463, -0.02656973, 0.400008
 203636013, -0.007966609, -0.007819873, -2.795642E-05, 0.02541621, -0.02725228, 0.4000055, -0.01975239, 0.02445061, 1.863751E-06, 0.02518778, -0.02658648, 0.4000063
 203735973, -0.02295566, -0.01509291, -6.843769E-05, 0.02512996, -0.0274311, 0.4000047, -0.007966609, -0.007819873, -2.795642E-05, 0.02541621, -0.02725228, 0.4000055
 203835933, 0.02095151, -0.01530945, 1.515288E-05, 0.02609752, -0.02743644, 0.4000065, -0.02295566, -0.01509291, -6.843769E-05, 0.02512996, -0.0274311, 0.4000047
 203935893, 0.005156211, 0.00246995, 1.383769E-05, 0.02570581, -0.02701539, 0.4000065, 0.02095151, -0.01530945, 1.515288E-05, 0.02609752, -0.02743644, 0.4000065
 204035853, -0.02147775, 0.01995555, -8.684859E-06, 0.02515938, -0.02666388, 0.4000061, 0.005156211, 0.00246995, 1.383769E-05, 0.02570581, -0.02701539, 0.4000065
 204135813, 0.000169515, 0.0209238, 3.401859E-05, 0.02559618, -0.02664523, 0.4000069, -0.02147775, 0.01995555, -8.684859E-06, 0.02515938, -0.02666388, 0.4000061
 204235773, -0.0006209504, -0.02311668, -3.83305E-05, 0.02558074, -0.02763326, 0.4000052, 0.000169515, 0.0209238, 3.401859E-05, 0.02559618, -0.02664523, 0.4000069
 204335733, 0.01225947, 0.009804105, 3.88527E-05, 0.02588428, -0.02685515, 0.400007, -0.0006209504, -0.02311668, -3.83305E-05, 0.02558074, -0.02763326, 0.4000052
 204435693, -0.02413652, -0.01130415, -6.352417E-05, 0.02512044, -0.02732619, 0.4000048, 0.01225947, 0.009804105, 3.88527E-05, 0.02588428, -0.02685515, 0.400007
 204536486, -0.01009648, -0.006029629, -2.860263E-05, 0.02538522, -0.02719838, 0.4000055, -0.02413652, -0.01130415, -6.352417E-05, 0.02512044, -0.02732619, 0.4000048
 204636446, 0.0009862557, -0.00821753, -1.122941E-05, 0.02562445, -0.02724816, 0.4000058, -0.01009648, -0.006029629, -2.860263E-05, 0.02538522, -0.02719838, 0.4000055
 204736406, -0.01600964, -0.00527176, -3.834186E-05, 0.02527345, -0.02718096, 0.4000051, 0.0009862557, -0.00821753, -1.122941E-05, 0.02562445, -0.02724816, 0.4000058
 204836366, -0.006917791, -0.006693827, -2.363313E-05, 0.02545559, -0.02721636, 0.4000051, -0.01600964, -0.00527176, -3.834186E-05, 0.02527345, -0.02718096, 0.4000051
 204936326, -0.01035637, 0.00230125, -1.558771E-05, 0.02538711, -0.02701279, 0.4000052, -0.006917791, -0.006693827, -2.363313E-05, 0.02545559, -0.02721636, 0.4000051
 205036286, -0.003189464, 0.01766537, 2.242432E-05, 0.02553768, -0.0267031, 0.4000058, -0.01035637, 0.00230125, -1.558771E-05, 0.02538711, -0.02701279, 0.4000052
 205136246, 0.02518387, -0.02397074, 8.37231E-06, 0.02623299, -0.02765421, 0.4000056, -0.003189464, 0.01766537, 2.242432E-05, 0.02553768, -0.0267031, 0.4000058
 205236206, -0.02200164, 0.01179959, -2.196706E-05, 0.02516892, -0.026813, 0.400005, 0.02518387, -0.02397074, 8.37231E-06, 0.02623299, -0.02765421, 0.4000056
 205336166, -0.02405318, 0.01326137, -2.341687E-05, 0.02513367, -0.02678345, 0.400005, -0.02200164, 0.01179959, -2.196706E-05, 0.02516892, -0.026813, 0.400005
 205436126, 0.02548902, 0.02254302, 8.313562E-05, 0.0262429, -0.02661048, 0.4000074, -0.02405318, 0.01326137, -2.341687E-05, 0.02513367, -0.02678345, 0.400005
 205536086, -0.01938155, 0.0002974239, -3.540659E-05, 0.02521764, -0.02705267, 0.4000048, 0.02548902, 0.02254302, 8.313562E-05, 0.0262429, -0.02661048, 0.4000074
 205636046, 0.009291233, -0.006445365, 6.941999E-06, 0.02582587, -0.02720633, 0.4000057, -0.01938155, 0.0002974239, -3.540659E-05, 0.02521764, -0.02705267, 0.4000048
 205736006, -0.0148962, 0.005183797, -1.929184E-05, 0.02530236, -0.02694741, 0.400005, 0.009291233, -0.006445365, 6.941999E-06, 0.02582587, -0.02720633, 0.4000057
 205835966, 0.01000303, 0.02366162, 5.627656E-05, 0.02584366, -0.0265917, 0.4000065, -0.0148962, 0.005183797, -1.929184E-05, 0.02530236, -0.02694741, 0.400005
 205935926, 0.02203608, -0.01092454, 2.334619E-05, 0.02615071, -0.02731459, 0.400006, 0.01000303, 0.02366162, 5.627656E-05, 0.02584366, -0.0265917, 0.4000065
 206035886, 0.003368502, -0.02309843, -3.051303E-05, 0.02568691, -0.02762645, 0.4000047, 0.02203608, -0.01092454, 2.334619E-05, 0.02615071, -0.02731459, 0.400006
 206135846, 0.0105142, 0.01026918, 3.581111E-05, 0.02585659, -0.02684247, 0.4000062, 0.003368502, -0.02309843, -3.051303E-05, 0.02568691, -0.02762645, 0.4000047
 206235806, 0.008054192, 0.006567226, 2.538119E-05, 0.0257977, -0.02692015, 0.4000058, 0.0105142, 0.01026918, 3.581111E-05, 0.02585659, -0.02684247, 0.4000062
 206335766, -0.01497908, -0.01601725, -5.326082E-05, 0.02530293, -0.0274446, 0.4000039, 0.008054192, 0.006567226, 2.538119E-05, 0.0257977, -0.02692015, 0.4000058
 206435726, 0.003997718, 0.008273179, 2.061372E-05, 0.02570475, -0.02688575, 0.4000055, -0.01497908, -0.01601725, -5.326082E-05, 0.02530293, -0.0274446, 0.4000039
 206535686, 0.004918768, -0.0002864847, 8.639679E-06, 0.02572299, -0.02706973, 0.4000054, 0.003997718, 0.008273179, 2.061372E-05, 0.02570475, -0.02688575, 0.4000055
 206636479, 0.0007731041, -0.003636355, -4.402635E-06, 0.02562509, -0.02714654, 0.4000053, 0.004918768, -0.0002864847, 8.639679E-06, 0.02572299, -0.02706973, 0.4000054
 206736439, 0.01782282, 0.006706046, 4.384213E-05, 0.02603723, -0.0269192, 0.4000064, 0.0007731041, -0.003636355, -4.402635E-06, 0.02562509, -0.02714654, 0.4000053
 206836399, -0.006384432, 0.006115704, -2.041034E-06, 0.02547127, -0.02693108, 0.4000053, 0.01782282, 0.006706046, 4.384213E-05, 0.02603723, -0.0269192, 0.4000064
 206936359, -0.00612315, -0.003909586, -1.763101E-05, 0.02547615, -0.02715098, 0.400005, -0.006384432, 0.006115704, -2.041034E-06, 0.02547127, -0.02693108, 0.4000053
 207036319, -0.003342097, 0.01370832, 1.571012E-05, 0.02553548, -0.0267757, 0.4000058, -0.00612315, -0.003909586, -1.763101E-05, 0.02547615, -0.02715098, 0.400005
 207136279, 0.0206129, 0.01816908, 6.739239E-05, 0.02610959, -0.02669211, 0.400007, -0.003342097, 0.01370832, 1.571012E-05, 0.02553548, -0.0267757, 0.4000058
 207236239, 0.02272354, 0.01267706, 6.256562E-05, 0.02616564, -0.02679787, 0.4000069, 0.0206129, 0.01816908, 6.739239E-05, 0.02610959, -0.02669211, 0.400007
 207336199, -0.0008397134, -0.001895247, -4.60598E-06, 0.02558887, -0.02710675, 0.4000053, 0.02272354, 0.01267706, 6.256562E-05, 0.02616564, -0.02679787, 0.4000069
 207436159, -0.01785918, 0.009438194, -1.806288E-05, 0.02524234, -0.02686417, 0.400005, -0.0008397134, -0.001895247, -4.60598E-06, 0.02558887, -0.02710675, 0.4000053
 207536119, -0.01061719, 0.006538739, -9.254361E-06, 0.02538122, -0.02692541, 0.4000051, -0.01785918, 0.009438194, -1.806288E-05, 0.02524234, -0.02686417, 0.400005
 207636079, 0.006346087, 0.009567885, 2.730672E-05, 0.02574973, -0.02686425, 0.4000059, -0.01061719, 0.006538739, -9.254361E-06, 0.02538122, -0.02692541, 0.4000051
 207736039, -0.007220561, -0.01155925, -3.215313E-05, 0.02544932, -0.02733807, 0.4000046, 0.006346087, 0.009567885, 2.730672E-05, 0.02574973, -0.02686425, 0.4000059
