TimeUS,CAN,CAE,CAD,CAe
 196163170, 0, 0, 0, 0
 196236474, -0.2587455, 3.429588, -0.1218003, 0.5092275
 196336434, 1.793449E-05, 0.00365333, -0.0001285313, 0.0002593961
 196436394, 0.0001188816, 0.00352392, -0.0001203747, 0.0002593961
 196536354, 5.794454E-05, 0.003462975, -3.13538E-05, 0.0002593961
 196636314, -0.0002103545, 0.003520001, -6.543996E-05, 0.0002593961
 196736274, -4.028585E-05, 0.003442563, -0.0001111814, 0.0002593961
 196836234, 3.258494E-05, 0.003282676, -3.190313E-05, 0.0002593961
 196936194, -0.0001973699, 0.003513555, -2.150391E-05, 0.0002593961
 197036154, -0.0001362459, 0.003378815, 6.166376E-05, 0.0002593961
 197136114, 1.098357E-05, 0.003724751, -7.234659E-05, 0.0002593961
 197236074, 0.000263336, 0.003549487, -6.662445E-05, 0.0002593961
 197336034, 0.0001037984, 0.003521966, -8.823322E-05, 0.0002593961
 197435994, -8.442904E-05, 0.003605495, -0.000103381, 0.0002593961
 197535954, -6.786429E-05, 0.00335532, -0.0001710017, 0.0002593961
 197635914, -1.957247E-05, 0.003557802, -0.0001737293, 0.0002593961
 197735874, 0.0002867124, 0.003622154, -0.0001159895, 0.0002593961
 197835834, 0.0001816937, 0.003664552, -0.0001501841, 0.0002593961
 197935794, 0.0001835183, 0.003656709, -0.0001528891, 0.0002593961
 198035754, 0.0001539607, 0.003609112, -0.0002916552, 0.0002593961
 198135714, 3.413516E-05, 0.00375078, -4.272302E-05, 0.0002593961
 198235674, 0.0002201045, 0.003592899, 2.80852E-05, 0.0002593961
 198336467, -3.573767E-05, 0.003520266, -9.82944E-05, 0.0002615578
 198436427, -8.887844E-05, 0.003640567, -5.781959E-05, 0.0002593961
 198536387, -0.0001338213, 0.003619196, 2.063889E-06, 0.0002593961
 198636347, 5.696862E-05, 0.003508426, -0.0001385862, 0.0002593961
 198736307, 0.0001122839, 0.003480321, 0.0002170195, 0.0002593961
 198836267, 0.0001394992, 0.003541997, -0.0001665677, 0.0002593961
 198936227, 0.0002175592, 0.003702551, -0.0001181285, 0.0002593961
 199036187, -9.553066E-05, 0.003862663, -2.692696E-05, 0.0002593961
 199136147, -8.367909E-05, 0.003381371, -0.0001244095, 0.0002593961
 199236107, -6.114389E-05, 0.003582366, 1.481418E-05, 0.0002593961
 199336067, -0.0001654511, 0.003424196, -1.147884E-05, 0.0002593961
 199436027, 0.0001907439, 0.003589164, -0.0001615844, 0.0002593961
 199535987, -9.059432E-05, 0.003547534, 1.237374E-05, 0.0002593961
 199635947, 8.034216E-05, 0.003372086, 5.810321E-06, 0.0002593961
 199735907, -1.266731E-05, 0.003604067, 7.552476E-06, 0.0002593961
 199835867, -0.0002505161, 0.003868796, -0.0001300661, 0.0002593961
 199935827, -0.0001217508, 0.003520544, -5.412797E-05, 0.0002593961
 200035787, 0.0001927325, 0.003485067, 4.26956E-05, 0.0002593961
 200135747, -2.712655E-05, 0.003481883, 8.641718E-05, 0.0002593961
 200235707, 0.0002499575, 0.003436037, 0.0001034478, 0.0002593961
 200335667, -0.0001916784, 0.003498426, -0.0003653281, 0.0002593961
 200436460, 0.0001587413, 0.00354219, -0.0001850766, 0.0002615578
 200536420, -8.525056E-05, 0.003711757, -0.0001510409, 0.0002593961
 200636380, -0.0001917022, 0.003634367, -5.89707E-05, 0.0002593961
 200736340, 7.247759E-05, 0.003517906, 0.000126098, 0.0002593961
 200836300, 8.766762E-05, 0.003429746, -7.96333E-05, 0.0002593961
 200936260, -6.780705E-05, 0.003527931, 8.469174E-05, 0.0002593961
 201036220, 0.0001658426, 0.00360409, 2.716051E-05, 0.0002593961
 201136180, -8.633042E-05, 0.003483924, -0.0001743418, 0.0002593961
 201236140, -6.909329E-05, 0.003368304, 1.313161E-05, 0.0002593961
 201336100, -0.0002276854, 0.003487165, 8.00933E-05, 0.0002593961
 201436060, -0.0001687141, 0.003557173, -8.553419E-05, 0.0002593961
 201536020, 4.586219E-05, 0.003475741, -9.039481E-05, 0.0002593961
 201635980, 5.331228E-05, 0.00337315, 0.0001602092, 0.0002593961
 201735940, -8.430921E-05, 0.003495141, -8.920438E-05, 0.0002593961
 201835900, -0.0001664733, 0.003576604, -2.597722E-06, 0.0002593961
 201935860, 7.077761E-06, 0.003589891, -8.220363E-05, 0.0002593961
 202035820, 0.0001518675, 0.003507765, -0.0001336838, 0.0002593961
 202135780, 5.708063E-05, 0.00368296, 9.203088E-05, 0.0002593961
 202235740, -1.001932E-05, 0.003527662, -0.0002725977, 0.0002593961
 202335700, 0.000181462, 0.003611357, -7.913881E-05, 0.0002593961
 202435660, -2.222371E-05, 0.003412294, -0.0001923602, 0.0002593961
 202536453, 0.0002214003, 0.003549627, -5.239694E-05, 0.0002615578
 202636413, 9.027551E-05, 0.00343475, 1.028247E-05, 0.0002593961
 202736373, 5.463514E-05, 0.003645565, -7.398506E-05, 0.0002593961
 202836333, 9.746513E-05, 0.003482031, -7.811042E-05, 0.0002593961
 202936293, -4.79482E-05, 0.003517773, -0.0002291168, 0.0002593961
 203036253, 0.0001268425, 0.003723148, 7.296027E-05, 0.0002593961
 203136213, 7.11906E-05, 0.003553719, -8.846557E-05, 0.0002593961
 203236173, -0.0001797066, 0.00361967, -0.0002601405, 0.0002593961
 203336133, -7.476376E-05, 0.003595449, -0.0001423707, 0.0002593961
 203436093, 0.0001653849, 0.003333973, 4.043986E-05, 0.0002593961
 203536053, -0.0001911579, 0.003748154, 0.0001886507, 0.0002593961
 203636013, 0.0002408497, 0.00359429, 2.702467E-05, 0.0002593961
 203735973, 2.21042E-05, 0.003703518, -0.0001121084, 0.0002593961
 203835933, -1.343392E-06, 0.00371027, -2.111782E-05, 0.0002593961
 203935893, 0.0001381548, 0.003740945, -5.756102E-05, 0.0002593961
 204035853, 8.705737E-05, 0.003509037, -0.0001357084, 0.0002593961
 204135813, -2.566817E-05, 0.00352092, 2.067454E-05, 0.0002593961
 204235773, 8.497669E-05, 0.003664914, -0.0001584516, 0.0002593961
 204335733, 7.513937E-05, 0.003675161, -0.0002387248, 0.0002593961
 204435693, 6.80627E-06, 0.003476616, -7.999438E-05, 0.0002593961
 204536486, 8.9951E-06, 0.003520687, 8.520293E-05, 0.0002593961
 204636446, 3.320224E-05, 0.003552365, 0.0001481254, 0.0002615578
 204736406, 0.0001233324, 0.003391252, 0.0001336278, 0.0002593961
 204836366, 5.19525E-05, 0.003374469, 3.312932E-05, 0.0002593961
 204936326, 2.735649E-05, 0.003530774, -0.0001156618, 0.0002593961
 205036286, -8.032679E-05, 0.003693503, -0.0002735879, 0.0002593961
 205136246, -4.318459E-05, 0.003573368, -1.462351E-05, 0.0002593961
 205236206, 1.313633E-05, 0.003556623, -0.0001634003, 0.0002593961
 205336166, -4.369263E-05, 0.003417877, 4.535529E-05, 0.0002593961
 205436126, 0.0001099536, 0.00344063, 1.97284E-05, 0.0002593961
 205536086, 0.0002189466, 0.003701999, -0.0001466212, 0.0002593961
 205636046, 5.338743E-05, 0.003573594, -0.0001094213, 0.0002593961
 205736006, -4.818908E-05, 0.003429946, -9.854783E-05, 0.0002593961
 205835966, -0.000108725, 0.003738715, -6.311981E-06, 0.0002593961
 205935926, 0.0001817652, 0.003523723, -0.0001294846, 0.0002593961
 206035886, -5.526744E-05, 0.003447579, -0.0002082349, 0.0002593961
 206135846, 0.0003001473, 0.003467281, -0.0001109395, 0.0002593961
 206235806, -8.336516E-05, 0.003481065, -3.151347E-05, 0.0002593961
 206335766, 0.0001151248, 0.003405151, 1.226173E-05, 0.0002593961
 206435726, 9.914746E-05, 0.00343791, 4.455811E-05, 0.0002593961
 206535686, 5.02449E-05, 0.003442236, -0.0001028508, 0.0002593961
 206636479, 1.870871E-05, 0.003702313, 4.977021E-05, 0.0002615578
 206736439, 0.0001554519, 0.003592885, -7.999323E-06, 0.0002593961
 206836399, -0.0001425267, 0.003705665, 1.719741E-05, 0.0002593961
 206936359, -0.0001472916, 0.003271038, -5.518017E-05, 0.0002593961
 207036319, 9.066582E-05, 0.003668253, -0.0002563512, 0.0002593961
 207136279, 4.560579E-05, 0.003660654, -5.217135E-05, 0.0002593961
 207236239, 9.22078E-05, 0.003396523, 2.460927E-05, 0.0002593961
 207336199, 6.282877E-06, 0.003443684, -3.487741E-05, 0.0002593961
 207436159, -0.0001387353, 0.003455102, 8.603945E-05, 0.0002593961
 207536119, 0.0001604553, 0.003373621, -0.0002517229, 0.0002593961
 207636079, 3.490427E-05, 0.003658913, 5.34702E-05, 0.0002593961
 207736039, -4.919789E-05, 0.003436819, -9.497178E-06, 0.0002593961
 207835999, -2.716636E-06, 0.003397308, 5.541968E-05, 0.0002593961
 207935959, 4.84931E-05, 0.003712958, -0.0001767667, 0.0002593961
 208035919, -0.0001519006, 0.003738543, 0.0001069344, 0.0002593961
 208135879, 2.091787E-05, 0.003496288, 7.182347E-05, 0.0002593961
 208235839, 0.0002028592, 0.003630208, -0.0001283132, 0.0002593961
 208335799, -0.0001632844, 0.003595458, 0.0002470303, 0.0002593961
 208435759, 2.353389E-06, 0.003544261, -9.041386E-05, 0.0002593961
 208535719, 0.0001066615, 0.003640294, -0.0001200243, 0.0002593961
 208635679, -3.053053E-05, 0.003667022, -0.0001406607, 0.0002593961
 208736472, -4.072571E-05, 0.003785042, 6.039119E-06, 0.0002615578
 208836432, 0.0001545263, 0.003657927, -5.180432E-05, 0.0002593961
 208936392, 9.768303E-05, 0.003651193, -0.0001251209, 0.0002593961
 209036352, 0.0002109707, 0.003455611, 0.0002505266, 0.0002593961
 209136312, 0.0001269864, 0.003567077, -1.685661E-05, 0.0002593961
 209236272, -8.977524E-06, 0.003556339, 3.054826E-05, 0.0002593961
 209336232, 8.456018E-05, 0.003765626, -2.211044E-05, 0.0002593961
 209436192, -5.344736E-05, 0.003394668, -0.0001045738, 0.0002593961
 209536152, -0.0002186522, 0.003490579, -4.334861E-05, 0.0002593961
 209636112, 1.643428E-05, 0.003585219, 0.000127236, 0.0002593961
 209736072, -6.622956E-05, 0.003429225, -9.528283E-05, 0.0002593961
 209836032, -8.416978E-05, 0.00376437, 5.106432E-05, 0.0002593961
 209935992, 6.691345E-05, 0.00350145, 0.0001018629, 0.0002593961
 210035952, 7.735591E-05, 0.003640849, -3.564958E-05, 0.0002593961
 210135912, -0.0001573492, 0.003533695, 1.258942E-05, 0.0002593961
 210235872, -5.896771E-05, 0.00360073, 0.0001912163, 0.0002593961
 210335832, 3.779901E-05, 0.003608903, -0.000145084, 0.0002593961
 210435792, 5.637633E-06, 0.003521204, 6.370497E-05, 0.0002593961
 210535752, -0.0001301791, 0.003222317, 6.11298E-07, 0.0002593961
 210635712, 6.851624E-05, 0.00341203, -4.197349E-05, 0.0002593961
 210735672, -0.0001194166, 0.003533891, 0.0001195155, 0.0002593961
 210836465, 2.342626E-05, 0.00371489, -8.176867E-06, 0.0002615578
 210936425, -7.510311E-05, 0.003642967, 2.11941E-05, 0.0002593961
 211036385, 0.0001807194, 0.00360025, -8.989541E-06, 0.0002593961
 211136345, -1.371827E-05, 0.003344342, -1.803629E-05, 0.0002593961
 211236305, -3.180031E-05, 0.003485634, -0.0002893875, 0.0002593961
 211336265, -0.0001786045, 0.003499216, -0.000202831, 0.0002593961
 211436225, -0.0001050525, 0.003694311, 1.120595E-05, 0.0002593961
 211536185, -4.856269E-05, 0.003421628, -0.0003976673, 0.0002593961
 211636145, -6.625238E-05, 0.003536718, -3.65838E-05, 0.0002593961
 211736105, -0.0001988801, 0.003507305, 4.102259E-05, 0.0002593961
 211836065, -0.0001843462, 0.003519183, -8.901968E-05, 0.0002593961
 211936025, 8.455807E-05, 0.003652095, 7.795075E-05, 0.0002593961
 212035985, 3.166599E-05, 0.003641035, -0.0001074016, 0.0002593961
 212135945, 7.873348E-05, 0.003369872, -6.510871E-05, 0.0002593961
 212235905, -7.968638E-06, 0.003591686, 0.0001719502, 0.0002593961
 212335865, -2.712413E-05, 0.003587275, 1.300052E-05, 0.0002593961
 212435825, 0.0001516815, 0.003324215, -0.0001420132, 0.0002593961
 212535785, -3.732666E-05, 0.003600877, 9.059379E-05, 0.0002593961
 212635745, 7.659475E-05, 0.003435228, -4.428053E-06, 0.0002593961
 212735705, -0.0001263501, 0.003444265, -5.984414E-05, 0.0002593961
 212835665, -0.0002204103, 0.003455808, -7.020644E-05, 0.0002593961
 212936458, 9.83829E-05, 0.003476767, -0.0002107857, 0.0002615578
 213036418, -0.0001079516, 0.003482134, -0.0002530921, 0.0002593961
 213136378, 0.0001392398, 0.003632196, 8.038164E-05, 0.0002593961
 213236338, -2.238381E-05, 0.003659708, 0.000126266, 0.0002593961
 213336298, 2.198315E-05, 0.00350076, -2.714263E-05, 0.0002593961
 213436258, 8.266959E-06, 0.003549883, -6.392424E-05, 0.0002593961
 213536218, -2.103269E-05, 0.003559185, -6.435918E-05, 0.0002593961
 213636178, 1.851763E-05, 0.003381583, -0.0001777724, 0.0002593961
 213736138, -0.0001030128, 0.003569606, -4.073897E-05, 0.0002593961
 213836098, 5.588909E-05, 0.00344285, -7.187947E-05, 0.0002593961
 213936058, 9.434373E-05, 0.003607977, -7.294121E-05, 0.0002593961
 214036018, 0.0002137092, 0.00372849, 6.43294E-05, 0.0002593961
 214135978, 1.10998E-05, 0.003715896, -2.62799E-05, 0.0002593961
 214235938, 3.614556E-05, 0.003529764, -1.762639E-05, 0.0002593961
 214335898, 0.0004430135, 0.00351685, 8.137906E-05, 0.0002593961
 214435858, 7.994643E-05, 0.003555048, -3.546369E-05, 0.0002593961
 214535818, 0.0001441283, 0.003642329, -0.0001817965, 0.0002593961
 214635778, 5.903133E-05, 0.003640491, -9.232165E-05, 0.0002593961
 214735738, 3.279234E-05, 0.003797675, -1.435182E-05, 0.0002593961
 214835698, 9.527467E-05, 0.00371968, -7.857397E-05, 0.0002593961
 214935658, -5.085708E-06, 0.00358358, -0.0003355162, 0.0002593961
 215036451, 6.33836E-05, 0.003573129, -0.0002029934, 0.0002615578
 215136411, -0.0001194277, 0.003721403, -2.631803E-05, 0.0002593961
 215236371, -1.724634E-05, 0.003719239, -8.425914E-06, 0.0002593961
 215336331, -6.272966E-05, 0.00352413, -5.069136E-06, 0.0002593961
 215436291, 0.0001011521, 0.003301163, 1.700079E-05, 0.0002593961
 215536251, -4.961281E-05, 0.003599105, -8.824274E-05, 0.0002593961
 215636211, 3.108488E-06, 0.003492212, 2.370124E-05, 0.0002593961
 215736171, 0.000252828, 0.003425729, -0.0001289114, 0.0002593961
 215836131, 0.0001476276, 0.003413322, 0.0001097407, 0.0002593961
 215936091, 0.0001086415, 0.003420244, -6.136585E-05, 0.0002593961
 216036051, -3.268662E-06, 0.003427326, -6.192838E-06, 0.0002593961
 216136011, -1.055813E-05, 0.003549126, -7.6292E-05, 0.0002593961
 216235971, 6.08988E-05, 0.003398585, 8.210592E-05, 0.0002593961
 216335931, 0.0002149803, 0.003288957, -0.0002087556, 0.0002593961
 216435891, 0.0001116705, 0.003727209, -0.0001119487, 0.0002593961
 216535851, -9.055385E-05, 0.003458042, -0.0001131559, 0.0002593961
 216635811, -0.0001089456, 0.003464734, 8.576895E-05, 0.0002593961
 216735771, -0.0002457303, 0.003501469, -0.0002027761, 0.0002593961
 216835731, 2.931662E-05, 0.003370839, -0.0002591813, 0.0002593961
 216935691, -8.445764E-06, 0.003499721, -0.0002823665, 0.0002593961
 217036484, 5.750462E-05, 0.003479267, -0.0002483444, 0.0002615578
 217136444, 1.1599E-05, 0.003428473, -8.461189E-05, 0.0002593961
 217236404, 0.0001415546, 0.003543607, 0.0001637483, 0.0002593961
 217336364, 4.688825E-06, 0.003455904, 5.87133E-05, 0.0002593961
 217436324, 1.549546E-05, 0.003463768, -0.0002047387, 0.0002593961
 217536284, -0.0002082703, 0.003512601, 2.365953E-05, 0.0002593961
 217636244, -0.0001395849, 0.003458666, -0.0001214173, 0.0002593961
 217736204, -0.0001200439, 0.003695078, 8.961906E-05, 0.0002593961
 217836164, -0.0001629818, 0.003656643, -3.209498E-05, 0.0002593961
 217936124, 8.367516E-05, 0.003528519, -0.0001953595, 0.0002593961
 218036084, -8.611711E-05, 0.003560739, -3.230948E-05, 0.0002593961
 218136044, -5.792405E-05, 0.003510266, -2.211282E-05, 0.0002593961
 218236004, 4.359024E-05, 0.003465335, -7.513259E-05, 0.0002593961
 218335964, 1.693994E-05, 0.003701187, 2.260973E-05, 0.0002593961
 218435924, 0.0001924356, 0.00356151, -0.0001564878, 0.0002593961
 218535884, 2.080976E-05, 0.003526913, -0.0003305221, 0.0002593961
 218635844, -7.099875E-05, 0.00354945, -8.097027E-06, 0.0002593961
 218735804, 4.873683E-05, 0.003577941, -8.684617E-05, 0.0002593961
 218835764, 6.364668E-05, 0.003618125, -0.0001946481, 0.0002593961
 218935724, -5.697538E-05, 0.00368154, 2.338785E-05, 0.0002593961
 219035684, -5.629797E-05, 0.003578534, -0.0001689866, 0.0002593961
 219136477, 0.0002001317, 0.003923889, -0.0001586017, 0.0002615578
 219236437, 6.175549E-05, 0.003616442, -7.413163E-05, 0.0002593961
 219336397, 4.437595E-05, 0.003487467, 0.0001177603, 0.0002593961
 219436357, 0.0002017174, 0.003601072, -0.0001570646, 0.0002593961
 219536317, 2.066466E-05, 0.003505329, -0.0003683428, 0.0002593961
 219636277, -7.97163E-05, 0.003442582, 4.955454E-05, 0.0002593961
 219736237, -2.356157E-05, 0.003699377, -0.0001499292, 0.0002593961
 219836197, 9.421499E-05, 0.003565966, -2.0553E-05, 0.0002593961
 219936157, -2.649569E-05, 0.003497749, -0.0002046398, 0.0002593961
 220036117, 4.394176E-05, 0.003680516, 7.766952E-06, 0.0002593961
 220136077, 0.0001029357, 0.003590569, -0.0001504368, 0.0002593961
 220236037, -3.656061E-06, 0.00324412, -4.652903E-05, 0.0002593961
 220335997, -8.428484E-05, 0.003525841, 2.854039E-05, 0.0002593961
 220435957, 3.801369E-05, 0.003632021, -1.900628E-05, 0.0002593961
 220535917, -3.683973E-05, 0.003514368, -4.209383E-05, 0.0002593961
 220635877, -8.303492E-05, 0.003788371, -8.168648E-05, 0.0002593961
 220735837, 5.148239E-05, 0.003532842, 0.0001177996, 0.0002593961
 220835797, -0.0001768634, 0.003778591, -2.771699E-05, 0.0002593961
 220935757, 4.808853E-05, 0.003635036, -0.0002547615, 0.0002593961
 221035717, 3.269477E-05, 0.003557719, 5.349164E-05, 0.0002593961
 221135677, 0.0002294437, 0.003538791, -2.219506E-05, 0.0002593961
 221236470, -2.398752E-05, 0.003515948, -0.0002910415, 0.0002615578
 221336430, -0.0001337487, 0.00362293, -0.000295193, 0.0002593961
 221436390, 5.399052E-05, 0.003657248, 3.189476E-05, 0.0002593961
 221536350, 0.0001250357, 0.003561083, 0.0002121493, 0.0002593961
 221636310, 0.0002200783, 0.003453696, -0.0002412856, 0.0002593961
 221736270, -0.0001286519, 0.003431736, -0.0002043729, 0.0002593961
 221836230, -0.0001266825, 0.003621527, -0.0001430702, 0.0002593961
 221936190, 0.0001037154, 0.003711845, -6.349645E-05, 0.0002593961
 222036150, 9.800818E-05, 0.003638033, -9.087264E-06, 0.0002593961
 222136110, 3.548004E-05, 0.003576611, -5.252882E-05, 0.0002593961
 222236070, -1.083778E-05, 0.003659742, -0.000127429, 0.0002593961
 222336030, -6.7901E-05, 0.003683484, -0.0002226261, 0.0002593961
 222435990, 2.330211E-05, 0.003594209, -0.0001581513, 0.0002593961
 222535950, -0.0003292405, 0.003377751, -0.0002183803, 0.0002593961
 222635910, -2.236632E-05, 0.003525533, -7.197956E-05, 0.0002593961
 222735870, 0.0001527636, 0.003544124, -9.928785E-05, 0.0002593961
 222835830, 0.0001665798, 0.003795823, 9.076538E-05, 0.0002593961
 222935790, -0.0001039235, 0.003466966, -0.000207651, 0.0002593961
 223035750, 5.313044E-05, 0.003434219, -0.0002597366, 0.0002593961
 223135710, -0.0001253159, 0.003507005, -7.247886E-05, 0.0002593961
 223235670, -0.0001460198, 0.003427294, -2.554706E-05, 0.0002593961
 223336463, -3.852032E-06, 0.003467231, -1.97141E-05, 0.0002615578
 223436423, -7.801148E-05, 0.003617842, -0.0001616677, 0.0002593961
 223536383, 0.0001479897, 0.003621914, -0.0001676378, 0.0002593961
 223636343, -0.000238708, 0.003622554, -3.401707E-05, 0.0002593961
 223736303, -3.681922E-05, 0.003573189, -7.532443E-05, 0.0002593961
 223836263, -0.0002050744, 0.003637519, -2.288857E-05, 0.0002593961
 223936223, -0.0001288156, 0.003737998, 0.0001540319, 0.0002593961
 224036183, -0.0003105919, 0.003683894, -0.0001442081, 0.0002593961
 224136143, -7.377994E-05, 0.003689636, -7.796384E-05, 0.0002593961
 224236103, 1.761059E-05, 0.003565298, -0.0001240592, 0.0002593961
 224336063, 0.000115635, 0.00341521, -0.0001890165, 0.0002593961
 224436023, 5.632293E-05, 0.003561855, -6.81247E-05, 0.0002593961
 224535983, -6.43705E-05, 0.003584434, -0.0001107333, 0.0002593961
 224635943, -0.0001535885, 0.003598669, -0.0001599113, 0.0002593961
 224735903, 0.0002307046, 0.003669396, -6.108224E-05, 0.0002593961
 224835863, 3.564348E-06, 0.003449212, -3.494295E-05, 0.0002593961
 224935823, -4.711983E-05, 0.003577788, 1.394907E-05, 0.0002593961
 225035783, -7.673717E-05, 0.00353667, -1.046E-05, 0.0002593961
 225135743, 0.0001782446, 0.003463611, 5.889206E-05, 0.0002593961
 225235703, 0.0001221601, 0.003542106, -3.076633E-05, 0.0002593961
 225335663, -3.967454E-05, 0.003708096, -0.0002491228, 0.0002593961
 225436456, -1.105189E-05, 0.003489706, -6.399296E-05, 0.0002615578
 225536416, -0.0001907805, 0.003550631, -0.0001953476, 0.0002593961
 225636376, -0.0001602355, 0.003568038, -0.0001460242, 0.0002593961
 225736336, -2.842338E-05, 0.003762846, -3.841652E-05, 0.0002593961
 225836296, 0.0003218266, 0.003743294, 3.160161E-06, 0.0002593961
 225936256, 7.549187E-05, 0.003541886, 3.061499E-05, 0.0002593961
 226036216, -6.23776E-05, 0.003568564, -6.347143E-05, 0.0002593961
 226136176, 7.669241E-05, 0.003485472, -0.000135992, 0.0002593961
 226236136, 8.904867E-05, 0.003512759, -5.683054E-05, 0.0002593961
 226336096, -0.0002048686, 0.00362503, -0.0003177301, 0.0002593961
 226436056, 9.043953E-05, 0.00357154, -0.0002354192, 0.0002593961
 226536016, 2.59656E-05, 0.003623639, 3.707594E-05, 0.0002593961
 226635976, -0.0001180515, 0.003769845, -0.0001829143, 0.0002593961
 226735936, -2.832046E-05, 0.003563951, -0.0002484961, 0.0002593961
 226835896, -0.0001584028, 0.003558967, -6.332248E-05, 0.0002593961
 226935856, -0.000145984, 0.003613373, -6.261584E-05, 0.0002593961
 227035816, 7.838453E-05, 0.003541056, -7.48883E-05, 0.0002593961
 227135776, 0.0001180972, 0.003871076, -4.196157E-05, 0.0002593961
 227235736, 5.569251E-06, 0.00354608, -0.0002320946, 0.0002593961
 227335696, 6.40482E-05, 0.003486841, -0.000194772, 0.0002593961
 227435656, -4.608457E-05, 0.003724519, -2.5385E-05, 0.0002593961
 227536449, -8.44507E-05, 0.00377062, 5.761065E-05, 0.0002615578
 227636409, 1.490019E-05, 0.003704862, 0.000102846, 0.0002593961
 227736369, 0.0002102438, 0.003861545, -0.0002659853, 0.0002593961
 227836329, 3.308853E-05, 0.003614092, -0.0002494899, 0.0002593961
 227936289, 7.298623E-06, 0.003339992, -7.217022E-05, 0.0002593961
 228036249, 0.0001010541, 0.003606621, -0.0001628975, 0.0002593961
 228136209, -7.00856E-05, 0.003567294, 5.460818E-05, 0.0002593961
 228236169, 5.863987E-05, 0.003728088, -0.000129257, 0.0002593961
 228336129, 3.671178E-05, 0.003625827, 0.000176184, 0.0002593961
 228436089, 0.0003016639, 0.003460542, -0.000231251, 0.0002593961
 228536049, 1.174207E-05, 0.003726811, 9.486217E-05, 0.0002593961
 228636009, 0.0002781469, 0.003455503, -7.118835E-05, 0.0002593961
 228735969, 4.750638E-05, 0.003712059, -3.407069E-05, 0.0002593961
 228835929, 9.99347E-05, 0.003694239, 7.646241E-05, 0.0002593961
 228935889, 0.0001739852, 0.003756418, 6.373717E-05, 0.0002593961
 229035849, -0.0002339725, 0.003587336, -8.648152E-05, 0.0002593961
 229135809, -0.0001067806, 0.003562077, -7.534112E-05, 0.0002593961
 229235769, -8.795806E-05, 0.003607068, -0.0002117168, 0.0002593961
 229335729, 0.0001544431, 0.003699546, -0.0001922684, 0.0002593961
 229435689, 0.0001163448, 0.003676622, 7.278271E-05, 0.0002593961
 229536482, 0.0001302967, 0.003648678, 0.0001041679, 0.0002615578
 229636442, 0.0001204656, 0.0034769, -6.315564E-06, 0.0002593961
 229736402, -0.0001045107, 0.003824979, 7.253247E-05, 0.0002593961
 229836362, 0.0002312016, 0.003767267, -0.0001231321, 0.0002593961
 229936322, -0.0001437744, 0.003543324, -0.0002680398, 0.0002593961
 230036282, -0.0001411305, 0.003661079, -0.0002476643, 0.0002593961
 230136242, -0.000106773, 0.003474907, -0.0001294262, 0.0002593961
 230236202, 8.984638E-05, 0.003730328, -3.085571E-05, 0.0002593961
 230336162, 4.500654E-05, 0.003661533, -4.767179E-05, 0.0002593961
 230436122, -0.0001036332, 0.003484815, 4.00824E-05, 0.0002593961
 230536082, 3.032191E-05, 0.003631455, 3.77933E-05, 0.0002593961
 230636042, 6.993832E-05, 0.003539849, -8.539837E-05, 0.0002593961
 230736002, 2.288427E-05, 0.003773598, 6.449146E-05, 0.0002593961
 230835962, 6.736095E-05, 0.003766826, -0.000105601, 0.0002593961
 230935922, -0.0001253218, 0.003646138, -0.0001030307, 0.0002593961
 231035882, 9.025089E-05, 0.00348892, -0.0001278163, 0.0002593961
 231135842, -0.0001398927, 0.003788004, -0.0001503879, 0.0002593961
 231235802, -7.836649E-05, 0.003645642, -0.0001878881, 0.0002593961
 231335762, -0.000283333, 0.003575244, -0.0001790415, 0.0002593961
 231435722, -1.111425E-05, 0.003590391, -5.179598E-05, 0.0002593961
 231535682, 0.0001893953, 0.003579521, -0.0003058044, 0.0002593961
 231636475, -0.0001857955, 0.003588, -0.0001684687, 0.0002615578
 231736435, -0.0001774795, 0.003481455, -0.0001109907, 0.0002593961
 231836395, 3.213596E-05, 0.00370755, 9.426518E-05, 0.0002593961
 231936355, -9.486557E-05, 0.003531505, 1.076863E-05, 0.0002593961
 232036315, -6.042112E-05, 0.003454986, -0.0001249433, 0.0002593961
 232136275, -0.0001903627, 0.00358775, -1.743216E-05, 0.0002593961
 232236235, -7.676455E-05, 0.003395871, -0.0001073515, 0.0002593961
 232336195, 0.0001894495, 0.003566267, -0.0001352198, 0.0002593961
 232436155, -8.065093E-06, 0.0034676, -1.082107E-05, 0.0002593961
 232536115, -0.0002139535, 0.003397039, -0.0002792921, 0.0002593961
 232636075, 0.0001691237, 0.003590856, 0.000139176, 0.0002593961
 232736035, 9.843018E-05, 0.003714435, 0.000106932, 0.0002593961
 232835995, 3.13401E-05, 0.0035282, 1.435302E-05, 0.0002593961
 232935955, 7.589578E-06, 0.003705632, -0.0001588627, 0.0002593961
 233035915, 0.0001940909, 0.003847298, -3.169937E-05, 0.0002593961
 233135875, -0.0001387227, 0.003537333, -0.0002130228, 0.0002593961
 233235835, -0.0002315794, 0.003386359, -3.213788E-05, 0.0002593961
 233335795, -0.0001174975, 0.003489833, 1.237612E-05, 0.0002593961
 233435755, -0.0001679856, 0.003523773, -5.624069E-05, 0.0002593961
 233535715, -7.138695E-05, 0.003513284, -0.0001534647, 0.0002593961
 233635675, -0.0002418967, 0.003720506, 0.0001046024, 0.0002593961
 233736468, -0.000155099, 0.00360377, -8.294084E-05, 0.0002615578
 233836428, -1.598305E-06, 0.003464394, -0.0002292324, 0.0002593961
 233936388, 0.0001878378, 0.003714943, 6.787921E-05, 0.0002593961
 234036348, 1.567325E-05, 0.00360307, -0.0002233196, 0.0002593961
 234136308, 0.0001037284, 0.003557628, -9.948088E-05, 0.0002593961
 234236268, 0.0001409782, 0.00367138, -0.0001500304, 0.0002593961
 234336228, 7.541494E-05, 0.003532429, 0.0001662722, 0.0002593961
 234436188, 7.674946E-05, 0.003551374, -0.0001038839, 0.0002593961
 234536148, -0.0001861706, 0.003762467, -5.923881E-05, 0.0002593961
 234636108, 5.532265E-05, 0.00380072, -0.0002145791, 0.0002593961
 234736068, -5.979771E-05, 0.003812672, -4.986795E-05, 0.0002593961
 234836028, 5.54642E-05, 0.003675984, -0.0001295477, 0.0002593961
 234935988, 0.0001040027, 0.003519058, -8.721199E-05, 0.0002593961
 235035948, -0.0001814314, 0.003598592, -0.0001182584, 0.0002593961
 235135908, -4.798383E-05, 0.003583027, -0.0003091242, 0.0002593961
 235235868, 0.0001475472, 0.003530195, -1.722362E-05, 0.0002593961
 235335828, 4.866963E-05, 0.003577235, -3.878232E-05, 0.0002593961
 235435788, -1.811941E-05, 0.003593304, -4.806741E-05, 0.0002593961
 235535748, 0.0001162744, 0.003563117, -0.0001174743, 0.0002593961
 235635708, -9.65898E-05, 0.003721831, -0.0001059907, 0.0002593961
 235735668, -5.6073E-05, 0.003525943, -0.0001028984, 0.0002593961
 235836461, -0.00016268, 0.003471696, 4.682614E-05, 0.0002615578
 235936421, -0.0001830691, 0.003497525, -0.000194094, 0.0002593961
 236036381, -0.0003714926, 0.003604213, 1.149195E-05, 0.0002593961
 236136341, -9.395018E-05, 0.003467303, 0.0001977368, 0.0002593961
 236236301, 2.602775E-05, 0.003575464, -0.0001860661, 0.0002593961
 236336261, 8.099787E-05, 0.003461142, -3.303518E-05, 0.0002593961
 236436221, 0.0001297777, 0.003599382, -0.0001917191, 0.0002593961
 236536181, -3.54879E-05, 0.003371706, -0.0001144547, 0.0002593961
 236636141, 3.917179E-06, 0.003477077, -0.0002523212, 0.0002593961
 236736101, -2.229903E-05, 0.003454523, 2.167191E-05, 0.0002593961
 236836061, -9.560395E-05, 0.003570213, 3.819249E-05, 0.0002593961
 236936021, 6.849944E-05, 0.003607507, -5.384198E-05, 0.0002593961
 237035981, 0.000154588, 0.003801582, 8.35287E-05, 0.0002593961
 237135941, -0.0002203687, 0.003697547, 9.719415E-05, 0.0002593961
 237235901, 5.762674E-05, 0.003710129, -0.0001771373, 0.0002593961
 237335861, -0.0001530194, 0.003569495, -0.0002259935, 0.0002593961
 237435821, -0.0003050556, 0.003664164, 1.542309E-05, 0.0002593961
 237535781, 3.060255E-05, 0.003667184, -1.773125E-05, 0.0002593961
 237635741, -0.000102449, 0.003294684, 3.168983E-05, 0.0002593961
 237735701, -4.02584E-05, 0.003376194, 9.252543E-05, 0.0002593961
 237835661, 2.256813E-06, 0.003697787, 5.871808E-05, 0.0002593961
 237936454, 5.963004E-05, 0.003717369, -0.0002685807, 0.0002615578
 238036414, -6.978504E-06, 0.003764753, -1.547075E-05, 0.0002593961
 238136374, -0.0001590789, 0.003603861, 5.668636E-05, 0.0002593961
 238236334, 7.68973E-06, 0.003529427, -0.0001108667, 0.0002593961
 238336294, -8.869123E-07, 0.003426514, -1.711518E-05, 0.0002593961
 238436254, 5.41488E-05, 0.003706435, -0.0001147741, 0.0002593961
 238536214, 1.303736E-05, 0.003704394, -3.244533E-05, 0.0002593961
 238636174, -5.041899E-05, 0.003625959, 5.161366E-05, 0.0002593961
 238736134, -0.0002943089, 0.003442808, -9.151373E-05, 0.0002593961
 238836094, 1.217775E-05, 0.003650768, -8.494555E-05, 0.0002593961
 238936054, 0.0001779669, 0.00348423, -1.816977E-05, 0.0002593961
 239036014, -1.498762E-05, 0.003460282, -6.063061E-05, 0.0002593961
 239135974, -8.676026E-05, 0.003590373, -0.0001535385, 0.0002593961
 239235934, -7.387174E-05, 0.003559975, -0.0001261886, 0.0002593961
 239335894, 0.0001409456, 0.003531682, -0.0001960744, 0.0002593961
 239435854, 1.731811E-05, 0.003652012, 3.566031E-05, 0.0002593961
 239535814, -6.117599E-05, 0.003677588, 6.204269E-05, 0.0002593961
 239635774, -0.0001451657, 0.003622276, -0.0002256718, 0.0002593961
 239735734, 2.761785E-05, 0.003865363, -6.499551E-05, 0.0002593961
 239835694, 0.0001888093, 0.003567851, 0.0001002662, 0.0002593961
 239935654, 0.0001161192, 0.003683255, 0.0001550578, 0.0002593961
 240036447, 5.30317E-05, 0.003620394, 9.200031E-05, 0.0002615578
 240136407, -0.0001841628, 0.003689163, -1.232011E-05, 0.0002593961
 240236367, -0.0001707826, 0.003694264, -0.0001681835, 0.0002593961
 240336327, 5.675509E-05, 0.003676945, 1.703774E-05, 0.0002593961
 240436287, -4.834792E-05, 0.003487946, 0.0001539556, 0.0002593961
 240536247, -0.0003264419, 0.00361502, -0.0001516403, 0.0002593961
 240636207, -4.705148E-05, 0.003623683, -9.78579E-05, 0.0002593961
 240736167, 0.0001172356, 0.003651592, -0.0001330403, 0.0002593961
 240836127, -0.0001873748, 0.003516505, -0.0001682097, 0.0002593961
 240936087, 0.0001133783, 0.003325337, 4.12168E-05, 0.0002593961
 241036047, 4.038697E-05, 0.003356214, -0.0001295334, 0.0002593961
 241136007, -0.0002564726, 0.003671759, -4.184002E-05, 0.0002593961
 241235967, -0.0001813009, 0.003614663, 4.666012E-05, 0.0002593961
 241335927, -6.025421E-06, 0.003621846, 7.365738E-05, 0.0002593961
 241435887, -0.000146824, 0.003500554, -0.0001115972, 0.0002593961
 241535847, 0.0001037382, 0.003535273, -1.929703E-05, 0.0002593961
 241635807, -0.0001558198, 0.003566521, -0.0001072741, 0.0002593961
 241735767, 9.498293E-05, 0.003572524, -9.942248E-05, 0.0002593961
 241835727, 1.192713E-05, 0.003409597, -0.0002540633, 0.0002593961
 241935687, -8.917976E-06, 0.003695908, -8.5222E-05, 0.0002593961
 242036480, 1.990421E-05, 0.003705292, 0.0001145866, 0.0002615578
 242136440, 1.623225E-05, 0.003414583, -0.0001074385, 0.0002593961
 242236400, -1.587468E-05, 0.003610022, 6.655416E-05, 0.0002593961
 242336360, -4.325117E-05, 0.003529638, -0.0003045318, 0.0002593961
 242436320, -0.0001076694, 0.003518142, -3.961051E-05, 0.0002593961
 242536280, -2.900788E-05, 0.003735872, -9.105734E-05, 0.0002593961
 242636240, 6.528391E-05, 0.003462479, -0.0002022995, 0.0002593961
 242736200, -0.0001667341, 0.003508857, -0.000313799, 0.0002593961
 242836160, -0.0001006605, 0.003440951, -5.865491E-05, 0.0002593961
 242936120, -3.520758E-05, 0.003658183, -0.0001926033, 0.0002593961
 243036080, 5.393206E-05, 0.003711916, -1.666357E-05, 0.0002593961
 243136040, -0.0001477662, 0.003651656, 8.714289E-05, 0.0002593961
 243236000, -8.49573E-05, 0.003528545, -4.16291E-05, 0.0002593961
 243335960, -0.0001509304, 0.003593026, -0.0001404832, 0.0002593961
 243435920, 0.0002538114, 0.003493381, -8.185927E-05, 0.0002593961
 243535880, 0.0001953611, 0.00381403, -2.475583E-05, 0.0002593961
 243635840, -4.054137E-05, 0.003562598, 5.24311E-05, 0.0002593961
 243735800, -3.809082E-05, 0.003797992, -0.0001570407, 0.0002593961
 243835760, -8.106425E-05, 0.00365579, -4.807575E-05, 0.0002593961
 243935720, -0.0001043699, 0.003478545, 0.0001830715, 0.0002593961
 244035680, -3.718452E-05, 0.003603979, -0.0001807634, 0.0002593961
 244136473, -0.0003316519, 0.003721945, -9.882194E-05, 0.0002615578
 244236433, -0.0001340262, 0.003618102, -0.0001920778, 0.0002593961
 244336393, -4.952454E-05, 0.003584405, -6.272667E-05, 0.0002593961
 244436353, 0.0001214034, 0.003679266, -8.768269E-05, 0.0002593961
 244536313, -0.0001838212, 0.003713157, -0.000196843, 0.0002593961
 244636273, 9.152813E-05, 0.003618181, -0.0001109835, 0.0002593961
 244736233, -2.981855E-05, 0.003662969, -8.653157E-05, 0.0002593961
 244836193, -7.231064E-05, 0.003545451, -6.038037E-05, 0.0002593961
 244936153, 4.287685E-05, 0.003698373, -4.99168E-05, 0.0002593961
 245036113, 5.702566E-06, 0.003560474, -6.862875E-05, 0.0002593961
 245136073, 0.0001178647, 0.003731581, -0.0001591511, 0.0002593961
 245236033, 0.0001443628, 0.003725694, 9.187002E-05, 0.0002593961
 245335993, -6.4845E-05, 0.003570759, -8.249546E-06, 0.0002593961
 245435953, -6.549378E-05, 0.003644755, -0.0001438102, 0.0002593961
 245535913, -0.0002165865, 0.003686025, -0.0001250899, 0.0002593961
 245635873, -0.0001907691, 0.003498554, 8.839169E-05, 0.0002593961
 245735833, -0.0001432551, 0.003380423, -5.981674E-05, 0.0002593961
 245835793, 5.386614E-05, 0.003387314, -0.0001698732, 0.0002593961
 245935753, 0.0001561015, 0.003516816, -0.0001437744, 0.0002593961
 246035713, 0.0003077517, 0.003442083, 1.685423E-05, 0.0002593961
 246135673, 0.0001295416, 0.003451325, -0.0001553569, 0.0002593961
 246236466, -8.901578E-05, 0.003580546, -1.769629E-05, 0.0002615578
 246336426, -0.0001259005, 0.003756505, -0.0004168237, 0.0002593961
 246436386, -8.325826E-05, 0.003648605, -0.00025237, 0.0002593961
 246536346, 8.603132E-05, 0.003645314, -4.945206E-05, 0.0002593961
 246636306, -3.764726E-05, 0.003712037, -0.0001283859, 0.0002593961
 246736266, 0.0001215312, 0.003350653, -4.141581E-05, 0.0002593961
 246836226, -8.675546E-05, 0.003399611, -4.407194E-05, 0.0002593961
 246936186, -5.754619E-06, 0.003706388, -1.203771E-05, 0.0002593961
 247036146, -6.022541E-05, 0.003729225, -8.068437E-06, 0.0002593961
 247136106, -0.0001112831, 0.003650766, -4.774329E-05, 0.0002593961
 247236066, -4.345359E-05, 0.003631583, 8.10299E-05, 0.0002593961
 247336026, -2.303307E-05, 0.003707482, -8.493837E-06, 0.0002593961
 247435986, -8.427587E-06, 0.003588655, -5.840108E-06, 0.0002593961
 247535946, -8.573652E-05, 0.003466014, 6.960826E-05, 0.0002593961
 247635906, -0.0001251811, 0.003782611, -0.01192769, 0.0002593961
 247735866, 0.0003564577, 0.003889556, -0.1852165, 0.0002593961
 247835826, 0.0002921276, 0.003695519, -0.1112237, 0.0002593961
 247935786, -4.630376E-05, 0.003508051, 0.008887732, 0.0002593961
 248035746, -0.0001768393, 0.003441949, 0.05591244, 0.0002593961
 248135706, -0.0002275421, 0.003448209, 0.04813405, 0.0002593961
 248235666, -5.765493E-05, 0.003554447, -0.163422, 0.0002593961
 248336459, -0.001283818, 0.002128841, -0.6956109, 0.0002615578
 248436419, -0.004319848, -0.000690147, -0.6105325, 0.0002593961
 248536379, -0.006936903, -0.003474041, -0.3154002, 0.0002593961
 248636339, -0.008382562, -0.00492214, -0.1086391, 0.0002593961
 248736299, -0.00884484, -0.005073144, -0.04930196, 0.0002593961
 248836259, -0.008738368, -0.004694456, -0.07361375, 0.0002593961
 248936219, -0.008150783, -0.004130273, -0.1096738, 0.0002593961
 249036179, -0.007752584, -0.003566151, -0.1246322, 0.0002593961
 249136139, -0.007228129, -0.002758144, -0.1190953, 0.0002593961
 249236099, -0.006591796, -0.002310931, -0.1052853, 0.0002593961
 249336059, -0.006048996, -0.001536179, -0.09298059, 0.0002593961
 249436019, -0.005682107, -0.001100381, -0.0848591, 0.0002593961
 249535979, -0.005089439, -0.0005457, -0.07995348, 0.0002593961
 249635939, -0.0046096, -0.000130516, -0.07557925, 0.0002593961
 249735899, -0.004221357, 0.0002508552, -0.0712776, 0.0002593961
 249835859, -0.003735925, 0.0005021075, -0.06712133, 0.0002593961
 249935819, -0.003390619, 0.0008468032, -0.0630662, 0.0002593961
 250035779, -0.00317968, 0.001167208, -0.05889931, 0.0002593961
 250135739, -0.002631949, 0.001566345, -0.05527792, 0.0002593961
 250235699, -0.002351791, 0.001609689, -0.05158461, 0.0002593961
 250335659, -0.001931738, 0.0019554, -0.04840216, 0.0002593961
 250436452, -0.001506725, 0.00205231, -0.04561506, 0.0002615578
 250536412, -0.001038241, 0.002376379, -0.04200144, 0.0002593961
 250636372, -0.00105135, 0.002621778, -0.03892805, 0.0002593961
 250736332, -0.001044119, 0.00264672, -0.03685579, 0.0002593961
 250836292, -0.0009999889, 0.00279526, -0.0347633, 0.0002593961
 250936252, -0.0009060014, 0.002603416, -0.03299138, 0.0002593961
 251036212, -0.0009272555, 0.002535396, -0.03082016, 0.0002593961
 251136172, -0.0009049003, 0.002138523, -0.02892001, 0.0002593961
 251236132, -0.0008481058, 0.002134196, -0.02711231, 0.0002593961
 251336092, -0.0007828265, 0.002126671, -0.02523637, 0.0002593961
 251436052, -0.0009177484, 0.001967546, -0.02383294, 0.0002593961
 251536012, -0.0007694695, 0.001812664, -0.02229611, 0.0002593961
 251635972, -0.0007956077, 0.001787592, -0.02091503, 0.0002593961
 251735932, -0.0005941748, 0.001943723, -0.01950376, 0.0002593961
 251835892, -0.0006169251, 0.001671967, -0.01835888, 0.0002593961
 251935852, -0.0007182764, 0.001683972, -0.01706113, 0.0002593961
 252035812, -0.0008206714, 0.001504751, -0.01607984, 0.0002593961
 252135772, -0.0006621424, 0.001596685, -0.01511794, 0.0002593961
 252235732, -0.0005649377, 0.001469914, -0.01404506, 0.0002593961
 252335692, -0.0008321776, 0.001627628, -0.01318382, 0.0002593961
 252436485, -0.0006455079, 0.001443592, -0.01244299, 0.0002615578
 252536445, -0.0006534011, 0.001551243, -0.01151114, 0.0002593961
 252636405, -0.000479465, 0.001572542, -0.01101431, 0.0002593961
 252736365, -0.0004166277, 0.001719178, -0.01039183, 0.0002593961
 252836325, -0.0004167123, 0.001992764, -0.009730011, 0.0002593961
 252936285, -0.0004021222, 0.002321422, -0.0089104, 0.0002593961
 253036245, -0.000130252, 0.00246473, -0.007596349, 0.0002593961
 253136205, -0.0001058996, 0.002666731, -0.007568341, 0.0002593961
 253236165, -9.852331E-05, 0.003037516, -0.007400033, 0.0002593961
 253336125, -0.00012972, 0.003283288, -0.007158543, 0.0002593961
 253436085, 0.0001236664, 0.003652471, -0.006597646, 0.0002593961
 253536045, 6.043078E-05, 0.003848394, -0.006085513, 0.0002593961
 253636005, 0.0001414098, 0.004129009, -0.00566302, 0.0002593961
 253735965, 0.0002827609, 0.004364954, -0.005341035, 0.0002593961
 253835925, 0.0003029569, 0.004591247, -0.005100959, 0.0002593961
 253935885, 0.0003854022, 0.004735538, -0.00468859, 0.0002593961
 254035845, 0.0003706172, 0.004798713, -0.00452827, 0.0002593961
 254135805, 0.0002464355, 0.004917176, -0.004094585, 0.0002593961
 254235765, 0.0006038705, 0.005091718, -0.003858622, 0.0002593961
 254335725, 0.0003955077, 0.005093747, -0.003680933, 0.0002593961
 254435685, 0.0004512577, 0.005122914, -0.003298093, 0.0002593961
 254536478, 0.0005247276, 0.005306474, -0.003219559, 0.0002615578
 254636438, 0.0005509486, 0.005466393, -0.003163899, 0.0002593961
 254736398, 0.0004780075, 0.005405236, -0.002850248, 0.0002593961
 254836358, 0.0005414502, 0.00567391, -0.002535239, 0.0002593961
 254936318, 0.0008215554, 0.005642688, 0.02252363, 0.0002593961
 255036278, 0.002256617, 0.006706941, 0.32577, 0.0002593961
 255136238, 0.002204396, 0.006353826, 0.3140858, 0.0002593961
 255236198, 0.002147748, 0.006004712, 0.2932354, 0.0002593961
 255336158, 0.00205539, 0.005828832, 0.2742064, 0.0002593961
 255436118, 0.002061751, 0.005612521, 0.2570913, 0.0002593961
 255536078, 0.001849517, 0.005337083, 0.2410845, 0.0002593961
 255636038, 0.001744668, 0.005135567, 0.2261897, 0.0002593961
 255735998, 0.001486341, 0.00496787, 0.2118854, 0.0002593961
 255835958, 0.001184334, 0.004893148, 0.1982805, 0.0002593961
 255935918, 0.001182248, 0.004699202, 0.185645, 0.0002593961
 256035878, 0.0009470244, 0.004536353, 0.1740515, 0.0002593961
 256135838, 0.0006183721, 0.004351173, 0.1601543, 0.0002593961
 256235798, 0.000796591, 0.003776335, 0.1285698, 0.0002593961
 256335758, 0.005372464, 0.001209278, 0.1186514, 0.0002593961
 256435718, 0.01427567, -0.004289791, 0.1104561, 0.0002593961
 256535678, 0.0239244, -0.008763944, 0.1032931, 0.0002593961
 256636471, 0.03166599, -0.008242411, 0.09428842, 0.0002615578
 256736431, 0.03336013, -0.0005648778, 0.08329779, 0.0002593961
 256836391, 0.03018821, 0.01256399, 0.07419896, 0.0002593961
 256936351, 0.02312925, 0.02550137, 0.06556712, 0.0002593961
 257036311, 0.01508397, 0.0340513, 0.05723328, 0.0002593961
 257136271, 0.01084055, 0.03730588, 0.05014709, 0.0002593961
 257236231, 0.01264071, 0.03662732, 0.04363685, 0.0002593961
 257336191, 0.01997801, 0.03246228, 0.03795297, 0.0002593961
 257436151, 0.03037454, 0.02633544, 0.03245194, 0.0002593961
 257536111, 0.03974949, 0.02390681, 0.02806359, 0.0002593961
 257636071, 0.04524957, 0.02731813, 0.02454064, 0.0002593961
 257736031, 0.04340848, 0.02799975, 0.02157618, 0.0002593961
 257835991, 0.03409291, 0.02074377, 0.01823807, 0.0002593961
 257935951, 0.01882651, 0.008219335, 0.01600677, 0.0002593961
 258035911, 0.0009798865, -0.003996672, 0.01433775, 0.0002593961
 258135871, -0.01694383, -0.01312214, 0.01321302, 0.0002593961
 258235831, -0.03163551, -0.01776824, 0.01194801, 0.0002593961
 258335791, -0.04100175, -0.01737555, 0.01079888, 0.0002593961
 258435751, -0.04473969, -0.01303102, 0.009278593, 0.0002593961
 258535711, -0.04250894, -0.006666548, 0.008127698, 0.0002593961
 258635671, -0.03581204, -0.0002772048, 0.006881149, 0.0002593961
 258736464, -0.02611132, 0.003574107, 0.00618362, 0.0002615578
 258836424, -0.01458749, 0.004725602, 0.005088175, 0.0002593961
 258936384, -0.007418767, 0.003356521, 0.004633215, 0.0002593961
 259036344, -0.007262007, 0.00110719, 0.004147976, 0.0002593961
 259136304, -0.01506375, -0.0005786842, 0.003786643, 0.0002593961
 259236264, -0.02859383, -0.001140059, 0.003278232, 0.0002593961
 259336224, -0.03686174, -0.001363883, 0.002896862, 0.0002593961
 259436184, -0.03452835, -0.002487201, 0.002207043, 0.0002593961
 259536144, -0.02422277, -0.006730995, 0.001778057, 0.0002593961
 259636104, -0.01256223, -0.01415692, 0.001600704, 0.0002593961
 259736064, -0.004015053, -0.02127285, 0.001454724, 0.0002593961
 259836024, -0.0009833069, -0.02429739, 0.001238551, 0.0002593961
 259935984, -0.001695263, -0.02134072, 0.000692833, 0.0002593961
 260035944, -0.003504756, -0.01253603, 0.000167316, 0.0002593961
 260135904, -0.004124098, -0.00220508, 0.0001828022, 0.0002593961
 260235864, -0.003100231, 0.006518216, 0.0002164619, 0.0002593961
 260335824, -0.0004968236, 0.01086266, -0.0002113962, 0.0002593961
 260435784, 0.002430471, 0.01093587, -0.0003791079, 0.0002593961
 260535744, 0.001061095, 0.0109519, -0.0003029946, 0.0002593961
 260635704, -0.005797901, 0.01469838, -0.0002491443, 0.0002593961
 260735664, -0.01310076, 0.01991752, -0.0004201829, 0.0002593961
 260836457, -0.01578213, 0.0237216, -0.0004426246, 0.0002615578
 260936417, -0.01222685, 0.02261581, -0.000511786, 0.0002593961
 261036377, -0.003734452, 0.01661822, -0.0007038363, 0.0002593961
 261136337, 0.007108047, 0.006711503, -0.0006706319, 0.0002593961
 261236297, 0.01631247, -0.003838859, -0.0005906186, 0.0002593961
 261336257, 0.01960262, -0.01009343, -0.000497731, 0.0002593961
 261436217, 0.01514511, -0.01009032, -0.0007800319, 0.0002593961
 261536177, 0.006527361, -0.009703767, -0.0007365176, 0.0002593961
 261636137, -0.001706924, -0.01237167, -0.0004888414, 0.0002593961
 261736097, -0.00678091, -0.01860143, -0.0002166049, 0.0002593961
 261836057, -0.00910025, -0.02543044, -0.0001652807, 0.0002593961
 261936017, -0.01258204, -0.02744109, -0.0004726402, 0.0002593961
 262035977, -0.01959327, -0.02199958, -0.0004684314, 0.0002593961
 262135937, -0.02855511, -0.01109026, -0.0003609619, 0.0002593961
 262235897, -0.03661909, 0.0009659476, -0.0003523203, 0.0002593961
 262335857, -0.037465, 0.009927373, -0.0003973778, 0.0002593961
 262435817, -0.02761618, 0.01409295, -0.000984891, 0.0002593961
 262535777, -0.009785734, 0.01405824, -0.001147736, 0.0002593961
 262635737, 0.01047511, 0.01108966, -0.0008213751, 0.0002593961
 262735697, 0.02736601, 0.006990431, -0.0006803031, 0.0002593961
 262835657, 0.03760091, 0.00321414, -0.0006795775, 0.0002593961
 262936450, 0.04050996, 0.0003162209, -0.0005685203, 0.0002615578
 263036410, 0.03736247, -0.001086274, -0.0003912886, 0.0002593961
 263136370, 0.03128142, -0.0009083863, -0.000602959, 0.0002593961
 263236330, 0.02499547, 0.0003469457, -0.0006308773, 0.0002593961
 263336290, 0.02077812, 0.001643152, -0.0002465251, 0.0002593961
 263436250, 0.01894344, 0.003049153, -0.0005709379, 0.0002593961
 263536210, 0.02001941, 0.004214728, -0.0006972682, 0.0002593961
 263636170, 0.02300907, 0.004999088, -0.0004353689, 0.0002593961
 263736130, 0.02679523, 0.005663563, -0.0005776346, 0.0002593961
 263836090, 0.02981805, 0.005820874, -2.936136E-06, 0.0002593961
 263936050, 0.03230825, 0.005073757, -0.0004772375, 0.0002593961
 264036010, 0.03368631, 0.004472146, -0.0009259821, 0.0002593961
 264135970, 0.03457797, 0.004011569, -0.001094206, 0.0002593961
 264235930, 0.03466533, 0.003749978, -0.0007902143, 0.0002593961
 264335890, 0.03493486, 0.004025388, -0.0006693426, 0.0002593961
 264435850, 0.03519125, 0.00446667, -0.0005497651, 0.0002593961
 264535810, 0.03590757, 0.004553861, -9.513149E-05, 0.0002593961
 264635770, 0.03699314, 0.004966477, -0.0001536696, 0.0002593961
 264735730, 0.03823685, 0.005332235, -0.0002582268, 0.0002593961
 264835690, 0.03946756, 0.005493199, 0.000129189, 0.0002593961
 264936483, 0.04095041, 0.005990568, -0.0004790706, 0.0002615578
 265036443, 0.04185729, 0.005924218, -0.0004132537, 0.0002593961
 265136403, 0.04292421, 0.006157571, 0.0004229033, 0.0002593961
 265236363, 0.04385166, 0.006366415, 0.0001087314, 0.0002593961
 265336323, 0.04457164, 0.006373882, 0.0003983418, 0.0002593961
 265436283, 0.04554506, 0.006360478, 0.0003928865, 0.0002593961
 265536243, 0.04645918, 0.006454407, -0.0001629344, 0.0002593961
 265636203, 0.04718829, 0.006471106, 0.0005779922, 0.0002593961
 265736163, 0.04823402, 0.006729468, 0.001035929, 0.0002593961
 265836123, 0.04929634, 0.007401661, 0.0007012469, 0.0002593961
 265936083, 0.05021059, 0.007480245, 0.000769541, 0.0002593961
 266036043, 0.05062504, 0.007580889, 0.0002591348, 0.0002593961
 266136003, 0.05118745, 0.007338034, 0.0003564505, 0.0002593961
 266235963, 0.0514726, 0.007488554, 0.0003595165, 0.0002593961
 266335923, 0.05179712, 0.007779426, 0.0001965499, 0.0002593961
 266435883, 0.05237887, 0.007896726, 0.000513005, 0.0002593961
 266535843, 0.05272795, 0.00794562, 1.42422E-05, 0.0002593961
 266635803, 0.05326375, 0.008074065, 0.0003040372, 0.0002593961
 266735763, 0.05377734, 0.007970099, -4.312578E-05, 0.0002593961
 266835723, 0.054018, 0.008111869, 0.0002906185, 0.0002593961
 266935683, 0.05471393, 0.008317241, -0.0002611594, 0.0002593961
 267036476, 0.05556064, 0.008460794, -0.0001539564, 0.0002615578
 267136436, 0.05569545, 0.00831998, -0.0001553653, 0.0002593961
 267236396, 0.05607741, 0.008353785, -0.0001652295, 0.0002593961
 267336356, 0.05642486, 0.008266493, -0.0002565454, 0.0002593961
 267436316, 0.05673619, 0.00851855, -0.0002150819, 0.0002593961
 267536276, 0.05741064, 0.008979726, -0.0003394115, 0.0002593961
 267636236, 0.05780865, 0.009303114, -0.0004601759, 0.0002593961
 267736196, 0.05830221, 0.009647273, -0.0004132596, 0.0002593961
 267836156, 0.0588965, 0.009678207, -0.0005344208, 0.0002593961
 267936116, 0.05947941, 0.009631728, -0.000745338, 0.0002593961
 268036076, 0.05987286, 0.009638918, -0.0005631922, 0.0002593961
 268136036, 0.06029718, 0.009732729, -0.0006521179, 0.0002593961
 268235996, 0.0609129, 0.009985429, -0.000840305, 0.0002593961
 268335956, 0.06135972, 0.009619839, -0.001012151, 0.0002593961
 268435916, 0.06177996, 0.009854435, -0.0008869948, 0.0002593961
 268535876, 0.06248882, 0.009980155, -0.0008166287, 0.0002593961
 268635836, 0.06294987, 0.0101725, -0.001304846, 0.0002593961
 268735796, 0.06301907, 0.01018595, -0.001205174, 0.0002593961
 268835756, 0.06334051, 0.01029814, -0.001339037, 0.0002593961
 268935716, 0.06377017, 0.01046247, -0.001500417, 0.0002593961
 269035676, 0.06410601, 0.01104688, -0.001764372, 0.0002593961
 269136469, 0.06510734, 0.01124577, -0.001670808, 0.0002615578
 269236429, 0.06510349, 0.01102125, -0.002123584, 0.0002593961
 269336389, 0.06550087, 0.01122683, -0.002008189, 0.0002593961
 269436349, 0.0657625, 0.01095128, -0.002552647, 0.0002593961
 269536309, 0.06603914, 0.01107043, -0.002392197, 0.0002593961
 269636269, 0.06663938, 0.01111754, -0.002861548, 0.0002593961
 269736229, 0.06695756, 0.01119319, -0.002912279, 0.0002593961
 269836189, 0.06747922, 0.01143765, -0.003144193, 0.0002593961
 269936149, 0.06764623, 0.01163494, -0.003338624, 0.0002593961
 270036109, 0.06809166, 0.0118625, -0.003699119, 0.0002593961
 270136069, 0.06818721, 0.01187109, -0.003600968, 0.0002593961
 270236029, 0.06874546, 0.01210748, -0.004031788, 0.0002593961
 270335989, 0.0691781, 0.01222395, -0.0039746, 0.0002593961
 270435949, 0.06972493, 0.01208351, -0.004259748, 0.0002593961
 270535909, 0.07037377, 0.01224111, -0.004456271, 0.0002593961
 270635869, 0.07077336, 0.01221786, -0.004664702, 0.0002593961
 270735829, 0.07105032, 0.01213279, -0.004777162, 0.0002593961
 270835789, 0.07118343, 0.01243279, -0.005575907, 0.0002593961
 270935749, 0.07123733, 0.01262317, -0.005397942, 0.0002593961
 271035709, 0.07142487, 0.01272766, -0.006138036, 0.0002593961
 271135669, 0.07149532, 0.01292939, -0.006026268, 0.0002593961
 271236462, 0.07252837, 0.01328034, -0.00672915, 0.0002615578
 271336422, 0.07200623, 0.01306262, -0.006783529, 0.0002593961
 271436382, 0.07228257, 0.01325577, -0.006996738, 0.0002593961
 271536342, 0.07249498, 0.01287386, -0.006882987, 0.0002593961
 271636302, 0.07317659, 0.01314072, -0.007503386, 0.0002593961
 271736262, 0.07320146, 0.01315417, -0.007487815, 0.0002593961
 271836222, 0.07355195, 0.01345318, -0.008091757, 0.0002593961
 271936182, 0.07359037, 0.01351329, -0.008088516, 0.0002593961
 272036142, 0.07408751, 0.01364191, -0.00848591, 0.0002593961
 272136102, 0.07420046, 0.0137632, -0.008470306, 0.0002593961
 272236062, 0.07483836, 0.01412698, -0.008945749, 0.0002593961
 272336022, 0.07484203, 0.01413947, -0.0089763, 0.0002593961
 272435982, 0.07529937, 0.01419803, -0.009646601, 0.0002593961
 272535942, 0.07529946, 0.01431172, -0.009503463, 0.0002593961
 272635902, 0.0757312, 0.0145458, -0.01023996, 0.0002593961
 272735862, 0.07574373, 0.0144884, -0.00991204, 0.0002593961
 272835822, 0.07611942, 0.01473378, -0.01063123, 0.0002593961
 272935782, 0.07619345, 0.0146106, -0.0103076, 0.0002593961
 273035742, 0.07708614, 0.01457924, -0.01107441, 0.0002593961
 273135702, 0.07693917, 0.014877, -0.01103155, 0.0002593961
 273235662, 0.07776506, 0.01502257, -0.0117783, 0.0002593961
 273336455, 0.0783498, 0.01532672, -0.01160677, 0.0002615578
 273436415, 0.07851079, 0.01516429, -0.01252304, 0.0002593961
 273536375, 0.07832935, 0.015233, -0.01235674, 0.0002593961
 273636335, 0.07907062, 0.01528136, -0.01301552, 0.0002593961
 273736295, 0.07895117, 0.01524208, -0.0131007, 0.0002593961
 273836255, 0.07971738, 0.01551496, -0.01380368, 0.0002593961
 273936215, 0.08000386, 0.01563077, -0.01358741, 0.0002593961
 274036175, 0.08084104, 0.01583844, -0.01441545, 0.0002593961
 274136135, 0.08100062, 0.0160524, -0.01428807, 0.0002593961
 274236095, 0.08202979, 0.01618376, -0.01520036, 0.0002593961
 274336055, 0.0820121, 0.0161578, -0.01502428, 0.0002593961
 274436015, 0.08273748, 0.01614803, -0.01577321, 0.0002593961
 274535975, 0.08286254, 0.01638423, -0.0155866, 0.0002593961
 274635935, 0.08370592, 0.01632749, -0.01656645, 0.0002593961
 274735895, 0.08377398, 0.01658921, -0.01640444, 0.0002593961
 274835855, 0.08480491, 0.0167368, -0.01739733, 0.0002593961
 274935815, 0.08484517, 0.01701922, -0.01737232, 0.0002593961
 275035775, 0.08556445, 0.01713917, -0.01825693, 0.0002593961
 275135735, 0.08532681, 0.01758949, -0.01833003, 0.0002593961
 275235695, 0.08629288, 0.01791774, -0.01912314, 0.0002593961
 275335655, 0.0861479, 0.01806938, -0.0187675, 0.0002593961
 275436448, 0.08782059, 0.01842442, -0.01963843, 0.0002615578
 275536408, 0.08739493, 0.01830567, -0.01973232, 0.0002593961
 275636368, 0.08818737, 0.01819379, -0.0205939, 0.0002593961
 275736328, 0.08561597, 0.01839205, -0.02185857, 0.0002593961
 275836288, 0.07676841, 0.0185066, -0.02571161, 0.0002593961
 275936248, 0.05840054, 0.01918338, -0.02879304, 0.0002593961
 276036208, 0.03530696, 0.01983439, -0.03204645, 0.0002593961
 276136168, 0.008050417, 0.0204171, -0.03261303, 0.0002593961
 276236128, -0.0178907, 0.02059959, -0.03281887, 0.0002593961
 276336088, -0.04179746, 0.02060904, -0.03099234, 0.0002593961
 276436048, -0.06116833, 0.02011133, -0.02977216, 0.0002593961
 276536008, -0.07706189, 0.01937363, -0.02763572, 0.0002593961
 276635968, -0.08891924, 0.01837855, -0.02680225, 0.0002593961
 276735928, -0.09824829, 0.01733176, -0.02569326, 0.0002593961
 276835888, -0.1053112, 0.01636875, -0.0257588, 0.0002593961
 276935848, -0.1119297, 0.01572614, -0.02536324, 0.0002593961
 277035808, -0.1172493, 0.01522016, -0.02610277, 0.0002593961
 277135768, -0.1234639, 0.01471736, -0.02588244, 0.0002593961
 277235728, -0.1284774, 0.01452972, -0.02653249, 0.0002593961
 277335688, -0.1342742, 0.0147316, -0.02640423, 0.0002593961
 277436481, -0.140643, 0.01492076, -0.02651229, 0.0002615578
 277536441, -0.1450445, 0.0150506, -0.02508014, 0.0002593961
 277636401, -0.1494864, 0.01577427, -0.02430818, 0.0002593961
 277736361, -0.1541287, 0.01633653, -0.02231794, 0.0002593961
 277836321, -0.1574424, 0.01663568, -0.02067862, 0.0002593961
 277936281, -0.1605733, 0.01725904, -0.0179243, 0.0002593961
 278036241, -0.1627156, 0.01772191, -0.01545634, 0.0002593961
 278136201, -0.1642098, 0.01797714, -0.01237933, 0.0002593961
 278236161, -0.1650567, 0.01828969, -0.009469051, 0.0002593961
 278336121, -0.1650642, 0.01853343, -0.005836866, 0.0002593961
 278436081, -0.1639433, 0.01870535, -0.002258986, 0.0002593961
 278536041, -0.1620491, 0.01827512, 0.001449124, 0.0002593961
 278636001, -0.1597119, 0.01838398, 0.004745542, 0.0002593961
 278735961, -0.1566682, 0.0181236, 0.008361899, 0.0002593961
 278835921, -0.1528311, 0.01782648, 0.0115078, 0.0002593961
 278935881, -0.1491344, 0.01750475, 0.01478576, 0.0002593961
 279035841, -0.1449101, 0.01709032, 0.0175073, 0.0002593961
 279135801, -0.1402078, 0.01660736, 0.02040053, 0.0002593961
 279235761, -0.1354596, 0.01611271, 0.02286984, 0.0002593961
 279335721, -0.1303253, 0.01568418, 0.02508649, 0.0002593961
 279435681, -0.1245034, 0.01539301, 0.02654036, 0.0002593961
 279536474, -0.120289, 0.01501921, 0.02830525, 0.0002615578
 279636434, -0.1136586, 0.01472621, 0.02886327, 0.0002593961
 279736394, -0.1082888, 0.01460381, 0.02962513, 0.0002593961
 279836354, -0.1029172, 0.01443072, 0.02990315, 0.0002593961
 279936314, -0.09711333, 0.01456104, 0.02938415, 0.0002593961
 280036274, -0.09187174, 0.01468871, 0.02886978, 0.0002593961
 280136234, -0.08723136, 0.01474061, 0.02832643, 0.0002593961
 280236194, -0.08232985, 0.01484523, 0.02735709, 0.0002593961
 280336154, -0.07783011, 0.01478284, 0.02592086, 0.0002593961
 280436114, -0.0738728, 0.01517227, 0.02422712, 0.0002593961
 280536074, -0.07021122, 0.0151212, 0.02286917, 0.0002593961
 280636034, -0.06663831, 0.01528864, 0.02054798, 0.0002593961
 280735994, -0.06375057, 0.01522933, 0.01865625, 0.0002593961
 280835954, -0.06084286, 0.01528015, 0.01668152, 0.0002593961
 280935914, -0.05896283, 0.01510977, 0.01495072, 0.0002593961
 281035874, -0.05699864, 0.01473324, 0.01309354, 0.0002593961
 281135834, -0.05541306, 0.01451312, 0.01129575, 0.0002593961
 281235794, -0.05445636, 0.01455658, 0.009430708, 0.0002593961
 281335754, -0.05517511, 0.01412228, 0.007306005, 0.0002593961
 281435714, -0.05774653, 0.0139243, 0.005428676, 0.0002593961
 281535674, -0.06147906, 0.0134917, 0.003469242, 0.0002593961
 281636467, -0.06640303, 0.0135853, 0.002176329, 0.0002615578
 281736427, -0.07024653, 0.01306225, 0.0009796002, 0.0002593961
 281836387, -0.07435692, 0.01283988, 0.0003740542, 0.0002593961
 281936347, -0.07776667, 0.01281942, -4.978572E-05, 0.0002593961
 282036307, -0.08043394, 0.01238172, -0.0005072578, 0.0002593961
 282136267, -0.08263306, 0.01193599, -0.0005636677, 0.0002593961
 282236227, -0.08413091, 0.01156218, -0.0007355334, 0.0002593961
 282336187, -0.08502575, 0.01129646, -0.0009607727, 0.0002593961
 282436147, -0.08604608, 0.01096177, -0.0008553016, 0.0002593961
 282536107, -0.08653995, 0.01057382, -0.0008930221, 0.0002593961
 282636067, -0.0868181, 0.01029018, -0.0007347815, 0.0002593961
 282736027, -0.0871435, 0.01033613, -0.0006335299, 0.0002593961
 282835987, -0.08723713, 0.01006561, -0.0007499532, 0.0002593961
 282935947, -0.08724959, 0.009895041, -0.0001437041, 0.0002593961
 283035907, -0.08681576, 0.009799084, -0.000301405, 0.0002593961
 283135867, -0.08694358, 0.009800866, -9.119556E-05, 0.0002593961
 283235827, -0.08632886, 0.009921847, 7.17639E-05, 0.0002593961
 283335787, -0.08589648, 0.009813424, 0.0003712933, 0.0002593961
 283435747, -0.08562946, 0.009767471, 0.0007402127, 0.0002593961
 283535707, -0.08489874, 0.009742739, 0.0008246174, 0.0002593961
 283635667, -0.08433884, 0.00967463, 0.001177975, 0.0002593961
 283736460, -0.08419545, 0.009795443, 0.001582185, 0.0002615578
 283836420, -0.08245482, 0.00932119, 0.001325135, 0.0002593961
 283936380, -0.0813808, 0.009177658, 0.001753875, 0.0002593961
 284036340, -0.08045214, 0.008798389, 0.001703132, 0.0002593961
 284136300, -0.07963382, 0.008485261, 0.001682922, 0.0002593961
 284236260, -0.07824496, 0.008262374, 0.001830986, 0.0002593961
 284336220, -0.07712713, 0.007864813, 0.002150815, 0.0002593961
 284436180, -0.0757571, 0.00749366, 0.001939166, 0.0002593961
 284536140, -0.07437029, 0.007409483, 0.001829741, 0.0002593961
 284636100, -0.07313989, 0.007036416, 0.002062608, 0.0002593961
 284736060, -0.07147294, 0.006733081, 0.001696826, 0.0002593961
 284836020, -0.0697763, 0.006471743, 0.001659924, 0.0002593961
 284935980, -0.06862264, 0.006235069, 0.001517692, 0.0002593961
 285035940, -0.06691836, 0.005871469, 0.001530869, 0.0002593961
 285135900, -0.06541143, 0.005680314, 0.001603862, 0.0002593961
 285235860, -0.06348411, 0.005563329, 0.001212435, 0.0002593961
 285335820, -0.06202437, 0.005487544, 0.0011002, 0.0002593961
 285435780, -0.06027123, 0.005130043, 0.0009288029, 0.0002593961
 285535740, -0.05860154, 0.005107484, 0.0008196434, 0.0002593961
 285635700, -0.05704657, 0.00506137, 0.0006460369, 0.0002593961
 285735660, -0.05531638, 0.004968893, 0.0004834529, 0.0002593961
 285836453, -0.05417288, 0.004834993, 0.0009080344, 0.0002615578
 285936413, -0.05187704, 0.004447859, 0.0003762195, 0.0002593961
 286036373, -0.05006518, 0.004507746, 0.0001566224, 0.0002593961
 286136333, -0.0483809, 0.004369635, 8.220362E-05, 0.0002593961
 286236293, -0.04645394, 0.00407813, -0.0004156238, 0.0002593961
 286336253, -0.04507369, 0.003723373, -0.000323457, 0.0002593961
 286436213, -0.0436292, 0.003638172, -0.0003928163, 0.0002593961
 286536173, -0.04178887, 0.003390706, -0.0002995569, 0.0002593961
 286636133, -0.0394939, 0.003377132, -0.00110011, 0.0002593961
 286736093, -0.03838392, 0.003127129, -0.0007408861, 0.0002593961
 286836053, -0.03662459, 0.002648062, -0.0007444276, 0.0002593961
 286936013, -0.0349261, 0.002603051, -0.0009639161, 0.0002593961
 287035973, -0.03340052, 0.002511792, -0.00077563, 0.0002593961
 287135933, -0.03136684, 0.002248826, -0.00115648, 0.0002593961
 287235893, -0.02966366, 0.001876728, -0.001003049, 0.0002593961
 287335853, -0.02801814, 0.00174406, -0.001438083, 0.0002593961
 287435813, -0.02686083, 0.001394462, -0.001500212, 0.0002593961
 287535773, -0.02502093, 0.001193703, -0.001327687, 0.0002593961
 287635733, -0.02343339, 0.0008413887, -0.001352562, 0.0002593961
