TimeUS,CGpN,CGpE,CGpD,CGpe,PGpN,PGpE,PGpD,PGpe
 170760835, 0, 0, 0, 0.05, 0, 0, 0, 0
 170830807, 0, 0, 0, 0.05, 0, 0, 0, 0.05
 171030727, 0, 0, 0, 0.05, 0, 0, 0, 0.05
 171231480, 0, 0, 0, 0.05, 0, 0, 0, 0.05
 171431400, 0, 0, 0, 0.05, 0, 0, 0, 0.05
 171631320, 0, 0, 0, 0.05, 0, 0, 0, 0.05
 171831240, 0, 0, 0, 0.05, 0, 0, 0, 0.05
 172031160, 0, 0, 0, 0.05, 0, 0, 0, 0.05
 172231080, 0, 0, 0, 0.05, 0, 0, 0, 0.05
 172431000, 0, 0, 0, 0.05, 0, 0, 0, 0.05
 172630920, 0, 0, 0, 0.05, 0, 0, 0, 0.05
 172830840, 0, 0, 0, 0.05, 0, 0, 0, 0.05
 173030760, 0, 0, 0, 0.05, 0, 0, 0, 0.05
 173230680, 0, 0, 0, 0.05, 0, 0, 0, 0.05
 173431433, 0, 0, 0, 0.05, 0, 0, 0, 0.05
 173631353, 0, 0, 0, 0.05, 0, 0, 0, 0.05
 173831273, 0, 0, 0, 0.05, 0, 0, 0, 0.05
 174031193, 0, 0, 0, 0.05, 0, 0, 0, 0.05
 174231113, 0, 0, 0, 0.05, 0, 0, 0, 0.05
 174431033, 0, 0, 0, 0.05, 0, 0, 0, 0.05
 174630953, 0, 0, 0, 0.05, 0, 0, 0, 0.05
 174830873, 0, 0, 0, 0.05, 0, 0, 0, 0.05
 175030793, 0, 0, 0, 0.05, 0, 0, 0, 0.05
 175230713, 0, 0, 0, 0.05, 0, 0, 0, 0.05
 175431466, 0, 0, 0, 0.05, 0, 0, 0, 0.05
 175631386, 0, 0, 0, 0.05, 0, 0, 0, 0.05
 175831306, 0, 0, 0, 0.05, 0, 0, 0, 0.05
 176031226, 0, 0, 0, 0.05, 0, 0, 0, 0.05
 176231146, 0, 0, 0, 0.05, 0, 0, 0, 0.05
 176431066, 0, 0, 0, 0.05, 0, 0, 0, 0.05
 176630986, 0, 0, 0, 0.05, 0, 0, 0, 0.05
 176830906, 0, 0, 0, 0.05, 0, 0, 0, 0.05
 177030826, 0, 0, 0, 0.05, 0, 0, 0, 0.05
 177230746, 0, 0, 0, 0.05, 0, 0, 0, 0.05
 177430666, 0, 0, 0, 0.05, 0, 0, 0, 0.05
 177631419, 0, 0, 0, 0.05, 0, 0, 0, 0.05
 177831339, 0, 0, 0, 0.05, 0, 0, 0, 0.05
 178031259, 0, 0, 0, 0.05, 0, 0, 0, 0.05
 178231179, 0, 0, 0, 0.05, 0, 0, 0, 0.05
 178431099, 0, 0, 0, 0.05, 0, 0, 0, 0.05
 178631019, 0, 0, 0, 0.05, 0, 0, 0, 0.05
 178830939, 0, 0, 0, 0.05, 0, 0, 0, 0.05
 179030859, 0, 0, 0, 0.05, 0, 0, 0, 0.05
 179230779, 0, 0, 0, 0.05, 0, 0, 0, 0.05
 179430699, 0, 0, 0, 0.05, 0, 0, 0, 0.05
 179631452, 0, 0, 0, 0.05, 0, 0, 0, 0.05
 179831372, 0, 0, 0, 0.05, 0, 0, 0, 0.05
 180031292, 0, 0, 0, 0.05, 0, 0, 0, 0.05
 180231212, 0, 0, 0, 0.05, 0, 0, 0, 0.05
 180431132, 0, 0, 0, 0.05, 0, 0, 0, 0.05
 180631052, 0, 0, 0, 0.05, 0, 0, 0, 0.05
 180830972, 0, 0, 0, 0.05, 0, 0, 0, 0.05
 181030892, 0, 0, 0, 0.05, 0, 0, 0, 0.05
 181230812, 0, 0, 0, 0.05, 0, 0, 0, 0.05
 181430732, 0, 0, 0, 0.05, 0, 0, 0, 0.05
 181631485, 0, 0, 0, 0.05, 0, 0, 0, 0.05
 181831405, 0, 0, 0, 0.05, 0, 0, 0, 0.05
 182031325, 0, 0, 0, 0.05, 0, 0, 0, 0.05
 182231245, 0, 0, 0, 0.05, 0, 0, 0, 0.05
 182431165, 0, 0, 0, 0.05, 0, 0, 0, 0.05
 182631085, 0, 0, 0, 0.05, 0, 0, 0, 0.05
 182831005, 0, 0, 0, 0.05, 0, 0, 0, 0.05
 183030925, 0, 0, 0, 0.05, 0, 0, 0, 0.05
 183230845, 0, 0, 0, 0.05, 0, 0, 0, 0.05
 183430765, 0, 0, 0, 0.05, 0, 0, 0, 0.05
 183630685, 0, 0, 0, 0.05, 0, 0, 0, 0.05
 183831438, 0, 0, 0, 0.05, 0, 0, 0, 0.05
 184031358, 0, 0, 0, 0.05, 0, 0, 0, 0.05
 184231278, 0, 0, 0, 0.05, 0, 0, 0, 0.05
 184431198, 0, 0, 0, 0.05, 0, 0, 0, 0.05
 184631118, 0, 0, 0, 0.05, 0, 0, 0, 0.05
 184831038, 0, 0, 0, 0.05, 0, 0, 0, 0.05
 185030958, 0, 0, 0, 0.05, 0, 0, 0, 0.05
 185230878, 0, 0, 0, 0.05, 0, 0, 0, 0.05
 185430798, 0, 0, 0, 0.05, 0, 0, 0, 0.05
 185630718, 0, 0, 0, 0.05, 0, 0, 0, 0.05
 185831471, 0, 0, 0, 0.05, 0, 0, 0, 0.05
 186031391, 0, 0, 0, 0.05, 0, 0, 0, 0.05
 186231311, 0, 0, 0, 0.05, 0, 0, 0, 0.05
 186431231, 0, 0, 0, 0.05, 0, 0, 0, 0.05
 186631151, 0, 0, 0, 0.05, 0, 0, 0, 0.05
 186831071, 0, 0, 0, 0.05, 0, 0, 0, 0.05
 187030991, 0, 0, 0, 0.05, 0, 0, 0, 0.05
 187230911, 0, 0, 0, 0.05, 0, 0, 0, 0.05
 187430831, 0, 0, 0, 0.05, 0, 0, 0, 0.05
 187630751, 0, 0, 0, 0.05, 0, 0, 0, 0.05
 187830671, 0, 0, 0, 0.05, 0, 0, 0, 0.05
 188031424, 0, 0, 0, 0.05, 0, 0, 0, 0.05
 188231344, 0, 0, 0, 0.05, 0, 0, 0, 0.05
 188431264, 0, 0, 0, 0.05, 0, 0, 0, 0.05
 188631184, 0, 0, 0, 0.05, 0, 0, 0, 0.05
 188831104, 0, 0, 0, 0.05, 0, 0, 0, 0.05
 189031024, 0, 0, 0, 0.05, 0, 0, 0, 0.05
 189230944, 0, 0, 0, 0.05, 0, 0, 0, 0.05
 189430864, 0, 0, 0, 0.05, 0, 0, 0, 0.05
 189630784, 0, 0, 0, 0.05, 0, 0, 0, 0.05
 189830704, 0, 0, 0, 0.05, 0, 0, 0, 0.05
 190031457, 0, 0, 0, 0.05, 0, 0, 0, 0.05
 190231377, 0, 0, 0, 0.05, 0, 0, 0, 0.05
 190431297, 0, 0, 0, 0.05, 0, 0, 0, 0.05
 190631217, 0, 0, 0, 0.05, 0, 0, 0, 0.05
 190831137, 0, 0, 0, 0.05, 0, 0, 0, 0.05
 191031057, 0, 0, 0, 0.05, 0, 0, 0, 0.05
 191230977, 0, 0, 0, 0.05, 0, 0, 0, 0.05
 191430897, 0, 0, 0, 0.05, 0, 0, 0, 0.05
 191630817, 0, 0, 0, 0.05, 0, 0, 0, 0.05
 191830737, 0, 0, 0, 0.05, 0, 0, 0, 0.05
 192030657, 0, 0, 0, 0.05, 0, 0, 0, 0.05
 192231410, 0, 0, 0, 0.05, 0, 0, 0, 0.05
 192431330, 0, 0, 0, 0.05, 0, 0, 0, 0.05
 192631250, 0, 0, 0, 0.05, 0, 0, 0, 0.05
 192831170, 0, 0, 0, 0.05, 0, 0, 0, 0.05
 193031090, 0, 0, 0, 0.05, 0, 0, 0, 0.05
 193231010, 0, 0, 0, 0.05, 0, 0, 0, 0.05
 193430930, 0, 0, 0, 0.05, 0, 0, 0, 0.05
 193630850, 0, 0, 0, 0.05, 0, 0, 0, 0.05
 193830770, 0, 0, 0, 0.05, 0, 0, 0, 0.05
 194030690, 0, 0, 0, 0.05, 0, 0, 0, 0.05
 194231443, 0, 0, 0, 0.05, 0, 0, 0, 0.05
 194431363, 0, 0, 0, 0.05, 0, 0, 0, 0.05
 194631283, 0, 0, 0, 0.05, 0, 0, 0, 0.05
 194831203, 0, 0, 0, 0.05, 0, 0, 0, 0.05
 195031123, 0, 0, 0, 0.05, 0, 0, 0, 0.05
 195231043, 0, 0, 0, 0.05, 0, 0, 0, 0.05
 195430963, 0, 0, 0, 0.05, 0, 0, 0, 0.05
 195630883, 0, 0, 0, 0.05, 0, 0, 0, 0.05
 195830803, 0, 0, 0, 0.05, 0, 0, 0, 0.05
 196030723, 0, 0, 0, 0.05, 0, 0, 0, 0.05
 196231476, 0, 0, 0, 0.05, 0, 0, 0, 0.05
 196431396, 0, 0, 0, 0.05, 0, 0, 0, 0.05
 196631316, 0, 0, 0, 0.05, 0, 0, 0, 0.05
 196831236, 0, 0, 0, 0.05, 0, 0, 0, 0.05
 197031156, 0, 0, 0, 0.05, 0, 0, 0, 0.05
 197231076, 0, 0, 0, 0.05, 0, 0, 0, 0.05
 197430996, 0, 0, 0, 0.05, 0, 0, 0, 0.05
 197630916, 0, 0, 0, 0.05, 0, 0, 0, 0.05
 197830836, 0, 0, 0, 0.05, 0, 0, 0, 0.05
 198030756, 0, 0, 0, 0.05, 0, 0, 0, 0.05
 198230676, 0, 0, 0, 0.05, 0, 0, 0, 0.05
 198431429, 0, 0, 0, 0.05, 0, 0, 0, 0.05
 198631349, 0, 0, 0, 0.05, 0, 0, 0, 0.05
 198831269, 0, 0, 0, 0.05, 0, 0, 0, 0.05
 199031189, 0, 0, 0, 0.05, 0, 0, 0, 0.05
 199231109, 0, 0, 0, 0.05, 0, 0, 0, 0.05
 199431029, 0, 0, 0, 0.05, 0, 0, 0, 0.05
 199630949, 0, 0, 0, 0.05, 0, 0, 0, 0.05
 199830869, 0, 0, 0, 0.05, 0, 0, 0, 0.05
 200030789, 0, 0, 0, 0.05, 0, 0, 0, 0.05
 200230709, 0, 0, 0, 0.05, 0, 0, 0, 0.05
 200431462, 0, 0, 0, 0.05, 0, 0, 0, 0.05
 200631382, 0, 0, 0, 0.05, 0, 0, 0, 0.05
 200831302, 0, 0, 0, 0.05, 0, 0, 0, 0.05
 201031222, 0, 0, 0, 0.05, 0, 0, 0, 0.05
 201231142, 0, 0, 0, 0.05, 0, 0, 0, 0.05
 201431062, 0, 0, 0, 0.05, 0, 0, 0, 0.05
 201630982, 0, 0, 0, 0.05, 0, 0, 0, 0.05
 201830902, 0, 0, 0, 0.05, 0, 0, 0, 0.05
 202030822, 0, 0, 0, 0.05, 0, 0, 0, 0.05
 202230742, 0, 0, 0, 0.05, 0, 0, 0, 0.05
 202430662, 0, 0, 0, 0.05, 0, 0, 0, 0.05
 202631415, 0, 0, 0, 0.05, 0, 0, 0, 0.05
 202831335, 0, 0, 0, 0.05, 0, 0, 0, 0.05
 203031255, 0, 0, 0, 0.05, 0, 0, 0, 0.05
 203231175, 0, 0, 0, 0.05, 0, 0, 0, 0.05
 203431095, 0, 0, 0, 0.05, 0, 0, 0, 0.05
 203631015, 0, 0, 0, 0.05, 0, 0, 0, 0.05
 203830935, 0, 0, 0, 0.05, 0, 0, 0, 0.05
 204030855, 0, 0, 0, 0.05, 0, 0, 0, 0.05
 204230775, 0, 0, 0, 0.05, 0, 0, 0, 0.05
 204430695, 0, 0, 0, 0.05, 0, 0, 0, 0.05
 204631448, 0, 0, 0, 0.05, 0, 0, 0, 0.05
 204831368, 0, 0, 0, 0.05, 0, 0, 0, 0.05
 205031288, 0, 0, 0, 0.05, 0, 0, 0, 0.05
 205231208, 0, 0, 0, 0.05, 0, 0, 0, 0.05
 205431128, 0, 0, 0, 0.05, 0, 0, 0, 0.05
 205631048, 0, 0, 0, 0.05, 0, 0, 0, 0.05
 205830968, 0, 0, 0, 0.05, 0, 0, 0, 0.05
 206030888, 0, 0, 0, 0.05, 0, 0, 0, 0.05
 206230808, 0, 0, 0, 0.05, 0, 0, 0, 0.05
 206430728, 0, 0, 0, 0.05, 0, 0, 0, 0.05
 206631481, 0, 0, 0, 0.05, 0, 0, 0, 0.05
 206831401, 0, 0, 0, 0.05, 0, 0, 0, 0.05
 207031321, 0, 0, 0, 0.05, 0, 0, 0, 0.05
 207231241, 0, 0, 0, 0.05, 0, 0, 0, 0.05
 207431161, 0, 0, 0, 0.05, 0, 0, 0, 0.05
 207631081, 0, 0, 0, 0.05, 0, 0, 0, 0.05
 207831001, 0, 0, 0, 0.05, 0, 0, 0, 0.05
 208030921, 0, 0, 0, 0.05, 0, 0, 0, 0.05
 208230841, 0, 0, 0, 0.05, 0, 0, 0, 0.05
 208430761, 0, 0, 0, 0.05, 0, 0, 0, 0.05
 208630681, 0, 0, 0, 0.05, 0, 0, 0, 0.05
 208831434, 0, 0, 0, 0.05, 0, 0, 0, 0.05
 209031354, 0, 0, 0, 0.05, 0, 0, 0, 0.05
 209231274, 0, 0, 0, 0.05, 0, 0, 0, 0.05
 209431194, 0, 0, 0, 0.05, 0, 0, 0, 0.05
 209631114, 0, 0, 0, 0.05, 0, 0, 0, 0.05
 209831034, 0, 0, 0, 0.05, 0, 0, 0, 0.05
 210030954, 0, 0, 0, 0.05, 0, 0, 0, 0.05
 210230874, 0, 0, 0, 0.05, 0, 0, 0, 0.05
 210430794, 0, 0, 0, 0.05, 0, 0, 0, 0.05
 210630714, 0, 0, 0, 0.05, 0, 0, 0, 0.05
 210831467, 0, 0, 0, 0.05, 0, 0, 0, 0.05
 211031387, 0, 0, 0, 0.05, 0, 0, 0, 0.05
 211231307, 0, 0, 0, 0.05, 0, 0, 0, 0.05
 211431227, 0, 0, 0, 0.05, 0, 0, 0, 0.05
 211631147, 0, 0, 0, 0.05, 0, 0, 0, 0.05
 211831067, 0, 0, 0, 0.05, 0, 0, 0, 0.05
 212030987, 0, 0, 0, 0.05, 0, 0, 0, 0.05
 212230907, 0, 0, 0, 0.05, 0, 0, 0, 0.05
 212430827, 0, 0, 0, 0.05, 0, 0, 0, 0.05
 212630747, 0, 0, 0, 0.05, 0, 0, 0, 0.05
 212830667, 0, 0, 0, 0.05, 0, 0, 0, 0.05
 213031420, 0, 0, 0, 0.05, 0, 0, 0, 0.05
 213231340, 0, 0, 0, 0.05, 0, 0, 0, 0.05
 213431260, 0, 0, 0, 0.05, 0, 0, 0, 0.05
 213631180, 0, 0, 0, 0.05, 0, 0, 0, 0.05
 213831100, 0, 0, 0, 0.05, 0, 0, 0, 0.05
 214031020, 0, 0, 0, 0.05, 0, 0, 0, 0.05
 214230940, 0, 0, 0, 0.05, 0, 0, 0, 0.05
 214430860, 0, 0, 0, 0.05, 0, 0, 0, 0.05
 214630780, 0, 0, 0, 0.05, 0, 0, 0, 0.05
 214830700, 0, 0, 0, 0.05, 0, 0, 0, 0.05
 215031453, 0, 0, 0, 0.05, 0, 0, 0, 0.05
 215231373, 0, 0, 0, 0.05, 0, 0, 0, 0.05
 215431293, 0, 0, 0, 0.05, 0, 0, 0, 0.05
 215631213, 0, 0, 0, 0.05, 0, 0, 0, 0.05
 215831133, 0, 0, 0, 0.05, 0, 0, 0, 0.05
 216031053, 0, 0, 0, 0.05, 0, 0, 0, 0.05
 216230973, 0, 0, 0, 0.05, 0, 0, 0, 0.05
 216430893, 0, 0, 0, 0.05, 0, 0, 0, 0.05
 216630813, 0, 0, 0, 0.05, 0, 0, 0, 0.05
 216830733, 0, 0, 0, 0.05, 0, 0, 0, 0.05
 217031486, 0, 0, 0, 0.05, 0, 0, 0, 0.05
 217231406, 0, 0, 0, 0.05, 0, 0, 0, 0.05
 217431326, 0, 0, 0, 0.05, 0, 0, 0, 0.05
 217631246, 0, 0, 0, 0.05, 0, 0, 0, 0.05
 217831166, 0, 0, 0, 0.05, 0, 0, 0, 0.05
 218031086, 0, 0, 0, 0.05, 0, 0, 0, 0.05
 218231006, 0, 0, 0, 0.05, 0, 0, 0, 0.05
 218430926, 0, 0, 0, 0.05, 0, 0, 0, 0.05
 218630846, 0, 0, 0, 0.05, 0, 0, 0, 0.05
 218830766, 0, 0, 0, 0.05, 0, 0, 0, 0.05
 219030686, 0, 0, 0, 0.05, 0, 0, 0, 0.05
 219231439, 0, 0, 0, 0.05, 0, 0, 0, 0.05
 219431359, 0, 0, 0, 0.05, 0, 0, 0, 0.05
 219631279, 0, 0, 0, 0.05, 0, 0, 0, 0.05
 219831199, 0, 0, 0, 0.05, 0, 0, 0, 0.05
 220031119, 0, 0, 0, 0.05, 0, 0, 0, 0.05
 220231039, 0, 0, 0, 0.05, 0, 0, 0, 0.05
 220430959, 0, 0, 0, 0.05, 0, 0, 0, 0.05
 220630879, 0, 0, 0, 0.05, 0, 0, 0, 0.05
 220830799, 0, 0, 0, 0.05, 0, 0, 0, 0.05
 221030719, 0, 0, 0, 0.05, 0, 0, 0, 0.05
 221231472, 0, 0, 0, 0.05, 0, 0, 0, 0.05
 221431392, 0, 0, 0, 0.05, 0, 0, 0, 0.05
 221631312, 0, 0, 0, 0.05, 0, 0, 0, 0.05
 221831232, 0, 0, 0, 0.05, 0, 0, 0, 0.05
 222031152, 0, 0, -0.058, 0.05, 0, 0, 0, 0.05
 222231072, 0, 0, -0.317, 0.05, 0, 0, -0.058, 0.05
 222430992, 0, 0, -0.226, 0.05, 0, 0, -0.317, 0.05
 222630912, 0, 0, -0.571, 0.05, 0, 0, -0.226, 0.05
 222830832, -0.008, -0.008, -1.82, 0.05, 0, 0, -0.571, 0.05
 223030752, -0.022, -0.024, -2.127, 0.05, -0.008, -0.008, -1.82, 0.05
 223230672, -0.037, -0.04, -2.268, 0.05, -0.022, -0.024, -2.127, 0.05
 223431425, -0.051, -0.054, -2.513, 0.05, -0.037, -0.04, -2.268, 0.05
 223631345, -0.063, -0.066, -2.731, 0.05, -0.051, -0.054, -2.513, 0.05
 223831265, -0.07300001, -0.075, -2.905, 0.05, -0.063, -0.066, -2.731, 0.05
 224031185, -0.082, -0.082, -3.06, 0.05, -0.07300001, -0.075, -2.905, 0.05
 224231105, -0.089, -0.08800001, -3.198, 0.05, -0.082, -0.082, -3.06, 0.05
 224431025, -0.09500001, -0.09200001, -3.318, 0.05, -0.089, -0.08800001, -3.198, 0.05
 224630945, -0.09900001, -0.09500001, -3.424, 0.05, -0.09500001, -0.09200001, -3.318, 0.05
 224830865, -0.101, -0.098, -3.517, 0.05, -0.09900001, -0.09500001, -3.424, 0.05
 225030785, -0.103, -0.1, -3.598, 0.05, -0.101, -0.098, -3.517, 0.05
 225230705, -0.105, -0.102, -3.669, 0.05, -0.103, -0.1, -3.598, 0.05
 225431458, -0.108, -0.105, -3.731, 0.05, -0.105, -0.102, -3.669, 0.05
 225631378, -0.11, -0.107, -3.785, 0.05, -0.108, -0.105, -3.731, 0.05
 225831298, -0.11, -0.107, -3.463, 0.05, -0.11, -0.107, -3.785, 0.05
 226031218, -0.109, -0.107, -2.94, 0.05, -0.11, -0.107, -3.463, 0.05
 226231138, -0.107, -0.108, -2.484, 0.05, -0.109, -0.107, -2.94, 0.05
 226431058, -0.106, -0.108, -2.097, 0.05, -0.107, -0.108, -2.484, 0.05
 226630978, -0.104, -0.108, -1.837, 0.05, -0.106, -0.108, -2.097, 0.05
 226830898, -0.094, -0.09900001, -1.641, 0.05, -0.104, -0.108, -1.837, 0.05
 227030818, -0.028, -0.07700001, -1.517, 0.05, -0.094, -0.09900001, -1.641, 0.05
 227230738, 0.155, -0.048, -1.439, 0.05, -0.028, -0.07700001, -1.517, 0.05
 227430658, 0.428, -0.016, -1.393, 0.05, 0.155, -0.048, -1.439, 0.05
 227631411, 0.712, 0.012, -1.376, 0.05, 0.428, -0.016, -1.393, 0.05
 227831331, 0.9620001, 0.036, -1.389, 0.05, 0.712, 0.012, -1.376, 0.05
 228031251, 1.184, 0.071, -1.425, 0.05, 0.9620001, 0.036, -1.389, 0.05
 228231171, 1.406, 0.16, -1.481, 0.05, 1.184, 0.071, -1.425, 0.05
 228431091, 1.634, 0.275, -1.568, 0.05, 1.406, 0.16, -1.481, 0.05
 228631011, 1.864, 0.348, -1.673, 0.05, 1.634, 0.275, -1.568, 0.05
 228830931, 2.098, 0.355, -1.774, 0.05, 1.864, 0.348, -1.673, 0.05
 229030851, 2.324, 0.312, -1.862, 0.05, 2.098, 0.355, -1.774, 0.05
 229230771, 2.52, 0.241, -1.935, 0.05, 2.324, 0.312, -1.862, 0.05
 229430691, 2.681, 0.163, -1.993, 0.05, 2.52, 0.241, -1.935, 0.05
 229631444, 2.819, 0.066, -2.034, 0.05, 2.681, 0.163, -1.993, 0.05
 229831364, 2.947, -0.045, -2.071, 0.05, 2.819, 0.066, -2.034, 0.05
 230031284, 3.055, -0.121, -2.108, 0.05, 2.947, -0.045, -2.071, 0.05
 230231204, 3.147, -0.121, -2.14, 0.05, 3.055, -0.121, -2.108, 0.05
 230431124, 3.229, -0.05, -2.139, 0.05, 3.147, -0.121, -2.14, 0.05
 230631044, 3.286, 0.053, -2.12, 0.05, 3.229, -0.05, -2.139, 0.05
 230830964, 3.313, 0.152, -2.095, 0.05, 3.286, 0.053, -2.12, 0.05
 231030884, 3.326, 0.224, -2.069, 0.05, 3.313, 0.152, -2.095, 0.05
 231230804, 3.344, 0.262, -2.045, 0.05, 3.326, 0.224, -2.069, 0.05
 231430724, 3.367, 0.273, -2.024, 0.05, 3.344, 0.262, -2.045, 0.05
 231631477, 3.388, 0.267, -2.008, 0.05, 3.367, 0.273, -2.024, 0.05
 231831397, 3.403, 0.254, -1.996, 0.05, 3.388, 0.267, -2.008, 0.05
 232031317, 3.414, 0.246, -1.988, 0.05, 3.403, 0.254, -1.996, 0.05
 232231237, 3.421, 0.247, -1.984, 0.05, 3.414, 0.246, -1.988, 0.05
 232431157, 3.427, 0.258, -1.981, 0.05, 3.421, 0.247, -1.984, 0.05
 232631077, 3.432, 0.274, -1.98, 0.05, 3.427, 0.258, -1.981, 0.05
 232830997, 3.435, 0.289, -1.979, 0.05, 3.432, 0.274, -1.98, 0.05
 233030917, 3.439, 0.297, -1.979, 0.05, 3.435, 0.289, -1.979, 0.05
 233230837, 3.439, 0.3, -1.964, 0.05, 3.439, 0.297, -1.979, 0.05
 233430757, 3.439, 0.298, -1.939, 0.05, 3.439, 0.3, -1.964, 0.05
 233630677, 3.445, 0.292, -1.938, 0.05, 3.439, 0.298, -1.939, 0.05
 233831430, 3.453, 0.286, -1.947, 0.05, 3.445, 0.292, -1.938, 0.05
 234031350, 3.458, 0.281, -1.96, 0.05, 3.453, 0.286, -1.947, 0.05
 234231270, 3.46, 0.279, -1.973, 0.05, 3.458, 0.281, -1.96, 0.05
 234431190, 3.461, 0.278, -1.983, 0.05, 3.46, 0.279, -1.973, 0.05
 234631110, 3.465, 0.277, -1.991, 0.05, 3.461, 0.278, -1.983, 0.05
 234831030, 3.467, 0.276, -1.996, 0.05, 3.465, 0.277, -1.991, 0.05
 235030950, 3.469, 0.272, -1.999, 0.05, 3.467, 0.276, -1.996, 0.05
 235230870, 3.472, 0.266, -2.001, 0.05, 3.469, 0.272, -1.999, 0.05
 235430790, 3.473, 0.259, -2.003, 0.05, 3.472, 0.266, -2.001, 0.05
 235630710, 3.475, 0.252, -2.003, 0.05, 3.473, 0.259, -2.003, 0.05
 235831463, 3.476, 0.247, -2.003, 0.05, 3.475, 0.252, -2.003, 0.05
 236031383, 3.478, 0.243, -2.003, 0.05, 3.476, 0.247, -2.003, 0.05
 236231303, 3.479, 0.241, -2.004, 0.05, 3.478, 0.243, -2.003, 0.05
 236431223, 3.48, 0.238, -2.005, 0.05, 3.479, 0.241, -2.004, 0.05
 236631143, 3.481, 0.236, -2.007, 0.05, 3.48, 0.238, -2.005, 0.05
 236831063, 3.482, 0.235, -2.008, 0.05, 3.481, 0.236, -2.007, 0.05
 237030983, 3.483, 0.234, -2.009, 0.05, 3.482, 0.235, -2.008, 0.05
 237230903, 3.483, 0.234, -2.01, 0.05, 3.483, 0.234, -2.009, 0.05
 237430823, 3.484, 0.234, -2.011, 0.05, 3.483, 0.234, -2.01, 0.05
 237630743, 3.484, 0.235, -2.013, 0.05, 3.484, 0.234, -2.011, 0.05
 237830663, 3.485, 0.236, -2.014, 0.05, 3.484, 0.235, -2.013, 0.05
 238031416, 3.485, 0.238, -2.015, 0.05, 3.485, 0.236, -2.014, 0.05
 238231336, 3.485, 0.24, -2.016, 0.05, 3.485, 0.238, -2.015, 0.05
 238431256, 3.486, 0.242, -2.017, 0.05, 3.485, 0.24, -2.016, 0.05
 238631176, 3.486, 0.243, -2.018, 0.05, 3.486, 0.242, -2.017, 0.05
 238831096, 3.486, 0.245, -2.019, 0.05, 3.486, 0.243, -2.018, 0.05
 239031016, 3.486, 0.247, -2.019, 0.05, 3.486, 0.245, -2.019, 0.05
 239230936, 3.486, 0.25, -2.019, 0.05, 3.486, 0.247, -2.019, 0.05
 239430856, 3.486, 0.252, -2.019, 0.05, 3.486, 0.25, -2.019, 0.05
 239630776, 3.486, 0.255, -2.019, 0.05, 3.486, 0.252, -2.019, 0.05
 239830696, 3.486, 0.257, -2.02, 0.05, 3.486, 0.255, -2.019, 0.05
 240031449, 3.487, 0.259, -2.021, 0.05, 3.486, 0.257, -2.02, 0.05
 240231369, 3.487, 0.26, -2.021, 0.05, 3.487, 0.259, -2.021, 0.05
 240431289, 3.487, 0.262, -2.022, 0.05, 3.487, 0.26, -2.021, 0.05
 240631209, 3.487, 0.263, -2.022, 0.05, 3.487, 0.262, -2.022, 0.05
 240831129, 3.486, 0.262, -2.022, 0.05, 3.487, 0.263, -2.022, 0.05
 241031049, 3.486, 0.256, -2.022, 0.05, 3.486, 0.262, -2.022, 0.05
 241230969, 3.489, 0.247, -2.022, 0.05, 3.486, 0.256, -2.022, 0.05
 241430889, 3.49, 0.235, -2.022, 0.05, 3.489, 0.247, -2.022, 0.05
 241630809, 3.488, 0.225, -2.022, 0.05, 3.49, 0.235, -2.022, 0.05
 241830729, 3.485, 0.219, -2.023, 0.05, 3.488, 0.225, -2.022, 0.05
 242031482, 3.486, 0.213, -2.023, 0.05, 3.485, 0.219, -2.023, 0.05
 242231402, 3.49, 0.208, -2.024, 0.05, 3.486, 0.213, -2.023, 0.05
 242431322, 3.49, 0.204, -2.024, 0.05, 3.49, 0.208, -2.024, 0.05
 242631242, 3.489, 0.201, -2.024, 0.05, 3.49, 0.204, -2.024, 0.05
 242831162, 3.49, 0.199, -2.024, 0.05, 3.489, 0.201, -2.024, 0.05
 243031082, 3.49, 0.199, -2.024, 0.05, 3.49, 0.199, -2.024, 0.05
 243231002, 3.49, 0.199, -2.024, 0.05, 3.49, 0.199, -2.024, 0.05
 243430922, 3.49, 0.2, -2.024, 0.05, 3.49, 0.199, -2.024, 0.05
 243630842, 3.491, 0.203, -2.024, 0.05, 3.49, 0.2, -2.024, 0.05
 243830762, 3.491, 0.206, -2.024, 0.05, 3.491, 0.203, -2.024, 0.05
 244030682, 3.49, 0.209, -2.024, 0.05, 3.491, 0.206, -2.024, 0.05
 244231435, 3.49, 0.212, -2.025, 0.05, 3.49, 0.209, -2.024, 0.05
 244431355, 3.49, 0.215, -2.025, 0.05, 3.49, 0.212, -2.025, 0.05
 244631275, 3.489, 0.219, -2.025, 0.05, 3.49, 0.215, -2.025, 0.05
 244831195, 3.489, 0.224, -2.025, 0.05, 3.489, 0.219, -2.025, 0.05
 245031115, 3.49, 0.229, -2.026, 0.05, 3.489, 0.224, -2.025, 0.05
 245231035, 3.489, 0.234, -2.025, 0.05, 3.49, 0.229, -2.026, 0.05
 245430955, 3.488, 0.238, -2.025, 0.05, 3.489, 0.234, -2.025, 0.05
 245630875, 3.485, 0.241, -2.026, 0.05, 3.488, 0.238, -2.025, 0.05
 245830795, 3.484, 0.242, -2.026, 0.05, 3.485, 0.241, -2.026, 0.05
 246030715, 3.486, 0.244, -2.027, 0.05, 3.484, 0.242, -2.026, 0.05
 246231468, 3.489, 0.246, -2.027, 0.05, 3.486, 0.244, -2.027, 0.05
 246431388, 3.485, 0.248, -2.027, 0.05, 3.489, 0.246, -2.027, 0.05
 246631308, 3.484, 0.248, -2.027, 0.05, 3.485, 0.248, -2.027, 0.05
 246831228, 3.487, 0.242, -2.027, 0.05, 3.484, 0.248, -2.027, 0.05
 247031148, 3.489, 0.233, -2.027, 0.05, 3.487, 0.242, -2.027, 0.05
 247231068, 3.487, 0.224, -2.028, 0.05, 3.489, 0.233, -2.027, 0.05
 247430988, 3.485, 0.215, -2.028, 0.05, 3.487, 0.224, -2.028, 0.05
 247630908, 3.487, 0.208, -2.027, 0.05, 3.485, 0.215, -2.028, 0.05
 247830828, 3.49, 0.202, -2.028, 0.05, 3.487, 0.208, -2.027, 0.05
 248030748, 3.49, 0.198, -2.028, 0.05, 3.49, 0.202, -2.028, 0.05
 248230668, 3.489, 0.195, -2.029, 0.05, 3.49, 0.198, -2.028, 0.05
 248431421, 3.488, 0.193, -2.029, 0.05, 3.489, 0.195, -2.029, 0.05
 248631341, 3.487, 0.192, -2.025, 0.05, 3.488, 0.193, -2.029, 0.05
 248831261, 3.445, 0.191, -1.912, 0.05, 3.487, 0.192, -2.025, 0.05
 249031181, 3.325, 0.19, -1.732, 0.05, 3.445, 0.191, -1.912, 0.05
 249231101, 3.138, 0.189, -1.509, 0.05, 3.325, 0.19, -1.732, 0.05
 249431021, 2.937, 0.189, -1.255, 0.05, 3.138, 0.189, -1.509, 0.05
 249630941, 2.76, 0.186, -0.947, 0.05, 2.937, 0.189, -1.255, 0.05
 249830861, 2.676, 0.172, -0.6350001, 0.05, 2.76, 0.186, -0.947, 0.05
 250030781, 2.68, 0.148, -0.36, 0.05, 2.676, 0.172, -0.6350001, 0.05
 250230701, 2.725, 0.121, -0.132, 0.05, 2.68, 0.148, -0.36, 0.05
 250431454, 2.789, 0.096, 0.048, 0.05, 2.725, 0.121, -0.132, 0.05
 250631374, 2.877, 0.075, 0.186, 0.05, 2.789, 0.096, 0.048, 0.05
 250831294, 2.987, 0.057, 0.285, 0.05, 2.877, 0.075, 0.186, 0.05
 251031214, 3.106, 0.039, 0.353, 0.05, 2.987, 0.057, 0.285, 0.05
 251231134, 3.225, 0.021, 0.397, 0.05, 3.106, 0.039, 0.353, 0.05
 251431054, 3.341, 0.004, 0.426, 0.05, 3.225, 0.021, 0.397, 0.05
 251630974, 3.453, -0.011, 0.444, 0.05, 3.341, 0.004, 0.426, 0.05
 251830894, 3.562, -0.025, 0.456, 0.05, 3.453, -0.011, 0.444, 0.05
 252030814, 3.665, -0.035, 0.464, 0.05, 3.562, -0.025, 0.456, 0.05
 252230734, 3.762, -0.041, 0.47, 0.05, 3.665, -0.035, 0.464, 0.05
 252430654, 3.851, -0.043, 0.475, 0.05, 3.762, -0.041, 0.47, 0.05
 252631407, 3.932, -0.043, 0.478, 0.05, 3.851, -0.043, 0.475, 0.05
 252831327, 4.007, -0.042, 0.481, 0.05, 3.932, -0.043, 0.478, 0.05
 253031247, 4.075, -0.039, 0.484, 0.05, 4.007, -0.042, 0.481, 0.05
 253231167, 4.139, -0.036, 0.486, 0.05, 4.075, -0.039, 0.484, 0.05
 253431087, 4.196, -0.031, 0.488, 0.05, 4.139, -0.036, 0.486, 0.05
 253631007, 4.248, -0.026, 0.489, 0.05, 4.196, -0.031, 0.488, 0.05
 253830927, 4.297, -0.019, 0.489, 0.05, 4.248, -0.026, 0.489, 0.05
 254030847, 4.341, -0.013, 0.489, 0.05, 4.297, -0.019, 0.489, 0.05
 254230767, 4.383, -0.006, 0.489, 0.05, 4.341, -0.013, 0.489, 0.05
 254430687, 4.422, 0, 0.488, 0.05, 4.383, -0.006, 0.489, 0.05
 254631440, 4.457, 0.004, 0.487, 0.05, 4.422, 0, 0.488, 0.05
 254831360, 4.49, 0.009000001, 0.486, 0.05, 4.457, 0.004, 0.487, 0.05
 255031280, 4.519, 0.013, 0.486, 0.05, 4.49, 0.009000001, 0.486, 0.05
 255231200, 4.545, 0.016, 0.485, 0.05, 4.519, 0.013, 0.486, 0.05
 255431120, 4.57, 0.019, 0.484, 0.05, 4.545, 0.016, 0.485, 0.05
 255631040, 4.592, 0.022, 0.484, 0.05, 4.57, 0.019, 0.484, 0.05
 255830960, 4.612, 0.026, 0.483, 0.05, 4.592, 0.022, 0.484, 0.05
 256030880, 4.631, 0.029, 0.482, 0.05, 4.612, 0.026, 0.483, 0.05
 256230800, 4.649, 0.032, 0.482, 0.05, 4.631, 0.029, 0.482, 0.05
 256430720, 4.666, 0.033, 0.482, 0.05, 4.649, 0.032, 0.482, 0.05
 256631473, 4.683, 0.034, 0.481, 0.05, 4.666, 0.033, 0.482, 0.05
 256831393, 4.698, 0.033, 0.481, 0.05, 4.683, 0.034, 0.481, 0.05
 257031313, 4.713, 0.033, 0.481, 0.05, 4.698, 0.033, 0.481, 0.05
 257231233, 4.726, 0.032, 0.482, 0.05, 4.713, 0.033, 0.481, 0.05
 257431153, 4.738, 0.031, 0.482, 0.05, 4.726, 0.032, 0.482, 0.05
 257631073, 4.75, 0.03, 0.481, 0.05, 4.738, 0.031, 0.482, 0.05
 257830993, 4.762, 0.029, 0.48, 0.05, 4.75, 0.03, 0.481, 0.05
 258030913, 4.773, 0.028, 0.48, 0.05, 4.762, 0.029, 0.48, 0.05
 258230833, 4.784, 0.027, 0.479, 0.05, 4.773, 0.028, 0.48, 0.05
 258430753, 4.794, 0.025, 0.479, 0.05, 4.784, 0.027, 0.479, 0.05
 258630673, 4.803, 0.024, 0.478, 0.05, 4.794, 0.025, 0.479, 0.05
 258831426, 4.81, 0.022, 0.474, 0.05, 4.803, 0.024, 0.478, 0.05
 259031346, 4.812, 0.021, 0.47, 0.05, 4.81, 0.022, 0.474, 0.05
 259231266, 4.814, 0.021, 0.467, 0.05, 4.812, 0.021, 0.47, 0.05
 259431186, 4.815, 0.019, 0.465, 0.05, 4.814, 0.021, 0.467, 0.05
 259631106, 4.815, 0.018, 0.463, 0.05, 4.815, 0.019, 0.465, 0.05
 259831026, 4.816, 0.017, 0.462, 0.05, 4.815, 0.018, 0.463, 0.05
 260030946, 4.816, 0.016, 0.461, 0.05, 4.816, 0.017, 0.462, 0.05
 260230866, 4.817, 0.014, 0.461, 0.05, 4.816, 0.016, 0.461, 0.05
 260430786, 4.817, 0.013, 0.462, 0.05, 4.817, 0.014, 0.461, 0.05
 260630706, 4.818, 0.011, 0.462, 0.05, 4.817, 0.013, 0.462, 0.05
 260831459, 4.818, 0.01, 0.462, 0.05, 4.818, 0.011, 0.462, 0.05
 261031379, 4.818, 0.009000001, 0.462, 0.05, 4.818, 0.01, 0.462, 0.05
 261231299, 4.818, 0.008, 0.462, 0.05, 4.818, 0.009000001, 0.462, 0.05
 261431219, 4.818, 0.007, 0.462, 0.05, 4.818, 0.008, 0.462, 0.05
 261631139, 4.818, 0.006, 0.462, 0.05, 4.818, 0.007, 0.462, 0.05
 261831059, 4.819, 0.005, 0.462, 0.05, 4.818, 0.006, 0.462, 0.05
 262030979, 4.819, 0.004, 0.461, 0.05, 4.819, 0.005, 0.462, 0.05
 262230899, 4.82, 0.004, 0.461, 0.05, 4.819, 0.004, 0.461, 0.05
 262430819, 4.82, 0.003, 0.461, 0.05, 4.82, 0.004, 0.461, 0.05
 262630739, 4.82, 0.003, 0.461, 0.05, 4.82, 0.003, 0.461, 0.05
 262830659, 4.821, 0.002, 0.461, 0.05, 4.82, 0.003, 0.461, 0.05
 263031412, 4.821, 0.002, 0.461, 0.05, 4.821, 0.002, 0.461, 0.05
 263231332, 4.822, 0.002, 0.462, 0.05, 4.821, 0.002, 0.461, 0.05
 263431252, 4.822, 0.002, 0.462, 0.05, 4.822, 0.002, 0.462, 0.05
 263631172, 4.823, 0.002, 0.461, 0.05, 4.822, 0.002, 0.462, 0.05
 263831092, 4.823, 0.001, 0.461, 0.05, 4.823, 0.002, 0.461, 0.05
 264031012, 4.824, 0.001, 0.461, 0.05, 4.823, 0.001, 0.461, 0.05
 264230932, 4.824, 0.001, 0.461, 0.05, 4.824, 0.001, 0.461, 0.05
 264430852, 4.824, 0.001, 0.461, 0.05, 4.824, 0.001, 0.461, 0.05
 264630772, 4.825, 0.001, 0.461, 0.05, 4.824, 0.001, 0.461, 0.05
 264830692, 4.825, 0.001, 0.462, 0.05, 4.825, 0.001, 0.461, 0.05
 265031445, 4.826, 0, 0.462, 0.05, 4.825, 0.001, 0.462, 0.05
 265231365, 4.826, 0, 0.462, 0.05, 4.826, 0, 0.462, 0.05
 265431285, 4.827, 0, 0.463, 0.05, 4.826, 0, 0.462, 0.05
 265631205, 4.827, 0, 0.463, 0.05, 4.827, 0, 0.463, 0.05
 265831125, 4.827, 0, 0.463, 0.05, 4.827, 0, 0.463, 0.05
 266031045, 4.828, 0, 0.463, 0.05, 4.827, 0, 0.463, 0.05
 266230965, 4.828, 0, 0.463, 0.05, 4.828, 0, 0.463, 0.05
 266430885, 4.828, 0, 0.463, 0.05, 4.828, 0, 0.463, 0.05
 266630805, 4.829, 0, 0.464, 0.05, 4.828, 0, 0.463, 0.05
 266830725, 4.829, 0, 0.464, 0.05, 4.829, 0, 0.464, 0.05
 267031478, 4.83, 0, 0.465, 0.05, 4.829, 0, 0.464, 0.05
 267231398, 4.83, 0, 0.465, 0.05, 4.83, 0, 0.465, 0.05
 267431318, 4.831, 0, 0.465, 0.05, 4.83, 0, 0.465, 0.05
 267631238, 4.831, 0, 0.465, 0.05, 4.831, 0, 0.465, 0.05
 267831158, 4.83, -0.001, 0.466, 0.05, 4.831, 0, 0.465, 0.05
 268031078, 4.83, -0.001, 0.466, 0.05, 4.83, -0.001, 0.466, 0.05
 268230998, 4.83, -0.002, 0.466, 0.05, 4.83, -0.001, 0.466, 0.05
 268430918, 4.831, -0.002, 0.465, 0.05, 4.83, -0.002, 0.466, 0.05
 268630838, 4.831, -0.003, 0.465, 0.05, 4.831, -0.002, 0.465, 0.05
 268830758, 4.83, -0.002, 0.465, 0.05, 4.831, -0.003, 0.465, 0.05
 269030678, 4.83, -0.002, 0.465, 0.05, 4.83, -0.002, 0.465, 0.05
 269231431, 4.831, -0.001, 0.465, 0.05, 4.83, -0.002, 0.465, 0.05
 269431351, 4.831, 0, 0.465, 0.05, 4.831, -0.001, 0.465, 0.05
 269631271, 4.83, 0, 0.466, 0.05, 4.831, 0, 0.465, 0.05
 269831191, 4.837, 0.001, 0.441, 0.05, 4.83, 0, 0.466, 0.05
 270031111, 4.812, 0.005, 0.368, 0.05, 4.837, 0.001, 0.441, 0.05
 270231031, 4.692, 0.017, 0.29, 0.05, 4.812, 0.005, 0.368, 0.05
 270430951, 4.519, 0.03, 0.293, 0.05, 4.692, 0.017, 0.29, 0.05
 270630871, 4.421, 0.037, 0.345, 0.05, 4.519, 0.03, 0.293, 0.05
 270830791, 4.41, 0.037, 0.409, 0.05, 4.421, 0.037, 0.345, 0.05
 271030711, 4.418, 0.036, 0.467, 0.05, 4.41, 0.037, 0.409, 0.05
 271231464, 4.411, 0.033, 0.517, 0.05, 4.418, 0.036, 0.467, 0.05
 271431384, 4.4, 0.027, 0.558, 0.05, 4.411, 0.033, 0.517, 0.05
 271631304, 4.403, 0.02, 0.591, 0.05, 4.4, 0.027, 0.558, 0.05
 271831224, 4.422, 0.013, 0.615, 0.05, 4.403, 0.02, 0.591, 0.05
 272031144, 4.442, 0.006, 0.6300001, 0.05, 4.422, 0.013, 0.615, 0.05
 272231064, 4.463, 0, 0.6390001, 0.05, 4.442, 0.006, 0.6300001, 0.05
 272430984, 4.486, -0.005, 0.633, 0.05, 4.463, 0, 0.6390001, 0.05
 272630904, 4.5, -0.01, 0.622, 0.05, 4.486, -0.005, 0.633, 0.05
 272830824, 4.504, -0.013, 0.609, 0.05, 4.5, -0.01, 0.622, 0.05
 273030744, 4.505, -0.015, 0.6, 0.05, 4.504, -0.013, 0.609, 0.05
 273230664, 4.508, -0.017, 0.5930001, 0.05, 4.505, -0.015, 0.6, 0.05
 273431417, 4.512, -0.02, 0.588, 0.05, 4.508, -0.017, 0.5930001, 0.05
 273631337, 4.514, -0.02, 0.586, 0.05, 4.512, -0.02, 0.588, 0.05
 273831257, 4.516, -0.018, 0.586, 0.05, 4.514, -0.02, 0.586, 0.05
 274031177, 4.517, -0.017, 0.588, 0.05, 4.516, -0.018, 0.586, 0.05
 274231097, 4.518, -0.016, 0.59, 0.05, 4.517, -0.017, 0.588, 0.05
 274431017, 4.52, -0.016, 0.592, 0.05, 4.518, -0.016, 0.59, 0.05
 274630937, 4.522, -0.016, 0.5930001, 0.05, 4.52, -0.016, 0.592, 0.05
 274830857, 4.523, -0.015, 0.594, 0.05, 4.522, -0.016, 0.5930001, 0.05
 275030777, 4.524, -0.012, 0.594, 0.05, 4.523, -0.015, 0.594, 0.05
 275230697, 4.525, -0.01, 0.594, 0.05, 4.524, -0.012, 0.594, 0.05
 275431450, 4.526, -0.008, 0.595, 0.05, 4.525, -0.01, 0.594, 0.05
 275631370, 4.526, -0.007, 0.596, 0.05, 4.526, -0.008, 0.595, 0.05
 275831290, 4.526, -0.005, 0.596, 0.05, 4.526, -0.007, 0.596, 0.05
 276031210, 4.527, -0.004, 0.595, 0.05, 4.526, -0.005, 0.596, 0.05
 276231130, 4.527, -0.003, 0.594, 0.05, 4.527, -0.004, 0.595, 0.05
 276431050, 4.528, -0.002, 0.594, 0.05, 4.527, -0.003, 0.594, 0.05
 276630970, 4.528, -0.001, 0.592, 0.05, 4.528, -0.002, 0.594, 0.05
 276830890, 4.527, 0, 0.594, 0.05, 4.528, -0.001, 0.592, 0.05
 277030810, 4.527, 0, 0.594, 0.05, 4.527, 0, 0.594, 0.05
 277230730, 4.527, 0.001, 0.594, 0.05, 4.527, 0, 0.594, 0.05
 277431483, 4.527, 0.002, 0.594, 0.05, 4.527, 0.001, 0.594, 0.05
 277631403, 4.528, 0.003, 0.594, 0.05, 4.527, 0.002, 0.594, 0.05
 277831323, 4.528, 0.003, 0.592, 0.05, 4.528, 0.003, 0.594, 0.05
 278031243, 4.527, 0.003, 0.5930001, 0.05, 4.528, 0.003, 0.592, 0.05
 278231163, 4.527, 0.003, 0.5930001, 0.05, 4.527, 0.003, 0.5930001, 0.05
 278431083, 4.528, 0.004, 0.5930001, 0.05, 4.527, 0.003, 0.5930001, 0.05
 278631003, 4.528, 0.004, 0.5930001, 0.05, 4.528, 0.004, 0.5930001, 0.05
 278830923, 4.527, 0.004, 0.5930001, 0.05, 4.528, 0.004, 0.5930001, 0.05
 279030843, 4.527, 0.005, 0.5930001, 0.05, 4.527, 0.004, 0.5930001, 0.05
 279230763, 4.527, 0.005, 0.594, 0.05, 4.527, 0.005, 0.5930001, 0.05
 279430683, 4.527, 0.005, 0.594, 0.05, 4.527, 0.005, 0.594, 0.05
 279631436, 4.527, 0.004, 0.5930001, 0.05, 4.527, 0.005, 0.594, 0.05
 279831356, 4.527, 0.004, 0.5930001, 0.05, 4.527, 0.004, 0.5930001, 0.05
 280031276, 4.527, 0.004, 0.5930001, 0.05, 4.527, 0.004, 0.5930001, 0.05
 280231196, 4.526, 0.004, 0.5930001, 0.05, 4.527, 0.004, 0.5930001, 0.05
 280431116, 4.526, 0.004, 0.5930001, 0.05, 4.526, 0.004, 0.5930001, 0.05
 280631036, 4.526, 0.004, 0.5930001, 0.05, 4.526, 0.004, 0.5930001, 0.05
 280830956, 4.526, 0.004, 0.5930001, 0.05, 4.526, 0.004, 0.5930001, 0.05
 281030876, 4.526, 0.004, 0.592, 0.05, 4.526, 0.004, 0.5930001, 0.05
 281230796, 4.526, 0.004, 0.591, 0.05, 4.526, 0.004, 0.592, 0.05
 281430716, 4.526, 0.003, 0.59, 0.05, 4.526, 0.004, 0.591, 0.05
 281631469, 4.526, 0.003, 0.59, 0.05, 4.526, 0.003, 0.59, 0.05
 281831389, 4.526, 0.002, 0.59, 0.05, 4.526, 0.003, 0.59, 0.05
 282031309, 4.526, 0.002, 0.59, 0.05, 4.526, 0.002, 0.59, 0.05
 282231229, 4.525, 0.001, 0.59, 0.05, 4.526, 0.002, 0.59, 0.05
 282431149, 4.525, 0.001, 0.591, 0.05, 4.525, 0.001, 0.59, 0.05
 282631069, 4.526, 0.001, 0.591, 0.05, 4.525, 0.001, 0.591, 0.05
 282830989, 4.526, 0.001, 0.591, 0.05, 4.526, 0.001, 0.591, 0.05
 283030909, 4.526, 0, 0.591, 0.05, 4.526, 0.001, 0.591, 0.05
 283230829, 4.526, 0, 0.591, 0.05, 4.526, 0, 0.591, 0.05
 283430749, 4.526, 0, 0.592, 0.05, 4.526, 0, 0.591, 0.05
 283630669, 4.526, 0, 0.5930001, 0.05, 4.526, 0, 0.592, 0.05
 283831422, 4.526, 0, 0.594, 0.05, 4.526, 0, 0.5930001, 0.05
 284031342, 4.526, 0, 0.5930001, 0.05, 4.526, 0, 0.594, 0.05
 284231262, 4.526, 0, 0.5930001, 0.05, 4.526, 0, 0.5930001, 0.05
 284431182, 4.526, 0.001, 0.594, 0.05, 4.526, 0, 0.5930001, 0.05
 284631102, 4.526, 0.001, 0.595, 0.05, 4.526, 0.001, 0.594, 0.05
 284831022, 4.526, 0.001, 0.595, 0.05, 4.526, 0.001, 0.595, 0.05
 285030942, 4.527, 0.001, 0.596, 0.05, 4.526, 0.001, 0.595, 0.05
 285230862, 4.527, 0, 0.596, 0.05, 4.527, 0.001, 0.596, 0.05
 285430782, 4.528, 0, 0.595, 0.05, 4.527, 0, 0.596, 0.05
 285630702, 4.527, 0, 0.594, 0.05, 4.528, 0, 0.595, 0.05
 285831455, 4.527, 0, 0.5930001, 0.05, 4.527, 0, 0.594, 0.05
 286031375, 4.526, 0, 0.594, 0.05, 4.527, 0, 0.5930001, 0.05
 286231295, 4.559, 0, 0.488, 0.05, 4.526, 0, 0.594, 0.05
 286431215, 4.605, 0, 0.301, 0.05, 4.559, 0, 0.488, 0.05
 286631135, 4.638, -0.001, 0.097, 0.05, 4.605, 0, 0.301, 0.05
 286831055, 4.658, -0.003, -0.093, 0.05, 4.638, -0.001, 0.097, 0.05
 287030975, 4.673, -0.005, -0.256, 0.05, 4.658, -0.003, -0.093, 0.05
 287230895, 4.685, -0.006, -0.385, 0.05, 4.673, -0.005, -0.256, 0.05
 287430815, 4.692, -0.006, -0.482, 0.05, 4.685, -0.006, -0.385, 0.05
 287630735, 4.694, -0.006, -0.55, 0.05, 4.692, -0.006, -0.482, 0.05
 287830655, 4.693, -0.006, -0.595, 0.05, 4.694, -0.006, -0.55, 0.05
 288031408, 4.693, -0.005, -0.623, 0.05, 4.693, -0.006, -0.595, 0.05
 288231328, 4.694, -0.005, -0.64, 0.05, 4.693, -0.005, -0.623, 0.05
 288431248, 4.696, -0.004, -0.649, 0.05, 4.694, -0.005, -0.64, 0.05
 288631168, 4.7, -0.003, -0.6530001, 0.05, 4.696, -0.004, -0.649, 0.05
 288831088, 4.706, -0.003, -0.655, 0.05, 4.7, -0.003, -0.6530001, 0.05
 289031008, 4.713, -0.002, -0.6580001, 0.05, 4.706, -0.003, -0.655, 0.05
 289230928, 4.721, -0.002, -0.66, 0.05, 4.713, -0.002, -0.6580001, 0.05
 289430848, 4.729, -0.002, -0.663, 0.05, 4.721, -0.002, -0.66, 0.05
 289630768, 4.738, -0.003, -0.666, 0.05, 4.729, -0.002, -0.663, 0.05
 289830688, 4.747, -0.003, -0.6670001, 0.05, 4.738, -0.003, -0.666, 0.05
 290031441, 4.757, -0.003, -0.669, 0.05, 4.747, -0.003, -0.6670001, 0.05
 290231361, 4.767, -0.003, -0.67, 0.05, 4.757, -0.003, -0.669, 0.05
 290431281, 4.777, -0.003, -0.67, 0.05, 4.767, -0.003, -0.67, 0.05
 290631201, 4.788, -0.002, -0.67, 0.05, 4.777, -0.003, -0.67, 0.05
 290831121, 4.798, -0.003, -0.6720001, 0.05, 4.788, -0.002, -0.67, 0.05
 291031041, 4.807, -0.003, -0.673, 0.05, 4.798, -0.003, -0.6720001, 0.05
 291230961, 4.816, -0.003, -0.673, 0.05, 4.807, -0.003, -0.673, 0.05
 291430881, 4.824, -0.004, -0.673, 0.05, 4.816, -0.003, -0.673, 0.05
 291630801, 4.832, -0.004, -0.673, 0.05, 4.824, -0.004, -0.673, 0.05
 291830721, 4.841, -0.003, -0.673, 0.05, 4.832, -0.004, -0.673, 0.05
 292031474, 4.849, -0.003, -0.6720001, 0.05, 4.841, -0.003, -0.673, 0.05
 292231394, 4.857, -0.003, -0.671, 0.05, 4.849, -0.003, -0.6720001, 0.05
 292431314, 4.864, -0.003, -0.671, 0.05, 4.857, -0.003, -0.671, 0.05
 292631234, 4.871, -0.002, -0.67, 0.05, 4.864, -0.003, -0.671, 0.05
 292831154, 4.877, -0.001, -0.67, 0.05, 4.871, -0.002, -0.67, 0.05
 293031074, 4.883, 0, -0.669, 0.05, 4.877, -0.001, -0.67, 0.05
 293230994, 4.888, 0, -0.669, 0.05, 4.883, 0, -0.669, 0.05
 293430914, 4.893, 0, -0.669, 0.05, 4.888, 0, -0.669, 0.05
 293630834, 4.898, 0, -0.669, 0.05, 4.893, 0, -0.669, 0.05
 293830754, 4.903, 0.001, -0.669, 0.05, 4.898, 0, -0.669, 0.05
 294030674, 4.907, 0.001, -0.669, 0.05, 4.903, 0.001, -0.669, 0.05
 294231427, 4.911, 0.001, -0.668, 0.05, 4.907, 0.001, -0.669, 0.05
 294431347, 4.915, 0.002, -0.668, 0.05, 4.911, 0.001, -0.668, 0.05
 294631267, 4.919, 0.002, -0.668, 0.05, 4.915, 0.002, -0.668, 0.05
 294831187, 4.924, 0.003, -0.668, 0.05, 4.919, 0.002, -0.668, 0.05
 295031107, 4.928, 0.003, -0.668, 0.05, 4.924, 0.003, -0.668, 0.05
 295231027, 4.931, 0.003, -0.668, 0.05, 4.928, 0.003, -0.668, 0.05
 295430947, 4.934, 0.003, -0.668, 0.05, 4.931, 0.003, -0.668, 0.05
 295630867, 4.937, 0.003, -0.668, 0.05, 4.934, 0.003, -0.668, 0.05
 295830787, 4.94, 0.003, -0.668, 0.05, 4.937, 0.003, -0.668, 0.05
 296030707, 4.942, 0.003, -0.668, 0.05, 4.94, 0.003, -0.668, 0.05
 296231460, 4.944, 0.003, -0.668, 0.05, 4.942, 0.003, -0.668, 0.05
 296431380, 4.946, 0.003, -0.666, 0.05, 4.944, 0.003, -0.668, 0.05
 296631300, 4.948, 0.003, -0.666, 0.05, 4.946, 0.003, -0.666, 0.05
 296831220, 4.95, 0.003, -0.665, 0.05, 4.948, 0.003, -0.666, 0.05
 297031140, 4.953, 0.003, -0.665, 0.05, 4.95, 0.003, -0.665, 0.05
 297231060, 4.955, 0.002, -0.665, 0.05, 4.953, 0.003, -0.665, 0.05
 297430980, 4.958, 0.001, -0.665, 0.05, 4.955, 0.002, -0.665, 0.05
 297630900, 4.96, 0, -0.665, 0.05, 4.958, 0.001, -0.665, 0.05
 297830820, 4.963, 0, -0.665, 0.05, 4.96, 0, -0.665, 0.05
 298030740, 4.965, 0, -0.665, 0.05, 4.963, 0, -0.665, 0.05
 298230660, 4.967, 0, -0.665, 0.05, 4.965, 0, -0.665, 0.05
 298431413, 4.968, 0.001, -0.666, 0.05, 4.967, 0, -0.665, 0.05
 298631333, 4.97, 0.001, -0.666, 0.05, 4.968, 0.001, -0.666, 0.05
 298831253, 4.972, 0.002, -0.666, 0.05, 4.97, 0.001, -0.666, 0.05
 299031173, 4.973, 0.001, -0.666, 0.05, 4.972, 0.002, -0.666, 0.05
 299231093, 4.973, 0.001, -0.6670001, 0.05, 4.973, 0.001, -0.666, 0.05
 299431013, 4.974, 0.001, -0.6670001, 0.05, 4.973, 0.001, -0.6670001, 0.05
 299630933, 4.974, 0.001, -0.6670001, 0.05, 4.974, 0.001, -0.6670001, 0.05
 299830853, 4.975, 0.001, -0.6670001, 0.05, 4.974, 0.001, -0.6670001, 0.05
 300030773, 4.977, 0.002, -0.668, 0.05, 4.975, 0.001, -0.6670001, 0.05
 300230693, 4.978, 0.002, -0.668, 0.05, 4.977, 0.002, -0.668, 0.05
 300431446, 4.979, 0.002, -0.666, 0.05, 4.978, 0.002, -0.668, 0.05
 300631366, 4.978, 0.002, -0.661, 0.05, 4.979, 0.002, -0.666, 0.05
 300831286, 4.977, 0.002, -0.6530001, 0.05, 4.978, 0.002, -0.661, 0.05
 301031206, 4.977, 0.001, -0.647, 0.05, 4.977, 0.002, -0.6530001, 0.05
 301231126, 4.978, 0.001, -0.641, 0.05, 4.977, 0.001, -0.647, 0.05
 301431046, 4.979, 0.002, -0.636, 0.05, 4.978, 0.001, -0.641, 0.05
 301630966, 4.981, 0.003, -0.633, 0.05, 4.979, 0.002, -0.636, 0.05
 301830886, 4.982, 0.003, -0.631, 0.05, 4.981, 0.003, -0.633, 0.05
 302030806, 4.983, 0.002, -0.629, 0.05, 4.982, 0.003, -0.631, 0.05
 302230726, 4.984, 0.002, -0.628, 0.05, 4.983, 0.002, -0.629, 0.05
 302431479, 4.984, 0.001, -0.627, 0.05, 4.984, 0.002, -0.628, 0.05
 302631399, 4.985, 0, -0.627, 0.05, 4.984, 0.001, -0.627, 0.05
 302831319, 4.986, 0, -0.626, 0.05, 4.985, 0, -0.627, 0.05
 303031239, 4.987, 0, -0.626, 0.05, 4.986, 0, -0.626, 0.05
 303231159, 4.988, 0, -0.626, 0.05, 4.987, 0, -0.626, 0.05
 303431079, 4.989, -0.001, -0.626, 0.05, 4.988, 0, -0.626, 0.05
 303630999, 4.99, -0.001, -0.626, 0.05, 4.989, -0.001, -0.626, 0.05
 303830919, 4.99, -0.001, -0.626, 0.05, 4.99, -0.001, -0.626, 0.05
 304030839, 4.991, -0.001, -0.626, 0.05, 4.99, -0.001, -0.626, 0.05
 304230759, 4.991, -0.001, -0.627, 0.05, 4.991, -0.001, -0.626, 0.05
 304430679, 4.991, 0, -0.627, 0.05, 4.991, -0.001, -0.627, 0.05
 304631432, 4.99, 0, -0.628, 0.05, 4.991, 0, -0.627, 0.05
 304831352, 4.99, 0, -0.628, 0.05, 4.99, 0, -0.628, 0.05
 305031272, 4.991, 0, -0.628, 0.05, 4.99, 0, -0.628, 0.05
 305231192, 4.993, -0.001, -0.628, 0.05, 4.991, 0, -0.628, 0.05
 305431112, 4.994, -0.002, -0.628, 0.05, 4.993, -0.001, -0.628, 0.05
 305631032, 4.994, -0.002, -0.628, 0.05, 4.994, -0.002, -0.628, 0.05
 305830952, 4.994, -0.001, -0.628, 0.05, 4.994, -0.002, -0.628, 0.05
 306030872, 4.994, 0, -0.628, 0.05, 4.994, -0.001, -0.628, 0.05
 306230792, 4.994, 0, -0.628, 0.05, 4.994, 0, -0.628, 0.05
 306430712, 4.994, 0.001, -0.629, 0.05, 4.994, 0, -0.628, 0.05
 306631465, 4.995, 0.001, -0.629, 0.05, 4.994, 0.001, -0.629, 0.05
 306831385, 4.996, 0.001, -0.6300001, 0.05, 4.995, 0.001, -0.629, 0.05
 307031305, 4.996, 0.001, -0.629, 0.05, 4.996, 0.001, -0.6300001, 0.05
 307231225, 4.996, 0.001, -0.629, 0.05, 4.996, 0.001, -0.629, 0.05
 307431145, 4.996, 0.001, -0.629, 0.05, 4.996, 0.001, -0.629, 0.05
 307631065, 4.996, 0.002, -0.629, 0.05, 4.996, 0.001, -0.629, 0.05
 307830985, 4.997, 0.003, -0.629, 0.05, 4.996, 0.002, -0.629, 0.05
 308030905, 4.997, 0.003, -0.629, 0.05, 4.997, 0.003, -0.629, 0.05
 308230825, 4.998, 0.004, -0.629, 0.05, 4.997, 0.003, -0.629, 0.05
 308430745, 4.998, 0.004, -0.6300001, 0.05, 4.998, 0.004, -0.629, 0.05
 308630665, 4.998, 0.006, -0.629, 0.05, 4.998, 0.004, -0.6300001, 0.05
 308831418, 4.997, 0.006, -0.6300001, 0.05, 4.998, 0.006, -0.629, 0.05
 309031338, 4.997, 0.006, -0.629, 0.05, 4.997, 0.006, -0.6300001, 0.05
 309231258, 4.997, 0.005, -0.6300001, 0.05, 4.997, 0.006, -0.629, 0.05
 309431178, 4.998, 0.005, -0.628, 0.05, 4.997, 0.005, -0.6300001, 0.05
 309631098, 4.998, 0.005, -0.629, 0.05, 4.998, 0.005, -0.628, 0.05
 309831018, 4.999, 0.005, -0.628, 0.05, 4.998, 0.005, -0.629, 0.05
 310030938, 4.999, 0.005, -0.6300001, 0.05, 4.999, 0.005, -0.628, 0.05
 310230858, 5, 0.004, -0.628, 0.05, 4.999, 0.005, -0.6300001, 0.05
 310430778, 5.001, 0.004, -0.6300001, 0.05, 5, 0.004, -0.628, 0.05
 310630698, 5.001, 0.005, -0.629, 0.05, 5.001, 0.004, -0.6300001, 0.05
 310831451, 5.002, 0.005, -0.629, 0.05, 5.001, 0.005, -0.629, 0.05
 311031371, 5.002, 0.004, -0.6300001, 0.05, 5.002, 0.005, -0.629, 0.05
 311231291, 5.002, 0.004, -0.629, 0.05, 5.002, 0.004, -0.6300001, 0.05
 311431211, 5.001, 0.004, -0.6300001, 0.05, 5.002, 0.004, -0.629, 0.05
 311631131, 5.001, 0.006, -0.6300001, 0.05, 5.001, 0.004, -0.6300001, 0.05
 311831051, 4.997, 0.007, -0.629, 0.05, 5.001, 0.006, -0.6300001, 0.05
 312030971, 5.009, 0.007, -0.6300001, 0.05, 4.997, 0.007, -0.629, 0.05
 312230891, 5.007, 0.006, -0.6300001, 0.05, 5.009, 0.007, -0.6300001, 0.05
 312430811, 4.979, 0.004, -0.631, 0.05, 5.007, 0.006, -0.6300001, 0.05
 312630731, 4.981, 0.003, -0.6300001, 0.05, 4.979, 0.004, -0.631, 0.05
 312831484, 5.019, 0.004, -0.629, 0.05, 4.981, 0.003, -0.6300001, 0.05
 313031404, 5.02, 0.005, -0.631, 0.05, 5.019, 0.004, -0.629, 0.05
 313231324, 4.985, 0.005, -0.631, 0.05, 5.02, 0.005, -0.631, 0.05
 313431244, 4.972, 0.004, -0.629, 0.05, 4.985, 0.005, -0.631, 0.05
 313631164, 4.984, 0.004, -0.629, 0.05, 4.972, 0.004, -0.629, 0.05
 313831084, 5.012, 0.004, -0.628, 0.05, 4.984, 0.004, -0.629, 0.05
 314031004, 5.016, 0.004, -0.629, 0.05, 5.012, 0.004, -0.628, 0.05
 314230924, 4.981, 0.003, -0.6300001, 0.05, 5.016, 0.004, -0.629, 0.05
 314430844, 4.975, 0.002, -0.628, 0.05, 4.981, 0.003, -0.6300001, 0.05
 314630764, 4.988, 0.002, -0.627, 0.05, 4.975, 0.002, -0.628, 0.05
 314830684, 5.02, 0.002, -0.629, 0.05, 4.988, 0.002, -0.627, 0.05
 315031437, 5.015, 0.002, -0.632, 0.05, 5.02, 0.002, -0.629, 0.05
 315231357, 4.979, 0.001, -0.631, 0.05, 5.015, 0.002, -0.632, 0.05
 315431277, 4.976, 0, -0.628, 0.05, 4.979, 0.001, -0.631, 0.05
 315631197, 4.965, 0.001, -0.573, 0.05, 4.976, 0, -0.628, 0.05
 315831117, 4.892, 0.008, -0.485, 0.05, 4.965, 0.001, -0.573, 0.05
 316031037, 4.723, 0.022, -0.387, 0.05, 4.892, 0.008, -0.485, 0.05
 316230957, 4.529, 0.038, -0.261, 0.05, 4.723, 0.022, -0.387, 0.05
 316430877, 4.4, 0.048, -0.109, 0.05, 4.529, 0.038, -0.261, 0.05
 316630797, 4.369, 0.049, 0.03, 0.05, 4.4, 0.048, -0.109, 0.05
 316830717, 4.375, 0.047, 0.142, 0.05, 4.369, 0.049, 0.03, 0.05
 317031470, 4.374, 0.042, 0.227, 0.05, 4.375, 0.047, 0.142, 0.05
 317231390, 4.37, 0.034, 0.29, 0.05, 4.374, 0.042, 0.227, 0.05
 317431310, 4.377, 0.025, 0.336, 0.05, 4.37, 0.034, 0.29, 0.05
 317631230, 4.397, 0.015, 0.367, 0.05, 4.377, 0.025, 0.336, 0.05
 317831150, 4.426, 0.005, 0.386, 0.05, 4.397, 0.015, 0.367, 0.05
 318031070, 4.453, -0.003, 0.398, 0.05, 4.426, 0.005, 0.386, 0.05
 318230990, 4.477, -0.011, 0.405, 0.05, 4.453, -0.003, 0.398, 0.05
 318430910, 4.508, -0.019, 0.409, 0.05, 4.477, -0.011, 0.405, 0.05
 318630830, 4.534, -0.026, 0.412, 0.05, 4.508, -0.019, 0.409, 0.05
 318830750, 4.559, -0.032, 0.414, 0.05, 4.534, -0.026, 0.412, 0.05
 319030670, 4.588, -0.037, 0.416, 0.05, 4.559, -0.032, 0.414, 0.05
 319231423, 4.606, -0.04, 0.417, 0.05, 4.588, -0.037, 0.416, 0.05
 319431343, 4.628, -0.041, 0.418, 0.05, 4.606, -0.04, 0.417, 0.05
 319631263, 4.661, -0.041, 0.419, 0.05, 4.628, -0.041, 0.418, 0.05
 319831183, 4.672, -0.039, 0.42, 0.05, 4.661, -0.041, 0.419, 0.05
 320031103, 4.685, -0.039, 0.421, 0.05, 4.672, -0.039, 0.42, 0.05
 320231023, 4.718, -0.038, 0.423, 0.05, 4.685, -0.039, 0.421, 0.05
 320430943, 4.745, -0.036, 0.423, 0.05, 4.718, -0.038, 0.423, 0.05
 320630863, 4.748, -0.033, 0.423, 0.05, 4.745, -0.036, 0.423, 0.05
 320830783, 4.767, -0.029, 0.424, 0.05, 4.748, -0.033, 0.423, 0.05
 321030703, 4.781, -0.025, 0.424, 0.05, 4.767, -0.029, 0.424, 0.05
 321231456, 4.787, -0.021, 0.424, 0.05, 4.781, -0.025, 0.424, 0.05
 321431376, 4.803, -0.017, 0.423, 0.05, 4.787, -0.021, 0.424, 0.05
 321631296, 4.814, -0.013, 0.423, 0.05, 4.803, -0.017, 0.423, 0.05
 321831216, 4.82, -0.009000001, 0.422, 0.05, 4.814, -0.013, 0.423, 0.05
 322031136, 4.832, -0.006, 0.421, 0.05, 4.82, -0.009000001, 0.422, 0.05
 322231056, 4.84, -0.003, 0.421, 0.05, 4.832, -0.006, 0.421, 0.05
 322430976, 4.848, 0, 0.42, 0.05, 4.84, -0.003, 0.421, 0.05
 322630896, 4.853, 0.002, 0.42, 0.05, 4.848, 0, 0.42, 0.05
 322830816, 4.861, 0.005, 0.418, 0.05, 4.853, 0.002, 0.42, 0.05
 323030736, 4.867, 0.008, 0.415, 0.05, 4.861, 0.005, 0.418, 0.05
 323230656, 4.867, 0.01, 0.413, 0.05, 4.867, 0.008, 0.415, 0.05
 323431409, 4.866, 0.012, 0.411, 0.05, 4.867, 0.01, 0.413, 0.05
 323631329, 4.865, 0.014, 0.408, 0.05, 4.866, 0.012, 0.411, 0.05
 323831249, 4.865, 0.015, 0.407, 0.05, 4.865, 0.014, 0.408, 0.05
 324031169, 4.864, 0.016, 0.408, 0.05, 4.865, 0.015, 0.407, 0.05
 324231089, 4.864, 0.017, 0.409, 0.05, 4.864, 0.016, 0.408, 0.05
 324431009, 4.864, 0.019, 0.409, 0.05, 4.864, 0.017, 0.409, 0.05
 324630929, 4.864, 0.019, 0.409, 0.05, 4.864, 0.019, 0.409, 0.05
 324830849, 4.863, 0.018, 0.408, 0.05, 4.864, 0.019, 0.409, 0.05
 325030769, 4.862, 0.017, 0.408, 0.05, 4.863, 0.018, 0.408, 0.05
 325230689, 4.862, 0.017, 0.407, 0.05, 4.862, 0.017, 0.408, 0.05
 325431442, 4.862, 0.017, 0.407, 0.05, 4.862, 0.017, 0.407, 0.05
 325631362, 4.862, 0.016, 0.407, 0.05, 4.862, 0.017, 0.407, 0.05
 325831282, 4.862, 0.015, 0.407, 0.05, 4.862, 0.016, 0.407, 0.05
 326031202, 4.862, 0.014, 0.407, 0.05, 4.862, 0.015, 0.407, 0.05
 326231122, 4.861, 0.013, 0.407, 0.05, 4.862, 0.014, 0.407, 0.05
 326431042, 4.861, 0.012, 0.406, 0.05, 4.861, 0.013, 0.407, 0.05
 326630962, 4.86, 0.011, 0.406, 0.05, 4.861, 0.012, 0.406, 0.05
 326830882, 4.859, 0.01, 0.406, 0.05, 4.86, 0.011, 0.406, 0.05
 327030802, 4.859, 0.01, 0.406, 0.05, 4.859, 0.01, 0.406, 0.05
 327230722, 4.859, 0.009000001, 0.406, 0.05, 4.859, 0.01, 0.406, 0.05
 327431475, 4.859, 0.008, 0.406, 0.05, 4.859, 0.009000001, 0.406, 0.05
 327631395, 4.859, 0.007, 0.406, 0.05, 4.859, 0.008, 0.406, 0.05
 327831315, 4.858, 0.006, 0.406, 0.05, 4.859, 0.007, 0.406, 0.05
 328031235, 4.858, 0.005, 0.406, 0.05, 4.858, 0.006, 0.406, 0.05
 328231155, 4.85, 0.004, 0.407, 0.05, 4.858, 0.005, 0.406, 0.05
 328431075, 4.863, 0.003, 0.407, 0.05, 4.85, 0.004, 0.407, 0.05
 328630995, 4.874, 0.002, 0.407, 0.05, 4.863, 0.003, 0.407, 0.05
 328830915, 4.86, 0.002, 0.407, 0.05, 4.874, 0.002, 0.407, 0.05
 329030835, 4.832, 0, 0.407, 0.05, 4.86, 0.002, 0.407, 0.05
 329230755, 4.841, 0, 0.408, 0.05, 4.832, 0, 0.407, 0.05
 329430675, 4.877, 0.001, 0.407, 0.05, 4.841, 0, 0.408, 0.05
 329631428, 4.875, 0.001, 0.406, 0.05, 4.877, 0.001, 0.407, 0.05
 329831348, 4.848, 0, 0.406, 0.05, 4.875, 0.001, 0.406, 0.05
 330031268, 4.833, -0.001, 0.407, 0.05, 4.848, 0, 0.406, 0.05
 330231188, 4.854, -0.001, 0.407, 0.05, 4.833, -0.001, 0.407, 0.05
 330431108, 4.88, 0, 0.406, 0.05, 4.854, -0.001, 0.407, 0.05
 330631028, 4.873, 0, 0.405, 0.05, 4.88, 0, 0.406, 0.05
 330830948, 4.85, -0.001, 0.405, 0.05, 4.873, 0, 0.405, 0.05
 331030868, 4.836, -0.002, 0.407, 0.05, 4.85, -0.001, 0.405, 0.05
 331230788, 4.867, -0.002, 0.406, 0.05, 4.836, -0.002, 0.407, 0.05
 331430708, 4.88, 0, 0.405, 0.05, 4.867, -0.002, 0.406, 0.05
 331631461, 4.87, 0, 0.405, 0.05, 4.88, 0, 0.405, 0.05
 331831381, 4.839, -0.001, 0.407, 0.05, 4.87, 0, 0.405, 0.05
 332031301, 4.838, -0.001, 0.408, 0.05, 4.839, -0.001, 0.407, 0.05
 332231221, 4.874, 0, 0.407, 0.05, 4.838, -0.001, 0.408, 0.05
 332431141, 4.878, 0, 0.405, 0.05, 4.874, 0, 0.407, 0.05
 332631061, 4.865, 0, 0.404, 0.05, 4.878, 0, 0.405, 0.05
 332830981, 4.836, 0, 0.407, 0.05, 4.865, 0, 0.404, 0.05
 333030901, 4.848, 0, 0.408, 0.05, 4.836, 0, 0.407, 0.05
 333230821, 4.879, 0, 0.407, 0.05, 4.848, 0, 0.408, 0.05
 333430741, 4.875, 0, 0.404, 0.05, 4.879, 0, 0.407, 0.05
 333630661, 4.853, 0, 0.406, 0.05, 4.875, 0, 0.404, 0.05
 333831414, 4.835, -0.001, 0.408, 0.05, 4.853, 0, 0.406, 0.05
 334031334, 4.86, -0.001, 0.409, 0.05, 4.835, -0.001, 0.408, 0.05
 334231254, 4.88, 0, 0.408, 0.05, 4.86, -0.001, 0.409, 0.05
 334431174, 4.872, 0, 0.407, 0.05, 4.88, 0, 0.408, 0.05
 334631094, 4.844, 0, 0.407, 0.05, 4.872, 0, 0.407, 0.05
 334831014, 4.836, 0, 0.409, 0.05, 4.844, 0, 0.407, 0.05
 335030934, 4.867, 0.001, 0.408, 0.05, 4.836, 0, 0.409, 0.05
 335230854, 4.88, 0.003, 0.406, 0.05, 4.867, 0.001, 0.408, 0.05
 335430774, 4.869, 0.002, 0.404, 0.05, 4.88, 0.003, 0.406, 0.05
 335630694, 4.837, 0.001, 0.406, 0.05, 4.869, 0.002, 0.404, 0.05
 335831447, 4.836, 0.001, 0.408, 0.05, 4.837, 0.001, 0.406, 0.05
 336031367, 4.87, 0.002, 0.408, 0.05, 4.836, 0.001, 0.408, 0.05
 336231287, 4.878, 0.003, 0.406, 0.05, 4.87, 0.002, 0.408, 0.05
 336431207, 4.866, 0.003, 0.405, 0.05, 4.878, 0.003, 0.406, 0.05
 336631127, 4.834, 0.002, 0.406, 0.05, 4.866, 0.003, 0.405, 0.05
 336831047, 4.838, 0.002, 0.407, 0.05, 4.834, 0.002, 0.406, 0.05
 337030967, 4.872, 0.004, 0.407, 0.05, 4.838, 0.002, 0.407, 0.05
 337230887, 4.875, 0.004, 0.406, 0.05, 4.872, 0.004, 0.407, 0.05
 337430807, 4.854, 0.003, 0.406, 0.05, 4.875, 0.004, 0.406, 0.05
 337630727, 4.832, 0.002, 0.408, 0.05, 4.854, 0.003, 0.406, 0.05
 337831480, 4.844, 0.002, 0.408, 0.05, 4.832, 0.002, 0.408, 0.05
 338031400, 4.876, 0.003, 0.408, 0.05, 4.844, 0.002, 0.408, 0.05
 338231320, 4.872, 0.003, 0.407, 0.05, 4.876, 0.003, 0.408, 0.05
 338431240, 4.841, 0.002, 0.407, 0.05, 4.872, 0.003, 0.407, 0.05
 338631160, 4.833, 0.002, 0.408, 0.05, 4.841, 0.002, 0.407, 0.05
 338831080, 4.853, 0.002, 0.408, 0.05, 4.833, 0.002, 0.408, 0.05
 339031000, 4.877, 0.004, 0.407, 0.05, 4.853, 0.002, 0.408, 0.05
 339230920, 4.869, 0.004, 0.405, 0.05, 4.877, 0.004, 0.407, 0.05
 339430840, 4.84, 0.003, 0.361, 0.05, 4.869, 0.004, 0.405, 0.05
 339630760, 4.776, 0.008, 0.307, 0.05, 4.84, 0.003, 0.361, 0.05
 339830680, 4.665, 0.016, 0.318, 0.05, 4.776, 0.008, 0.307, 0.05
 340031433, 4.59, 0.02, 0.36, 0.05, 4.665, 0.016, 0.318, 0.05
 340231353, 4.579, 0.019, 0.409, 0.05, 4.59, 0.02, 0.36, 0.05
 340431273, 4.586, 0.018, 0.453, 0.05, 4.579, 0.019, 0.409, 0.05
 340631193, 4.584, 0.018, 0.489, 0.05, 4.586, 0.018, 0.453, 0.05
 340831113, 4.578, 0.015, 0.5190001, 0.05, 4.584, 0.018, 0.489, 0.05
 341031033, 4.581, 0.01, 0.543, 0.05, 4.578, 0.015, 0.5190001, 0.05
 341230953, 4.593, 0.006, 0.56, 0.05, 4.581, 0.01, 0.543, 0.05
 341430873, 4.611, 0.002, 0.571, 0.05, 4.593, 0.006, 0.56, 0.05
 341630793, 4.626, -0.001, 0.578, 0.05, 4.611, 0.002, 0.571, 0.05
 341830713, 4.634, -0.005, 0.583, 0.05, 4.626, -0.001, 0.578, 0.05
 342031466, 4.65, -0.009000001, 0.585, 0.05, 4.634, -0.005, 0.583, 0.05
 342231386, 4.672, -0.011, 0.5840001, 0.05, 4.65, -0.009000001, 0.585, 0.05
 342431306, 4.695, -0.013, 0.575, 0.05, 4.672, -0.011, 0.5840001, 0.05
 342631226, 4.698, -0.014, 0.566, 0.05, 4.695, -0.013, 0.575, 0.05
 342831146, 4.696, -0.014, 0.559, 0.05, 4.698, -0.014, 0.566, 0.05
 343031066, 4.697, -0.013, 0.555, 0.05, 4.696, -0.014, 0.559, 0.05
 343230986, 4.699, -0.012, 0.552, 0.05, 4.697, -0.013, 0.555, 0.05
 343430906, 4.701, -0.011, 0.55, 0.05, 4.699, -0.012, 0.552, 0.05
 343630826, 4.702, -0.01, 0.549, 0.05, 4.701, -0.011, 0.55, 0.05
 343830746, 4.702, -0.008, 0.55, 0.05, 4.702, -0.01, 0.549, 0.05
 344030666, 4.703, -0.007, 0.551, 0.05, 4.702, -0.008, 0.55, 0.05
 344231419, 4.704, -0.006, 0.552, 0.05, 4.703, -0.007, 0.551, 0.05
 344431339, 4.705, -0.005, 0.552, 0.05, 4.704, -0.006, 0.552, 0.05
 344631259, 4.705, -0.004, 0.553, 0.05, 4.705, -0.005, 0.552, 0.05
 344831179, 4.705, -0.003, 0.553, 0.05, 4.705, -0.004, 0.553, 0.05
 345031099, 4.705, -0.002, 0.553, 0.05, 4.705, -0.003, 0.553, 0.05
 345231019, 4.705, -0.001, 0.553, 0.05, 4.705, -0.002, 0.553, 0.05
 345430939, 4.705, 0, 0.553, 0.05, 4.705, -0.001, 0.553, 0.05
 345630859, 4.705, 0, 0.552, 0.05, 4.705, 0, 0.553, 0.05
 345830779, 4.705, 0.001, 0.552, 0.05, 4.705, 0, 0.552, 0.05
 346030699, 4.705, 0.001, 0.553, 0.05, 4.705, 0.001, 0.552, 0.05
 346231452, 4.705, 0.002, 0.553, 0.05, 4.705, 0.001, 0.553, 0.05
 346431372, 4.705, 0.002, 0.553, 0.05, 4.705, 0.002, 0.553, 0.05
 346631292, 4.705, 0.002, 0.553, 0.05, 4.705, 0.002, 0.553, 0.05
 346831212, 4.704, 0.003, 0.552, 0.05, 4.705, 0.002, 0.553, 0.05
 347031132, 4.704, 0.003, 0.552, 0.05, 4.704, 0.003, 0.552, 0.05
 347231052, 4.704, 0.003, 0.553, 0.05, 4.704, 0.003, 0.552, 0.05
 347430972, 4.704, 0.004, 0.553, 0.05, 4.704, 0.003, 0.553, 0.05
 347630892, 4.704, 0.003, 0.552, 0.05, 4.704, 0.004, 0.553, 0.05
 347830812, 4.703, 0.003, 0.551, 0.05, 4.704, 0.003, 0.552, 0.05
 348030732, 4.703, 0.003, 0.55, 0.05, 4.703, 0.003, 0.551, 0.05
 348231485, 4.703, 0.003, 0.549, 0.05, 4.703, 0.003, 0.55, 0.05
 348431405, 4.703, 0.003, 0.549, 0.05, 4.703, 0.003, 0.549, 0.05
 348631325, 4.702, 0.003, 0.548, 0.05, 4.703, 0.003, 0.549, 0.05
 348831245, 4.701, 0.002, 0.549, 0.05, 4.702, 0.003, 0.548, 0.05
 349031165, 4.701, 0.002, 0.55, 0.05, 4.701, 0.002, 0.549, 0.05
 349231085, 4.701, 0.002, 0.55, 0.05, 4.701, 0.002, 0.55, 0.05
 349431005, 4.701, 0.001, 0.55, 0.05, 4.701, 0.002, 0.55, 0.05
 349630925, 4.7, 0.001, 0.549, 0.05, 4.701, 0.001, 0.55, 0.05
 349830845, 4.7, 0.001, 0.549, 0.05, 4.7, 0.001, 0.549, 0.05
 350030765, 4.7, 0.001, 0.549, 0.05, 4.7, 0.001, 0.549, 0.05
 350230685, 4.7, 0.001, 0.55, 0.05, 4.7, 0.001, 0.549, 0.05
 350431438, 4.701, 0, 0.55, 0.05, 4.7, 0.001, 0.55, 0.05
 350631358, 4.701, 0, 0.55, 0.05, 4.701, 0, 0.55, 0.05
 350831278, 4.7, 0, 0.55, 0.05, 4.701, 0, 0.55, 0.05
 351031198, 4.7, 0, 0.55, 0.05, 4.7, 0, 0.55, 0.05
 351231118, 4.7, 0, 0.55, 0.05, 4.7, 0, 0.55, 0.05
 351431038, 4.7, 0, 0.549, 0.05, 4.7, 0, 0.55, 0.05
 351630958, 4.699, 0, 0.549, 0.05, 4.7, 0, 0.549, 0.05
 351830878, 4.698, -0.001, 0.549, 0.05, 4.699, 0, 0.549, 0.05
 352030798, 4.698, -0.001, 0.55, 0.05, 4.698, -0.001, 0.549, 0.05
 352230718, 4.698, -0.001, 0.551, 0.05, 4.698, -0.001, 0.55, 0.05
 352431471, 4.698, -0.001, 0.551, 0.05, 4.698, -0.001, 0.551, 0.05
 352631391, 4.698, -0.001, 0.552, 0.05, 4.698, -0.001, 0.551, 0.05
 352831311, 4.698, -0.001, 0.552, 0.05, 4.698, -0.001, 0.552, 0.05
 353031231, 4.698, -0.001, 0.553, 0.05, 4.698, -0.001, 0.552, 0.05
 353231151, 4.699, -0.001, 0.552, 0.05, 4.698, -0.001, 0.553, 0.05
 353431071, 4.7, -0.001, 0.552, 0.05, 4.699, -0.001, 0.552, 0.05
 353630991, 4.7, -0.001, 0.551, 0.05, 4.7, -0.001, 0.552, 0.05
 353830911, 4.7, -0.001, 0.551, 0.05, 4.7, -0.001, 0.551, 0.05
 354030831, 4.699, -0.001, 0.551, 0.05, 4.7, -0.001, 0.551, 0.05
 354230751, 4.698, -0.001, 0.552, 0.05, 4.699, -0.001, 0.551, 0.05
 354430671, 4.698, 0, 0.553, 0.05, 4.698, -0.001, 0.552, 0.05
 354631424, 4.698, 0, 0.552, 0.05, 4.698, 0, 0.553, 0.05
 354831344, 4.699, 0, 0.552, 0.05, 4.698, 0, 0.552, 0.05
 355031264, 4.698, 0, 0.552, 0.05, 4.699, 0, 0.552, 0.05
 355231184, 4.698, 0, 0.552, 0.05, 4.698, 0, 0.552, 0.05
 355431104, 4.698, 0.001, 0.55, 0.05, 4.698, 0, 0.552, 0.05
 355631024, 4.698, 0.001, 0.549, 0.05, 4.698, 0.001, 0.55, 0.05
 355830944, 4.697, 0.002, 0.549, 0.05, 4.698, 0.001, 0.549, 0.05
 356030864, 4.696, 0.002, 0.549, 0.05, 4.697, 0.002, 0.549, 0.05
 356230784, 4.695, 0.003, 0.55, 0.05, 4.696, 0.002, 0.549, 0.05
 356430704, 4.695, 0.003, 0.55, 0.05, 4.695, 0.003, 0.55, 0.05
 356631457, 4.695, 0.003, 0.549, 0.05, 4.695, 0.003, 0.55, 0.05
 356831377, 4.699, 0.003, 0.535, 0.05, 4.695, 0.003, 0.549, 0.05
 357031297, 4.707, 0.003, 0.511, 0.05, 4.699, 0.003, 0.535, 0.05
 357231217, 4.717, 0.002, 0.486, 0.05, 4.707, 0.003, 0.511, 0.05
 357431137, 4.724, 0.001, 0.463, 0.05, 4.717, 0.002, 0.486, 0.05
 357631057, 4.738, 0, 0.444, 0.05, 4.724, 0.001, 0.463, 0.05
 357830977, 4.749, 0, 0.429, 0.05, 4.738, 0, 0.444, 0.05
 358030897, 4.757, -0.001, 0.418, 0.05, 4.749, 0, 0.429, 0.05
 358230817, 4.763, -0.001, 0.41, 0.05, 4.757, -0.001, 0.418, 0.05
 358430737, 4.771, -0.001, 0.406, 0.05, 4.763, -0.001, 0.41, 0.05
 358630657, 4.78, -0.001, 0.403, 0.05, 4.771, -0.001, 0.406, 0.05
 358831410, 4.789, -0.002, 0.402, 0.05, 4.78, -0.001, 0.403, 0.05
 359031330, 4.797, -0.002, 0.401, 0.05, 4.789, -0.002, 0.402, 0.05
 359231250, 4.799, -0.003, 0.401, 0.05, 4.797, -0.002, 0.401, 0.05
 359431170, 4.809, -0.004, 0.4, 0.05, 4.799, -0.003, 0.401, 0.05
 359631090, 4.82, -0.004, 0.4, 0.05, 4.809, -0.004, 0.4, 0.05
 359831010, 4.828, -0.005, 0.4, 0.05, 4.82, -0.004, 0.4, 0.05
 360030930, 4.837, -0.005, 0.399, 0.05, 4.828, -0.005, 0.4, 0.05
 360230850, 4.846, -0.005, 0.398, 0.05, 4.837, -0.005, 0.399, 0.05
 360430770, 4.854, -0.004, 0.395, 0.05, 4.846, -0.005, 0.398, 0.05
 360630690, 4.857, -0.004, 0.392, 0.05, 4.854, -0.004, 0.395, 0.05
 360831443, 4.858, -0.002, 0.389, 0.05, 4.857, -0.004, 0.392, 0.05
 361031363, 4.859, -0.001, 0.386, 0.05, 4.858, -0.002, 0.389, 0.05
 361231283, 4.859, 0, 0.385, 0.05, 4.859, -0.001, 0.386, 0.05
 361431203, 4.859, 0, 0.383, 0.05, 4.859, 0, 0.385, 0.05
 361631123, 4.858, 0, 0.382, 0.05, 4.859, 0, 0.383, 0.05
 361831043, 4.857, 0, 0.383, 0.05, 4.858, 0, 0.382, 0.05
 362030963, 4.857, 0.001, 0.384, 0.05, 4.857, 0, 0.383, 0.05
 362230883, 4.857, 0.002, 0.384, 0.05, 4.857, 0.001, 0.384, 0.05
 362430803, 4.857, 0.002, 0.384, 0.05, 4.857, 0.002, 0.384, 0.05
 362630723, 4.857, 0.002, 0.384, 0.05, 4.857, 0.002, 0.384, 0.05
 362831476, 4.857, 0.003, 0.384, 0.05, 4.857, 0.002, 0.384, 0.05
 363031396, 4.857, 0.003, 0.384, 0.05, 4.857, 0.003, 0.384, 0.05
 363231316, 4.856, 0.003, 0.384, 0.05, 4.857, 0.003, 0.384, 0.05
 363431236, 4.856, 0.003, 0.384, 0.05, 4.856, 0.003, 0.384, 0.05
 363631156, 4.856, 0.003, 0.384, 0.05, 4.856, 0.003, 0.384, 0.05
 363831076, 4.855, 0.004, 0.383, 0.05, 4.856, 0.003, 0.384, 0.05
 364030996, 4.855, 0.004, 0.383, 0.05, 4.855, 0.004, 0.383, 0.05
 364230916, 4.854, 0.004, 0.382, 0.05, 4.855, 0.004, 0.383, 0.05
 364430836, 4.854, 0.004, 0.381, 0.05, 4.854, 0.004, 0.382, 0.05
 364630756, 4.854, 0.004, 0.381, 0.05, 4.854, 0.004, 0.381, 0.05
 364830676, 4.853, 0.004, 0.381, 0.05, 4.854, 0.004, 0.381, 0.05
 365031429, 4.853, 0.003, 0.381, 0.05, 4.853, 0.004, 0.381, 0.05
 365231349, 4.853, 0.003, 0.381, 0.05, 4.853, 0.003, 0.381, 0.05
 365431269, 4.852, 0.002, 0.381, 0.05, 4.853, 0.003, 0.381, 0.05
 365631189, 4.852, 0.002, 0.381, 0.05, 4.852, 0.002, 0.381, 0.05
 365831109, 4.852, 0.002, 0.382, 0.05, 4.852, 0.002, 0.381, 0.05
 366031029, 4.852, 0.002, 0.382, 0.05, 4.852, 0.002, 0.382, 0.05
 366230949, 4.852, 0.002, 0.383, 0.05, 4.852, 0.002, 0.382, 0.05
 366430869, 4.852, 0.002, 0.383, 0.05, 4.852, 0.002, 0.383, 0.05
 366630789, 4.852, 0.002, 0.383, 0.05, 4.852, 0.002, 0.383, 0.05
 366830709, 4.852, 0.002, 0.383, 0.05, 4.852, 0.002, 0.383, 0.05
 367031462, 4.852, 0.002, 0.384, 0.05, 4.852, 0.002, 0.383, 0.05
 367231382, 4.853, 0.002, 0.383, 0.05, 4.852, 0.002, 0.384, 0.05
 367431302, 4.853, 0.002, 0.383, 0.05, 4.853, 0.002, 0.383, 0.05
 367631222, 4.853, 0.002, 0.384, 0.05, 4.853, 0.002, 0.383, 0.05
 367831142, 4.852, 0.002, 0.385, 0.05, 4.853, 0.002, 0.384, 0.05
 368031062, 4.852, 0.001, 0.385, 0.05, 4.852, 0.002, 0.385, 0.05
 368230982, 4.853, 0.001, 0.384, 0.05, 4.852, 0.001, 0.385, 0.05
 368430902, 4.852, 0, 0.385, 0.05, 4.853, 0.001, 0.384, 0.05
 368630822, 4.852, 0, 0.385, 0.05, 4.852, 0, 0.385, 0.05
 368830742, 4.852, 0, 0.385, 0.05, 4.852, 0, 0.385, 0.05
 369030662, 4.852, 0, 0.384, 0.05, 4.852, 0, 0.385, 0.05
 369231415, 4.852, 0, 0.384, 0.05, 4.852, 0, 0.384, 0.05
 369431335, 4.852, 0, 0.384, 0.05, 4.852, 0, 0.384, 0.05
 369631255, 4.852, -0.001, 0.384, 0.05, 4.852, 0, 0.384, 0.05
 369831175, 4.852, -0.001, 0.385, 0.05, 4.852, -0.001, 0.384, 0.05
 370031095, 4.852, -0.001, 0.385, 0.05, 4.852, -0.001, 0.385, 0.05
 370231015, 4.852, 0, 0.384, 0.05, 4.852, -0.001, 0.385, 0.05
 370430935, 4.851, 0, 0.384, 0.05, 4.852, 0, 0.384, 0.05
 370630855, 4.851, 0, 0.384, 0.05, 4.851, 0, 0.384, 0.05
 370830775, 4.851, 0, 0.383, 0.05, 4.851, 0, 0.384, 0.05
 371030695, 4.85, 0, 0.383, 0.05, 4.851, 0, 0.383, 0.05
 371231448, 4.85, 0, 0.383, 0.05, 4.85, 0, 0.383, 0.05
 371431368, 4.85, 0, 0.382, 0.05, 4.85, 0, 0.383, 0.05
 371631288, 4.849, 0, 0.382, 0.05, 4.85, 0, 0.382, 0.05
 371831208, 4.849, 0, 0.383, 0.05, 4.849, 0, 0.382, 0.05
 372031128, 4.848, 0, 0.384, 0.05, 4.849, 0, 0.383, 0.05
 372231048, 4.848, 0.001, 0.384, 0.05, 4.848, 0, 0.384, 0.05
 372430968, 4.848, 0.001, 0.384, 0.05, 4.848, 0.001, 0.384, 0.05
 372630888, 4.848, 0.001, 0.385, 0.05, 4.848, 0.001, 0.384, 0.05
 372830808, 4.848, 0.001, 0.385, 0.05, 4.848, 0.001, 0.385, 0.05
 373030728, 4.848, 0.001, 0.385, 0.05, 4.848, 0.001, 0.385, 0.05
 373231481, 4.847, 0.001, 0.385, 0.05, 4.848, 0.001, 0.385, 0.05
