TimeUS,COFN,COFE,COFD,CNe,CEe,CDe,POFN,POFE,POFD,PNe,PEe,PDe
 170865793, 0, 0, 0, 0, 0, 0, 0, 0, 0, 0, 0, 0
 171030727, -0.01715145, 0.02003347, 0.002986888, 0.02599711, -0.02601994, 6.34329E-05, 0, 0, 0, 0, 0, 0
 171231480, -0.01152526, -0.002566231, -2.546917E-05, 0.0259215, -0.02664755, 0.100004, -0.01715145, 0.02003347, 0.002986888, 0.02599711, -0.02601994, 6.34329E-05
 171431400, 0.003355049, -0.003230861, 8.554566E-07, 0.02660445, -0.02702841, 0.1000047, -0.01152526, -0.002566231, -2.546917E-05, 0.0259215, -0.02664755, 0.100004
 171631320, 0.01261543, 0.02307966, 6.152525E-05, 0.02682578, -0.02649549, 0.100006, 0.003355049, -0.003230861, 8.554566E-07, 0.02660445, -0.02702841, 0.1000047
 171831240, 0.01036559, 0.006274783, 2.964058E-05, 0.02676994, -0.02681977, 0.1000054, 0.01261543, 0.02307966, 6.152525E-05, 0.02682578, -0.02649549, 0.100006
 172031160, -0.01208286, -0.005347244, -3.142181E-05, 0.02627224, -0.02707774, 0.1000044, 0.01036559, 0.006274783, 2.964058E-05, 0.02676994, -0.02681977, 0.1000054
 172231080, -0.009510557, 0.006913644, -6.399706E-06, 0.02632316, -0.02680574, 0.1000052, -0.01208286, -0.005347244, -3.142181E-05, 0.02627224, -0.02707774, 0.1000044
 172431000, 0.009937458, -0.003183837, 1.342029E-05, 0.02675754, -0.02702701, 0.1000058, -0.009510557, 0.006913644, -6.399706E-06, 0.02632316, -0.02680574, 0.1000052
 172630920, 0.01729855, 0.01124145, 5.126615E-05, 0.02694226, -0.02671758, 0.1000066, 0.009937458, -0.003183837, 1.342029E-05, 0.02675754, -0.02702701, 0.1000058
 172830840, 0.008709343, -0.006054789, 6.284138E-06, 0.02672818, -0.02709444, 0.1000053, 0.01729855, 0.01124145, 5.126615E-05, 0.02694226, -0.02671758, 0.1000066
 173030760, -0.01929644, -0.01089408, -5.402962E-05, 0.026135, -0.02721028, 0.1000039, 0.008709343, -0.006054789, 6.284138E-06, 0.02672818, -0.02709444, 0.1000053
 173230680, 0.01839069, -0.0230048, -4.019992E-06, 0.0269738, -0.02752268, 0.1000046, -0.01929644, -0.01089408, -5.402962E-05, 0.026135, -0.02721028, 0.1000039
 173431433, 0.01981006, 0.003620026, 4.247081E-05, 0.02701163, -0.02687583, 0.1000055, 0.01839069, -0.0230048, -4.019992E-06, 0.0269738, -0.02752268, 0.1000046
 173631353, 0.01569874, 0.004119078, 3.572883E-05, 0.0269046, -0.02686488, 0.1000054, 0.01981006, 0.003620026, 4.247081E-05, 0.02701163, -0.02687583, 0.1000055
 173831273, -0.00451544, -0.02514407, -4.991093E-05, 0.02643022, -0.02758171, 0.1000032, 0.01569874, 0.004119078, 3.572883E-05, 0.0269046, -0.02686488, 0.1000054
 174031193, 0.004681354, -0.02168669, -2.743037E-05, 0.02663559, -0.02748865, 0.1000035, -0.00451544, -0.02514407, -4.991093E-05, 0.02643022, -0.02758171, 0.1000032
 174231113, -0.007317556, -0.008859671, -2.815869E-05, 0.02637149, -0.02716209, 0.1000035, 0.004681354, -0.02168669, -2.743037E-05, 0.02663559, -0.02748865, 0.1000035
 174431033, 0.005834628, -0.01632347, -1.634486E-05, 0.02666336, -0.02734748, 0.1000038, -0.007317556, -0.008859671, -2.815869E-05, 0.02637149, -0.02716209, 0.1000035
 174630953, 0.01952805, 0.02439625, 7.602228E-05, 0.02700456, -0.02647274, 0.1000059, 0.005834628, -0.01632347, -1.634486E-05, 0.02666336, -0.02734748, 0.1000038
 174830873, -0.003086755, 0.02512184, 3.575549E-05, 0.02646161, -0.02645973, 0.1000051, 0.01952805, 0.02439625, 7.602228E-05, 0.02700456, -0.02647274, 0.1000059
 175030793, 0.004640201, -0.003646369, 2.507072E-06, 0.02663525, -0.02703747, 0.1000046, -0.003086755, 0.02512184, 3.575549E-05, 0.02646161, -0.02645973, 0.1000051
 175230713, -0.006862064, -0.01280635, -3.355524E-05, 0.02638134, -0.02725693, 0.1000038, 0.004640201, -0.003646369, 2.507072E-06, 0.02663525, -0.02703747, 0.1000046
 175431466, -0.01642654, -0.02118585, -6.471707E-05, 0.02619095, -0.02747316, 0.1000032, -0.006862064, -0.01280635, -3.355524E-05, 0.02638134, -0.02725693, 0.1000038
 175631386, 0.02506423, -0.004389476, 3.875057E-05, 0.02715355, -0.0270538, 0.1000057, -0.01642654, -0.02118585, -6.471707E-05, 0.02619095, -0.02747316, 0.1000032
 175831306, -0.001209107, 0.02461973, 3.798042E-05, 0.02650243, -0.02646675, 0.1000056, 0.02506423, -0.004389476, 3.875057E-05, 0.02715355, -0.0270538, 0.1000057
 176031226, 0.02489269, 0.02360654, 8.408604E-05, 0.02714848, -0.02648395, 0.1000069, -0.001209107, 0.02461973, 3.798042E-05, 0.02650243, -0.02646675, 0.1000056
 176231146, 0.01836224, 0.01524298, 5.843373E-05, 0.02697395, -0.02663655, 0.1000064, 0.02489269, 0.02360654, 8.408604E-05, 0.02714848, -0.02648395, 0.1000069
 176431066, 0.002926276, -0.01400199, -1.741754E-05, 0.02659531, -0.02728536, 0.1000047, 0.01836224, 0.01524298, 5.843373E-05, 0.02697395, -0.02663655, 0.1000064
 176630986, -0.0117596, -0.01291934, -4.286072E-05, 0.02628004, -0.02725863, 0.1000043, 0.002926276, -0.01400199, -1.741754E-05, 0.02659531, -0.02728536, 0.1000047
 176830906, 0.0004235399, 0.01574152, 2.656163E-05, 0.02653728, -0.02662782, 0.1000059, -0.0117596, -0.01291934, -4.286072E-05, 0.02628004, -0.02725863, 0.1000043
 177030826, 0.003596088, 0.006736206, 1.771372E-05, 0.02660946, -0.02680784, 0.1000057, 0.0004235399, 0.01574152, 2.656163E-05, 0.02653728, -0.02662782, 0.1000059
 177230746, 0.01907465, -0.0213736, 3.601053E-07, 0.02699115, -0.02747734, 0.1000053, 0.003596088, 0.006736206, 1.771372E-05, 0.02660946, -0.02680784, 0.1000057
 177430666, -0.02405781, 0.01765206, -1.6042E-05, 0.02605014, -0.02659108, 0.1000054, 0.01907465, -0.0213736, 3.601053E-07, 0.02699115, -0.02747734, 0.1000053
 177631419, -0.02342718, -0.01573191, -6.973519E-05, 0.02605955, -0.02732874, 0.1000047, -0.02405781, 0.01765206, -1.6042E-05, 0.02605014, -0.02659108, 0.1000054
 177831339, 0.003786072, 0.01251104, 2.756815E-05, 0.02661149, -0.02668921, 0.1000068, -0.02342718, -0.01573191, -6.973519E-05, 0.02605955, -0.02732874, 0.1000047
 178031259, 0.01382435, -0.002934903, 2.120602E-05, 0.02685434, -0.02701828, 0.1000066, 0.003786072, 0.01251104, 2.756815E-05, 0.02661149, -0.02668921, 0.1000068
 178231179, 0.004981989, -0.005308343, 6.882492E-07, 0.02664111, -0.02707255, 0.100006, 0.01382435, -0.002934903, 2.120602E-05, 0.02685434, -0.02701828, 0.1000066
 178431099, 0.02202844, -0.008757677, 2.671059E-05, 0.02706991, -0.02715432, 0.1000065, 0.004981989, -0.005308343, 6.882492E-07, 0.02664111, -0.02707255, 0.100006
 178631019, 0.008543911, 0.02432848, 5.516492E-05, 0.02672681, -0.02646932, 0.1000068, 0.02202844, -0.008757677, 2.671059E-05, 0.02706991, -0.02715432, 0.1000065
 178830939, 0.02051354, -0.00174808, 3.499701E-05, 0.02703046, -0.02698978, 0.1000066, 0.008543911, 0.02432848, 5.516492E-05, 0.02672681, -0.02646932, 0.1000068
 179030859, -0.01814208, -0.01728909, -6.108422E-05, 0.02615869, -0.02736635, 0.1000045, 0.02051354, -0.00174808, 3.499701E-05, 0.02703046, -0.02698978, 0.1000066
 179230779, -0.02041937, -0.01060148, -5.439814E-05, 0.0261174, -0.02719731, 0.1000047, -0.01814208, -0.01728909, -6.108422E-05, 0.02615869, -0.02736635, 0.1000045
 179430699, 0.01784166, 0.00807956, 4.552563E-05, 0.02696146, -0.02677566, 0.1000068, -0.02041937, -0.01060148, -5.439814E-05, 0.0261174, -0.02719731, 0.1000047
 179631452, 0.01045273, 0.007540499, 3.11522E-05, 0.02677539, -0.02678732, 0.1000062, 0.01784166, 0.00807956, 4.552563E-05, 0.02696146, -0.02677566, 0.1000068
 179831372, 0.02269745, 0.0140113, 6.392396E-05, 0.0270904, -0.02665788, 0.1000069, 0.01045273, 0.007540499, 3.11522E-05, 0.02677539, -0.02678732, 0.1000062
 180031292, 0.01598609, 0.01202995, 4.846519E-05, 0.0269143, -0.02669711, 0.1000063, 0.02269745, 0.0140113, 6.392396E-05, 0.0270904, -0.02665788, 0.1000069
 180231212, -0.007519417, 0.02424382, 2.565324E-05, 0.02636974, -0.02647143, 0.1000052, 0.01598609, 0.01202995, 4.846519E-05, 0.0269143, -0.02669711, 0.1000063
 180431132, 0.008596704, -0.01194246, -3.8246E-06, 0.0267306, -0.02723394, 0.1000045, -0.007519417, 0.02424382, 2.565324E-05, 0.02636974, -0.02647143, 0.1000052
 180631052, -0.0252053, -0.0240261, -8.514938E-05, 0.02603385, -0.02754834, 0.1000029, 0.008596704, -0.01194246, -3.8246E-06, 0.0267306, -0.02723394, 0.1000045
 180830972, -0.0238372, -0.008263852, -5.690597E-05, 0.02605783, -0.02714347, 0.1000037, -0.0252053, -0.0240261, -8.514938E-05, 0.02603385, -0.02754834, 0.1000029
 181030892, -0.01870027, -0.007591435, -4.639362E-05, 0.02615041, -0.02712751, 0.1000037, -0.0238372, -0.008263852, -5.690597E-05, 0.02605783, -0.02714347, 0.1000037
 181230812, -0.01831342, 0.01183498, -1.394244E-05, 0.02615808, -0.02670314, 0.1000041, -0.01870027, -0.007591435, -4.639362E-05, 0.02615041, -0.02712751, 0.1000037
 181430732, 0.02134213, -0.007380986, 2.673556E-05, 0.02705497, -0.02712354, 0.100005, -0.01831342, 0.01183498, -1.394244E-05, 0.02615808, -0.02670314, 0.1000041
 181631485, 0.003692245, 0.01250148, 2.725525E-05, 0.0266153, -0.02669071, 0.1000049, 0.02134213, -0.007380986, 2.673556E-05, 0.02705497, -0.02712354, 0.100005
 181831405, -0.02000303, -0.001901437, -3.968862E-05, 0.02612611, -0.02699675, 0.1000035, 0.003692245, 0.01250148, 2.725525E-05, 0.0266153, -0.02669071, 0.1000049
 182031325, -0.02077282, 0.003029761, -3.309204E-05, 0.02611162, -0.02688772, 0.1000037, -0.02000303, -0.001901437, -3.968862E-05, 0.02612611, -0.02699675, 0.1000035
 182231245, 0.02051961, 0.02462107, 7.858747E-05, 0.02703138, -0.0264685, 0.1000059, -0.02077282, 0.003029761, -3.309204E-05, 0.02611162, -0.02688772, 0.1000037
 182431165, -0.004357126, -0.0102869, -2.520686E-05, 0.02643484, -0.02719636, 0.1000034, 0.02051961, 0.02462107, 7.858747E-05, 0.02703138, -0.0264685, 0.1000059
 182631085, -0.01266384, -0.01356304, -4.606788E-05, 0.02626377, -0.0272778, 0.100003, -0.004357126, -0.0102869, -2.520686E-05, 0.02643484, -0.02719636, 0.1000034
 182831005, 0.02526908, -0.009944227, 3.013564E-05, 0.02715889, -0.02718843, 0.1000049, -0.01266384, -0.01356304, -4.606788E-05, 0.02626377, -0.0272778, 0.100003
 183030925, -0.004869379, -0.01014069, -2.618238E-05, 0.02642284, -0.02719449, 0.1000032, 0.02526908, -0.009944227, 3.013564E-05, 0.02715889, -0.02718843, 0.1000049
 183230845, -0.01816734, -0.002830725, -3.844962E-05, 0.02615787, -0.02702187, 0.100003, -0.004869379, -0.01014069, -2.618238E-05, 0.02642284, -0.02719449, 0.1000032
 183430765, 0.007357792, -0.02348815, -2.595176E-05, 0.02669936, -0.02753813, 0.1000031, -0.01816734, -0.002830725, -3.844962E-05, 0.02615787, -0.02702187, 0.100003
 183630685, 0.01604983, 0.01683202, 5.769146E-05, 0.02691537, -0.02661113, 0.1000047, 0.007357792, -0.02348815, -2.595176E-05, 0.02669936, -0.02753813, 0.1000031
 183831438, 0.008768343, 0.008434479, 3.015614E-05, 0.0267347, -0.02677635, 0.1000041, 0.01604983, 0.01683202, 5.769146E-05, 0.02691537, -0.02661113, 0.1000047
 184031358, -0.01308968, -0.01281847, -4.523763E-05, 0.02625702, -0.02725951, 0.1000025, 0.008768343, 0.008434479, 3.015614E-05, 0.0267347, -0.02677635, 0.1000041
 184231278, -0.0186385, -0.01329896, -5.600597E-05, 0.02615169, -0.0272715, 0.1000022, -0.01308968, -0.01281847, -4.523763E-05, 0.02625702, -0.02725951, 0.1000025
 184431198, -0.02237403, -0.023418, -7.962253E-05, 0.02608411, -0.02753601, 0.1000016, -0.0186385, -0.01329896, -5.600597E-05, 0.02615169, -0.0272715, 0.1000022
 184631118, 0.005918441, 0.02213812, 4.777007E-05, 0.02666735, -0.02651393, 0.1000042, -0.02237403, -0.023418, -7.962253E-05, 0.02608411, -0.02753601, 0.1000016
 184831038, 0.0001461247, -0.02476751, -4.133054E-05, 0.02653516, -0.02757392, 0.1000019, 0.005918441, 0.02213812, 4.777007E-05, 0.02666735, -0.02651393, 0.1000042
 185030958, -0.005459669, -0.02110847, -4.529285E-05, 0.02641338, -0.02747497, 0.1000018, 0.0001461247, -0.02476751, -4.133054E-05, 0.02653516, -0.02757392, 0.1000019
 185230878, -0.003674947, -0.01242918, -2.744802E-05, 0.026451, -0.02725077, 0.1000026, -0.005459669, -0.02110847, -4.529285E-05, 0.02641338, -0.02747497, 0.1000018
 185430798, -0.002503594, -0.00345557, -1.032322E-05, 0.02647612, -0.02703598, 0.100003, -0.003674947, -0.01242918, -2.744802E-05, 0.026451, -0.02725077, 0.1000026
 185630718, 0.01539119, -0.01331528, 5.64095E-06, 0.0268988, -0.02727338, 0.1000034, -0.002503594, -0.00345557, -1.032322E-05, 0.02647612, -0.02703598, 0.100003
 185831471, 0.01519145, -0.005185855, 1.895689E-05, 0.02689321, -0.02707698, 0.1000037, 0.01539119, -0.01331528, 5.64095E-06, 0.0268988, -0.02727338, 0.1000034
 186031391, 0.0004844277, -0.01775136, -2.899739E-05, 0.02654136, -0.02738728, 0.1000025, 0.01519145, -0.005185855, 1.895689E-05, 0.02689321, -0.02707698, 0.1000037
 186231311, -0.01617299, 0.01801068, 8.774696E-07, 0.02619698, -0.02659023, 0.1000031, 0.0004844277, -0.01775136, -2.899739E-05, 0.02654136, -0.02738728, 0.1000025
 186431231, 0.0131225, -0.02019296, -1.010745E-05, 0.02684119, -0.02745127, 0.1000029, -0.01617299, 0.01801068, 8.774696E-07, 0.02619698, -0.02659023, 0.1000031
 186631151, -0.01734921, -0.006422052, -4.253214E-05, 0.02617413, -0.02710723, 0.1000021, 0.0131225, -0.02019296, -1.010745E-05, 0.02684119, -0.02745127, 0.1000029
 186831071, -0.02384116, 0.01277459, -2.195345E-05, 0.02605661, -0.02669161, 0.1000026, -0.01734921, -0.006422052, -4.253214E-05, 0.02617413, -0.02710723, 0.1000021
 187030991, -0.004388214, 0.01217177, 1.251258E-05, 0.02643381, -0.02670287, 0.1000035, -0.02384116, 0.01277459, -2.195345E-05, 0.02605661, -0.02669161, 0.1000026
 187230911, -0.005864386, 0.001927048, -7.490609E-06, 0.02640262, -0.02691569, 0.1000033, -0.004388214, 0.01217177, 1.251258E-05, 0.02643381, -0.02670287, 0.1000035
 187430831, -0.0129325, -0.0005519515, -2.47131E-05, 0.02625771, -0.0269696, 0.1000035, -0.005864386, 0.001927048, -7.490609E-06, 0.02640262, -0.02691569, 0.1000033
 187630751, -0.01613264, 0.007777858, -1.689146E-05, 0.02619492, -0.02678951, 0.100004, -0.0129325, -0.0005519515, -2.47131E-05, 0.02625771, -0.0269696, 0.1000035
 187830671, 0.01356569, 0.01517819, 5.054634E-05, 0.02684884, -0.0266421, 0.1000056, -0.01613264, 0.007777858, -1.689146E-05, 0.02619492, -0.02678951, 0.100004
 188031424, -0.01071975, -0.0003522181, -2.060476E-05, 0.02629932, -0.02696542, 0.1000041, 0.01356569, 0.01517819, 5.054634E-05, 0.02684884, -0.0266421, 0.1000056
 188231344, -0.007319469, -0.01944337, -4.637832E-05, 0.02636863, -0.02743066, 0.1000034, -0.01071975, -0.0003522181, -2.060476E-05, 0.02629932, -0.02696542, 0.1000041
 188431264, 0.01305593, 0.006592787, 3.547552E-05, 0.02683543, -0.02681555, 0.1000052, -0.007319469, -0.01944337, -4.637832E-05, 0.02636863, -0.02743066, 0.1000034
 188631184, -0.01371754, 0.01727788, 3.57273E-06, 0.02624056, -0.0266036, 0.1000042, 0.01305593, 0.006592787, 3.547552E-05, 0.02683543, -0.02681555, 0.1000052
 188831104, 0.011769, 0.01062116, 3.958793E-05, 0.0268045, -0.02673251, 0.1000051, -0.01371754, 0.01727788, 3.57273E-06, 0.02624056, -0.0266036, 0.1000042
 189031024, 0.002759981, -0.01925951, -2.70074E-05, 0.02659078, -0.02742495, 0.1000035, 0.011769, 0.01062116, 3.958793E-05, 0.0268045, -0.02673251, 0.1000051
 189230944, 0.02324424, -0.009722591, 2.654849E-05, 0.0271034, -0.02718288, 0.1000049, 0.002759981, -0.01925951, -2.70074E-05, 0.02659078, -0.02742495, 0.1000035
 189430864, 0.02515891, -0.004891766, 3.799463E-05, 0.02715599, -0.02706713, 0.1000053, 0.02324424, -0.009722591, 2.654849E-05, 0.0271034, -0.02718288, 0.1000049
 189630784, 0.01368832, 0.01133304, 4.360788E-05, 0.02685428, -0.02671555, 0.1000054, 0.02515891, -0.004891766, 3.799463E-05, 0.02715599, -0.02706713, 0.1000053
 189830704, 0.003841942, -0.02485697, -3.370756E-05, 0.02661651, -0.02757308, 0.1000037, 0.01368832, 0.01133304, 4.360788E-05, 0.02685428, -0.02671555, 0.1000054
 190031457, 0.002440847, 0.02298789, 4.206218E-05, 0.02658345, -0.02649605, 0.1000057, 0.003841942, -0.02485697, -3.370756E-05, 0.02661651, -0.02757308, 0.1000037
 190231377, -0.01032464, -0.01265136, -3.958819E-05, 0.02630879, -0.0272526, 0.1000042, 0.002440847, 0.02298789, 4.206218E-05, 0.02658345, -0.02649605, 0.1000057
 190431297, -0.02483172, -0.002405244, -4.946994E-05, 0.02603802, -0.02700754, 0.1000042, -0.01032464, -0.01265136, -3.958819E-05, 0.02630879, -0.0272526, 0.1000042
 190631217, 0.003322531, -0.01727386, -2.194206E-05, 0.02660396, -0.02736944, 0.1000046, -0.02483172, -0.002405244, -4.946994E-05, 0.02603802, -0.02700754, 0.1000042
 190831137, -0.02281459, 0.009089039, -2.70824E-05, 0.0260733, -0.0267594, 0.1000045, 0.003322531, -0.01727386, -2.194206E-05, 0.02660396, -0.02736944, 0.1000046
 191031057, -0.01506626, -0.001124367, -2.949683E-05, 0.02621578, -0.02697874, 0.1000045, -0.02281459, 0.009089039, -2.70824E-05, 0.0260733, -0.0267594, 0.1000045
 191230977, 0.01045095, 0.01073853, 3.66914E-05, 0.02677256, -0.02672596, 0.100006, -0.01506626, -0.001124367, -2.949683E-05, 0.02621578, -0.02697874, 0.1000045
 191430897, 0.008742124, 0.007757507, 2.87965E-05, 0.02673084, -0.02678769, 0.1000056, 0.01045095, 0.01073853, 3.66914E-05, 0.02677256, -0.02672596, 0.100006
 191630817, 0.01414456, -0.01079252, 8.306264E-06, 0.02686447, -0.02720776, 0.100005, 0.008742124, 0.007757507, 2.87965E-05, 0.02673084, -0.02678769, 0.1000056
 191830737, 0.02000617, 0.01971428, 6.923763E-05, 0.02701526, -0.02655517, 0.1000065, 0.01414456, -0.01079252, 8.306264E-06, 0.02686447, -0.02720776, 0.100005
 192030657, 0.01976479, -0.01368016, 1.420535E-05, 0.02700842, -0.027279, 0.1000056, 0.02000617, 0.01971428, 6.923763E-05, 0.02701526, -0.02655517, 0.1000065
 192231410, -0.01733297, -0.007372313, -4.423691E-05, 0.02617139, -0.02712497, 0.1000042, 0.01976479, -0.01368016, 1.420535E-05, 0.02700842, -0.027279, 0.1000056
 192431330, 0.01743955, -0.02263361, -4.88622E-06, 0.0269479, -0.02751253, 0.1000049, -0.01733297, -0.007372313, -4.423691E-05, 0.02617139, -0.02712497, 0.1000042
 192631250, 0.01639812, -0.01947998, -1.59955E-06, 0.0269208, -0.02742845, 0.1000051, 0.01743955, -0.02263361, -4.88622E-06, 0.0269479, -0.02751253, 0.1000049
 192831170, -0.01797343, -0.02360472, -7.221309E-05, 0.02615914, -0.02753903, 0.1000035, 0.01639812, -0.01947998, -1.59955E-06, 0.0269208, -0.02742845, 0.1000051
 193031090, -0.002765704, -0.01555599, -3.069837E-05, 0.02646605, -0.02732637, 0.1000045, -0.01797343, -0.02360472, -7.221309E-05, 0.02615914, -0.02753903, 0.1000035
 193231010, 0.01014378, -0.0176496, -1.005067E-05, 0.02676335, -0.02738003, 0.1000052, -0.002765704, -0.01555599, -3.069837E-05, 0.02646605, -0.02732637, 0.1000045
 193430930, -0.003800346, 0.0213832, 2.804685E-05, 0.02644262, -0.02652428, 0.1000061, 0.01014378, -0.0176496, -1.005067E-05, 0.02676335, -0.02738003, 0.1000052
 193630850, -0.01218714, 0.01864863, 7.803324E-06, 0.02626966, -0.02657369, 0.1000058, -0.003800346, 0.0213832, 2.804685E-05, 0.02644262, -0.02652428, 0.1000061
 193830770, 0.01173046, -0.004195802, 1.496285E-05, 0.026803, -0.02704879, 0.1000059, -0.01218714, 0.01864863, 7.803324E-06, 0.02626966, -0.02657369, 0.1000058
 194030690, 0.005166718, 0.01630681, 3.612221E-05, 0.02664573, -0.02661665, 0.1000062, 0.01173046, -0.004195802, 1.496285E-05, 0.026803, -0.02704879, 0.1000059
 194231443, -0.01448376, 0.01070753, -9.389732E-06, 0.02622659, -0.02672547, 0.1000053, 0.005166718, 0.01630681, 3.612221E-05, 0.02664573, -0.02661665, 0.1000062
 194431363, 0.001139227, 0.02051528, 3.517027E-05, 0.02655398, -0.02653735, 0.1000063, -0.01448376, 0.01070753, -9.389732E-06, 0.02622659, -0.02672547, 0.1000053
 194631283, -0.001213392, -0.01487497, -2.610675E-05, 0.02650223, -0.02730578, 0.100005, 0.001139227, 0.02051528, 3.517027E-05, 0.02655398, -0.02653735, 0.1000063
 194831203, -0.01817663, -0.02488314, -7.301923E-05, 0.02615753, -0.02756948, 0.1000041, -0.001213392, -0.01487497, -2.610675E-05, 0.02650223, -0.02730578, 0.100005
 195031123, -0.02276927, 0.02471656, -2.630532E-06, 0.02607411, -0.02646079, 0.1000061, -0.01817663, -0.02488314, -7.301923E-05, 0.02615753, -0.02756948, 0.1000041
 195231043, 0.01399134, -0.01837083, -3.216937E-06, 0.02685976, -0.02739367, 0.1000065, -0.02276927, 0.02471656, -2.630532E-06, 0.02607411, -0.02646079, 0.1000061
 195430963, 0.02306284, 0.02275198, 7.887588E-05, 0.02709589, -0.02649488, 0.1000086, 0.01399134, -0.01837083, -3.216937E-06, 0.02685976, -0.02739367, 0.1000065
 195630883, 0.02264709, 0.01347205, 6.337189E-05, 0.0270848, -0.02666697, 0.1000084, 0.02306284, 0.02275198, 7.887588E-05, 0.02709589, -0.02649488, 0.1000086
 195830803, -0.005712276, -0.02458271, -4.932229E-05, 0.02640186, -0.02755868, 0.1000061, 0.02264709, 0.01347205, 6.337189E-05, 0.0270848, -0.02666697, 0.1000084
 196030723, 0.005154307, -0.01094684, -7.452738E-06, 0.02664318, -0.0272032, 0.1000076, -0.005712276, -0.02458271, -4.932229E-05, 0.02640186, -0.02755868, 0.1000061
 196231476, 0.01303201, -0.01030706, 8.252664E-06, 0.02683424, -0.02718729, 0.1000079, 0.005154307, -0.01094684, -7.452738E-06, 0.02664318, -0.0272032, 0.1000076
 196431396, -0.005030675, -0.01208979, -2.826126E-05, 0.02641716, -0.02723139, 0.1000068, 0.01303201, -0.01030706, 8.252664E-06, 0.02683424, -0.02718729, 0.1000079
 196631316, -0.0007870499, 0.01771595, 2.625894E-05, 0.02650953, -0.02658379, 0.1000079, -0.005030675, -0.01208979, -2.826126E-05, 0.02641716, -0.02723139, 0.1000068
 196831236, 0.01382098, -0.009368199, 1.116175E-05, 0.02685402, -0.02716493, 0.1000078, -0.0007870499, 0.01771595, 2.625894E-05, 0.02650953, -0.02658379, 0.1000079
 197031156, 0.02261154, -0.008065452, 2.984637E-05, 0.02708243, -0.0271338, 0.1000085, 0.01382098, -0.009368199, 1.116175E-05, 0.02685402, -0.02716493, 0.1000078
 197231076, -0.01047011, -0.01144526, -3.77999E-05, 0.02630281, -0.02721659, 0.1000067, 0.02261154, -0.008065452, 2.984637E-05, 0.02708243, -0.0271338, 0.1000085
 197430996, -0.02214549, 0.01611476, -1.617454E-05, 0.02608153, -0.02661555, 0.1000071, -0.01047011, -0.01144526, -3.77999E-05, 0.02630281, -0.02721659, 0.1000067
 197630916, 0.004536417, -0.01086836, -8.814619E-06, 0.02662887, -0.02720363, 0.1000069, -0.02214549, 0.01611476, -1.617454E-05, 0.02608153, -0.02661555, 0.1000071
 197830836, -0.006783534, -0.009343766, -2.774318E-05, 0.02637945, -0.02716725, 0.1000061, 0.004536417, -0.01086836, -8.814619E-06, 0.02662887, -0.02720363, 0.1000069
 198030756, -0.01414913, -0.006630366, -3.731195E-05, 0.02623082, -0.02710268, 0.1000059, -0.006783534, -0.009343766, -2.774318E-05, 0.02637945, -0.02716725, 0.1000061
 198230676, -0.01404767, 0.007768594, -1.400697E-05, 0.02623231, -0.0267831, 0.1000066, -0.01414913, -0.006630366, -3.731195E-05, 0.02623082, -0.02710268, 0.1000059
 198431429, 0.006963531, -0.01598729, -1.271914E-05, 0.02668585, -0.02733351, 0.1000064, -0.01404767, 0.007768594, -1.400697E-05, 0.02623231, -0.0267831, 0.1000066
 198631349, 0.02235784, 0.002317951, 4.58047E-05, 0.02707699, -0.02690078, 0.1000072, 0.006963531, -0.01598729, -1.271914E-05, 0.02668585, -0.02733351, 0.1000064
 198831269, 0.00813893, 0.006985569, 2.662835E-05, 0.0267159, -0.02680118, 0.1000064, 0.02235784, 0.002317951, 4.58047E-05, 0.02707699, -0.02690078, 0.1000072
 199031189, -0.01709113, 0.0220686, 3.978854E-06, 0.02617699, -0.02650878, 0.1000059, 0.00813893, 0.006985569, 2.662835E-05, 0.0267159, -0.02680118, 0.1000064
 199231109, -0.0229924, 0.01516456, -1.828056E-05, 0.02606994, -0.02663553, 0.1000057, -0.01709113, 0.0220686, 3.978854E-06, 0.02617699, -0.02650878, 0.1000059
 199431029, -0.005174752, 0.0114972, 8.796749E-06, 0.02641547, -0.02670636, 0.1000065, -0.0229924, 0.01516456, -1.828056E-05, 0.02606994, -0.02663553, 0.1000057
 199630949, 0.0207851, -0.009656414, 2.322401E-05, 0.02703628, -0.0271741, 0.100007, -0.005174752, 0.0114972, 8.796749E-06, 0.02641547, -0.02670636, 0.1000065
 199830869, -0.01522065, -0.003129302, -3.341179E-05, 0.02621156, -0.02701961, 0.100006, 0.0207851, -0.009656414, 2.322401E-05, 0.02703628, -0.0271741, 0.100007
 200030789, -0.0215705, 0.01333244, -1.910737E-05, 0.0260937, -0.02666929, 0.1000065, -0.01522065, -0.003129302, -3.341179E-05, 0.02621156, -0.02701961, 0.100006
 200230709, -0.01722711, 0.01821385, -3.290561E-06, 0.02617344, -0.02657561, 0.1000069, -0.0215705, 0.01333244, -1.910737E-05, 0.0260937, -0.02666929, 0.1000065
 200431462, -0.024557, 0.007548514, -3.390482E-05, 0.0260415, -0.02678493, 0.1000064, -0.01722711, 0.01821385, -3.290561E-06, 0.02617344, -0.02657561, 0.1000069
 200631382, 0.007501849, -0.01375913, -7.855613E-06, 0.02670105, -0.02727414, 0.1000066, -0.024557, 0.007548514, -3.390482E-05, 0.0260415, -0.02678493, 0.1000064
 200831302, -0.02457494, -0.002228801, -4.923531E-05, 0.02604176, -0.02699731, 0.1000061, 0.007501849, -0.01375913, -7.855613E-06, 0.02670105, -0.02727414, 0.1000066
 201031222, -0.01915336, 0.003695329, -2.996283E-05, 0.02613777, -0.026865, 0.1000069, -0.02457494, -0.002228801, -4.923531E-05, 0.02604176, -0.02699731, 0.1000061
 201231142, -0.005117023, 0.02446864, 2.855818E-05, 0.02641511, -0.02646073, 0.1000085, -0.01915336, 0.003695329, -2.996283E-05, 0.02613777, -0.026865, 0.1000069
 201431062, 0.02157428, 0.02111195, 7.343449E-05, 0.0270548, -0.02651931, 0.10001, -0.005117023, 0.02446864, 2.855818E-05, 0.02641511, -0.02646073, 0.1000085
 201630982, -0.0189506, -0.01954698, -6.617713E-05, 0.02613948, -0.02741992, 0.100007, 0.02157428, 0.02111195, 7.343449E-05, 0.0270548, -0.02651931, 0.10001
 201830902, -0.01361102, -0.0227309, -6.11834E-05, 0.02624045, -0.02750508, 0.100007, -0.0189506, -0.01954698, -6.617713E-05, 0.02613948, -0.02741992, 0.100007
 202030822, -0.01694254, -0.02314051, -6.823946E-05, 0.02617612, -0.02751607, 0.100007, -0.01361102, -0.0227309, -6.11834E-05, 0.02624045, -0.02750508, 0.100007
 202230742, -0.02545991, 0.02285239, -1.270974E-05, 0.02602344, -0.0264885, 0.1000083, -0.01694254, -0.02314051, -6.823946E-05, 0.02617612, -0.02751607, 0.100007
 202430662, 0.01462277, 0.01022974, 4.393252E-05, 0.02687285, -0.02672833, 0.1000093, -0.02545991, 0.02285239, -1.270974E-05, 0.02602344, -0.0264885, 0.1000083
 202631415, 0.01396081, -0.00742842, 1.486451E-05, 0.02685584, -0.02711795, 0.1000085, 0.01462277, 0.01022974, 4.393252E-05, 0.02687285, -0.02672833, 0.1000093
 202831335, 0.01279259, 0.02126711, 5.814754E-05, 0.02682651, -0.02651875, 0.1000094, 0.01396081, -0.00742842, 1.486451E-05, 0.02685584, -0.02711795, 0.1000085
 203031255, -0.0176532, -0.01184829, -5.249833E-05, 0.02616298, -0.02722564, 0.1000068, 0.01279259, 0.02126711, 5.814754E-05, 0.02682651, -0.02651875, 0.1000094
 203231175, -0.02084349, 0.01434272, -1.669938E-05, 0.02610507, -0.02664893, 0.1000072, -0.0176532, -0.01184829, -5.249833E-05, 0.02616298, -0.02722564, 0.1000068
 203431095, 0.01525582, 0.0254518, 7.001047E-05, 0.02688958, -0.02644732, 0.1000088, -0.02084349, 0.01434272, -1.669938E-05, 0.02610507, -0.02664893, 0.1000072
 203631015, -0.005919764, 0.02398226, 2.733679E-05, 0.02639669, -0.02647239, 0.100008, 0.01525582, 0.0254518, 7.001047E-05, 0.02688958, -0.02644732, 0.1000088
 203830935, -0.01975239, 0.02445061, 1.863751E-06, 0.02612468, -0.02646494, 0.1000073, -0.005919764, 0.02398226, 2.733679E-05, 0.02639669, -0.02647239, 0.100008
 204030855, -0.02295566, -0.01509291, -6.843769E-05, 0.02606703, -0.02730996, 0.1000056, -0.01975239, 0.02445061, 1.863751E-06, 0.02612468, -0.02646494, 0.1000073
 204230775, 0.005156211, 0.00246995, 1.383769E-05, 0.02664299, -0.02689464, 0.1000075, -0.02295566, -0.01509291, -6.843769E-05, 0.02606703, -0.02730996, 0.1000056
 204430695, 0.000169515, 0.0209238, 3.401859E-05, 0.02652984, -0.02652662, 0.1000078, 0.005156211, 0.00246995, 1.383769E-05, 0.02664299, -0.02689464, 0.1000075
 204631448, 0.01225947, 0.009804105, 3.88527E-05, 0.02681594, -0.026739, 0.1000079, 0.000169515, 0.0209238, 3.401859E-05, 0.02652984, -0.02652662, 0.1000078
 204831368, -0.01009648, -0.006029629, -2.860263E-05, 0.02631295, -0.02708539, 0.1000064, 0.01225947, 0.009804105, 3.88527E-05, 0.02681594, -0.026739, 0.1000079
 205031288, -0.01600964, -0.00527176, -3.834186E-05, 0.02619784, -0.0270678, 0.100006, -0.01009648, -0.006029629, -2.860263E-05, 0.02631295, -0.02708539, 0.1000064
 205231208, -0.01035637, 0.00230125, -1.558771E-05, 0.02630937, -0.02689717, 0.1000061, -0.01600964, -0.00527176, -3.834186E-05, 0.02619784, -0.0270678, 0.100006
 205431128, 0.02518387, -0.02397074, 8.37231E-06, 0.02715718, -0.02754182, 0.1000065, -0.01035637, 0.00230125, -1.558771E-05, 0.02630937, -0.02689717, 0.1000061
 205631048, -0.02405318, 0.01326137, -2.341687E-05, 0.02605314, -0.02666952, 0.1000059, 0.02518387, -0.02397074, 8.37231E-06, 0.02715718, -0.02754182, 0.1000065
 205830968, -0.01938155, 0.0002974239, -3.540659E-05, 0.02613659, -0.02694038, 0.1000057, -0.02405318, 0.01326137, -2.341687E-05, 0.02605314, -0.02666952, 0.1000059
 206030888, -0.0148962, 0.005183797, -1.929184E-05, 0.026221, -0.02683427, 0.1000059, -0.01938155, 0.0002974239, -3.540659E-05, 0.02613659, -0.02694038, 0.1000057
 206230808, 0.02203608, -0.01092454, 2.334619E-05, 0.02707227, -0.02720302, 0.1000069, -0.0148962, 0.005183797, -1.929184E-05, 0.026221, -0.02683427, 0.1000059
 206430728, 0.0105142, 0.01026918, 3.581111E-05, 0.02677652, -0.02672893, 0.1000071, 0.02203608, -0.01092454, 2.334619E-05, 0.02707227, -0.02720302, 0.1000069
 206631481, -0.01497908, -0.01601725, -5.326082E-05, 0.02621995, -0.02733149, 0.1000048, 0.0105142, 0.01026918, 3.581111E-05, 0.02677652, -0.02672893, 0.1000071
 206831401, 0.004918768, -0.0002864847, 8.639679E-06, 0.0266428, -0.02695425, 0.1000063, -0.01497908, -0.01601725, -5.326082E-05, 0.02621995, -0.02733149, 0.1000048
 207031321, 0.01782282, 0.006706046, 4.384213E-05, 0.02696034, -0.02680299, 0.1000073, 0.004918768, -0.0002864847, 8.639679E-06, 0.0266428, -0.02695425, 0.1000063
 207231241, -0.00612315, -0.003909586, -1.763101E-05, 0.0263973, -0.02703632, 0.1000059, 0.01782282, 0.006706046, 4.384213E-05, 0.02696034, -0.02680299, 0.1000073
 207431161, 0.0206129, 0.01816908, 6.739239E-05, 0.02703354, -0.0265763, 0.1000079, -0.00612315, -0.003909586, -1.763101E-05, 0.0263973, -0.02703632, 0.1000059
 207631081, -0.0008397134, -0.001895247, -4.60598E-06, 0.02651125, -0.02699047, 0.1000062, 0.0206129, 0.01816908, 6.739239E-05, 0.02703354, -0.0265763, 0.1000079
 207831001, -0.01061719, 0.006538739, -9.254361E-06, 0.0263044, -0.02680681, 0.100006, -0.0008397134, -0.001895247, -4.60598E-06, 0.02651125, -0.02699047, 0.1000062
 208030921, -0.007220561, -0.01155925, -3.215313E-05, 0.02637367, -0.02722008, 0.1000055, -0.01061719, 0.006538739, -9.254361E-06, 0.0263044, -0.02680681, 0.100006
 208230841, 0.000931947, 0.002866072, 6.386471E-06, 0.02655, -0.02688569, 0.1000064, -0.007220561, -0.01155925, -3.215313E-05, 0.02637367, -0.02722008, 0.1000055
 208430761, 0.01129255, -0.007625751, 8.750192E-06, 0.02679418, -0.02712544, 0.1000063, 0.000931947, 0.002866072, 6.386471E-06, 0.02655, -0.02688569, 0.1000064
 208630681, 0.0230807, -0.01342776, 2.132469E-05, 0.02709925, -0.02726779, 0.1000065, 0.01129255, -0.007625751, 8.750192E-06, 0.02679418, -0.02712544, 0.1000063
 208831434, 0.01727319, -0.01116472, 1.414275E-05, 0.02694497, -0.02721232, 0.1000062, 0.0230807, -0.01342776, 2.132469E-05, 0.02709925, -0.02726779, 0.1000065
 209031354, -0.0123299, -0.003050586, -2.832204E-05, 0.02626858, -0.02701994, 0.1000054, 0.01727319, -0.01116472, 1.414275E-05, 0.02694497, -0.02721232, 0.1000062
 209231274, -0.01586467, 0.01564876, -4.332156E-06, 0.02620033, -0.02662587, 0.1000061, -0.0123299, -0.003050586, -2.832204E-05, 0.02626858, -0.02701994, 0.1000054
 209431194, 0.01029401, -0.002410519, 1.536608E-05, 0.02676994, -0.02700307, 0.1000065, -0.01586467, 0.01564876, -4.332156E-06, 0.02620033, -0.02662587, 0.1000061
 209631114, 0.0005303918, 0.01972247, 3.284022E-05, 0.02654208, -0.02654823, 0.1000068, 0.01029401, -0.002410519, 1.536608E-05, 0.02676994, -0.02700307, 0.1000065
 209831034, 0.01208038, 0.01990954, 5.429209E-05, 0.02681536, -0.02654381, 0.1000074, 0.0005303918, 0.01972247, 3.284022E-05, 0.02654208, -0.02654823, 0.1000068
 210030954, -0.0006652317, -0.02528312, -4.152137E-05, 0.02651647, -0.02757633, 0.1000053, 0.01208038, 0.01990954, 5.429209E-05, 0.02681536, -0.02654381, 0.1000074
 210230874, -0.01433979, 0.01855767, 3.037529E-06, 0.02623305, -0.0265673, 0.1000064, -0.0006652317, -0.02528312, -4.152137E-05, 0.02651647, -0.02757633, 0.1000053
 210430794, -0.01967863, -0.002168994, -3.959204E-05, 0.02613314, -0.02699412, 0.1000055, -0.01433979, 0.01855767, 3.037529E-06, 0.02623305, -0.0265673, 0.1000064
 210630714, -0.009478996, -0.01037841, -3.371699E-05, 0.02633005, -0.02718691, 0.1000059, -0.01967863, -0.002168994, -3.959204E-05, 0.02613314, -0.02699412, 0.1000055
 210831467, -0.004186871, -0.01670438, -3.379441E-05, 0.02644062, -0.02734487, 0.100006, -0.009478996, -0.01037841, -3.371699E-05, 0.02633005, -0.02718691, 0.1000059
 211031387, -0.01156139, -0.02190185, -5.542418E-05, 0.02628849, -0.02748168, 0.1000054, -0.004186871, -0.01670438, -3.379441E-05, 0.02644062, -0.02734487, 0.100006
 211231307, 0.001647323, 0.01830536, 3.169925E-05, 0.02656994, -0.02656997, 0.1000072, -0.01156139, -0.02190185, -5.542418E-05, 0.02628849, -0.02748168, 0.1000054
 211431227, 0.009682358, 0.007094111, 2.877937E-05, 0.02675903, -0.02679048, 0.1000071, 0.001647323, 0.01830536, 3.169925E-05, 0.02656994, -0.02656997, 0.1000072
 211631147, -0.004828714, 0.0122027, 1.027916E-05, 0.0264284, -0.02668654, 0.1000067, 0.009682358, 0.007094111, 2.877937E-05, 0.02675903, -0.02679048, 0.1000071
 211831067, 0.004012491, 0.01870215, 3.666728E-05, 0.02662492, -0.02656274, 0.1000071, -0.004828714, 0.0122027, 1.027916E-05, 0.0264284, -0.02668654, 0.1000067
 212030987, -0.01903916, 0.01600579, -9.514202E-06, 0.02614663, -0.02661355, 0.100006, 0.004012491, 0.01870215, 3.666728E-05, 0.02662492, -0.02656274, 0.1000071
 212230907, -0.003884648, 0.01754449, 2.055689E-05, 0.02644868, -0.02658474, 0.1000066, -0.01903916, 0.01600579, -9.514202E-06, 0.02614663, -0.02661355, 0.100006
 212430827, -0.006519428, -0.004849077, -1.95616E-05, 0.02639231, -0.02705479, 0.1000059, -0.003884648, 0.01754449, 2.055689E-05, 0.02644868, -0.02658474, 0.1000066
 212630747, 0.01481245, 0.001020051, 2.874235E-05, 0.02688634, -0.02692193, 0.1000069, -0.006519428, -0.004849077, -1.95616E-05, 0.02639231, -0.02705479, 0.1000059
 212830667, -0.02327263, -0.008603473, -5.644386E-05, 0.02606925, -0.02714491, 0.100005, 0.01481245, 0.001020051, 2.874235E-05, 0.02688634, -0.02692193, 0.1000069
 213031420, -0.02145196, -0.006991421, -5.072621E-05, 0.02610085, -0.02710649, 0.1000053, -0.02327263, -0.008603473, -5.644386E-05, 0.02606925, -0.02714491, 0.100005
 213231340, -0.01369649, -0.008804785, -3.942211E-05, 0.02624533, -0.02715029, 0.1000055, -0.02145196, -0.006991421, -5.072621E-05, 0.02610085, -0.02710649, 0.1000053
 213431260, 0.02500249, 0.0165769, 7.300127E-05, 0.02715334, -0.026605, 0.1000081, -0.01369649, -0.008804785, -3.942211E-05, 0.02624533, -0.02715029, 0.1000055
 213631180, -0.01965389, 0.008319263, -2.319315E-05, 0.02613248, -0.02676821, 0.1000058, 0.02500249, 0.0165769, 7.300127E-05, 0.02715334, -0.026605, 0.1000081
 213831100, -0.01515293, 0.02108461, 5.839052E-06, 0.02621662, -0.0265228, 0.1000062, -0.01965389, 0.008319263, -2.319315E-05, 0.02613248, -0.02676821, 0.1000058
 214031020, -0.004597358, 0.01119589, 9.620137E-06, 0.0264306, -0.02671133, 0.1000061, -0.01515293, 0.02108461, 5.839052E-06, 0.02621662, -0.0265228, 0.1000062
 214230940, 0.01407162, 0.02213319, 6.250668E-05, 0.02686459, -0.02650571, 0.1000072, -0.004597358, 0.01119589, 9.620137E-06, 0.0264306, -0.02671133, 0.1000061
 214430860, 0.001773921, -0.00999084, -1.301498E-05, 0.02657038, -0.02718222, 0.1000055, 0.01407162, 0.02213319, 6.250668E-05, 0.02686459, -0.02650571, 0.1000072
 214630780, -0.02533505, 0.02354939, -8.778403E-06, 0.02603259, -0.02647998, 0.1000055, 0.001773921, -0.00999084, -1.301498E-05, 0.02657038, -0.02718222, 0.1000055
 214830700, -0.005006961, -0.01366381, -3.143639E-05, 0.02642303, -0.02727248, 0.1000048, -0.02533505, 0.02354939, -8.778403E-06, 0.02603259, -0.02647998, 0.1000055
 215031453, 0.006841325, 0.01662541, 3.953015E-05, 0.02668994, -0.02660582, 0.1000063, -0.005006961, -0.01366381, -3.143639E-05, 0.02642303, -0.02727248, 0.1000048
 215231373, -0.01594686, -0.01312889, -5.044977E-05, 0.02620278, -0.02725757, 0.1000048, 0.006841325, 0.01662541, 3.953015E-05, 0.02668994, -0.02660582, 0.1000063
 215431293, -0.0002712961, 0.01797887, 2.813642E-05, 0.02652635, -0.02657804, 0.1000067, -0.01594686, -0.01312889, -5.044977E-05, 0.02620278, -0.02725757, 0.1000048
 215631213, 0.01366237, -0.006311108, 1.508041E-05, 0.02685695, -0.02709, 0.1000066, -0.0002712961, 0.01797887, 2.813642E-05, 0.02652635, -0.02657804, 0.1000067
 215831133, 0.02482636, 0.007068348, 5.683456E-05, 0.02714989, -0.02679192, 0.1000079, 0.01366237, -0.006311108, 1.508041E-05, 0.02685695, -0.02709, 0.1000066
 216031053, 0.002653921, -0.004405229, -2.033391E-06, 0.02659223, -0.02704402, 0.1000067, 0.02482636, 0.007068348, 5.683456E-05, 0.02714989, -0.02679192, 0.1000079
 216230973, -0.003844195, 0.02114972, 2.615574E-05, 0.02644891, -0.02651791, 0.100007, 0.002653921, -0.004405229, -2.033391E-06, 0.02659223, -0.02704402, 0.1000067
 216430893, -0.02226491, -0.004239492, -4.725366E-05, 0.0260884, -0.02704024, 0.1000053, -0.003844195, 0.02114972, 2.615574E-05, 0.02644891, -0.02651791, 0.100007
 216630813, 0.004541741, -0.001422449, 6.016118E-06, 0.02663815, -0.02697584, 0.1000062, -0.02226491, -0.004239492, -4.725366E-05, 0.0260884, -0.02704024, 0.1000053
 216830733, -0.02160504, 0.01596317, -1.411715E-05, 0.02610126, -0.02661378, 0.1000057, 0.004541741, -0.001422449, 6.016118E-06, 0.02663815, -0.02697584, 0.1000062
 217031486, 0.01917071, -0.01834883, 6.116232E-06, 0.02700048, -0.0273871, 0.1000064, -0.02160504, 0.01596317, -1.411715E-05, 0.02610126, -0.02661378, 0.1000057
 217231406, -0.0009060731, 0.01478306, 2.149578E-05, 0.0265143, -0.02663592, 0.1000068, 0.01917071, -0.01834883, 6.116232E-06, 0.02700048, -0.0273871, 0.1000064
 217431326, -0.02062585, -0.01765672, -6.528279E-05, 0.02611811, -0.02736985, 0.1000047, -0.0009060731, 0.01478306, 2.149578E-05, 0.0265143, -0.02663592, 0.1000068
 217631246, 0.008002887, -0.01303728, -6.026968E-06, 0.02671934, -0.02725301, 0.1000058, -0.02062585, -0.01765672, -6.528279E-05, 0.02611811, -0.02736985, 0.1000047
 217831166, -0.01878558, -0.01089856, -5.194155E-05, 0.02615032, -0.02720175, 0.1000047, 0.008002887, -0.01303728, -6.026968E-06, 0.02671934, -0.02725301, 0.1000058
 218031086, -0.005413876, 0.001380379, -7.769605E-06, 0.02641455, -0.02691675, 0.1000056, -0.01878558, -0.01089856, -5.194155E-05, 0.02615032, -0.02720175, 0.1000047
 218231006, -0.008715626, 0.01658162, 1.059076E-05, 0.0263451, -0.02660579, 0.1000061, -0.005413876, 0.001380379, -7.769605E-06, 0.02641455, -0.02691675, 0.1000056
 218430926, -0.004591193, -0.01273921, -2.921799E-05, 0.02643097, -0.02724935, 0.1000051, -0.008715626, 0.01658162, 1.059076E-05, 0.0263451, -0.02660579, 0.1000061
 218630846, -0.01340028, 0.01115941, -6.667289E-06, 0.02625055, -0.0267137, 0.1000053, -0.004591193, -0.01273921, -2.921799E-05, 0.02643097, -0.02724935, 0.1000051
 218830766, -0.0008409093, -0.00575125, -1.105024E-05, 0.02651181, -0.02708239, 0.1000051, -0.01340028, 0.01115941, -6.667289E-06, 0.02625055, -0.0267137, 0.1000053
 219030686, 0.003849036, 0.006366299, 1.77612E-05, 0.02661739, -0.02681366, 0.1000056, -0.0008409093, -0.00575125, -1.105024E-05, 0.02651181, -0.02708239, 0.1000051
 219231439, 0.01971717, -0.01730711, 8.267714E-06, 0.02700975, -0.02736874, 0.1000055, 0.003849036, 0.006366299, 1.77612E-05, 0.02661739, -0.02681366, 0.1000056
 219431359, 0.01536856, 0.004917035, 3.710519E-05, 0.0268965, -0.02684473, 0.1000062, 0.01971717, -0.01730711, 8.267714E-06, 0.02700975, -0.02736874, 0.1000055
 219631279, 0.02200919, 0.01317949, 6.322257E-05, 0.02707058, -0.02667594, 0.1000067, 0.01536856, 0.004917035, 3.710519E-05, 0.0268965, -0.02684473, 0.1000062
 219831199, 0.02472599, -0.006733887, 3.488511E-05, 0.0271457, -0.02710663, 0.1000059, 0.02200919, 0.01317949, 6.322257E-05, 0.02707058, -0.02667594, 0.1000067
 220031119, 0.02465807, 0.01912657, 7.728879E-05, 0.02714448, -0.02656275, 0.1000066, 0.02472599, -0.006733887, 3.488511E-05, 0.0271457, -0.02710663, 0.1000059
 220231039, 0.01996628, -0.01645676, 9.735619E-06, 0.0270189, -0.02734603, 0.100005, 0.02465807, 0.01912657, 7.728879E-05, 0.02714448, -0.02656275, 0.1000066
 220430959, 0.01957426, -0.006647576, 2.506949E-05, 0.02700911, -0.02710316, 0.1000054, 0.01996628, -0.01645676, 9.735619E-06, 0.0270189, -0.02734603, 0.100005
 220630879, 0.01835057, -0.01340561, 1.16902E-05, 0.02697761, -0.02726748, 0.1000051, 0.01957426, -0.006647576, 2.506949E-05, 0.02700911, -0.02710316, 0.1000054
 220830799, 0.007833963, 0.01246389, 3.457813E-05, 0.02671509, -0.02668788, 0.1000054, 0.01835057, -0.01340561, 1.16902E-05, 0.02697761, -0.02726748, 0.1000051
 221030719, -0.02026836, 0.0007345737, -3.555855E-05, 0.02612488, -0.02693374, 0.1000037, 0.007833963, 0.01246389, 3.457813E-05, 0.02671509, -0.02668788, 0.1000054
 221231472, -0.01323835, 0.02349929, 1.423283E-05, 0.02625798, -0.02648211, 0.1000047, -0.02026836, 0.0007345737, -3.555855E-05, 0.02612488, -0.02693374, 0.1000037
 221431392, 0.01667681, 0.003156317, 3.514465E-05, 0.02693642, -0.02687958, 0.1000053, -0.01323835, 0.02349929, 1.423283E-05, 0.02625798, -0.02648211, 0.1000047
 221631312, 0.01999833, 0.01365712, 5.805249E-05, 0.02702308, -0.02666355, 0.1000058, 0.01667681, 0.003156317, 3.514465E-05, 0.02693642, -0.02687958, 0.1000053
 221831232, 0.02342102, 0.01415453, 6.511404E-05, 0.02711448, -0.02665429, 0.1000059, 0.01999833, 0.01365712, 5.805249E-05, 0.02702308, -0.02666355, 0.1000058
 222031152, 0.01812724, 0.002668587, 3.700016E-05, 0.02697364, -0.02689042, 0.1000054, 0.02342102, 0.01415453, 6.511404E-05, 0.02711448, -0.02665429, 0.1000059
 222231072, -0.0106624, 0.0221383, 1.65722E-05, 0.0263097, -0.02650548, 0.1000047, 0.01812724, 0.002668587, 3.700016E-05, 0.02697364, -0.02689042, 0.1000054
 222430992, -0.002930878, 0.02205847, 3.034879E-05, 0.0264715, -0.02650692, 0.1000049, -0.0106624, 0.0221383, 1.65722E-05, 0.0263097, -0.02650548, 0.1000047
 222630912, 0.0003036276, -0.001180677, -1.372188E-06, 0.0265428, -0.02697633, 0.1000041, -0.002930878, 0.02205847, 3.034879E-05, 0.0264715, -0.02650692, 0.1000049
 222830832, 0.0141541, 0.01758045, 5.4108E-05, 0.0268726, -0.02659057, 0.100005, 0.0003036276, -0.001180677, -1.372188E-06, 0.0265428, -0.02697633, 0.1000041
 223030752, 0.01483597, -0.0184739, -3.584229E-06, 0.02689001, -0.02739817, 0.1000037, 0.0141541, 0.01758045, 5.4108E-05, 0.0268726, -0.02659057, 0.100005
 223230672, -0.02139234, 0.01465282, -1.443509E-05, 0.02610576, -0.02664677, 0.1000034, 0.01483597, -0.0184739, -3.584229E-06, 0.02689001, -0.02739817, 0.1000037
 223431425, 0.01217455, -0.01512188, 0.07238292, 0.0276221, -0.02810746, 0.1000037, -0.02139234, 0.01465282, -1.443509E-05, 0.02610576, -0.02664677, 0.1000034
 223631345, 0.005140423, 0.01891538, 0.1258817, 0.0289985, -0.02863507, 0.1000096, 0.01217455, -0.01512188, 0.07238292, 0.0276221, -0.02810746, 0.1000037
 223831265, 0.007887095, 0.0187153, 0.421719, 0.03281451, -0.03166363, 0.1000076, 0.005140423, 0.01891538, 0.1258817, 0.0289985, -0.02863507, 0.1000096
 224031185, 0.02527394, 0.002133551, 0.8467593, 0.04066027, -0.03928214, 0.1000122, 0.007887095, 0.0187153, 0.421719, 0.03281451, -0.03166363, 0.1000076
 224231105, -0.01401049, 0.01967143, 1.160125, 0.05129267, -0.05031214, 0.1000109, 0.02527394, 0.002133551, 0.8467593, 0.04066027, -0.03928214, 0.1000122
 224431025, 0.07903294, -0.04653013, 1.481595, 0.06699537, -0.06580149, 0.1000009, -0.01401049, 0.01967143, 1.160125, 0.05129267, -0.05031214, 0.1000109
 224630945, 0.09203596, -0.08819172, 1.791581, 0.08442789, -0.08386648, 0.09998865, 0.07903294, -0.04653013, 1.481595, 0.06699537, -0.06580149, 0.1000009
 224830865, 0.06196216, 0.06664059, 2.057421, 0.1043281, -0.1028964, 0.09995914, 0.09203596, -0.08819172, 1.791581, 0.08442789, -0.08386648, 0.09998865
 225030785, 0.07882041, -0.05330233, 2.307958, 0.1273169, -0.1268654, 0.09993237, 0.06196216, 0.06664059, 2.057421, 0.1043281, -0.1028964, 0.09995914
 225230705, 0.1099143, -0.0192205, 2.475208, 0.152485, -0.1517328, 0.09992072, 0.07882041, -0.05330233, 2.307958, 0.1273169, -0.1268654, 0.09993237
 225431458, 0.003039494, -0.1720841, 2.679979, 0.1788357, -0.1804658, 0.09995174, 0.1099143, -0.0192205, 2.475208, 0.152485, -0.1517328, 0.09992072
 225631378, -0.1108315, 0.04433707, 2.906296, 0.2076705, -0.2082642, 0.09999251, 0.003039494, -0.1720841, 2.679979, 0.1788357, -0.1804658, 0.09995174
 225831298, 0.006112883, -0.2694366, 3.003356, 0.2383543, -0.2412177, 0.1000638, -0.1108315, 0.04433707, 2.906296, 0.2076705, -0.2082642, 0.09999251
 226031218, -0.009663662, -0.09663473, 3.149518, 0.2716024, -0.2722694, 0.250131, 0.006112883, -0.2694366, 3.003356, 0.2383543, -0.2412177, 0.1000638
 226231138, 0.2359761, -0.04580547, 3.290309, 0.3070185, -0.3052751, 0.2501151, -0.009663662, -0.09663473, 3.149518, 0.2716024, -0.2722694, 0.250131
 226431058, 0.2650015, -0.20117, 3.406755, 0.3419615, -0.3416351, 0.2500494, 0.2359761, -0.04580547, 3.290309, 0.3070185, -0.3052751, 0.2501151
 226630978, 0.3041925, -0.1597311, 3.526427, 0.3777844, -0.3772233, 0.2500042, 0.2650015, -0.20117, 3.406755, 0.3419615, -0.3416351, 0.2500494
 226830898, -0.1985292, 0.2639598, 3.578017, 0.4107178, -0.4117428, 0.2499977, 0.3041925, -0.1597311, 3.526427, 0.3777844, -0.3772233, 0.2500042
 227030818, -0.1984189, -0.2827028, 3.645663, 0.4476139, -0.4526721, 0.2500833, -0.1985292, 0.2639598, 3.578017, 0.4107178, -0.4117428, 0.2499977
 227230738, -0.18966, 0.3933634, 3.646724, 0.4847922, -0.4871889, 0.2503901, -0.1984189, -0.2827028, 3.645663, 0.4476139, -0.4526721, 0.2500833
 227430658, -0.1924583, -0.1294362, 3.507247, 0.5208613, -0.5262851, 0.2506538, -0.18966, 0.3933634, 3.646724, 0.4847922, -0.4871889, 0.2503901
 227631411, -0.1925153, 0.1460467, 3.276314, 0.5546087, -0.5600033, 0.2508835, -0.1924583, -0.1294362, 3.507247, 0.5208613, -0.5262851, 0.2506538
 227831331, 0.2638766, 0.357126, 2.989083, 0.5870493, -0.5928674, 0.2504091, -0.1925153, 0.1460467, 3.276314, 0.5546087, -0.5600033, 0.2508835
 228031251, -0.1794593, 0.3433669, 2.691434, 0.610103, -0.623619, 0.2523772, 0.2638766, 0.357126, 2.989083, 0.5870493, -0.5928674, 0.2504091
 228231171, 0.4576446, 0.3791392, 2.386162, 0.6253865, -0.6548433, 0.2708084, -0.1794593, 0.3433669, 2.691434, 0.610103, -0.623619, 0.2523772
 228431091, -0.1083072, 0.4530995, 2.066063, 0.6259238, -0.6843078, 0.2916434, 0.4576446, 0.3791392, 2.386162, 0.6253865, -0.6548433, 0.2708084
 228631011, -0.2589643, 0.2006885, 1.840994, 0.6352004, -0.7084932, 0.301484, -0.1083072, 0.4530995, 2.066063, 0.6259238, -0.6843078, 0.2916434
 228830931, -0.5852661, 0.3589059, 1.599661, 0.6492967, -0.7275983, 0.3026464, -0.2589643, 0.2006885, 1.840994, 0.6352004, -0.7084932, 0.301484
 229030851, -0.8120174, 0.1548188, 1.378417, 0.6637189, -0.7444072, 0.3022577, -0.5852661, 0.3589059, 1.599661, 0.6492967, -0.7275983, 0.3026464
 229230771, -0.6811307, 0.6625331, 1.339144, 0.6838377, -0.7559585, 0.2967022, -0.8120174, 0.1548188, 1.378417, 0.6637189, -0.7444072, 0.3022577
 229430691, -1.638991, 0.3429331, 1.049306, 0.7568452, -0.7156546, 0.2897335, -0.6811307, 0.6625331, 1.339144, 0.6838377, -0.7559585, 0.2967022
 229631444, -1.100238, 0.5388491, 1.147974, 0.8769116, -0.575693, 0.3226877, -1.638991, 0.3429331, 1.049306, 0.7568452, -0.7156546, 0.2897335
 229831364, -1.820461, -1.367544, 0.7456454, 0.9973922, -0.3256096, 0.3950766, -1.100238, 0.5388491, 1.147974, 0.8769116, -0.575693, 0.3226877
 230031284, -0.1490897, -1.208591, 1.099926, 1.037151, -0.005877987, 0.4646873, -1.820461, -1.367544, 0.7456454, 0.9973922, -0.3256096, 0.3950766
 230231204, -0.4702148, -2.284374, 1.030862, 0.9832261, 0.3486452, 0.5039208, -0.1490897, -1.208591, 1.099926, 1.037151, -0.005877987, 0.4646873
 230431124, 1.709901, -1.056416, 1.713944, 0.8600062, 0.6436898, 0.5044296, -0.4702148, -2.284374, 1.030862, 0.9832261, 0.3486452, 0.5039208
 230631044, 0.8320485, -0.06820221, 1.63393, 0.6672392, 0.872243, 0.4742364, 1.709901, -1.056416, 1.713944, 0.8600062, 0.6436898, 0.5044296
 230830964, 1.879189, 0.8483648, 1.998725, 0.505635, 1.029053, 0.450232, 0.8320485, -0.06820221, 1.63393, 0.6672392, 0.872243, 0.4742364
 231030884, 1.981743, 0.5697961, 2.111526, 0.3382571, 1.12795, 0.4243739, 1.879189, 0.8483648, 1.998725, 0.505635, 1.029053, 0.450232
 231230804, 0.6275684, 1.14511, 1.92362, 0.2116589, 1.187711, 0.3856615, 1.981743, 0.5697961, 2.111526, 0.3382571, 1.12795, 0.4243739
 231430724, 1.788033, 2.081666, 2.33928, 0.2118043, 1.236655, 0.3799234, 0.6275684, 1.14511, 1.92362, 0.2116589, 1.187711, 0.3856615
 231631477, 1.884017, 1.39491, 2.354997, 0.2583448, 1.23695, 0.4101897, 1.788033, 2.081666, 2.33928, 0.2118043, 1.236655, 0.3799234
 231831397, 2.02089, 1.898692, 2.548327, 0.3530129, 1.229054, 0.4698694, 1.884017, 1.39491, 2.354997, 0.2583448, 1.23695, 0.4101897
 232031317, 1.718713, 1.425433, 2.485451, 0.4367534, 1.202259, 0.517616, 2.02089, 1.898692, 2.548327, 0.3530129, 1.229054, 0.4698694
 232231237, 1.574881, 0.2272319, 2.376212, 0.4974566, 1.187878, 0.5386187, 1.718713, 1.425433, 2.485451, 0.4367534, 1.202259, 0.517616
 232431157, 1.48951, 1.200249, 2.444869, 0.531782, 1.215326, 0.5316672, 1.574881, 0.2272319, 2.376212, 0.4974566, 1.187878, 0.5386187
 232631077, 2.580961, 0.3361377, 2.547401, 0.5393077, 1.257116, 0.5156425, 1.48951, 1.200249, 2.444869, 0.531782, 1.215326, 0.5316672
 232830997, 2.470913, 1.363054, 2.703767, 0.5091859, 1.312889, 0.5041457, 2.580961, 0.3361377, 2.547401, 0.5393077, 1.257116, 0.5156425
 233030917, 3.108683, 1.279688, 2.84488, 0.4833275, 1.363968, 0.4999712, 2.470913, 1.363054, 2.703767, 0.5091859, 1.312889, 0.5041457
 233230837, 1.673061, 1.241848, 2.43513, 0.4357677, 1.392744, 0.4891435, 3.108683, 1.279688, 2.84488, 0.4833275, 1.363968, 0.4999712
 233430757, 2.902471, 2.095632, 2.763614, 0.4643323, 1.435172, 0.4979662, 1.673061, 1.241848, 2.43513, 0.4357677, 1.392744, 0.4891435
 233630677, 3.202165, 1.491982, 2.76372, 0.4865798, 1.451467, 0.5060333, 2.902471, 2.095632, 2.763614, 0.4643323, 1.435172, 0.4979662
 233831430, 3.255704, 0.5646222, 2.656172, 0.5109146, 1.461219, 0.5151251, 3.202165, 1.491982, 2.76372, 0.4865798, 1.451467, 0.5060333
 234031350, 1.79434, 1.601849, 2.440176, 0.5242995, 1.473533, 0.5213435, 3.255704, 0.5646222, 2.656172, 0.5109146, 1.461219, 0.5151251
 234231270, 2.88837, 0.3686424, 2.533047, 0.5599504, 1.488922, 0.5314599, 1.79434, 1.601849, 2.440176, 0.5242995, 1.473533, 0.5213435
 234431190, 3.838902, 0.4307898, 2.717539, 0.5925858, 1.517897, 0.5397476, 2.88837, 0.3686424, 2.533047, 0.5599504, 1.488922, 0.5314599
 234631110, 1.160486, 1.393734, 2.227923, 0.5619691, 1.534534, 0.5317621, 3.838902, 0.4307898, 2.717539, 0.5925858, 1.517897, 0.5397476
 234831030, 2.616674, 1.719416, 2.56246, 0.5867522, 1.569641, 0.5379522, 1.160486, 1.393734, 2.227923, 0.5619691, 1.534534, 0.5317621
 235030950, 2.656716, 2.24067, 2.611267, 0.5910639, 1.601338, 0.5410722, 2.616674, 1.719416, 2.56246, 0.5867522, 1.569641, 0.5379522
 235230870, 1.954884, -0.3956407, 2.176951, 0.5710428, 1.607882, 0.540449, 2.656716, 2.24067, 2.611267, 0.5910639, 1.601338, 0.5410722
 235430790, 1.52763, 0.4998894, 2.169309, 0.5777088, 1.631557, 0.5462108, 1.954884, -0.3956407, 2.176951, 0.5710428, 1.607882, 0.540449
 235630710, 2.737838, 0.0397424, 2.362525, 0.6025516, 1.658225, 0.5512127, 1.52763, 0.4998894, 2.169309, 0.5777088, 1.631557, 0.5462108
 235831463, 3.257675, 1.222152, 2.56093, 0.6324809, 1.686733, 0.5576116, 2.737838, 0.0397424, 2.362525, 0.6025516, 1.658225, 0.5512127
 236031383, 3.64998, 1.415943, 2.683417, 0.6550111, 1.710634, 0.5651184, 3.257675, 1.222152, 2.56093, 0.6324809, 1.686733, 0.5576116
 236231303, 2.815432, 0.01084685, 2.361626, 0.6448876, 1.720345, 0.5656561, 3.64998, 1.415943, 2.683417, 0.6550111, 1.710634, 0.5651184
 236431223, 1.245248, 1.914318, 2.249438, 0.6428138, 1.747375, 0.5680474, 2.815432, 0.01084685, 2.361626, 0.6448876, 1.720345, 0.5656561
 236631143, 3.062566, 0.720557, 2.536499, 0.67325, 1.769192, 0.5759299, 1.245248, 1.914318, 2.249438, 0.6428138, 1.747375, 0.5680474
 236831063, 3.438738, 1.372703, 2.679831, 0.6921182, 1.798065, 0.5815576, 3.062566, 0.720557, 2.536499, 0.67325, 1.769192, 0.5759299
 237030983, 2.737853, 0.5273157, 2.339786, 0.6903203, 1.815732, 0.5637335, 3.438738, 1.372703, 2.679831, 0.6921182, 1.798065, 0.5815576
 237230903, 3.118852, 2.052816, 2.397015, 0.7295511, 1.85791, 0.5138232, 2.737853, 0.5273157, 2.339786, 0.6903203, 1.815732, 0.5637335
 237430823, 2.532067, -0.2160275, 2.074874, 0.7295973, 1.871764, 0.4758687, 3.118852, 2.052816, 2.397015, 0.7295511, 1.85791, 0.5138232
 237630743, 2.042942, 0.09203666, 2.068395, 0.7651191, 1.879137, 0.4784058, 2.532067, -0.2160275, 2.074874, 0.7295973, 1.871764, 0.4758687
 237830663, 3.398569, 0.5440069, 2.361858, 0.8718458, 1.865591, 0.5076909, 2.042942, 0.09203666, 2.068395, 0.7651191, 1.879137, 0.4784058
 238031416, 1.560163, 0.7557085, 1.649183, 0.9679992, 1.811617, 0.5333484, 3.398569, 0.5440069, 2.361858, 0.8718458, 1.865591, 0.5076909
 238231336, 4.187888, -0.6355431, 2.212158, 1.123771, 1.75202, 0.5813511, 1.560163, 0.7557085, 1.649183, 0.9679992, 1.811617, 0.5333484
 238431256, 2.607506, -1.328598, 1.614537, 1.195152, 1.685086, 0.612146, 4.187888, -0.6355431, 2.212158, 1.123771, 1.75202, 0.5813511
 238631176, 3.367455, 0.7374439, 1.723236, 1.276109, 1.643414, 0.643708, 2.607506, -1.328598, 1.614537, 1.195152, 1.685086, 0.612146
 238831096, 1.808206, -0.5784738, 1.137716, 1.293469, 1.614034, 0.6478507, 3.367455, 0.7374439, 1.723236, 1.276109, 1.643414, 0.643708
 239031016, 3.087717, -0.4556737, 1.403925, 1.331809, 1.60691, 0.6519867, 1.808206, -0.5784738, 1.137716, 1.293469, 1.614034, 0.6478507
 239230936, 3.586739, 0.3718189, 1.490051, 1.353195, 1.607751, 0.6522418, 3.087717, -0.4556737, 1.403925, 1.331809, 1.60691, 0.6519867
 239430856, 2.742056, 0.4220616, 1.193591, 1.350965, 1.603691, 0.6513156, 3.586739, 0.3718189, 1.490051, 1.353195, 1.607751, 0.6522418
 239630776, 4.647077, 0.9998125, 1.651257, 1.39724, 1.59822, 0.6694971, 2.742056, 0.4220616, 1.193591, 1.350965, 1.603691, 0.6513156
 239830696, 4.831631, -1.47391, 1.732627, 1.416964, 1.57841, 0.68132, 4.647077, 0.9998125, 1.651257, 1.39724, 1.59822, 0.6694971
 240031449, 4.942194, 0.8919358, 1.683614, 1.437323, 1.566158, 0.6938888, 4.831631, -1.47391, 1.732627, 1.416964, 1.57841, 0.68132
 240231369, 5.110087, 0.6803692, 1.775459, 1.456631, 1.550332, 0.7055622, 4.942194, 0.8919358, 1.683614, 1.437323, 1.566158, 0.6938888
 240431289, 2.421049, 0.3668828, 0.9659947, 1.420977, 1.538332, 0.6990594, 5.110087, 0.6803692, 1.775459, 1.456631, 1.550332, 0.7055622
 240631209, 3.358317, 1.293269, 1.18549, 1.440246, 1.538663, 0.709396, 2.421049, 0.3668828, 0.9659947, 1.420977, 1.538332, 0.6990594
 240831129, 2.957946, -0.0776575, 1.085089, 1.437797, 1.529449, 0.7114084, 3.358317, 1.293269, 1.18549, 1.440246, 1.538663, 0.709396
 241031049, 5.182893, 0.9702035, 1.736083, 1.480076, 1.534862, 0.7254909, 2.957946, -0.0776575, 1.085089, 1.437797, 1.529449, 0.7114084
 241230969, 4.328588, 0.9044306, 1.51499, 1.464014, 1.535602, 0.7207884, 5.182893, 0.9702035, 1.736083, 1.480076, 1.534862, 0.7254909
 241430889, 4.428409, -1.020652, 1.498963, 1.467059, 1.529067, 0.7238848, 4.328588, 0.9044306, 1.51499, 1.464014, 1.535602, 0.7207884
 241630809, 2.707, -1.247576, 0.9880161, 1.440742, 1.528691, 0.7185137, 4.428409, -1.020652, 1.498963, 1.467059, 1.529067, 0.7238848
 241830729, 4.552618, 0.6023407, 1.527579, 1.473564, 1.530964, 0.7319154, 2.707, -1.247576, 0.9880161, 1.440742, 1.528691, 0.7185137
 242031482, 2.581467, 1.092612, 0.9506785, 1.444372, 1.532794, 0.7238503, 4.552618, 0.6023407, 1.527579, 1.473564, 1.530964, 0.7319154
 242231402, 3.171067, -0.8375321, 1.097233, 1.455948, 1.523485, 0.7273142, 2.581467, 1.092612, 0.9506785, 1.444372, 1.532794, 0.7238503
 242431322, 3.077487, 1.089672, 1.09542, 1.456265, 1.53083, 0.728399, 3.171067, -0.8375321, 1.097233, 1.455948, 1.523485, 0.7273142
 242631242, 4.594675, -0.7512887, 1.568228, 1.484544, 1.522825, 0.7385868, 3.077487, 1.089672, 1.09542, 1.456265, 1.53083, 0.728399
 242831162, 3.017711, -0.8044539, 1.027794, 1.457695, 1.523261, 0.7314217, 4.594675, -0.7512887, 1.568228, 1.484544, 1.522825, 0.7385868
 243031082, 4.689644, -1.648225, 1.607435, 1.489072, 1.523462, 0.7423832, 3.017711, -0.8044539, 1.027794, 1.457695, 1.523261, 0.7314217
 243231002, 5.210828, 0.9073842, 1.750637, 1.50114, 1.529679, 0.7459958, 4.689644, -1.648225, 1.607435, 1.489072, 1.523462, 0.7423832
 243430922, 3.384651, 1.056629, 1.215701, 1.468594, 1.530774, 0.7365766, 5.210828, 0.9073842, 1.750637, 1.50114, 1.529679, 0.7459958
 243630842, 2.968732, -0.5895962, 1.04423, 1.464696, 1.522634, 0.7362811, 3.384651, 1.056629, 1.215701, 1.468594, 1.530774, 0.7365766
 243830762, 2.734185, 0.6678197, 1.036878, 1.463834, 1.52702, 0.7365921, 2.968732, -0.5895962, 1.04423, 1.464696, 1.522634, 0.7362811
 244030682, 5.10696, -1.556252, 1.738032, 1.509048, 1.521024, 0.750159, 2.734185, 0.6678197, 1.036878, 1.463834, 1.52702, 0.7365921
 244231435, 3.272151, -0.07394142, 1.203011, 1.477728, 1.5236, 0.7365979, 5.10696, -1.556252, 1.738032, 1.509048, 1.521024, 0.750159
 244431355, 5.008602, -0.7278069, 1.712623, 1.513454, 1.520403, 0.7464674, 3.272151, -0.07394142, 1.203011, 1.477728, 1.5236, 0.7365979
 244631275, 4.592045, 0.297991, 1.595626, 1.508359, 1.522013, 0.7435064, 5.008602, -0.7278069, 1.712623, 1.513454, 1.520403, 0.7464674
 244831195, 4.069285, -1.322793, 1.438161, 1.503513, 1.516791, 0.7411328, 4.592045, 0.297991, 1.595626, 1.508359, 1.522013, 0.7435064
 245031115, 5.50804, 0.649408, 1.861464, 1.536268, 1.519211, 0.7513804, 4.069285, -1.322793, 1.438161, 1.503513, 1.516791, 0.7411328
 245231035, 4.60367, 0.99245, 1.621981, 1.520073, 1.519979, 0.7470853, 5.50804, 0.649408, 1.861464, 1.536268, 1.519211, 0.7513804
 245430955, 4.090239, -0.08783454, 1.419997, 1.513377, 1.512407, 0.7464244, 4.60367, 0.99245, 1.621981, 1.520073, 1.519979, 0.7470853
 245630875, 2.671437, -1.0508, 1.022974, 1.494318, 1.50999, 0.7414132, 4.090239, -0.08783454, 1.419997, 1.513377, 1.512407, 0.7464244
 245830795, 5.148306, 0.1247607, 1.773888, 1.539553, 1.510895, 0.7566427, 2.671437, -1.0508, 1.022974, 1.494318, 1.50999, 0.7414132
 246030715, 2.90756, -0.3841096, 1.054865, 1.500932, 1.510477, 0.744296, 5.148306, 0.1247607, 1.773888, 1.539553, 1.510895, 0.7566427
 246231468, 3.454181, 0.2629096, 1.232502, 1.510349, 1.513102, 0.7479222, 2.90756, -0.3841096, 1.054865, 1.500932, 1.510477, 0.744296
 246431388, 4.801909, 0.9857581, 1.678326, 1.536177, 1.516913, 0.7573728, 3.454181, 0.2629096, 1.232502, 1.510349, 1.513102, 0.7479222
 246631308, 2.902664, 0.6207298, 1.062604, 1.504804, 1.515778, 0.7485004, 4.801909, 0.9857581, 1.678326, 1.536177, 1.516913, 0.7573728
 246831228, 4.47149, 0.6840331, 1.616663, 1.532538, 1.516092, 0.7586457, 2.902664, 0.6207298, 1.062604, 1.504804, 1.515778, 0.7485004
 247031148, 2.93815, -0.1845452, 1.078071, 1.508025, 1.513348, 0.7520953, 4.47149, 0.6840331, 1.616663, 1.532538, 1.516092, 0.7586457
 247231068, 2.731671, 0.5632905, 1.017715, 1.505808, 1.517602, 0.7525688, 2.93815, -0.1845452, 1.078071, 1.508025, 1.513348, 0.7520953
 247430988, 3.983195, -0.3484103, 1.425908, 1.526718, 1.514111, 0.7603503, 2.731671, 0.5632905, 1.017715, 1.505808, 1.517602, 0.7525688
 247630908, 3.420529, 1.112725, 1.247937, 1.517748, 1.522979, 0.7580911, 3.983195, -0.3484103, 1.425908, 1.526718, 1.514111, 0.7603503
 247830828, 5.375367, 0.1981847, 1.884951, 1.557062, 1.517165, 0.7713704, 3.420529, 1.112725, 1.247937, 1.517748, 1.522979, 0.7580911
 248030748, 5.639498, 0.4293205, 1.939707, 1.563535, 1.518914, 0.7745028, 5.375367, 0.1981847, 1.884951, 1.557062, 1.517165, 0.7713704
 248230668, 3.528979, 1.128197, 1.300798, 1.523064, 1.526081, 0.7617694, 5.639498, 0.4293205, 1.939707, 1.563535, 1.518914, 0.7745028
 248431421, 3.657371, -1.222303, 1.304345, 1.527228, 1.517924, 0.7634004, 3.528979, 1.128197, 1.300798, 1.523064, 1.526081, 0.7617694
