TimeUS,CAN,CAE,CAD,CAe,NAN,NAE,NAD,NAe,m10,m00
 196163170, -3.29436E-06, 4.365952E-05, -1.550292E-06, 6.484905E-06, 0, 0, 0, 0, -0.9999978, -0.001443121
 196231476, -0.1588744, 3.238796, -0.1951168, 0.5092208, -0.1925781, 3.434391, 0.0005229292, 0.5092143, -0.9999978, -0.00144279
 196431396, -0.1924997, 3.441818, 0.0002716484, 0.5097404, -4.793843E-05, 0.00418245, -0.0001905394, 0.0005187925, -0.9999978, -0.001438866
 196631316, -0.0002379786, 0.01141714, -0.0003681355, 0.00104407, -0.000398779, 0.003961878, 1.118571E-05, 0.0005187925, -0.9999978, -0.001432786
 196831236, -0.0004327291, 0.01084241, -0.0001437268, 0.00104407, 0.0001924113, 0.004110265, -6.947599E-05, 0.0005187925, -0.9999978, -0.001425883
 197031156, -0.000279263, 0.0111873, -2.676723E-05, 0.00104407, -0.0005188343, 0.0039317, -0.0002433995, 0.0005187925, -0.9999978, -0.001420059
 197231076, -0.0002406545, 0.01145556, -0.0004398303, 0.00104407, 0.0001167334, 0.004260299, -0.0001640354, 0.0005187925, -0.9999978, -0.001414016
 197430996, 0.0001392282, 0.01157093, -0.0004696302, 0.00104407, -7.913864E-06, 0.003886456, -0.0004938046, 0.0005187925, -0.9999978, -0.001408897
 197630916, -5.724528E-05, 0.01100552, -0.0008836311, 0.00104407, 5.156456E-05, 0.003995209, -0.0001978071, 0.0005187925, -0.9999978, -0.0014037
 197830836, 0.0004330084, 0.01156934, -0.0004645777, 0.00104407, 0.0001660152, 0.004324503, -0.0003318186, 0.0005187925, -0.9999978, -0.001396811
 198030756, 0.0004152279, 0.0117544, -0.0008584998, 0.00104407, -1.670815E-05, 0.004380706, -0.0003570773, 0.0005187925, -0.9999978, -0.001390295
 198230676, 0.0001036915, 0.0119183, -0.000344022, 0.00104407, 0.0003567502, 0.004039698, -0.0003231746, 0.0005187925, -0.9999978, -0.001383463
 198431429, 0.0002752227, 0.01138117, -0.0004931196, 0.001046232, 0.00010341, 0.00412858, -0.0001309987, 0.0005209541, -0.9999978, -0.001379021
 198631349, -2.109122E-05, 0.0114503, -0.0002005974, 0.001046232, -0.0002275941, 0.004208324, -0.0001421658, 0.0005187925, -0.9999978, -0.001384838
 198831269, 2.864728E-05, 0.01142644, -0.0001067092, 0.00104407, 0.00018961, 0.004126012, -0.0005051356, 0.0005187925, -0.9999978, -0.001389498
 199031189, 0.0002987481, 0.01191954, -0.0006635765, 0.00104407, 0.0002372744, 0.004749845, -0.000293725, 0.0005187925, -0.9999978, -0.001395063
 199231109, 0.000127893, 0.01191392, -0.0004146539, 0.00104407, -0.0001384753, 0.004263337, -2.444005E-05, 0.0005187925, -0.9999978, -0.001398915
 199431029, -0.0001953053, 0.01145082, -3.424466E-05, 0.00104407, 7.168717E-05, 0.004133505, 3.221889E-05, 0.0005187925, -0.9999978, -0.001401676
 199630949, 3.013637E-05, 0.01124959, 0.0001432573, 0.00104407, 0.0001546844, 0.003789806, 5.265035E-05, 0.0005187925, -0.9999978, -0.001403694
 199830869, -7.165968E-05, 0.01144069, 2.266097E-05, 0.00104407, -0.000376786, 0.004603387, -0.0001578581, 0.0005187925, -0.9999978, -0.001405186
 200030789, -0.0003035357, 0.01184409, -0.000312599, 0.00104407, 0.0005358451, 0.003849154, -0.0002664775, 0.0005187925, -0.9999978, -0.001405728
 200230709, 0.0007597107, 0.01102257, -4.557805E-05, 0.00104407, 0.0003070627, 0.004245399, 4.513246E-05, 0.0005187925, -0.9999978, -0.001405695
 200431462, 0.0003242721, 0.01140451, -0.0004626446, 0.001046232, 0.0001496271, 0.003896163, -0.0004032337, 0.0005209541, -0.9999978, -0.001406929
 200631382, -3.006053E-05, 0.01144999, -0.0006610492, 0.001046232, -0.000110288, 0.004230629, -0.0002702121, 0.0005187925, -0.9999978, -0.001406044
 200831302, 2.2894E-05, 0.0112961, -0.0002815146, 0.00104407, -2.762208E-05, 0.004237966, -3.625253E-05, 0.0005187925, -0.9999978, -0.001403679
 201031222, 4.737359E-05, 0.01151179, 4.884436E-05, 0.00104407, 0.0003802667, 0.003986794, -0.0002456695, 0.0005187925, -0.9999979, -0.001398147
 201231142, 0.0002796434, 0.01096275, -0.0003691541, 0.00104407, -0.0001016231, 0.003900292, 0.0001454594, 0.0005187925, -0.9999979, -0.001393225
 201431062, -0.0004247788, 0.01112527, 0.0001612197, 0.00104407, -0.000231293, 0.003975072, 8.244789E-06, 0.0005187925, -0.9999979, -0.001388214
 201630982, -4.727404E-05, 0.01093938, 4.80245E-05, 0.00104407, 0.0001033466, 0.003768731, 0.000381801, 0.0005187925, -0.9999979, -0.001382701
 201830902, -0.0001382098, 0.0109573, 0.0002099486, 0.00104407, -0.0007018062, 0.00435224, 3.615363E-06, 0.0005187925, -0.9999979, -0.001376478
 202030822, -0.0005998859, 0.01172059, -0.0002114796, 0.00104407, 0.0002164871, 0.003955806, -0.0001734612, 0.0005187925, -0.9999979, -0.001370417
 202230742, 0.000307979, 0.01131491, -0.00034998, 0.00104407, 0.0002778661, 0.004248534, 0.0002783115, 0.0005187925, -0.9999978, -0.001363494
 202430662, 0.0005212863, 0.01145706, -2.908376E-05, 0.00104407, 0.0002102483, 0.004097018, -0.0003624682, 0.0005187925, -0.9999978, -0.001357292
 202631415, 0.000420041, 0.01131557, -0.0005553433, 0.001046232, 0.0003050458, 0.003831893, -0.000200164, 0.0005209541, -0.9999978, -0.001352737
 202831335, 0.0004953282, 0.01108614, -0.0003910179, 0.001046232, -0.0001082611, 0.003811769, 3.783619E-05, 0.0005187925, -0.9999978, -0.001346351
 203031255, -9.543046E-05, 0.01128114, -2.26991E-05, 0.00104407, 0.0004499598, 0.004692351, 0.0002115119, 0.0005187925, -0.9999978, -0.001338868
 203231175, 0.0003410808, 0.01198911, -0.000148952, 0.00104407, 5.161633E-05, 0.004317443, -0.0005467336, 0.0005187925, -0.9999978, -0.001331675
 203431095, 0.0001559371, 0.01140664, -0.000573595, 0.00104407, 0.0002684569, 0.004122613, 0.0001713246, 0.0005187925, -0.9999978, -0.001322748
 203631015, 0.0004298491, 0.01161765, 0.0003246428, 0.00104407, 0.0004303356, 0.004209302, 2.727609E-05, 0.0005187925, -0.9999978, -0.001315509
 203830935, 0.000461176, 0.01177192, -1.201626E-05, 0.00104407, -0.00021237, 0.004330051, -5.001809E-05, 0.0005187925, -0.9999978, -0.001322408
 204030855, 9.339329E-05, 0.01174146, -0.000298787, 0.00104407, 0.0001583765, 0.004287617, -0.0003140016, 0.0005187925, -0.9999978, -0.001329195
 204230775, 0.0002662424, 0.01160719, -0.0005060698, 0.00104407, 0.0004297093, 0.004100356, -0.0002556601, 0.0005187925, -0.9999978, -0.001334444
 204430695, 0.0005905164, 0.01133882, -0.00058962, 0.00104407, -0.0001397631, 0.004242649, -0.0002153739, 0.0005187925, -0.9999978, -0.001338779
 204631448, -0.0001139087, 0.01153515, -3.38721E-05, 0.001046232, -1.034156E-05, 0.004491125, -0.0003132246, 0.0005209541, -0.9999979, -0.001344768
 204831368, 0.0001450014, 0.01142682, -0.0001661577, 0.001046232, -9.985211E-05, 0.003902887, 0.0001339663, 0.0005187925, -0.9999978, -0.001346504
 205031288, -0.0002066028, 0.01128686, -0.0003095735, 0.00104407, 1.521327E-05, 0.004399284, -0.0002633627, 0.0005187925, -0.9999978, -0.001347652
 205231208, -7.16189E-05, 0.0116537, -0.000382989, 0.00104407, 0.0002179952, 0.00417575, -0.0002499474, 0.0005187925, -0.9999978, -0.001348746
 205431128, 0.0002991288, 0.0113068, -0.000200475, 0.00104407, -0.0001754471, 0.003595425, 0.000300945, 0.0005187925, -0.9999978, -0.00135015
 205631048, 7.807575E-05, 0.01106081, -1.993579E-05, 0.00104407, 1.895212E-05, 0.003892473, 0.0003007198, 0.0005187925, -0.9999978, -0.001350206
 205830968, -6.735091E-05, 0.01122264, 0.0001775961, 0.00104407, -0.0001531081, 0.00442479, 0.0001713759, 0.0005187925, -0.9999978, -0.001348299
 206030888, 5.987094E-06, 0.0115968, -0.0001401113, 0.00104407, -0.0001844511, 0.003976159, -0.0002014201, 0.0005187925, -0.9999978, -0.001346545
 206230808, 6.710617E-05, 0.01111319, -0.0002104359, 0.00104407, 5.651791E-05, 0.004209948, 6.360014E-05, 0.0005187925, -0.9999978, -0.001344774
 206430728, 0.0002152413, 0.01134922, 0.0001609981, 0.00104407, 0.0003189851, 0.004108854, -0.0001403426, 0.0005187925, -0.9999978, -0.001342901
 206631481, 0.0004902068, 0.01137889, -0.0001199505, 0.001046232, -8.354898E-07, 0.004371404, 9.130164E-06, 0.0005209541, -0.9999978, -0.001342095
 206831401, -8.602353E-05, 0.01187723, 9.288648E-05, 0.001046232, -5.81584E-05, 0.004158992, -1.073408E-05, 0.0005187925, -0.9999979, -0.001340573
 207031321, -0.0001849358, 0.01120438, -0.000332412, 0.00104407, -0.000120319, 0.004475956, -0.000464368, 0.0005187925, -0.9999979, -0.001337991
 207231241, 4.074264E-05, 0.01174241, -0.0004910877, 0.00104407, -9.260624E-05, 0.003841174, -1.991198E-06, 0.0005187925, -0.9999978, -0.001333253
 207431161, -0.0001824686, 0.010898, 3.589622E-05, 0.00104407, -0.0002812575, 0.004178407, 0.0001051387, 0.0005187925, -0.9999978, -0.001328357
 207631081, -0.0001147623, 0.01138941, -7.194739E-05, 0.00104407, 0.0002360437, 0.004461315, 0.0001354117, 0.0005187925, -0.9999978, -0.001323485
 207831001, 0.000131024, 0.01151537, 0.0001818382, 0.00104407, -1.43186E-05, 0.003710942, 0.0006074037, 0.0005187925, -0.9999978, -0.001318677
 208030921, -0.0001856438, 0.01136279, 0.0004761568, 0.00104407, -0.0001750545, 0.004352438, 0.0004430774, 0.0005187925, -0.9999978, -0.001313293
 208230841, -1.099954E-05, 0.01164242, 0.0003385034, 0.00104407, 0.0002124473, 0.004016862, -0.00026413, 0.0005187925, -0.9999978, -0.001307344
 208430761, -3.225126E-05, 0.01129208, -0.0003069519, 0.00104407, -0.0002269836, 0.00447016, -0.0002231635, 0.0005187925, -0.9999978, -0.0013024
 208630681, -0.0001616162, 0.01190529, -0.0004448065, 0.00104407, -3.778182E-05, 0.004207199, -0.0001107333, 0.0005187925, -0.9999978, -0.001296205
 208831434, 4.641224E-05, 0.01200677, -0.0001102924, 0.001046232, 0.0002323308, 0.004456077, -4.27822E-05, 0.0005209541, -0.9999979, -0.001292189
 209031354, 0.000522138, 0.01184213, 8.01151E-05, 0.001046232, 0.0005781016, 0.004156786, 0.0007104438, 0.0005187925, -0.9999979, -0.001300871
 209231274, 0.0006544177, 0.01145563, 0.0007705191, 0.00104407, 0.0001212666, 0.003985612, 0.0005111556, 0.0005187925, -0.9999979, -0.001307267
 209431194, 6.589277E-05, 0.01139837, 0.0003369652, 0.00104407, -0.0003780479, 0.003721711, -0.0003018137, 0.0005187925, -0.9999979, -0.00131292
 209631114, -0.0006303682, 0.01103062, -0.0002265059, 0.00104407, 1.485436E-05, 0.004255948, 2.77873E-05, 0.0005187925, -0.9999979, -0.001317776
 209831034, -0.0001126459, 0.01159612, 1.594026E-05, 0.00104407, 0.0001330143, 0.004795247, 2.167669E-05, 0.0005187925, -0.9999979, -0.001321251
 210030954, 0.0002528212, 0.01212993, 0.0001561756, 0.00104407, 2.79083E-05, 0.004245452, -0.0002186032, 0.0005187925, -0.9999979, -0.001324998
 210230874, -0.0001621209, 0.01159452, -8.219652E-05, 0.00104407, -0.0003045646, 0.004162982, 0.0002437236, 0.0005187925, -0.9999979, -0.001327641
 210430794, -0.0002124973, 0.01150001, 0.0001303342, 0.00104407, 0.0001876502, 0.004379376, -4.775639E-05, 0.0005187925, -0.9999979, -0.001328825
 210630714, 0.0001076557, 0.01115014, -6.457845E-05, 0.00104407, 0.0004009102, 0.003873967, -0.0001446991, 0.0005187925, -0.9999979, -0.001327206
 210831467, 0.0002844647, 0.01135542, -1.998099E-05, 0.001046232, 0.0001125685, 0.003763692, 7.560844E-05, 0.0005209541, -0.9999979, -0.001327744
 211031387, 0.0001498851, 0.01117765, 9.375795E-05, 0.001046232, 3.705238E-06, 0.004262575, -0.0003959097, 0.0005187925, -0.9999979, -0.001327649
 211231307, 5.848463E-05, 0.01125964, -0.0007087017, 0.00104407, -6.741444E-05, 0.003741252, 3.133955E-07, 0.0005187925, -0.9999979, -0.001326652
 211431227, -0.000290647, 0.01109082, -0.0003055804, 0.00104407, 0.0003253957, 0.004328211, 0.0001818942, 0.0005187925, -0.9999979, -0.001323969
 211631147, 0.0002373734, 0.01148805, -0.0001289877, 0.00104407, -0.0004245086, 0.004056453, -0.0001947565, 0.0005187925, -0.9999979, -0.001322264
 211831067, -0.0008236279, 0.01129183, -0.0002051653, 0.00104407, -0.0001014464, 0.004309698, -0.0004207561, 0.0005187925, -0.9999979, -0.001319887
 212030987, 1.50934E-05, 0.0117565, -0.0004075934, 0.00104407, 0.0002300898, 0.004443076, 5.977502E-05, 0.0005187925, -0.9999979, -0.001316278
 212230907, 0.000237761, 0.01152758, 0.0001799412, 0.00104407, 6.056286E-05, 0.004017102, 0.0002936655, 0.0005187925, -0.9999979, -0.001313005
 212430827, 0.0001964745, 0.01110456, 0.0001545539, 0.00104407, 0.0003189069, 0.004049147, -0.0003097451, 0.0005187925, -0.9999979, -0.001308361
 212630747, 0.0003771582, 0.01117822, -0.000245747, 0.00104407, 0.0001145336, 0.003731766, 0.0001268737, 0.0005187925, -0.9999979, -0.001303892
 212830667, -0.0001985665, 0.01071274, -6.196163E-05, 0.00104407, -0.0003141248, 0.004180937, -0.0001622516, 0.0005187925, -0.9999979, -0.001299034
 213031420, -0.0002856933, 0.01138817, -0.0006159768, 0.001046232, -0.0005168231, 0.003701407, -0.0001830712, 0.0005209541, -0.9999979, -0.001295616
 213231340, -0.0004603504, 0.01124572, 4.440953E-05, 0.001046232, 0.0002284864, 0.004086833, 0.0004852201, 0.0005187925, -0.9999979, -0.001290731
 213431260, 0.0002523963, 0.01138209, 0.0005276132, 0.00104407, -0.0001845312, 0.00432088, -0.0001575996, 0.0005187925, -0.9999979, -0.001283395
 213631180, -0.0001544813, 0.0114492, -0.0003604055, 0.00104407, -4.26708E-05, 0.003946816, -0.0005154168, 0.0005187925, -0.9999979, -0.001277928
 213831100, -0.0001248528, 0.01119047, -0.000724133, 0.00104407, -8.73006E-05, 0.003804241, -0.0003268793, 0.0005187925, -0.9999979, -0.001272149
 214031020, 0.0002393091, 0.0114047, -0.0003977744, 0.00104407, 3.29228E-05, 0.004446274, 7.436161E-05, 0.0005187925, -0.9999979, -0.001266188
 214230940, 0.0002045133, 0.01195173, 7.924365E-05, 0.00104407, -7.148255E-05, 0.003902496, 4.569848E-06, 0.0005187925, -0.9999979, -0.001275673
 214430860, 0.0003917281, 0.01115041, 5.755846E-07, 0.00104407, -6.747921E-05, 0.00413921, 7.987401E-06, 0.0005187925, -0.9999979, -0.001284298
 214630780, 0.0001776421, 0.01169545, -0.0003068399, 0.00104407, -8.366648E-05, 0.004247609, -0.0003333939, 0.0005187925, -0.9999979, -0.001291671
 214830700, 4.123844E-05, 0.01190681, -0.000387815, 0.00104407, 7.84992E-05, 0.0046407, -6.825696E-05, 0.0005187925, -0.9999979, -0.001298483
 215031453, 0.0001154498, 0.01204237, -0.0006340045, 0.001046232, 0.0001920584, 0.004571886, -0.0003623545, 0.0005209541, -0.9999979, -0.001303837
 215231373, 6.240611E-05, 0.01221532, -0.0005516999, 0.001046232, -5.380698E-06, 0.00438769, 1.048145E-05, 0.0005187925, -0.9999979, -0.001307905
 215431293, 0.0001454725, 0.01150185, 6.359177E-05, 0.00104407, 6.760606E-05, 0.003891486, 0.0003579054, 0.0005187925, -0.9999979, -0.001310055
 215631213, 8.998255E-05, 0.01117301, 0.0002748047, 0.00104407, -0.0001522838, 0.003716779, -0.0002371459, 0.0005187925, -0.9999979, -0.001311686
 215831133, 0.0002314092, 0.01068918, -0.0001912245, 0.00104407, 0.0003305396, 0.004201509, -9.734311E-06, 0.0005187925, -0.9999979, -0.001313014
 216031053, 0.0005034949, 0.01130729, -8.15828E-05, 0.00104407, 0.0001617673, 0.004339269, -9.507189E-05, 0.0005187925, -0.9999979, -0.001313288
 216230973, 0.0003385723, 0.01159426, -0.00022617, 0.00104407, 0.0002441522, 0.003625488, 2.34236E-05, 0.0005187925, -0.9999979, -0.001313508
 216430893, 0.0007148322, 0.01083155, -0.0002970388, 0.00104407, 0.0003047087, 0.004293685, -0.0002461438, 0.0005187925, -0.9999979, -0.001312872
 216630813, 9.773732E-05, 0.01144488, -0.0002857447, 0.00104407, 0.000238345, 0.004285635, 0.0004969705, 0.0005187925, -0.9999979, -0.001312292
 216830733, -4.913297E-05, 0.0114912, 4.87131E-05, 0.00104407, -0.0003327508, 0.003684064, -0.0003060678, 0.0005187925, -0.9999979, -0.001309966
 217031486, -0.0001953217, 0.01078666, -0.0009196614, 0.001046232, -0.000112672, 0.003814495, -0.0002792874, 0.0005187925, -0.9999979, -0.001306185
 217231406, 0.0001213544, 0.01101624, -0.0001255777, 0.001046232, -6.59624E-05, 0.004165147, 0.0001144377, 0.0005209541, -0.9999979, -0.00130464
 217431326, -1.277407E-05, 0.01130196, 1.927166E-05, 0.001046232, 0.0003245366, 0.004172926, -9.889339E-05, 0.0005187925, -0.9999979, -0.001301343
 217631246, -0.0001265618, 0.01124309, -0.0003040122, 0.00104407, -0.0003469154, 0.004236308, -0.0003429364, 0.0005187925, -0.9999979, -0.001295936
 217831166, -0.0006873008, 0.01179351, -0.0003759645, 0.00104407, -0.0001952328, 0.004251366, 1.960566E-05, 0.0005187925, -0.9999979, -0.001293579
 218031086, -0.0001134718, 0.01154843, -0.0003059927, 0.00104407, -0.0001171633, 0.004104395, -0.0001563698, 0.0005187925, -0.9999979, -0.001290663
 218231006, -0.0001694296, 0.0112308, -0.0003672966, 0.00104407, -0.0001477755, 0.00399559, -0.0001026256, 0.0005187925, -0.9999979, -0.00128718
 218430926, 9.998761E-05, 0.01141902, -0.0001534861, 0.00104407, -5.382074E-05, 0.004403909, -0.0001293714, 0.0005187925, -0.9999979, -0.001283932
 218630846, -9.187364E-05, 0.01161809, -0.0005145436, 0.00104407, 0.0001031874, 0.004277604, 0.0004034824, 0.0005187925, -0.9999978, -0.001280114
 218830766, 0.0001706847, 0.01174644, 7.282678E-05, 0.00104407, -0.0002442668, 0.004368247, -0.0003900422, 0.0005187925, -0.9999978, -0.001276288
 219030686, -0.0004051815, 0.01180769, -0.000368736, 0.00104407, -5.173802E-05, 0.004250482, -0.0002336199, 0.0005187925, -0.9999978, -0.001273118
 219231439, 0.0002380333, 0.01198428, -0.0005468231, 0.001046232, 0.0001598117, 0.004229022, -0.0002909398, 0.0005209541, -0.9999978, -0.001269583
 219431359, 0.0004272922, 0.01145985, -0.0002846659, 0.001046232, 0.0004930517, 0.004494342, -9.87933E-05, 0.0005187925, -0.9999978, -0.00127945
 219631279, 0.00056728, 0.01160407, -0.0004427401, 0.00104407, 3.699504E-05, 0.004071441, -0.0001978595, 0.0005187925, -0.9999978, -0.001287561
 219831199, 0.0001225678, 0.0114759, -0.0004124945, 0.00104407, 0.000123783, 0.004236056, 5.452597E-05, 0.0005187925, -0.9999978, -0.001295759
 220031119, 0.0001579176, 0.0116128, -0.0001746576, 0.00104407, -1.043139E-05, 0.004499037, 9.584644E-05, 0.0005187925, -0.9999978, -0.001303637
 220231039, 7.337277E-05, 0.01152777, -0.000219572, 0.00104407, -0.0001171616, 0.003856178, 5.245971E-05, 0.0005187925, -0.9999978, -0.001311799
 220430959, -0.0002465934, 0.0111541, 0.0001263149, 0.00104407, -0.0001160409, 0.004248607, 4.02516E-05, 0.0005187925, -0.9999978, -0.001319241
 220630879, -0.000331396, 0.01176341, -5.367872E-05, 0.00104407, -0.0002725689, 0.004211323, -8.334878E-05, 0.0005187925, -0.9999978, -0.001324563
 220830799, -0.0003906552, 0.01169753, 0.0001341557, 0.00104407, -0.0004771647, 0.00496992, 0.0001556346, 0.0005187925, -0.9999978, -0.001329474
 221030719, -0.0004104841, 0.01240147, -0.0001243916, 0.00104407, 0.0004457948, 0.00402568, 0.0002125259, 0.0005187925, -0.9999978, -0.00133331
 221231472, 0.0006535487, 0.01115355, -8.812836E-05, 0.001046232, 0.0002810956, 0.003800224, -6.724885E-05, 0.0005209541, -0.9999978, -0.00133437
 221431392, 0.000180862, 0.01128529, -0.0003643246, 0.001046232, 0.0001655311, 0.004455236, 0.0004591356, 0.0005187925, -0.9999978, -0.001338086
 221631312, 0.000533669, 0.01166004, 0.0004773544, 0.00104407, 0.0004465543, 0.004114883, -0.0001662447, 0.0005187925, -0.9999978, -0.001341025
 221831232, 0.0002656689, 0.01137697, -0.0005971869, 0.00104407, -0.000491084, 0.004323255, -0.0001560266, 0.0005187925, -0.9999978, -0.001341241
 222031152, -0.0003663232, 0.01183433, -0.0002966718, 0.00104407, -0.00011911, 0.004104944, 0.0001829738, 0.0005187925, -0.9999978, -0.001341439
 222231072, -0.0001022594, 0.01152938, -3.206166E-05, 0.00104407, 0.0002314953, 0.004176591, 0.0002401082, 0.0005187925, -0.9999978, -0.001341297
 222430992, 0.0001958093, 0.01161022, -0.0001752486, 0.00104407, 0.0001062428, 0.004286475, -0.000400153, 0.0005187925, -0.9999978, -0.00134154
 222630912, -0.0002525782, 0.0113308, -0.0007101818, 0.00104407, -0.000216581, 0.0041433, -0.00070177, 0.0005187925, -0.9999978, -0.001343155
 222830832, 6.394454E-05, 0.01154662, -0.0007145954, 0.00104407, -0.0002394147, 0.004870857, -0.0001433455, 0.0005187925, -0.9999978, -0.001343718
 223030752, -0.0002774083, 0.0119555, -0.0005111675, 0.00104407, -0.0002872178, 0.003944738, -0.0002495995, 0.0005187925, -0.9999978, -0.001342892
 223230672, -0.0006368136, 0.01106212, -0.0003258355, 0.00104407, -1.854842E-05, 0.004243823, -0.0001732896, 0.0005187925, -0.9999978, -0.001341315
 223431425, 8.268294E-06, 0.0114906, -0.0003703698, 0.001046232, -8.168879E-07, 0.004092992, -0.0005205897, 0.0005209541, -0.9999978, -0.001339267
 223631345, -5.942032E-05, 0.01148166, -0.0008460428, 0.001046232, -0.0003528807, 0.004370057, -0.0001838413, 0.0005187925, -0.9999978, -0.001336765
 223831265, -0.000584991, 0.01168221, -0.0002805314, 0.00104407, -0.0001730991, 0.004401003, 6.610966E-05, 0.0005187925, -0.9999978, -0.001333036
 224031185, -0.0005557406, 0.01198675, 5.842141E-05, 0.00104407, -0.0005565505, 0.004587979, -0.0001825484, 0.0005187925, -0.9999978, -0.001330189
 224231105, -0.0005501821, 0.01200982, -0.0004259158, 0.00104407, -9.722582E-05, 0.004080908, -0.0003389539, 0.0005187925, -0.9999978, -0.001327181
 224431025, 4.638866E-05, 0.01131448, -0.0005351965, 0.00104407, -0.0003091185, 0.004490264, 0.0001023801, 0.0005187925, -0.9999978, -0.001323851
 224630945, -0.0005126529, 0.01173652, -0.0001970182, 0.00104407, -0.0002837049, 0.004283071, -8.579516E-05, 0.0005187925, -0.9999977, -0.00133633
 224830865, -2.352467E-05, 0.01171652, -6.841782E-05, 0.00104407, -1.211195E-05, 0.003886334, -0.0001037528, 0.0005187925, -0.9999977, -0.001347728
 225030785, -0.0001359642, 0.01123653, -1.875006E-05, 0.00104407, -0.0004816214, 0.004211109, 0.0001687376, 0.0005187925, -0.9999977, -0.001360138
 225230705, -0.0001140679, 0.01138486, 0.0001142117, 0.00104407, 0.0002760407, 0.004646705, -8.076296E-05, 0.0005187925, -0.9999977, -0.00136966
 225431458, 0.00021228, 0.01197205, -0.0004076706, 0.001046232, 0.0001509188, 0.004383318, 5.70665E-06, 0.0005209541, -0.9999977, -0.001378776
 225631378, -0.0001711059, 0.01170906, -0.0004143584, 0.001046232, -0.0001370539, 0.003928159, -0.0003496785, 0.0005187925, -0.9999977, -0.00138657
 225831298, 0.0001382576, 0.01176041, -0.0004298064, 0.00104407, 0.0001222787, 0.004354414, -0.0001205379, 0.0005187925, -0.9999977, -0.001392291
 226031218, 0.0002286643, 0.01162599, -0.0001632634, 0.00104407, -0.000203142, 0.00417213, 6.706297E-05, 0.0005187925, -0.9999977, -0.001396856
 226231138, -8.609425E-05, 0.01136241, -0.0001688913, 0.00104407, -0.0001356807, 0.004223375, 1.09295E-05, 0.0005187925, -0.9999977, -0.001402162
 226431058, -0.000222478, 0.01156807, -0.0005057493, 0.00104407, 3.643332E-05, 0.004191635, -0.000345446, 0.0005187925, -0.9999977, -0.001407345
 226630978, -2.195637E-05, 0.01176434, -0.0004477533, 0.00104407, 0.0001234118, 0.004446447, -0.0002780481, 0.0005187925, -0.9999977, -0.001411089
 226830898, -0.0001235847, 0.01177475, -0.0006813089, 0.00104407, -0.0002247045, 0.004071145, -0.0001995111, 0.0005187925, -0.9999977, -0.001414683
 227030818, -0.0002750611, 0.01145611, -0.0003452589, 0.00104407, 0.000262578, 0.004098618, -0.0002324891, 0.0005187925, -0.9999977, -0.001417802
 227230738, 0.0003722363, 0.01173319, -0.000421371, 0.00104407, 0.0002504475, 0.004069165, -0.0003979449, 0.0005187925, -0.9999977, -0.001419455
 227430658, 0.0003152612, 0.01151951, -0.0006006378, 0.00104407, -0.0003771739, 0.00442718, -7.579631E-05, 0.0005187925, -0.9999977, -0.001423042
 227631411, -0.0004757319, 0.01204827, 8.652404E-05, 0.001046232, -1.92133E-05, 0.004352501, 0.0001103524, 0.0005209541, -0.9999977, -0.001424335
 227831331, 0.0001752096, 0.01214433, -0.0004211464, 0.001046232, 0.0001862661, 0.00439259, -0.0003508236, 0.0005187925, -0.9999977, -0.001424668
 228031251, 0.0003587329, 0.01148917, -0.000637897, 0.00104407, -0.0001632235, 0.004447133, -2.866194E-05, 0.0005187925, -0.9999977, -0.001423747
 228231171, -0.0001481969, 0.0119951, -0.0001020285, 0.00104407, 0.0003412126, 0.004502404, -0.0005735165, 0.0005187925, -0.9999977, -0.001422876
 228431091, 0.0006501183, 0.01180829, -0.0006134689, 0.00104407, 0.0005435084, 0.004381837, -0.0003151884, 0.0005187925, -0.9999977, -0.001421174
 228631011, 0.0007931548, 0.01173618, -0.0002746234, 0.00104407, 0.0001188849, 0.003965335, -2.73452E-05, 0.0005187925, -0.9999977, -0.001420617
 228830931, 0.0003416084, 0.01154002, -4.258119E-05, 0.00104407, 0.0001849363, 0.004741088, 0.0002565979, 0.0005187925, -0.9999976, -0.001418781
 229030851, 0.0001518201, 0.01220929, 0.0002424307, 0.00104407, -0.0002218739, 0.0043645, -0.0003468794, 0.0005187925, -0.9999976, -0.001416743
 229230771, -0.0004822071, 0.01171188, -0.0006269938, 0.00104407, -7.481265E-05, 0.004013291, -0.0001979536, 0.0005187925, -0.9999976, -0.001414554
 229430691, 0.0002490242, 0.01155248, -0.000404948, 0.00104407, -0.0001346769, 0.004343088, 0.0003438086, 0.0005187925, -0.9999976, -0.001412844
 229631444, 9.515401E-05, 0.01161091, 0.0003824256, 0.001046232, -3.996423E-05, 0.004370057, 8.212418E-05, 0.0005209541, -0.9999976, -0.001413011
 229831364, 0.0001026954, 0.01207831, -1.410238E-05, 0.001046232, 0.000155827, 0.004812907, -0.0001208358, 0.0005187925, -0.9999976, -0.001425556
 230031284, -0.00014206, 0.01216671, -0.0007217307, 0.00104407, -3.358147E-05, 0.004230426, -0.0003447715, 0.0005187925, -0.9999976, -0.001436011
 230231204, -9.003731E-05, 0.01149891, -0.0005645389, 0.00104407, -0.0001585486, 0.004497029, 7.078438E-05, 0.0005187925, -0.9999976, -0.001447091
 230431124, -0.0001989973, 0.01187906, 9.872777E-05, 0.00104407, -0.0001834385, 0.003970541, 0.0002701679, 0.0005187925, -0.9999976, -0.001455887
 230631044, 2.41067E-06, 0.01141573, 0.0002010996, 0.00104407, 0.0001090664, 0.004723372, -0.0001012004, 0.0005187925, -0.9999976, -0.001463921
 230830964, 0.0001690908, 0.01232523, -0.0001813497, 0.00104407, -0.0003003594, 0.004614602, -0.0001962532, 0.0005187925, -0.9999976, -0.001470426
 231030884, -0.0004134935, 0.01187182, -0.0003792949, 0.00104407, 9.722463E-05, 0.004311006, 0.0001128306, 0.0005187925, -0.9999976, -0.001476314
 231230804, -0.0001260667, 0.0118662, -0.0002747986, 0.00104407, -0.0004275304, 0.004313681, -0.0001256785, 0.0005187925, -0.9999976, -0.001481414
 231430724, -0.000709017, 0.01158903, -0.0004188542, 0.00104407, 3.616765E-05, 0.004219612, -4.702113E-06, 0.0005187925, -0.9999976, -0.001483914
 231631477, -1.973063E-05, 0.01158764, -0.0005055164, 0.001046232, -8.185188E-05, 0.003977565, -0.0001642206, 0.0005209541, -0.9999976, -0.001487038
 231831397, -0.0002506835, 0.01123603, -0.0001323603, 0.001046232, -0.0001663767, 0.004402711, 0.000142167, 0.0005187925, -0.9999976, -0.001491097
 232031317, -0.0003464977, 0.01157137, 0.0001009931, 0.00104407, -0.0001276234, 0.004073867, 5.510749E-05, 0.0005187925, -0.9999976, -0.001492777
 232231237, -0.0003441427, 0.01126966, -1.47641E-05, 0.00104407, -0.0002354171, 0.004027497, -0.0002036103, 0.0005187925, -0.9999976, -0.00149175
 232431157, -3.022543E-06, 0.01125214, -0.0003176395, 0.00104407, 0.0001080413, 0.004035321, -0.0002231802, 0.0005187925, -0.9999976, -0.00149132
 232631077, 3.07076E-05, 0.01110845, -0.0004131371, 0.00104407, -0.0001743714, 0.004321927, 0.0001768227, 0.0005187925, -0.9999976, -0.001491249
 232830997, -6.632795E-05, 0.01188791, 0.0003117566, 0.00104407, -3.064164E-05, 0.004364804, -0.0001004771, 0.0005187925, -0.9999976, -0.00149104
 233030917, 0.0001236764, 0.01215505, -0.0003164015, 0.00104407, -0.0001108102, 0.004574288, 3.068411E-05, 0.0005187925, -0.9999976, -0.001489931
 233230837, -0.0003893998, 0.0117248, -0.0003176503, 0.00104407, -0.0005606269, 0.004195102, 0.0003697334, 0.0005187925, -0.9999976, -0.001487921
 233430757, -0.0008391748, 0.01140367, 0.0004372312, 0.00104407, -0.0003027869, 0.004071661, 0.00018323, 0.0005187925, -0.9999976, -0.001485892
 233630677, -0.000551949, 0.01145565, 7.377532E-05, 0.00104407, -0.0001284167, 0.004210556, 0.0002497782, 0.0005187925, -0.9999976, -0.001482593
 233831430, -0.000326148, 0.01152354, -0.0001145472, 0.001046232, -0.0001061322, 0.004149605, -3.123861E-05, 0.0005209541, -0.9999976, -0.001482273
 234031350, 0.0001260141, 0.01164387, -0.0001714334, 0.001046232, -0.0003494998, 0.003992306, -0.0001693811, 0.0005187925, -0.9999976, -0.001478762
 234231270, -0.0001169831, 0.01139293, -0.0004414855, 0.00104407, 0.0004307244, 0.004073986, -0.0004464735, 0.0005187925, -0.9999976, -0.001474516
 234431190, 0.0006300902, 0.01133844, -0.0003245902, 0.00104407, -0.0001611464, 0.004000947, -0.000330304, 0.0005187925, -0.9999976, -0.00147094
 234631110, -0.0001700622, 0.01165445, -0.0006400276, 0.00104407, 8.702766E-05, 0.004387019, 0.0001025862, 0.0005187925, -0.9999976, -0.001468218
 234831030, 4.768378E-05, 0.01213665, -0.0001022156, 0.00104407, 0.0001552807, 0.00438048, -0.0002412915, 0.0005187925, -0.9999976, -0.001464208
 235030950, 7.204921E-05, 0.01160225, -0.0005295685, 0.00104407, -9.744358E-05, 0.00406997, -0.0005267217, 0.0005187925, -0.9999976, -0.001474892
 235230870, -9.457522E-05, 0.01131549, -0.0008825883, 0.00104407, 0.0001108744, 0.004152666, -6.838566E-05, 0.0005187925, -0.9999974, -0.001485132
 235430790, 0.000206596, 0.01146689, -0.0001536029, 0.00104407, 0.000293117, 0.004600065, -0.000115899, 0.0005187925, -0.9999974, -0.00149353
 235630710, 0.0003560564, 0.01197032, -0.0003234165, 0.00104407, 0.0001544608, 0.004477195, 0.0002118467, 0.0005187925, -0.9999974, -0.001502455
 235831463, -7.346789E-05, 0.01167415, 0.0002538516, 0.001046232, -0.000215954, 0.0037647, -2.289174E-05, 0.0005209541, -0.9999974, -0.001511163
 236031383, -0.0007499241, 0.01112589, -0.0001902804, 0.001046232, -0.0007409103, 0.00449796, -5.824858E-05, 0.0005187925, -0.9999974, -0.001517522
 236231303, -0.000803065, 0.01168195, -9.516722E-05, 0.00104407, -6.971841E-05, 0.00421673, 0.0001174385, 0.0005187925, -0.9999976, -0.001522907
 236431223, 0.0002585376, 0.01138988, -0.0001752689, 0.00104407, 0.0003466872, 0.004517569, -0.0005020374, 0.0005187925, -0.9999974, -0.001526146
 236631143, 0.000348841, 0.01139203, -0.0007771467, 0.00104407, -0.0001899909, 0.004154474, -0.0004171192, 0.0005187925, -0.9999974, -0.001530846
 236831063, -0.000286183, 0.01132305, -0.0002983985, 0.00104407, -0.0005246902, 0.004156364, 0.0002077297, 0.0005187925, -0.9999974, -0.001534209
 237030983, -0.0003073204, 0.01161999, 0.0001804262, 0.00104407, 0.0002389224, 0.004502635, -0.0002659592, 0.0005187925, -0.9999974, -0.001537673
 237230903, 6.053058E-05, 0.0121629, -0.0004074409, 0.00104407, 0.0005179737, 0.00415054, -0.0002977432, 0.0005187925, -0.9999974, -0.001539999
 237430823, 2.700194E-05, 0.01159692, -0.0005158779, 0.00104407, -0.0002244337, 0.004437517, -0.0001639354, 0.0005187925, -0.9999974, -0.001542134
 237630743, -0.0002318717, 0.01158872, -5.921495E-05, 0.00104407, -0.0001745388, 0.003664134, -0.0001518083, 0.0005187925, -0.9999974, -0.001543146
 237830663, -0.0002219985, 0.01085724, -9.163527E-05, 0.00104407, 0.0003273408, 0.004357764, -0.0001181035, 0.0005187925, -0.9999974, -0.001544212
 238031416, 0.0004724767, 0.01205666, -0.0004381727, 0.001046232, 4.150813E-05, 0.004448614, -0.0002243492, 0.0005209541, -0.9999974, -0.001546362
 238231336, -9.003823E-05, 0.01175214, -0.0003934252, 0.001046232, -4.992879E-05, 0.004114837, -0.0001951247, 0.0005187925, -0.9999974, -0.001547177
 238431256, 8.191827E-05, 0.01152588, -0.0002784985, 0.00104407, 0.0001534987, 0.004338913, -0.0001720705, 0.0005187925, -0.9999974, -0.001544849
 238631176, 0.0001199277, 0.01179215, -6.361198E-05, 0.00104407, -1.204026E-05, 0.00423774, -0.0001063636, 0.0005187925, -0.9999974, -0.001544156
 238831096, -0.000251102, 0.01138539, -0.0002431731, 0.00104407, -0.0002009625, 0.004279646, -0.000132242, 0.0005187925, -0.9999974, -0.001541886
 239031016, -0.0001732153, 0.01131361, -0.0001662412, 0.00104407, -0.0004808208, 0.003837359, -0.0001893538, 0.0005187925, -0.9999974, -0.001539866
 239230936, -0.0004821674, 0.01115355, -0.0004990964, 0.00104407, -0.0004933715, 0.004248343, -0.0003601039, 0.0005187925, -0.9999974, -0.001537596
 239430856, -0.0003227842, 0.01157047, -0.0004975653, 0.00104407, 5.503157E-05, 0.004133153, 0.0002834986, 0.0005187925, -0.9999974, -0.001535033
 239630776, -5.710936E-05, 0.011654, 0.0001251019, 0.00104407, -4.449574E-05, 0.004281944, -8.709516E-06, 0.0005187925, -0.9999974, -0.001532434
 239830696, 0.0002097996, 0.01180288, -1.169331E-05, 0.00104407, 0.0002969422, 0.004186574, 0.0001281774, 0.0005187925, -0.9999974, -0.001530072
 240031449, 0.0004096114, 0.01162164, 0.0004020636, 0.001046232, -1.720376E-05, 0.004196387, -3.066432E-07, 0.0005209541, -0.9999974, -0.001530178
 240231369, -0.0004455982, 0.01175539, -0.0001163593, 0.001046232, -0.0002399452, 0.004481405, -0.0001199326, 0.0005187925, -0.9999974, -0.001539658
 240431289, -0.0002002919, 0.01187123, 0.0001114006, 0.00104407, -6.397778E-05, 0.003977752, -1.6971E-05, 0.0005187925, -0.9999974, -0.00154693
 240631209, -0.0005241345, 0.01138328, -0.0002492849, 0.00104407, -0.0001428018, 0.004380462, -0.0003776243, 0.0005187925, -0.9999974, -0.001554187
 240831129, -0.0003178973, 0.01184541, -0.0007124458, 0.00104407, -0.0004115019, 0.004246269, -0.0003271415, 0.0005187925, -0.9999974, -0.001561708
 241031049, -0.0002269417, 0.01115547, -0.0004431574, 0.00104407, -9.225827E-05, 0.003694855, -9.386001E-05, 0.0005187925, -0.9999974, -0.001567572
 241230969, -0.0005447353, 0.0111513, -0.0001209932, 0.00104407, -0.000283112, 0.004350993, 0.000116011, 0.0005187925, -0.9999974, -0.001572665
 241430889, -0.0003508871, 0.01170909, 0.0001080939, 0.00104407, -0.0001552985, 0.004259239, -0.0003585858, 0.0005187925, -0.9999974, -0.001577513
 241630809, -0.0002448535, 0.01156081, -0.0005094743, 0.00104407, -0.0002511395, 0.004239252, 3.521464E-05, 0.0005187925, -0.9999974, -0.00158166
 241830729, -9.320951E-05, 0.01144678, -0.0002957746, 0.00104407, 0.0003344037, 0.003645528, -0.0001571312, 0.0005187925, -0.9999974, -0.001584606
 242031482, 0.0003469929, 0.01132845, -9.933783E-05, 0.001046232, -1.674934E-05, 0.00428104, -3.255177E-05, 0.0005209541, -0.9999973, -0.001589048
 242231402, -3.134024E-05, 0.01152735, -5.539147E-05, 0.001046232, -0.0001888129, 0.004748407, 7.768979E-05, 0.0005187925, -0.9999973, -0.001592599
 242431322, -0.0002920248, 0.01205908, -0.000343139, 0.00104407, 7.803012E-06, 0.004460991, -0.0002470649, 0.0005187925, -0.9999973, -0.001594716
 242631242, 8.236084E-06, 0.01185502, -0.000502022, 0.00104407, 0.0001922002, 0.003768787, 2.821272E-05, 0.0005187925, -0.9999973, -0.001593096
 242831162, 1.663036E-05, 0.01093693, -0.0003349548, 0.00104407, -0.0002414303, 0.004185412, 4.323541E-05, 0.0005187925, -0.9999973, -0.001593612
 243031082, -0.0002902602, 0.01176539, -0.000146079, 0.00104407, 0.0003248165, 0.00410789, 0.000432074, 0.0005187925, -0.9999973, -0.001593164
 243231002, 5.826339E-05, 0.01146671, 0.0004504415, 0.00104407, -0.0002299821, 0.004369135, -7.374436E-05, 0.0005187925, -0.9999973, -0.00159367
 243430922, -0.0001182742, 0.01162344, -0.0002584711, 0.00104407, 0.0004881294, 0.004029359, -3.797799E-05, 0.0005187925, -0.9999973, -0.001592962
 243630842, 0.0006097383, 0.01171067, -2.221888E-05, 0.00104407, -0.0001369442, 0.004441317, -0.0001230904, 0.0005187925, -0.9999973, -0.001591791
 243830762, -0.00030921, 0.01209054, -0.000303376, 0.00104407, -0.0003451275, 0.004484799, 8.208089E-05, 0.0005187925, -0.9999973, -0.001590041
 244030682, -0.0005275415, 0.01167389, 0.0001175053, 0.00104407, 8.039996E-05, 0.004524875, -0.0001783933, 0.0005187925, -0.9999973, -0.001587218
 244231435, -0.0004620318, 0.01205444, -0.0004161445, 0.001046232, -0.0001421909, 0.004508215, 0.0001398135, 0.0005209541, -0.9999973, -0.001587861
 244431355, -6.987989E-05, 0.01197115, -0.0001495288, 0.001046232, 0.0001880847, 0.00445813, -0.000173752, 0.0005187925, -0.9999973, -0.001584698
 244631275, 9.083842E-05, 0.0119759, -0.0004902571, 0.00104407, 0.0002914185, 0.004350271, 7.543289E-05, 0.0005187925, -0.9999973, -0.001578388
 244831195, 0.0002138184, 0.01167319, -0.0002202869, 0.00104407, -0.0002585408, 0.004243798, 9.607995E-06, 0.0005187925, -0.9999973, -0.001573919
 245031115, -0.000359638, 0.0117413, -0.0001975426, 0.00104407, 0.0002548254, 0.004472678, -8.694269E-05, 0.0005187925, -0.9999973, -0.001567311
 245231035, 0.0005346445, 0.01206404, -0.0001338078, 0.00104407, -0.0003297979, 0.004428206, -3.079255E-05, 0.0005187925, -0.9999973, -0.001562462
 245430955, -0.0004435514, 0.01183272, -0.0001478367, 0.00104407, -0.0003016625, 0.004430864, -0.0005583568, 0.0005187925, -0.9999973, -0.00157194
 245630875, -0.0007323653, 0.01186887, -0.0006256819, 0.00104407, -0.0002492102, 0.004147884, 0.000247756, 0.0005187925, -0.9999974, -0.001579653
 245830795, -0.0003661766, 0.010968, 0.0001373385, 0.00104407, 0.00019386, 0.003995241, -0.0004896422, 0.0005187925, -0.9999974, -0.001586629
 246030715, 0.0006566917, 0.01114983, -0.0006296928, 0.00104407, 0.000461657, 0.003920915, -0.000365707, 0.0005187925, -0.9999974, -0.001591426
 246231468, 0.0005619546, 0.01115185, -0.0005482098, 0.001046232, -0.0004978037, 0.004041276, -0.0002384932, 0.0005209541, -0.9999974, -0.001597103
 246431388, -0.0005674904, 0.01163263, -0.0009874372, 0.001046232, -1.832726E-05, 0.004037354, -0.0001143308, 0.0005187925, -0.9999973, -0.001602366
 246631308, 0.0001140399, 0.01154301, -0.0002780386, 0.00104407, 7.147936E-05, 0.004674077, -0.0001697683, 0.0005187925, -0.9999974, -0.001605798
 246831228, 8.615765E-05, 0.01153667, -0.0003108724, 0.00104407, -0.0001872129, 0.003819467, -0.0006586539, 0.0005187925, -0.9999974, -0.001606505
 247031148, -0.0002519619, 0.01133279, -0.0006040589, 0.00104407, -4.802943E-05, 0.004392004, 0.0004417262, 0.0005187925, -0.9999974, -0.001608063
 247231068, -0.0002884931, 0.01186482, 0.0005063738, 0.00104407, 3.313985E-05, 0.004311895, 4.13741E-05, 0.0005187925, -0.9999974, -0.001609212
 247430988, -3.878072E-05, 0.01173439, 9.151605E-06, 0.00104407, -4.19367E-05, 0.004245693, 0.0002670281, 0.0005187925, -0.9999974, -0.001608389
 247630908, -0.0001442617, 0.01163435, -0.01440601, 0.00104407, 8.184888E-06, 0.004340079, -0.007851876, 0.0005187925, -0.9999974, -0.001608351
 247830828, 0.0007175183, 0.01217943, -0.3106095, 0.00104407, 0.0003887859, 0.004612418, -0.1013529, 0.0005187925, -0.9999974, -0.00160692
 248030748, 0.0001598961, 0.01182428, -0.04048339, 0.00104407, -0.0003956991, 0.00401392, 0.06960943, 0.0005187925, -0.9999974, -0.00160467
 248230668, -0.0007789287, 0.01111574, -0.0227902, 0.00104407, 1.560873E-05, 0.004486762, -0.3179176, 0.0005187925, -0.9999983, -0.001617956
 248431421, -0.005480547, 0.006149092, -1.653497, 0.001046232, -0.005912617, -0.001472327, -0.6738609, 0.0005209541, -0.9999908, -0.001755318
 248631341, -0.02140307, -0.009929579, -1.129219, 0.001046232, -0.01011428, -0.006166218, -0.09902433, 0.0005187925, -0.9999759, -0.001925952
 248831261, -0.02811752, -0.01626465, -0.2239493, 0.00104407, -0.01043283, -0.005475823, -0.09426862, 0.0005187925, -0.9999727, -0.002087333
 249031181, -0.02678699, -0.01340418, -0.3327155, 0.00104407, -0.008949722, -0.004086378, -0.1473607, 0.0005187925, -0.999974, -0.002261099
 249231101, -0.02319238, -0.00921781, -0.3785454, 0.00104407, -0.007581117, -0.002549557, -0.120979, 0.0005187925, -0.9999756, -0.00243937
 249431021, -0.0196119, -0.005324983, -0.3040647, 0.00104407, -0.006537102, -0.001229042, -0.09881019, 0.0005187925, -0.9999769, -0.002615946
 249630941, -0.01651859, -0.001877668, -0.2586664, 0.00104407, -0.005391454, -0.000186829, -0.08814289, 0.0005187925, -0.9999785, -0.00276427
 249830861, -0.01357675, 0.0005535227, -0.2304653, 0.00104407, -0.004164475, 0.000566316, -0.0782211, 0.0005187925, -0.9999799, -0.002657962
 250030781, -0.01093645, 0.002550586, -0.2036666, 0.00104407, -0.003606327, 0.001387381, -0.0683286, 0.0005187925, -0.9999816, -0.002424988
 250230701, -0.008778636, 0.004623128, -0.1782366, 0.00104407, -0.002865195, 0.002067402, -0.05999983, 0.0005187925, -0.9999832, -0.002212643
 250431454, -0.00645339, 0.006117186, -0.1567186, 0.001046232, -0.001636085, 0.002417646, -0.05247384, 0.0005209541, -0.9999844, -0.002031802
 250631374, -0.003783928, 0.00750074, -0.1357009, 0.001046232, -0.001266148, 0.002863534, -0.04549361, 0.0005187925, -0.999985, -0.002169817
 250831294, -0.003331603, 0.00847901, -0.1191215, 0.00104407, -0.001334502, 0.003261971, -0.04044496, 0.0005187925, -0.9999834, -0.002711676
 251031214, -0.003257255, 0.008531394, -0.1060648, 0.00104407, -0.0009529842, 0.0028996, -0.03584959, 0.0005187925, -0.99998, -0.003265122
 251231134, -0.002743185, 0.007401226, -0.09344616, 0.00104407, -0.001049624, 0.002393374, -0.03171093, 0.0005187925, -0.9999762, -0.003783716
 251431054, -0.002765581, 0.006634451, -0.08220944, 0.00104407, -0.0007856961, 0.002382756, -0.02799763, 0.0005187925, -0.9999722, -0.004273579
 251630974, -0.002421962, 0.006076162, -0.07242233, 0.00104407, -0.001092765, 0.002196462, -0.02454496, 0.0005187925, -0.9999682, -0.004736887
 251830894, -0.002356921, 0.005959801, -0.06349835, 0.00104407, -0.0006108718, 0.001994604, -0.02137222, 0.0005187925, -0.9999641, -0.005174092
 252030814, -0.002128603, 0.005303043, -0.0554743, 0.00104407, -0.0009703251, 0.001841209, -0.0185872, 0.0005187925, -0.9999599, -0.005586898
 252230734, -0.002255286, 0.004950394, -0.04853383, 0.00104407, -0.0007747806, 0.001907729, -0.01631698, 0.0005187925, -0.9999557, -0.005976032
 252430654, -0.002284334, 0.005020378, -0.04262773, 0.00104407, -0.000712555, 0.0017351, -0.01461281, 0.0005187925, -0.9999517, -0.006343723
 252631407, -0.001883776, 0.004942695, -0.03789519, 0.001046232, -0.0004284316, 0.001904672, -0.01293078, 0.0005209541, -0.9999495, -0.006679962
 252831327, -0.001322679, 0.005738158, -0.03350274, 0.001046232, -0.0008107985, 0.002402517, -0.01120429, 0.0005187925, -0.9999487, -0.006994599
 253031247, -0.001424617, 0.007310092, -0.02823223, 0.00104407, -0.0003018814, 0.002905338, -0.009145374, 0.0005187925, -0.9999478, -0.007340888
 253231167, -0.0005248323, 0.008816535, -0.02450197, 0.00104407, 6.038587E-05, 0.003777689, -0.008604982, 0.0005187925, -0.9999467, -0.007861178
 253431087, 6.003064E-05, 0.0107816, -0.0226817, 0.00104407, 0.0004021474, 0.004419388, -0.007722155, 0.0005187925, -0.9999452, -0.0083761
 253631007, 0.0006228354, 0.01256856, -0.01982298, 0.00104407, 0.0003157595, 0.004912128, -0.006626264, 0.0005187925, -0.9999436, -0.008862332
 253830927, 0.0008919741, 0.01406884, -0.01740125, 0.00104407, 9.326311E-05, 0.00573781, -0.006013186, 0.0005187925, -0.9999415, -0.009321569
 254030847, 0.0008413081, 0.0155603, -0.01545188, 0.00104407, 0.0003520396, 0.005364726, -0.005225021, 0.0005187925, -0.9999393, -0.009755286
 254230767, 0.001197816, 0.01556882, -0.01341837, 0.00104407, 0.0007324292, 0.006146704, -0.004536637, 0.0005187925, -0.9999369, -0.01016537
 254430687, 0.001595812, 0.01668941, -0.01171141, 0.00104407, 0.0003931833, 0.005886425, -0.003608179, 0.0005187925, -0.9999343, -0.01055204
 254631440, 0.00151537, 0.016914, -0.0101694, 0.001046232, 0.0007190158, 0.006632804, -0.003613604, 0.0005209541, -0.9999318, -0.01091928
 254831360, 0.001815679, 0.01795844, -0.009269942, 0.001046232, 0.0005954104, 0.00691167, -0.003003271, 0.0005187925, -0.999929, -0.01127002
 255031280, 0.003723583, 0.01943881, 0.3403279, 0.00104407, 0.002694757, 0.007740086, 0.3927446, 0.0005187925, -0.9999246, -0.0116881
 255231200, 0.007156337, 0.02043532, 1.017316, 0.00104407, 0.002163269, 0.007159086, 0.3410386, 0.0005187925, -0.999916, -0.01232828
 255431120, 0.006388957, 0.01894801, 0.8873605, 0.00104407, 0.002209059, 0.00655894, 0.2994413, 0.0005187925, -0.999907, -0.01295227
 255631040, 0.005928948, 0.01733543, 0.7799664, 0.00104407, 0.00202194, 0.006279469, 0.2634257, 0.0005187925, -0.9998987, -0.0135158
 255830960, 0.004766225, 0.01637183, 0.6851376, 0.00104407, 0.001318337, 0.005983326, 0.2308506, 0.0005187925, -0.9998902, -0.01405478
 256030880, 0.003444472, 0.01545485, 0.6006718, 0.00104407, 0.001192745, 0.005246464, 0.2027783, 0.0005187925, -0.9998819, -0.01456378
 256230800, 0.00267666, 0.01363602, 0.5007173, 0.00104407, 0.001103772, 0.004498479, 0.1487778, 0.0005187925, -0.9998704, -0.01501592
 256430720, 0.02050467, 0.001849304, 0.3844041, 0.00104407, 0.01877915, -0.006089868, 0.1284959, 0.0005187925, -0.9997307, -0.01522536
 256631473, 0.07506531, -0.02350801, 0.3318812, 0.001046232, 0.03846283, -0.009175721, 0.1090137, 0.0005209541, -0.9997289, -0.01518574
 256831393, 0.1037918, 0.002125845, 0.2713426, 0.001046232, 0.03456726, 0.01739591, 0.08562708, 0.0005187925, -0.9998449, -0.01491566
 257031313, 0.07442606, 0.07763678, 0.2123015, 0.00104407, 0.01597672, 0.04146019, 0.06535003, 0.0005187925, -0.9994001, -0.01578993
 257231233, 0.04005213, 0.117313, 0.1621695, 0.00104407, 0.01558476, 0.04316135, 0.04939382, 0.0005187925, -0.9992647, -0.01723251
 257431153, 0.06631538, 0.1039256, 0.1221581, 0.00104407, 0.03757534, 0.02973233, 0.03726211, 0.0005187925, -0.9994825, -0.01849487
 257631073, 0.1241832, 0.08198653, 0.09154751, 0.00104407, 0.05408547, 0.03317721, 0.02805986, 0.0005187925, -0.9992292, -0.01858887
 257830993, 0.1342911, 0.08368705, 0.06914838, 0.00104407, 0.03794377, 0.02234229, 0.02093105, 0.0005187925, -0.9995366, -0.01957648
 258030913, 0.05976603, 0.02779355, 0.05210614, 0.00104407, -0.002334695, -0.007103217, 0.01617145, 0.0005187925, -0.9998001, -0.01982534
 258230833, -0.05078373, -0.03832287, 0.04211731, 0.00104407, -0.03972443, -0.02142101, 0.01370268, 0.0005187925, -0.9997004, -0.01888818
 258430753, -0.1272475, -0.05295483, 0.03451582, 0.00104407, -0.05307964, -0.01426012, 0.01030917, 0.0005187925, -0.9997769, -0.01856792
 258630673, -0.1338849, -0.0220198, 0.02580131, 0.00104407, -0.04083634, 0.0007976394, 0.007813363, 0.0005187925, -0.9998176, -0.01902517
 258831426, -0.0835029, 0.009145166, 0.01957716, 0.001046232, -0.01504298, 0.005863998, 0.00565306, 0.0005209541, -0.9997979, -0.01957096
 259031346, -0.0302611, 0.0106358, 0.01473478, 0.001046232, -0.008945345, 0.001058374, 0.004250613, 0.0005187925, -0.9997957, -0.02021294
 259231266, -0.05259087, -0.0006692507, 0.01158126, 0.00104407, -0.03630628, -0.001460602, 0.003698564, 0.0005187925, -0.9997793, -0.02087015
 259431186, -0.1095007, -0.005356099, 0.009007122, 0.00104407, -0.03953619, -0.003050789, 0.002534447, 0.0005187925, -0.9997558, -0.02135369
 259631106, -0.07829859, -0.02378563, 0.0060597, 0.00104407, -0.01261117, -0.01817412, 0.001598282, 0.0005187925, -0.9995379, -0.02140263
 259831026, -0.01800355, -0.06451072, 0.004411795, 0.00104407, -0.0009546942, -0.02883178, 0.0009863137, 0.0005187925, -0.9992706, -0.02168329
 260030946, -0.00611918, -0.06426638, 0.001899209, 0.00104407, -0.004318378, -0.01304324, -0.0005537619, 0.0005187925, -0.9995933, -0.02242354
 260230866, -0.01180053, -0.009375468, -0.0002392729, 0.00104407, -0.003378939, 0.009468819, 0.0001774114, 0.0005187925, -0.9997287, -0.02329426
 260430786, -0.001727297, 0.0317062, -0.0004480393, 0.00104407, 0.003194875, 0.01255284, -0.001012526, 0.0005187925, -0.9997147, -0.02380336
 260630706, -0.001204703, 0.03852309, -0.00164648, 0.00104407, -0.008617277, 0.01841403, -0.0004360946, 0.0005187925, -0.99966, -0.02426159
 260831459, -0.03792833, 0.06276284, -0.001260579, 0.001046232, -0.01849829, 0.02857089, -0.0005150315, 0.0005209541, -0.9995058, -0.02485304
 261031379, -0.03555705, 0.06925518, -0.001751542, 0.001046232, -0.002644247, 0.01810039, -0.0009831369, 0.0005187925, -0.9996406, -0.02494241
 261231299, 0.02055346, 0.02198196, -0.002298992, 0.00104407, 0.02096221, -0.006432351, -0.0009360668, 0.0005187925, -0.9996289, -0.02503793
 261431219, 0.05687666, -0.02705932, -0.002164145, 0.00104407, 0.01651121, -0.01133362, -0.0009556878, 0.0005187925, -0.9995775, -0.02528081
 261631139, 0.02220413, -0.03383562, -0.002220457, 0.00104407, -0.003431844, -0.01542693, -0.0009247787, 0.0005187925, -0.9994274, -0.02568241
 261831059, -0.01954257, -0.05991336, -0.001321499, 0.00104407, -0.01108196, -0.0310241, -0.0004569323, 0.0005187925, -0.9989153, -0.02583175
 262030979, -0.0435245, -0.0820234, -0.001414446, 0.00104407, -0.02479397, -0.0243223, -0.0004870456, 0.0005187925, -0.999104, -0.02648937
 262230899, -0.09082435, -0.03576334, -0.001250012, 0.00104407, -0.04440243, 0.003477076, -0.0005428502, 0.0005187925, -0.9995482, -0.02805721
 262430819, -0.1117796, 0.02762535, -0.001973818, 0.00104407, -0.02995591, 0.01734682, -0.001508611, 0.0005187925, -0.9995878, -0.02870698
 262630739, -0.03098655, 0.04331752, -0.003525949, 0.00104407, 0.01616319, 0.01240143, -0.001275766, 0.0005187925, -0.9995859, -0.02847988
 262830659, 0.08175967, 0.02319498, -0.002619118, 0.00104407, 0.04568997, 0.003053495, -0.0007038019, 0.0005187925, -0.9995224, -0.028549
 263031412, 0.1256689, 0.002408721, -0.001775834, 0.001046232, 0.04322618, -0.001271555, -0.0004803865, 0.0005209541, -0.9994633, -0.02884005
 263231332, 0.1016166, -0.001877203, -0.001796925, 0.001046232, 0.02800272, 0.0006481532, -0.0007021359, 0.0005187925, -0.999463, -0.02931918
 263431252, 0.068955, 0.005381731, -0.001538905, 0.00104407, 0.02183803, 0.003860523, -0.0006070509, 0.0005187925, -0.9994733, -0.02997599
 263631172, 0.06574015, 0.01318495, -0.001812087, 0.00104407, 0.02783477, 0.006016002, -0.0006052146, 0.0005187925, -0.999476, -0.03060439
 263831092, 0.08556878, 0.01781202, -0.00128039, 0.00104407, 0.03545227, 0.006829336, -0.0001948435, 0.0005187925, -0.9994593, -0.03121265
 264031012, 0.1029998, 0.0166311, -0.001616415, 0.00104407, 0.04007014, 0.005080929, -0.0009224287, 0.0005187925, -0.9994259, -0.03175224
 264230932, 0.1109923, 0.01305897, -0.002976198, 0.00104407, 0.04048583, 0.004304994, -0.001109173, 0.0005187925, -0.9994039, -0.03225467
 264430852, 0.1123487, 0.01290928, -0.002250633, 0.00104407, 0.04118822, 0.005517116, -0.001036972, 0.0005187925, -0.9993945, -0.03271669
 264630772, 0.1159159, 0.01529443, -0.001215689, 0.00104407, 0.04364633, 0.005991464, -9.920203E-06, 0.0005187925, -0.9993837, -0.03329542
 264830692, 0.123253, 0.01707482, -0.0001293773, 0.00104407, 0.04643969, 0.006460067, 0.0002065393, 0.0005187925, -0.9993709, -0.03390336
 265031445, 0.1311769, 0.01866363, -0.0006106962, 0.001046232, 0.04980956, 0.006885334, -0.0006560665, 0.0005209541, -0.9993533, -0.03457048
 265231365, 0.1386499, 0.01972928, -3.44659E-05, 0.001046232, 0.05171622, 0.007547595, -7.770409E-05, 0.0005187925, -0.999333, -0.03534176
 265431285, 0.1439732, 0.02056049, 0.0007495693, 0.00104407, 0.05348654, 0.00734779, 0.0004429344, 0.0005187925, -0.9993052, -0.03621249
 265631205, 0.1494311, 0.0206558, 0.0007807861, 0.00104407, 0.05534303, 0.007691132, 0.0007571994, 0.0005187925, -0.9992797, -0.03705304
 265831125, 0.1552303, 0.02210508, 0.002513749, 0.00104407, 0.05772337, 0.008864269, 0.0005239738, 0.0005187925, -0.9992614, -0.03781982
 266031045, 0.1609985, 0.02430717, 0.001577875, 0.00104407, 0.05971846, 0.008940483, 3.350824E-05, 0.0005187925, -0.9992326, -0.03869167
 266230965, 0.164937, 0.02414072, 0.0007983553, 0.00104407, 0.06063125, 0.008890054, 0.0003030577, 0.0005187925, -0.9991979, -0.03968036
 266430885, 0.1674647, 0.02499621, 0.0008821639, 0.00104407, 0.06174928, 0.009136519, 0.0004784612, 0.0005187925, -0.9991629, -0.0406951
 266630805, 0.1703538, 0.02555298, 0.0007442583, 0.00104407, 0.06250489, 0.009228372, 0.0002180204, 0.0005187925, -0.9991191, -0.04183642
 266830725, 0.173018, 0.02577701, 0.0004378688, 0.00104407, 0.0634969, 0.009673098, 0.0005232815, 0.0005187925, -0.9990718, -0.04302257
 267031478, 0.1765051, 0.02689502, 5.918159E-05, 0.001046232, 0.06543613, 0.009772722, 0.0001542598, 0.0005209541, -0.9990174, -0.0443075
 267231398, 0.1800424, 0.02681244, -6.837455E-05, 0.001046232, 0.06574178, 0.009810826, -0.0002366764, 0.0005187925, -0.9989555, -0.04569264
 267431318, 0.1817609, 0.027011, -0.0007896578, 0.00104407, 0.06668518, 0.01004187, -4.681144E-05, 0.0005187925, -0.9988939, -0.04698958
 267631238, 0.1847124, 0.02876106, -0.0008231981, 0.00104407, 0.06785331, 0.01109885, -0.0007096241, 0.0005187925, -0.9988241, -0.04834057
 267831158, 0.187972, 0.03088569, -0.001621508, 0.00104407, 0.06932513, 0.01134281, -0.0006718641, 0.0005187925, -0.9987407, -0.04987896
 268031078, 0.1915969, 0.03103486, -0.001969214, 0.00104407, 0.07057732, 0.01137577, -0.0006835932, 0.0005187925, -0.9986485, -0.05149971
 268230998, 0.194812, 0.03153512, -0.002150154, 0.00104407, 0.07179263, 0.01179924, -0.001056302, 0.0005187925, -0.9985512, -0.05308371
 268430918, 0.1980444, 0.03172428, -0.003182316, 0.00104407, 0.07256608, 0.01158966, -0.001492821, 0.0005187925, -0.9984471, -0.0546591
 268630838, 0.2011133, 0.03219523, -0.003611171, 0.00104407, 0.07440588, 0.01204958, -0.001766349, 0.0005187925, -0.9983366, -0.05621268
 268830758, 0.2039101, 0.0329983, -0.004323315, 0.00104407, 0.07439586, 0.01219415, -0.00187679, 0.0005187925, -0.9982156, -0.05776962
 269030678, 0.2055234, 0.03423117, -0.005227337, 0.00104407, 0.07537192, 0.01301333, -0.002168441, 0.0005187925, -0.9980813, -0.05934721
 269231431, 0.2088084, 0.03587317, -0.006053295, 0.001046232, 0.07690189, 0.01300955, -0.002923963, 0.0005209541, -0.9979306, -0.06109083
 269431351, 0.2114263, 0.03582069, -0.007630698, 0.001046232, 0.07732056, 0.0126748, -0.003381088, 0.0005187925, -0.9977667, -0.06295088
 269631271, 0.2133172, 0.03543635, -0.008731537, 0.00104407, 0.07843117, 0.01307233, -0.003706958, 0.0005187925, -0.9975881, -0.06476483
 269831191, 0.2162754, 0.03630215, -0.00996411, 0.00104407, 0.07933616, 0.01348584, -0.003764698, 0.0005187925, -0.9973912, -0.066579
 270031111, 0.218422, 0.03752029, -0.01095741, 0.00104407, 0.08015957, 0.01380157, -0.004803315, 0.0005187925, -0.9971749, -0.06843857
 270231031, 0.2204775, 0.03836329, -0.01255552, 0.00104407, 0.08088377, 0.01445616, -0.005198917, 0.0005187925, -0.9969406, -0.07038039
 270430951, 0.2232482, 0.03936752, -0.01359412, 0.00104407, 0.08238587, 0.01389272, -0.005747709, 0.0005187925, -0.9966915, -0.07235683
 270630871, 0.2271043, 0.03900222, -0.01511427, 0.00104407, 0.08332443, 0.01442062, -0.00613608, 0.0005187925, -0.9964279, -0.07428912
 270830791, 0.2291646, 0.03965817, -0.01659661, 0.00104407, 0.08383902, 0.01442183, -0.006974231, 0.0005187925, -0.996148, -0.07611731
 271030711, 0.2301278, 0.04040885, -0.01877623, 0.00104407, 0.08416364, 0.01502825, -0.007858392, 0.0005187925, -0.9958511, -0.07791937
 271231464, 0.2318298, 0.04181617, -0.0209583, 0.001046232, 0.08509683, 0.0155732, -0.008384899, 0.0005209541, -0.9955342, -0.07973945
 271431384, 0.2329721, 0.0425062, -0.02244392, 0.001046232, 0.08549201, 0.01570897, -0.008948949, 0.0005187925, -0.9951879, -0.08176253
 271631304, 0.2348133, 0.04238473, -0.02364963, 0.00104407, 0.08631437, 0.01520113, -0.00967044, 0.0005187925, -0.9948159, -0.08379649
 271831224, 0.2368077, 0.04246896, -0.02564789, 0.00104407, 0.0866982, 0.0159561, -0.0103459, 0.0005187925, -0.9944146, -0.08576661
 272031144, 0.2379958, 0.04373992, -0.02717986, 0.00104407, 0.08733956, 0.01610078, -0.01059713, 0.0005187925, -0.9939883, -0.08774
 272231064, 0.2401666, 0.04470439, -0.0284534, 0.00104407, 0.08845332, 0.01667448, -0.01123311, 0.0005187925, -0.9935411, -0.08967644
 272430984, 0.2423799, 0.04570829, -0.03024116, 0.00104407, 0.08882618, 0.01657915, -0.01180863, 0.0005187925, -0.9930768, -0.091608
 272630904, 0.2437178, 0.04614825, -0.03200018, 0.00104407, 0.08920693, 0.01725861, -0.01299036, 0.0005187925, -0.9925977, -0.09340859
 272830824, 0.2448654, 0.04717508, -0.03395168, 0.00104407, 0.09011406, 0.01754311, -0.01326519, 0.0005187925, -0.9921052, -0.09518558
 273030744, 0.2471931, 0.04744976, -0.03509415, 0.00104407, 0.0915497, 0.01718584, -0.01393588, 0.0005187925, -0.991602, -0.09689071
 273230664, 0.2501911, 0.04782204, -0.03729818, 0.00104407, 0.09205437, 0.01777842, -0.01451962, 0.0005187925, -0.9910753, -0.09847008
 273431417, 0.2528539, 0.0490055, -0.039177, 0.001046232, 0.09359527, 0.01799589, -0.01569545, 0.0005209541, -0.9905295, -0.1001603
 273631337, 0.2549127, 0.04931868, -0.04161911, 0.001046232, 0.09361059, 0.01795675, -0.01638552, 0.0005187925, -0.9899744, -0.1017497
 273831257, 0.2562067, 0.04940905, -0.04386053, 0.00104407, 0.0944817, 0.01840633, -0.01703963, 0.0005187925, -0.9893963, -0.103208
 274031177, 0.2592871, 0.0506971, -0.04568171, 0.00104407, 0.09607738, 0.01872279, -0.01799782, 0.0005187925, -0.9887941, -0.1046223
 274231097, 0.2631733, 0.05178815, -0.04817663, 0.00104407, 0.0973359, 0.01898925, -0.01889206, 0.0005187925, -0.9881757, -0.1060892
 274431017, 0.2662029, 0.0521413, -0.05042397, 0.00104407, 0.09807199, 0.01919003, -0.01961966, 0.0005187925, -0.9875395, -0.1075901
 274630937, 0.2688499, 0.05268534, -0.05247005, 0.00104407, 0.09976204, 0.01943193, -0.02084388, 0.0005187925, -0.9868853, -0.1089834
 274830857, 0.2724928, 0.05351175, -0.05539177, 0.00104407, 0.100879, 0.01988442, -0.021658, 0.0005187925, -0.9862116, -0.1103338
 275030777, 0.2755224, 0.05490748, -0.05811196, 0.00104407, 0.101661, 0.02005539, -0.02261513, 0.0005187925, -0.9855134, -0.1115703
 275230697, 0.2775313, 0.05636545, -0.06091063, 0.00104407, 0.1026864, 0.02129599, -0.02383723, 0.0005187925, -0.9847986, -0.1127878
 275431450, 0.2809908, 0.05871592, -0.06317915, 0.001046232, 0.103867, 0.02150289, -0.02413406, 0.0005209541, -0.9840733, -0.1141399
 275631370, 0.2838794, 0.05900271, -0.0653689, 0.001046232, 0.1050119, 0.02139919, -0.02536454, 0.0005187925, -0.9833554, -0.115492
 275831290, 0.2721737, 0.05920006, -0.0738009, 0.00104407, 0.08944462, 0.02198071, -0.03238013, 0.0005187925, -0.9827322, -0.1178188
 276031210, 0.1875062, 0.06194313, -0.09446019, 0.00104407, 0.03796776, 0.02357801, -0.03918815, 0.0005187925, -0.9823535, -0.1206828
 276231130, 0.03025999, 0.06562321, -0.1062584, 0.00104407, -0.02483956, 0.0245143, -0.03983463, 0.0005187925, -0.9822861, -0.1230917
 276431050, -0.1286348, 0.06632695, -0.1022675, 0.00104407, -0.07407515, 0.02355555, -0.03648092, 0.0005187925, -0.9825562, -0.1241914
 276630970, -0.2431983, 0.0623584, -0.09234288, 0.00104407, -0.106067, 0.02151347, -0.03261649, 0.0005187925, -0.9830576, -0.1242467
 276830890, -0.3141277, 0.05607845, -0.08530988, 0.00104407, -0.1242129, 0.01917282, -0.03168803, 0.0005187925, -0.9836392, -0.1235525
 277030810, -0.3587527, 0.05088943, -0.08435265, 0.00104407, -0.1378058, 0.01791601, -0.03213788, 0.0005187925, -0.984124, -0.1227963
 277230730, -0.3956488, 0.04786482, -0.08587649, 0.00104407, -0.1513986, 0.0171248, -0.03258995, 0.0005187925, -0.9843915, -0.1226559
 277431483, -0.4328369, 0.04749145, -0.08677575, 0.001046232, -0.1653457, 0.01780349, -0.03253029, 0.0005209541, -0.9843708, -0.1234806
 277631403, -0.4669421, 0.04935112, -0.08320048, 0.001046232, -0.1761004, 0.01860533, -0.02911679, 0.0005187925, -0.9840504, -0.1251925
 277831323, -0.4951749, 0.05241748, -0.0733307, 0.00104407, -0.1851079, 0.01957786, -0.02471101, 0.0005187925, -0.9834619, -0.1277012
 278031243, -0.5163478, 0.05535802, -0.05911789, 0.00104407, -0.1911798, 0.02098215, -0.01875666, 0.0005187925, -0.9826905, -0.1307007
 278231163, -0.5287151, 0.0581674, -0.04146949, 0.00104407, -0.1937757, 0.02149587, -0.01084367, 0.0005187925, -0.9818298, -0.1338015
 278431083, -0.5311744, 0.05963157, -0.01951279, 0.00104407, -0.1922869, 0.02187565, -0.002726298, 0.0005187925, -0.9809479, -0.1367399
 278631003, -0.5223978, 0.05950749, 0.003316372, 0.00104407, -0.1872704, 0.02172065, 0.00620035, 0.0005187925, -0.9800992, -0.1393518
 278830923, -0.5049851, 0.05863597, 0.02629975, 0.00104407, -0.1782693, 0.02100786, 0.01357669, 0.0005187925, -0.9793097, -0.141559
 279030843, -0.48009, 0.05654547, 0.04638635, 0.00104407, -0.169576, 0.01984232, 0.02064719, 0.0005187925, -0.9785702, -0.1435175
 279230763, -0.4526113, 0.05345645, 0.06472561, 0.00104407, -0.1581752, 0.01884009, 0.02707789, 0.0005187925, -0.9778341, -0.1453529
 279430683, -0.4200823, 0.05077628, 0.07992213, 0.00104407, -0.145029, 0.01833008, 0.03149585, 0.0005187925, -0.9770544, -0.1470889
 279631436, -0.3854249, 0.0488905, 0.0900595, 0.001046232, -0.1329557, 0.01737173, 0.03397275, 0.0005209541, -0.9761814, -0.1490723
 279831356, -0.3500407, 0.047114, 0.09496782, 0.001046232, -0.1200925, 0.01702106, 0.03528828, 0.0005187925, -0.9751682, -0.1511793
 280031276, -0.3143725, 0.04698684, 0.09509016, 0.00104407, -0.1073122, 0.01738076, 0.03424599, 0.0005187925, -0.9740284, -0.1535909
