TimeUS,CGpN,CGpE,CGpD,CGpe,PGpN,PGpE,PGpD,PGpe
 170558416, 0, 0, 0, 0.05, 0, 0, 0, 0
 170630887, 0, 0, 0, 0.05, 0, 0, 0, 0.05
 170830807, 0, 0, 0, 0.05, 0, 0, 0, 0.05
 171030727, 0, 0, 0, 0.05, 0, 0, 0, 0.05
 171231480, 0, 0, 0, 0.05, 0, 0, 0, 0.05
 171431400, 0, 0, 0, 0.05, 0, 0, 0, 0.05
 171631320, 0, 0, 0, 0.05, 0, 0, 0, 0.05
 171831240, 0, 0, 0, 0.05, 0, 0, 0, 0.05
 172031160, 0, 0, 0, 0.05, 0, 0, 0, 0.05
 172231080, 0, 0, 0, 0.05, 0, 0, 0, 0.05
 172431000, 0, 0, 0, 0.05, 0, 0, 0, 0.05
 172630920, 0, 0, 0, 0.05, 0, 0, 0, 0.05
 172830840, 0, 0, 0, 0.05, 0, 0, 0, 0.05
 173030760, 0, 0, 0, 0.05, 0, 0, 0, 0.05
 173230680, 0, 0, 0, 0.05, 0, 0, 0, 0.05
 173431433, 0, 0, 0, 0.05, 0, 0, 0, 0.05
 173631353, 0, 0, 0, 0.05, 0, 0, 0, 0.05
 173831273, 0, 0, 0, 0.05, 0, 0, 0, 0.05
 174031193, 0, 0, 0, 0.05, 0, 0, 0, 0.05
 174231113, 0, 0, 0, 0.05, 0, 0, 0, 0.05
 174431033, 0, 0, 0, 0.05, 0, 0, 0, 0.05
 174630953, 0, 0, 0, 0.05, 0, 0, 0, 0.05
 174830873, 0, 0, 0, 0.05, 0, 0, 0, 0.05
 175030793, 0, 0, 0, 0.05, 0, 0, 0, 0.05
 175230713, 0, 0, 0, 0.05, 0, 0, 0, 0.05
 175431466, 0, 0, 0, 0.05, 0, 0, 0, 0.05
 175631386, 0, 0, 0, 0.05, 0, 0, 0, 0.05
 175831306, 0, 0, 0, 0.05, 0, 0, 0, 0.05
 176031226, 0, 0, 0, 0.05, 0, 0, 0, 0.05
 176231146, 0, 0, 0, 0.05, 0, 0, 0, 0.05
 176431066, 0, 0, 0, 0.05, 0, 0, 0, 0.05
 176630986, 0, 0, 0, 0.05, 0, 0, 0, 0.05
 176830906, 0, 0, 0, 0.05, 0, 0, 0, 0.05
 177030826, 0, 0, 0, 0.05, 0, 0, 0, 0.05
 177230746, 0, 0, 0, 0.05, 0, 0, 0, 0.05
 177430666, 0, 0, 0, 0.05, 0, 0, 0, 0.05
 177631419, 0, 0, 0, 0.05, 0, 0, 0, 0.05
 177831339, 0, 0, 0, 0.05, 0, 0, 0, 0.05
 178031259, 0, 0, 0, 0.05, 0, 0, 0, 0.05
 178231179, 0, 0, 0, 0.05, 0, 0, 0, 0.05
 178431099, 0, 0, 0, 0.05, 0, 0, 0, 0.05
 178631019, 0, 0, 0, 0.05, 0, 0, 0, 0.05
 178830939, 0, 0, 0, 0.05, 0, 0, 0, 0.05
 179030859, 0, 0, 0, 0.05, 0, 0, 0, 0.05
 179230779, 0, 0, 0, 0.05, 0, 0, 0, 0.05
 179430699, 0, 0, 0, 0.05, 0, 0, 0, 0.05
 179631452, 0, 0, 0, 0.05, 0, 0, 0, 0.05
 179831372, 0, 0, 0, 0.05, 0, 0, 0, 0.05
 180031292, 0, 0, 0, 0.05, 0, 0, 0, 0.05
 180231212, 0, 0, 0, 0.05, 0, 0, 0, 0.05
 180431132, 0, 0, 0, 0.05, 0, 0, 0, 0.05
 180631052, 0, 0, 0, 0.05, 0, 0, 0, 0.05
 180830972, 0, 0, 0, 0.05, 0, 0, 0, 0.05
 181030892, 0, 0, 0, 0.05, 0, 0, 0, 0.05
 181230812, 0, 0, 0, 0.05, 0, 0, 0, 0.05
 181430732, 0, 0, 0, 0.05, 0, 0, 0, 0.05
 181631485, 0, 0, 0, 0.05, 0, 0, 0, 0.05
 181831405, 0, 0, 0, 0.05, 0, 0, 0, 0.05
 182031325, 0, 0, 0, 0.05, 0, 0, 0, 0.05
 182231245, 0, 0, 0, 0.05, 0, 0, 0, 0.05
 182431165, 0, 0, 0, 0.05, 0, 0, 0, 0.05
 182631085, 0, 0, 0, 0.05, 0, 0, 0, 0.05
 182831005, 0, 0, 0, 0.05, 0, 0, 0, 0.05
 183030925, 0, 0, 0, 0.05, 0, 0, 0, 0.05
 183230845, 0, 0, 0, 0.05, 0, 0, 0, 0.05
 183430765, 0, 0, 0, 0.05, 0, 0, 0, 0.05
 183630685, 0, 0, 0, 0.05, 0, 0, 0, 0.05
 183831438, 0, 0, 0, 0.05, 0, 0, 0, 0.05
 184031358, 0, 0, 0, 0.05, 0, 0, 0, 0.05
 184231278, 0, 0, 0, 0.05, 0, 0, 0, 0.05
 184431198, 0, 0, 0, 0.05, 0, 0, 0, 0.05
 184631118, 0, 0, 0, 0.05, 0, 0, 0, 0.05
 184831038, 0, 0, 0, 0.05, 0, 0, 0, 0.05
 185030958, 0, 0, 0, 0.05, 0, 0, 0, 0.05
 185230878, 0, 0, 0, 0.05, 0, 0, 0, 0.05
 185430798, 0, 0, 0, 0.05, 0, 0, 0, 0.05
 185630718, 0, 0, 0, 0.05, 0, 0, 0, 0.05
 185831471, 0, 0, 0, 0.05, 0, 0, 0, 0.05
 186031391, 0, 0, 0, 0.05, 0, 0, 0, 0.05
 186231311, 0, 0, 0, 0.05, 0, 0, 0, 0.05
 186431231, 0, 0, 0, 0.05, 0, 0, 0, 0.05
 186631151, 0, 0, 0, 0.05, 0, 0, 0, 0.05
 186831071, 0, 0, 0, 0.05, 0, 0, 0, 0.05
 187030991, 0, 0, 0, 0.05, 0, 0, 0, 0.05
 187230911, 0, 0, 0, 0.05, 0, 0, 0, 0.05
 187430831, 0, 0, 0, 0.05, 0, 0, 0, 0.05
 187630751, 0, 0, 0, 0.05, 0, 0, 0, 0.05
 187830671, 0, 0, 0, 0.05, 0, 0, 0, 0.05
 188031424, 0, 0, 0, 0.05, 0, 0, 0, 0.05
 188231344, 0, 0, 0, 0.05, 0, 0, 0, 0.05
 188431264, 0, 0, 0, 0.05, 0, 0, 0, 0.05
 188631184, 0, 0, 0, 0.05, 0, 0, 0, 0.05
 188831104, 0, 0, 0, 0.05, 0, 0, 0, 0.05
 189031024, 0, 0, 0, 0.05, 0, 0, 0, 0.05
 189230944, 0, 0, 0, 0.05, 0, 0, 0, 0.05
 189430864, 0, 0, 0, 0.05, 0, 0, 0, 0.05
 189630784, 0, 0, 0, 0.05, 0, 0, 0, 0.05
 189830704, 0, 0, 0, 0.05, 0, 0, 0, 0.05
 190031457, 0, 0, 0, 0.05, 0, 0, 0, 0.05
 190231377, 0, 0, 0, 0.05, 0, 0, 0, 0.05
 190431297, 0, 0, 0, 0.05, 0, 0, 0, 0.05
 190631217, 0, 0, 0, 0.05, 0, 0, 0, 0.05
 190831137, 0, 0, 0, 0.05, 0, 0, 0, 0.05
 191031057, 0, 0, 0, 0.05, 0, 0, 0, 0.05
 191230977, 0, 0, 0, 0.05, 0, 0, 0, 0.05
 191430897, 0, 0, 0, 0.05, 0, 0, 0, 0.05
 191630817, 0, 0, 0, 0.05, 0, 0, 0, 0.05
 191830737, 0, 0, 0, 0.05, 0, 0, 0, 0.05
 192030657, 0, 0, 0, 0.05, 0, 0, 0, 0.05
 192231410, 0, 0, 0, 0.05, 0, 0, 0, 0.05
 192431330, 0, 0, 0, 0.05, 0, 0, 0, 0.05
 192631250, 0, 0, 0, 0.05, 0, 0, 0, 0.05
 192831170, 0, 0, 0, 0.05, 0, 0, 0, 0.05
 193031090, 0, 0, 0, 0.05, 0, 0, 0, 0.05
 193231010, 0, 0, 0, 0.05, 0, 0, 0, 0.05
 193430930, 0, 0, 0, 0.05, 0, 0, 0, 0.05
 193630850, 0, 0, 0, 0.05, 0, 0, 0, 0.05
 193830770, 0, 0, 0, 0.05, 0, 0, 0, 0.05
 194030690, 0, 0, 0, 0.05, 0, 0, 0, 0.05
 194231443, 0, 0, 0, 0.05, 0, 0, 0, 0.05
 194431363, 0, 0, 0, 0.05, 0, 0, 0, 0.05
 194631283, 0, 0, 0, 0.05, 0, 0, 0, 0.05
 194831203, 0, 0, 0, 0.05, 0, 0, 0, 0.05
 195031123, 0, 0, 0, 0.05, 0, 0, 0, 0.05
 195231043, 0, 0, 0, 0.05, 0, 0, 0, 0.05
 195430963, 0, 0, 0, 0.05, 0, 0, 0, 0.05
 195630883, 0, 0, 0, 0.05, 0, 0, 0, 0.05
 195830803, 0, 0, 0, 0.05, 0, 0, 0, 0.05
 196030723, 0, 0, 0, 0.05, 0, 0, 0, 0.05
 196231476, 0, 0, 0, 0.05, 0, 0, 0, 0.05
 196431396, 0, 0, 0, 0.05, 0, 0, 0, 0.05
 196631316, 0, 0, 0, 0.05, 0, 0, 0, 0.05
 196831236, 0, 0, 0, 0.05, 0, 0, 0, 0.05
 197031156, 0, 0, 0, 0.05, 0, 0, 0, 0.05
 197231076, 0, 0, 0, 0.05, 0, 0, 0, 0.05
 197430996, 0, 0, 0, 0.05, 0, 0, 0, 0.05
 197630916, 0, 0, 0, 0.05, 0, 0, 0, 0.05
 197830836, 0, 0, 0, 0.05, 0, 0, 0, 0.05
 198030756, 0, 0, 0, 0.05, 0, 0, 0, 0.05
 198230676, 0, 0, 0, 0.05, 0, 0, 0, 0.05
 198431429, 0, 0, 0, 0.05, 0, 0, 0, 0.05
 198631349, 0, 0, 0, 0.05, 0, 0, 0, 0.05
 198831269, 0, 0, 0, 0.05, 0, 0, 0, 0.05
 199031189, 0, 0, 0, 0.05, 0, 0, 0, 0.05
 199231109, 0, 0, 0, 0.05, 0, 0, 0, 0.05
 199431029, 0, 0, 0, 0.05, 0, 0, 0, 0.05
 199630949, 0, 0, 0, 0.05, 0, 0, 0, 0.05
 199830869, 0, 0, 0, 0.05, 0, 0, 0, 0.05
 200030789, 0, 0, 0, 0.05, 0, 0, 0, 0.05
 200230709, 0, 0, 0, 0.05, 0, 0, 0, 0.05
 200431462, 0, 0, 0, 0.05, 0, 0, 0, 0.05
 200631382, 0, 0, 0, 0.05, 0, 0, 0, 0.05
 200831302, 0, 0, 0, 0.05, 0, 0, 0, 0.05
 201031222, 0, 0, 0, 0.05, 0, 0, 0, 0.05
 201231142, 0, 0, 0, 0.05, 0, 0, 0, 0.05
 201431062, 0, 0, 0, 0.05, 0, 0, 0, 0.05
 201630982, 0, 0, 0, 0.05, 0, 0, 0, 0.05
 201830902, 0, 0, 0, 0.05, 0, 0, 0, 0.05
 202030822, 0, 0, 0, 0.05, 0, 0, 0, 0.05
 202230742, 0, 0, 0, 0.05, 0, 0, 0, 0.05
 202430662, 0, 0, 0, 0.05, 0, 0, 0, 0.05
 202631415, 0, 0, 0, 0.05, 0, 0, 0, 0.05
 202831335, 0, 0, 0, 0.05, 0, 0, 0, 0.05
 203031255, 0, 0, 0, 0.05, 0, 0, 0, 0.05
 203231175, 0, 0, 0, 0.05, 0, 0, 0, 0.05
 203431095, 0, 0, 0, 0.05, 0, 0, 0, 0.05
 203631015, 0, 0, 0, 0.05, 0, 0, 0, 0.05
 203830935, 0, 0, 0, 0.05, 0, 0, 0, 0.05
 204030855, 0, 0, 0, 0.05, 0, 0, 0, 0.05
 204230775, 0, 0, 0, 0.05, 0, 0, 0, 0.05
 204430695, 0, 0, 0, 0.05, 0, 0, 0, 0.05
 204631448, 0, 0, 0, 0.05, 0, 0, 0, 0.05
 204831368, 0, 0, 0, 0.05, 0, 0, 0, 0.05
 205031288, 0, 0, 0, 0.05, 0, 0, 0, 0.05
 205231208, 0, 0, 0, 0.05, 0, 0, 0, 0.05
 205431128, 0, 0, 0, 0.05, 0, 0, 0, 0.05
 205631048, 0, 0, 0, 0.05, 0, 0, 0, 0.05
 205830968, 0, 0, 0, 0.05, 0, 0, 0, 0.05
 206030888, 0, 0, 0, 0.05, 0, 0, 0, 0.05
 206230808, 0, 0, 0, 0.05, 0, 0, 0, 0.05
 206430728, 0, 0, 0, 0.05, 0, 0, 0, 0.05
 206631481, 0, 0, 0, 0.05, 0, 0, 0, 0.05
 206831401, 0, 0, 0, 0.05, 0, 0, 0, 0.05
 207031321, 0, 0, 0, 0.05, 0, 0, 0, 0.05
 207231241, 0, 0, 0, 0.05, 0, 0, 0, 0.05
 207431161, 0, 0, 0, 0.05, 0, 0, 0, 0.05
 207631081, 0, 0, 0, 0.05, 0, 0, 0, 0.05
 207831001, 0, 0, 0, 0.05, 0, 0, 0, 0.05
 208030921, 0, 0, 0, 0.05, 0, 0, 0, 0.05
 208230841, 0, 0, 0, 0.05, 0, 0, 0, 0.05
 208430761, 0, 0, 0, 0.05, 0, 0, 0, 0.05
 208630681, 0, 0, 0, 0.05, 0, 0, 0, 0.05
 208831434, 0, 0, 0, 0.05, 0, 0, 0, 0.05
 209031354, 0, 0, 0, 0.05, 0, 0, 0, 0.05
 209231274, 0, 0, 0, 0.05, 0, 0, 0, 0.05
 209431194, 0, 0, 0, 0.05, 0, 0, 0, 0.05
 209631114, 0, 0, 0, 0.05, 0, 0, 0, 0.05
 209831034, 0, 0, 0, 0.05, 0, 0, 0, 0.05
 210030954, 0, 0, 0, 0.05, 0, 0, 0, 0.05
 210230874, 0, 0, 0, 0.05, 0, 0, 0, 0.05
 210430794, 0, 0, 0, 0.05, 0, 0, 0, 0.05
 210630714, 0, 0, 0, 0.05, 0, 0, 0, 0.05
 210831467, 0, 0, 0, 0.05, 0, 0, 0, 0.05
 211031387, 0, 0, 0, 0.05, 0, 0, 0, 0.05
 211231307, 0, 0, 0, 0.05, 0, 0, 0, 0.05
 211431227, 0, 0, 0, 0.05, 0, 0, 0, 0.05
 211631147, 0, 0, 0, 0.05, 0, 0, 0, 0.05
 211831067, 0, 0, 0, 0.05, 0, 0, 0, 0.05
 212030987, 0, 0, 0, 0.05, 0, 0, 0, 0.05
 212230907, 0, 0, 0, 0.05, 0, 0, 0, 0.05
 212430827, 0, 0, 0, 0.05, 0, 0, 0, 0.05
 212630747, 0, 0, 0, 0.05, 0, 0, 0, 0.05
 212830667, 0, 0, 0, 0.05, 0, 0, 0, 0.05
 213031420, 0, 0, 0, 0.05, 0, 0, 0, 0.05
 213231340, 0, 0, 0, 0.05, 0, 0, 0, 0.05
 213431260, 0, 0, 0, 0.05, 0, 0, 0, 0.05
 213631180, 0, 0, 0, 0.05, 0, 0, 0, 0.05
 213831100, 0, 0, 0, 0.05, 0, 0, 0, 0.05
 214031020, 0, 0, 0, 0.05, 0, 0, 0, 0.05
 214230940, 0, 0, 0, 0.05, 0, 0, 0, 0.05
 214430860, 0, 0, 0, 0.05, 0, 0, 0, 0.05
 214630780, 0, 0, 0, 0.05, 0, 0, 0, 0.05
 214830700, 0, 0, 0, 0.05, 0, 0, 0, 0.05
 215031453, 0, 0, 0, 0.05, 0, 0, 0, 0.05
 215231373, 0, 0, 0, 0.05, 0, 0, 0, 0.05
 215431293, 0, 0, 0, 0.05, 0, 0, 0, 0.05
 215631213, 0, 0, 0, 0.05, 0, 0, 0, 0.05
 215831133, 0, 0, 0, 0.05, 0, 0, 0, 0.05
 216031053, 0, 0, 0, 0.05, 0, 0, 0, 0.05
 216230973, 0, 0, 0, 0.05, 0, 0, 0, 0.05
 216430893, 0, 0, 0, 0.05, 0, 0, 0, 0.05
 216630813, 0, 0, 0, 0.05, 0, 0, 0, 0.05
 216830733, 0, 0, 0, 0.05, 0, 0, 0, 0.05
 217031486, 0, 0, 0, 0.05, 0, 0, 0, 0.05
 217231406, 0, 0, 0, 0.05, 0, 0, 0, 0.05
 217431326, 0, 0, 0, 0.05, 0, 0, 0, 0.05
 217631246, 0, 0, 0, 0.05, 0, 0, 0, 0.05
 217831166, 0, 0, 0, 0.05, 0, 0, 0, 0.05
 218031086, 0, 0, 0, 0.05, 0, 0, 0, 0.05
 218231006, 0, 0, 0, 0.05, 0, 0, 0, 0.05
 218430926, 0, 0, 0, 0.05, 0, 0, 0, 0.05
 218630846, 0, 0, 0, 0.05, 0, 0, 0, 0.05
 218830766, 0, 0, 0, 0.05, 0, 0, 0, 0.05
 219030686, 0, 0, 0, 0.05, 0, 0, 0, 0.05
 219231439, 0, 0, 0, 0.05, 0, 0, 0, 0.05
 219431359, 0, 0, 0, 0.05, 0, 0, 0, 0.05
 219631279, 0, 0, 0, 0.05, 0, 0, 0, 0.05
 219831199, 0, 0, 0, 0.05, 0, 0, 0, 0.05
 220031119, 0, 0, 0, 0.05, 0, 0, 0, 0.05
 220231039, 0, 0, 0, 0.05, 0, 0, 0, 0.05
 220430959, 0, 0, 0, 0.05, 0, 0, 0, 0.05
 220630879, 0, 0, 0, 0.05, 0, 0, 0, 0.05
 220830799, 0, 0, 0, 0.05, 0, 0, 0, 0.05
 221030719, 0, 0, 0, 0.05, 0, 0, 0, 0.05
 221231472, 0, 0, 0, 0.05, 0, 0, 0, 0.05
 221431392, 0, 0, 0, 0.05, 0, 0, 0, 0.05
 221631312, 0, 0, 0, 0.05, 0, 0, 0, 0.05
 221831232, 0, 0, -0.062, 0.05, 0, 0, 0, 0.05
 222031152, 0, 0, -0.317, 0.05, 0, 0, -0.062, 0.05
 222231072, 0, 0, -0.224, 0.05, 0, 0, -0.317, 0.05
 222430992, 0, 0, -0.583, 0.05, 0, 0, -0.224, 0.05
 222630912, -0.008, -0.008, -1.825, 0.05, 0, 0, -0.583, 0.05
 222830832, -0.022, -0.024, -2.129, 0.05, -0.008, -0.008, -1.825, 0.05
 223030752, -0.037, -0.04, -2.271, 0.05, -0.022, -0.024, -2.129, 0.05
 223230672, -0.05, -0.055, -2.516, 0.05, -0.037, -0.04, -2.271, 0.05
 223431425, -0.062, -0.067, -2.733, 0.05, -0.05, -0.055, -2.516, 0.05
 223631345, -0.072, -0.07700001, -2.907, 0.05, -0.062, -0.067, -2.733, 0.05
 223831265, -0.08000001, -0.08400001, -3.062, 0.05, -0.072, -0.07700001, -2.907, 0.05
 224031185, -0.087, -0.089, -3.199, 0.05, -0.08000001, -0.08400001, -3.062, 0.05
 224231105, -0.093, -0.093, -3.32, 0.05, -0.087, -0.089, -3.199, 0.05
 224431025, -0.098, -0.096, -3.425, 0.05, -0.093, -0.093, -3.32, 0.05
 224630945, -0.102, -0.098, -3.518, 0.05, -0.098, -0.096, -3.425, 0.05
 224830865, -0.106, -0.09900001, -3.599, 0.05, -0.102, -0.098, -3.518, 0.05
 225030785, -0.108, -0.1, -3.669, 0.05, -0.106, -0.09900001, -3.599, 0.05
 225230705, -0.11, -0.102, -3.731, 0.05, -0.108, -0.1, -3.669, 0.05
 225431458, -0.112, -0.104, -3.786, 0.05, -0.11, -0.102, -3.731, 0.05
 225631378, -0.111, -0.104, -3.402, 0.05, -0.112, -0.104, -3.786, 0.05
 225831298, -0.109, -0.104, -2.886, 0.05, -0.111, -0.104, -3.402, 0.05
 226031218, -0.107, -0.105, -2.436, 0.05, -0.109, -0.104, -2.886, 0.05
 226231138, -0.106, -0.106, -2.04, 0.05, -0.107, -0.105, -2.436, 0.05
 226431058, -0.105, -0.108, -1.742, 0.05, -0.106, -0.106, -2.04, 0.05
 226630978, -0.101, -0.107, -1.554, 0.05, -0.105, -0.108, -1.742, 0.05
 226830898, -0.032, -0.09200001, -1.439, 0.05, -0.101, -0.107, -1.554, 0.05
 227030818, 0.159, -0.043, -1.376, 0.05, -0.032, -0.09200001, -1.439, 0.05
 227230738, 0.447, 0.047, -1.345, 0.05, 0.159, -0.043, -1.376, 0.05
 227430658, 0.7450001, 0.157, -1.342, 0.05, 0.447, 0.047, -1.345, 0.05
 227631411, 0.9900001, 0.229, -1.365, 0.05, 0.7450001, 0.157, -1.342, 0.05
 227831331, 1.193, 0.253, -1.405, 0.05, 0.9900001, 0.229, -1.365, 0.05
 228031251, 1.386, 0.306, -1.469, 0.05, 1.193, 0.253, -1.405, 0.05
 228231171, 1.588, 0.379, -1.559, 0.05, 1.386, 0.306, -1.469, 0.05
 228431091, 1.808, 0.399, -1.664, 0.05, 1.588, 0.379, -1.559, 0.05
 228631011, 2.046, 0.346, -1.763, 0.05, 1.808, 0.399, -1.664, 0.05
 228830931, 2.268, 0.253, -1.851, 0.05, 2.046, 0.346, -1.763, 0.05
 229030851, 2.437, 0.167, -1.926, 0.05, 2.268, 0.253, -1.851, 0.05
 229230771, 2.562, 0.09200001, -1.982, 0.05, 2.437, 0.167, -1.926, 0.05
 229430691, 2.69, -0.002, -2.024, 0.05, 2.562, 0.09200001, -1.982, 0.05
 229631444, 2.824, -0.106, -2.063, 0.05, 2.69, -0.002, -2.024, 0.05
 229831364, 2.926, -0.166, -2.102, 0.05, 2.824, -0.106, -2.063, 0.05
 230031284, 3.001, -0.134, -2.135, 0.05, 2.926, -0.166, -2.102, 0.05
 230231204, 3.094, -0.033, -2.157, 0.05, 3.001, -0.134, -2.135, 0.05
 230431124, 3.194, 0.083, -2.161, 0.05, 3.094, -0.033, -2.157, 0.05
 230631044, 3.258, 0.192, -2.142, 0.05, 3.194, 0.083, -2.161, 0.05
 230830964, 3.28, 0.261, -2.104, 0.05, 3.258, 0.192, -2.142, 0.05
 231030884, 3.302, 0.282, -2.06, 0.05, 3.28, 0.261, -2.104, 0.05
 231230804, 3.34, 0.278, -2.022, 0.05, 3.302, 0.282, -2.06, 0.05
 231430724, 3.377, 0.27, -1.994, 0.05, 3.34, 0.278, -2.022, 0.05
 231631477, 3.399, 0.275, -1.977, 0.05, 3.377, 0.27, -1.994, 0.05
 231831397, 3.41, 0.283, -1.963, 0.05, 3.399, 0.275, -1.977, 0.05
 232031317, 3.423, 0.276, -1.965, 0.05, 3.41, 0.283, -1.963, 0.05
 232231237, 3.434, 0.267, -1.983, 0.05, 3.423, 0.276, -1.965, 0.05
 232431157, 3.432, 0.283, -2.002, 0.05, 3.434, 0.267, -1.983, 0.05
 232631077, 3.422, 0.341, -2.01, 0.05, 3.432, 0.283, -2.002, 0.05
 232830997, 3.416, 0.42, -2.022, 0.05, 3.422, 0.341, -2.01, 0.05
 233030917, 3.411, 0.479, -2.024, 0.05, 3.416, 0.42, -2.022, 0.05
 233230837, 3.405, 0.488, -1.989, 0.05, 3.411, 0.479, -2.024, 0.05
 233430757, 3.415, 0.45, -1.975, 0.05, 3.405, 0.488, -1.989, 0.05
 233630677, 3.43, 0.385, -1.974, 0.05, 3.415, 0.45, -1.975, 0.05
 233831430, 3.44, 0.333, -1.984, 0.05, 3.43, 0.385, -1.974, 0.05
 234031350, 3.443, 0.304, -1.993, 0.05, 3.44, 0.333, -1.984, 0.05
 234231270, 3.447, 0.27, -1.998, 0.05, 3.443, 0.304, -1.993, 0.05
 234431190, 3.456, 0.206, -1.998, 0.05, 3.447, 0.27, -1.998, 0.05
 234631110, 3.466, 0.142, -2, 0.05, 3.456, 0.206, -1.998, 0.05
 234831030, 3.472, 0.102, -1.997, 0.05, 3.466, 0.142, -2, 0.05
 235030950, 3.476, 0.105, -1.992, 0.05, 3.472, 0.102, -1.997, 0.05
 235230870, 3.478, 0.158, -1.982, 0.05, 3.476, 0.105, -1.992, 0.05
 235430790, 3.478, 0.225, -1.97, 0.05, 3.478, 0.158, -1.982, 0.05
 235630710, 3.48, 0.269, -1.96, 0.05, 3.478, 0.225, -1.97, 0.05
 235831463, 3.487, 0.277, -1.966, 0.05, 3.48, 0.269, -1.96, 0.05
 236031383, 3.49, 0.263, -1.977, 0.05, 3.487, 0.277, -1.966, 0.05
 236231303, 3.489, 0.224, -1.985, 0.05, 3.49, 0.263, -1.977, 0.05
 236431223, 3.49, 0.172, -1.995, 0.05, 3.489, 0.224, -1.985, 0.05
 236631143, 3.49, 0.129, -2.006, 0.05, 3.49, 0.172, -1.995, 0.05
 236831063, 3.488, 0.11, -2.013, 0.05, 3.49, 0.129, -2.006, 0.05
 237030983, 3.486, 0.09900001, -2.017, 0.05, 3.488, 0.11, -2.013, 0.05
 237230903, 3.487, 0.089, -2.02, 0.05, 3.486, 0.09900001, -2.017, 0.05
 237430823, 3.486, 0.089, -2.021, 0.05, 3.487, 0.089, -2.02, 0.05
 237630743, 3.485, 0.093, -2.022, 0.05, 3.486, 0.089, -2.021, 0.05
 237830663, 3.482, 0.105, -2.017, 0.05, 3.485, 0.093, -2.022, 0.05
 238031416, 3.481, 0.127, -2.003, 0.05, 3.482, 0.105, -2.017, 0.05
 238231336, 3.486, 0.134, -1.99, 0.05, 3.481, 0.127, -2.003, 0.05
 238431256, 3.494, 0.106, -1.98, 0.05, 3.486, 0.134, -1.99, 0.05
 238631176, 3.498, 0.086, -1.975, 0.05, 3.494, 0.106, -1.98, 0.05
 238831096, 3.498, 0.09200001, -1.976, 0.05, 3.498, 0.086, -1.975, 0.05
 239031016, 3.498, 0.106, -1.981, 0.05, 3.498, 0.09200001, -1.976, 0.05
 239230936, 3.498, 0.112, -1.99, 0.05, 3.498, 0.106, -1.981, 0.05
 239430856, 3.496, 0.112, -1.995, 0.05, 3.498, 0.112, -1.99, 0.05
 239630776, 3.493, 0.115, -1.995, 0.05, 3.496, 0.112, -1.995, 0.05
 239830696, 3.494, 0.123, -2, 0.05, 3.493, 0.115, -1.995, 0.05
 240031449, 3.495, 0.129, -2.02, 0.05, 3.494, 0.123, -2, 0.05
 240231369, 3.487, 0.123, -2.034, 0.05, 3.495, 0.129, -2.02, 0.05
 240431289, 3.477, 0.108, -2.028, 0.05, 3.487, 0.123, -2.034, 0.05
 240631209, 3.477, 0.104, -2.003, 0.05, 3.477, 0.108, -2.028, 0.05
 240831129, 3.488, 0.111, -1.974, 0.05, 3.477, 0.104, -2.003, 0.05
 241031049, 3.499, 0.107, -1.952, 0.05, 3.488, 0.111, -1.974, 0.05
 241230969, 3.505, 0.075, -1.936, 0.05, 3.499, 0.107, -1.952, 0.05
 241430889, 3.507, 0.031, -1.928, 0.05, 3.505, 0.075, -1.936, 0.05
 241630809, 3.507, 0.006, -1.916, 0.05, 3.507, 0.031, -1.928, 0.05
 241830729, 3.512, 0.021, -1.915, 0.05, 3.507, 0.006, -1.916, 0.05
 242031482, 3.515, 0.066, -1.922, 0.05, 3.512, 0.021, -1.915, 0.05
 242231402, 3.513, 0.113, -1.938, 0.05, 3.515, 0.066, -1.922, 0.05
 242431322, 3.506, 0.141, -1.947, 0.05, 3.513, 0.113, -1.938, 0.05
 242631242, 3.502, 0.151, -1.95, 0.05, 3.506, 0.141, -1.947, 0.05
 242831162, 3.506, 0.147, -1.962, 0.05, 3.502, 0.151, -1.95, 0.05
 243031082, 3.506, 0.14, -1.975, 0.05, 3.506, 0.147, -1.962, 0.05
 243231002, 3.499, 0.157, -1.987, 0.05, 3.506, 0.14, -1.975, 0.05
 243430922, 3.492, 0.193, -2.001, 0.05, 3.499, 0.157, -1.987, 0.05
 243630842, 3.486, 0.231, -2.026, 0.05, 3.492, 0.193, -2.001, 0.05
 243830762, 3.475, 0.251, -2.042, 0.05, 3.486, 0.231, -2.026, 0.05
 244030682, 3.468, 0.245, -2.06, 0.05, 3.475, 0.251, -2.042, 0.05
 244231435, 3.462, 0.245, -2.083, 0.05, 3.468, 0.245, -2.06, 0.05
 244431355, 3.451, 0.268, -2.091, 0.05, 3.462, 0.245, -2.083, 0.05
 244631275, 3.444, 0.305, -2.093, 0.05, 3.451, 0.268, -2.091, 0.05
 244831195, 3.443, 0.334, -2.093, 0.05, 3.444, 0.305, -2.093, 0.05
 245031115, 3.442, 0.364, -2.094, 0.05, 3.443, 0.334, -2.093, 0.05
 245231035, 3.438, 0.39, -2.094, 0.05, 3.442, 0.364, -2.094, 0.05
 245430955, 3.435, 0.395, -2.099, 0.05, 3.438, 0.39, -2.094, 0.05
 245630875, 3.434, 0.378, -2.102, 0.05, 3.435, 0.395, -2.099, 0.05
 245830795, 3.434, 0.33, -2.101, 0.05, 3.434, 0.378, -2.102, 0.05
 246030715, 3.436, 0.263, -2.095, 0.05, 3.434, 0.33, -2.101, 0.05
 246231468, 3.439, 0.216, -2.087, 0.05, 3.436, 0.263, -2.095, 0.05
 246431388, 3.443, 0.201, -2.076, 0.05, 3.439, 0.216, -2.087, 0.05
 246631308, 3.447, 0.198, -2.06, 0.05, 3.443, 0.201, -2.076, 0.05
 246831228, 3.452, 0.179, -2.036, 0.05, 3.447, 0.198, -2.06, 0.05
 247031148, 3.462, 0.158, -2.01, 0.05, 3.452, 0.179, -2.036, 0.05
 247231068, 3.474, 0.172, -1.995, 0.05, 3.462, 0.158, -2.01, 0.05
 247430988, 3.481, 0.198, -1.988, 0.05, 3.474, 0.172, -1.995, 0.05
 247630908, 3.483, 0.185, -1.985, 0.05, 3.481, 0.198, -1.988, 0.05
 247830828, 3.487, 0.135, -1.982, 0.05, 3.483, 0.185, -1.985, 0.05
 248030748, 3.493, 0.087, -1.99, 0.05, 3.487, 0.135, -1.982, 0.05
 248230668, 3.494, 0.09200001, -1.999, 0.05, 3.493, 0.087, -1.99, 0.05
 248431421, 3.491, 0.14, -2.008, 0.05, 3.494, 0.09200001, -1.999, 0.05
 248631341, 3.476, 0.192, -1.971, 0.05, 3.491, 0.14, -2.008, 0.05
 248831261, 3.387, 0.235, -1.826, 0.05, 3.476, 0.192, -1.971, 0.05
 249031181, 3.201, 0.257, -1.627, 0.05, 3.387, 0.235, -1.826, 0.05
 249231101, 2.998, 0.279, -1.389, 0.05, 3.201, 0.257, -1.627, 0.05
 249431021, 2.823, 0.303, -1.108, 0.05, 2.998, 0.279, -1.389, 0.05
 249630941, 2.712, 0.309, -0.791, 0.05, 2.823, 0.303, -1.108, 0.05
 249830861, 2.685, 0.293, -0.495, 0.05, 2.712, 0.309, -0.791, 0.05
 250030781, 2.699, 0.283, -0.243, 0.05, 2.685, 0.293, -0.495, 0.05
 250230701, 2.729, 0.293, -0.039, 0.05, 2.699, 0.283, -0.243, 0.05
 250431454, 2.778, 0.316, 0.12, 0.05, 2.729, 0.293, -0.039, 0.05
 250631374, 2.856, 0.322, 0.238, 0.05, 2.778, 0.316, 0.12, 0.05
 250831294, 2.964, 0.315, 0.322, 0.05, 2.856, 0.322, 0.238, 0.05
 251031214, 3.089, 0.29, 0.379, 0.05, 2.964, 0.315, 0.322, 0.05
 251231134, 3.214, 0.221, 0.415, 0.05, 3.089, 0.29, 0.379, 0.05
 251431054, 3.33, 0.127, 0.438, 0.05, 3.214, 0.221, 0.415, 0.05
 251630974, 3.439, 0.067, 0.453, 0.05, 3.33, 0.127, 0.438, 0.05
 251830894, 3.556, 0.04, 0.464, 0.05, 3.439, 0.067, 0.453, 0.05
 252030814, 3.674, 0.011, 0.471, 0.05, 3.556, 0.04, 0.464, 0.05
 252230734, 3.781, -0.014, 0.475, 0.05, 3.674, 0.011, 0.471, 0.05
 252430654, 3.874, -0.029, 0.478, 0.05, 3.781, -0.014, 0.475, 0.05
 252631407, 3.951, -0.052, 0.481, 0.05, 3.874, -0.029, 0.478, 0.05
 252831327, 4.016, -0.09500001, 0.484, 0.05, 3.951, -0.052, 0.481, 0.05
 253031247, 4.078, -0.128, 0.487, 0.05, 4.016, -0.09500001, 0.484, 0.05
 253231167, 4.134, -0.132, 0.488, 0.05, 4.078, -0.128, 0.487, 0.05
 253431087, 4.171, -0.131, 0.488, 0.05, 4.134, -0.132, 0.488, 0.05
 253631007, 4.194, -0.155, 0.488, 0.05, 4.171, -0.131, 0.488, 0.05
 253830927, 4.222, -0.186, 0.49, 0.05, 4.194, -0.155, 0.488, 0.05
 254030847, 4.261, -0.183, 0.491, 0.05, 4.222, -0.186, 0.49, 0.05
 254230767, 4.301, -0.149, 0.49, 0.05, 4.261, -0.183, 0.491, 0.05
 254430687, 4.338, -0.104, 0.489, 0.05, 4.301, -0.149, 0.49, 0.05
 254631440, 4.373, -0.063, 0.488, 0.05, 4.338, -0.104, 0.489, 0.05
 254831360, 4.415, -0.038, 0.488, 0.05, 4.373, -0.063, 0.488, 0.05
 255031280, 4.465, -0.025, 0.488, 0.05, 4.415, -0.038, 0.488, 0.05
 255231200, 4.515, -0.018, 0.487, 0.05, 4.465, -0.025, 0.488, 0.05
 255431120, 4.56, -0.002, 0.485, 0.05, 4.515, -0.018, 0.487, 0.05
 255631040, 4.596, 0.024, 0.484, 0.05, 4.56, -0.002, 0.485, 0.05
 255830960, 4.617, 0.036, 0.482, 0.05, 4.596, 0.024, 0.484, 0.05
 256030880, 4.631, 0.026, 0.481, 0.05, 4.617, 0.036, 0.482, 0.05
 256230800, 4.658, 0.019, 0.482, 0.05, 4.631, 0.026, 0.481, 0.05
 256430720, 4.692, 0.027, 0.483, 0.05, 4.658, 0.019, 0.482, 0.05
 256631473, 4.724, 0.032, 0.482, 0.05, 4.692, 0.027, 0.483, 0.05
 256831393, 4.754, 0.015, 0.483, 0.05, 4.724, 0.032, 0.482, 0.05
 257031313, 4.783, 0.003, 0.482, 0.05, 4.754, 0.015, 0.483, 0.05
 257231233, 4.807, 0.023, 0.479, 0.05, 4.783, 0.003, 0.482, 0.05
 257431153, 4.826, 0.058, 0.467, 0.05, 4.807, 0.023, 0.479, 0.05
 257631073, 4.837, 0.08400001, 0.449, 0.05, 4.826, 0.058, 0.467, 0.05
 257830993, 4.842, 0.1, 0.434, 0.05, 4.837, 0.08400001, 0.449, 0.05
 258030913, 4.845, 0.116, 0.427, 0.05, 4.842, 0.1, 0.434, 0.05
 258230833, 4.843, 0.108, 0.43, 0.05, 4.845, 0.116, 0.427, 0.05
 258430753, 4.835, 0.08000001, 0.437, 0.05, 4.843, 0.108, 0.43, 0.05
 258630673, 4.819, 0.056, 0.444, 0.05, 4.835, 0.08000001, 0.437, 0.05
 258831426, 4.801, 0.051, 0.453, 0.05, 4.819, 0.056, 0.444, 0.05
 259031346, 4.793, 0.059, 0.462, 0.05, 4.801, 0.051, 0.453, 0.05
 259231266, 4.796, 0.06500001, 0.468, 0.05, 4.793, 0.059, 0.462, 0.05
 259431186, 4.796, 0.06500001, 0.472, 0.05, 4.796, 0.06500001, 0.468, 0.05
 259631106, 4.785, 0.061, 0.474, 0.05, 4.796, 0.06500001, 0.472, 0.05
 259831026, 4.781, 0.044, 0.477, 0.05, 4.785, 0.061, 0.474, 0.05
 260030946, 4.785, 0.009000001, 0.48, 0.05, 4.781, 0.044, 0.477, 0.05
 260230866, 4.79, -0.02, 0.48, 0.05, 4.785, 0.009000001, 0.48, 0.05
 260430786, 4.794, -0.027, 0.479, 0.05, 4.79, -0.02, 0.48, 0.05
 260630706, 4.799, -0.02, 0.475, 0.05, 4.794, -0.027, 0.479, 0.05
 260831459, 4.797, -0.012, 0.473, 0.05, 4.799, -0.02, 0.475, 0.05
 261031379, 4.79, 0.001, 0.473, 0.05, 4.797, -0.012, 0.473, 0.05
 261231299, 4.788, 0.012, 0.474, 0.05, 4.79, 0.001, 0.473, 0.05
 261431219, 4.796, 0.002, 0.471, 0.05, 4.788, 0.012, 0.474, 0.05
 261631139, 4.801, -0.023, 0.47, 0.05, 4.796, 0.002, 0.471, 0.05
 261831059, 4.799, -0.047, 0.47, 0.05, 4.801, -0.023, 0.47, 0.05
 262030979, 4.795, -0.079, 0.471, 0.05, 4.799, -0.047, 0.47, 0.05
 262230899, 4.788, -0.111, 0.472, 0.05, 4.795, -0.079, 0.471, 0.05
 262430819, 4.772, -0.12, 0.473, 0.05, 4.788, -0.111, 0.472, 0.05
 262630739, 4.753, -0.11, 0.475, 0.05, 4.772, -0.12, 0.473, 0.05
 262830659, 4.754, -0.09500001, 0.478, 0.05, 4.753, -0.11, 0.475, 0.05
 263031412, 4.774, -0.085, 0.479, 0.05, 4.754, -0.09500001, 0.478, 0.05
 263231332, 4.799, -0.09100001, 0.473, 0.05, 4.774, -0.085, 0.479, 0.05
 263431252, 4.809, -0.103, 0.466, 0.05, 4.799, -0.09100001, 0.473, 0.05
 263631172, 4.808, -0.106, 0.462, 0.05, 4.809, -0.103, 0.466, 0.05
 263831092, 4.807, -0.112, 0.458, 0.05, 4.808, -0.106, 0.462, 0.05
 264031012, 4.819, -0.117, 0.453, 0.05, 4.807, -0.112, 0.458, 0.05
 264230932, 4.824, -0.114, 0.451, 0.05, 4.819, -0.117, 0.453, 0.05
 264430852, 4.824, -0.102, 0.453, 0.05, 4.824, -0.114, 0.451, 0.05
 264630772, 4.825, -0.085, 0.454, 0.05, 4.824, -0.102, 0.453, 0.05
 264830692, 4.826, -0.07300001, 0.457, 0.05, 4.825, -0.085, 0.454, 0.05
 265031445, 4.828, -0.072, 0.461, 0.05, 4.826, -0.07300001, 0.457, 0.05
 265231365, 4.831, -0.07600001, 0.464, 0.05, 4.828, -0.072, 0.461, 0.05
 265431285, 4.833, -0.082, 0.461, 0.05, 4.831, -0.07600001, 0.464, 0.05
 265631205, 4.836, -0.08400001, 0.459, 0.05, 4.833, -0.082, 0.461, 0.05
 265831125, 4.835, -0.081, 0.46, 0.05, 4.836, -0.08400001, 0.459, 0.05
 266031045, 4.828, -0.08000001, 0.462, 0.05, 4.835, -0.081, 0.46, 0.05
 266230965, 4.811, -0.072, 0.466, 0.05, 4.828, -0.08000001, 0.462, 0.05
 266430885, 4.798, -0.067, 0.469, 0.05, 4.811, -0.072, 0.466, 0.05
 266630805, 4.79, -0.062, 0.474, 0.05, 4.798, -0.067, 0.469, 0.05
 266830725, 4.791, -0.051, 0.478, 0.05, 4.79, -0.062, 0.474, 0.05
 267031478, 4.805, -0.041, 0.481, 0.05, 4.791, -0.051, 0.478, 0.05
 267231398, 4.809, -0.038, 0.481, 0.05, 4.805, -0.041, 0.481, 0.05
 267431318, 4.823, -0.033, 0.478, 0.05, 4.809, -0.038, 0.481, 0.05
 267631238, 4.836, -0.023, 0.475, 0.05, 4.823, -0.033, 0.478, 0.05
 267831158, 4.834, -0.016, 0.474, 0.05, 4.836, -0.023, 0.475, 0.05
 268031078, 4.821, -0.034, 0.474, 0.05, 4.834, -0.016, 0.474, 0.05
 268230998, 4.808, -0.072, 0.476, 0.05, 4.821, -0.034, 0.474, 0.05
 268430918, 4.813, -0.11, 0.479, 0.05, 4.808, -0.072, 0.476, 0.05
 268630838, 4.819, -0.126, 0.48, 0.05, 4.813, -0.11, 0.479, 0.05
 268830758, 4.817, -0.114, 0.481, 0.05, 4.819, -0.126, 0.48, 0.05
 269030678, 4.814, -0.07600001, 0.481, 0.05, 4.817, -0.114, 0.481, 0.05
 269231431, 4.817, -0.041, 0.482, 0.05, 4.814, -0.07600001, 0.481, 0.05
 269431351, 4.825, -0.014, 0.482, 0.05, 4.817, -0.041, 0.482, 0.05
 269631271, 4.827, 0.009000001, 0.462, 0.05, 4.825, -0.014, 0.482, 0.05
 269831191, 4.807, 0.033, 0.39, 0.05, 4.827, 0.009000001, 0.462, 0.05
 270031111, 4.706, 0.054, 0.305, 0.05, 4.807, 0.033, 0.39, 0.05
 270231031, 4.552, 0.08000001, 0.289, 0.05, 4.706, 0.054, 0.305, 0.05
 270430951, 4.453, 0.117, 0.332, 0.05, 4.552, 0.08000001, 0.289, 0.05
 270630871, 4.441, 0.16, 0.395, 0.05, 4.453, 0.117, 0.332, 0.05
 270830791, 4.457, 0.179, 0.454, 0.05, 4.441, 0.16, 0.395, 0.05
 271030711, 4.464, 0.162, 0.506, 0.05, 4.457, 0.179, 0.454, 0.05
 271231464, 4.457, 0.135, 0.549, 0.05, 4.464, 0.162, 0.506, 0.05
 271431384, 4.449, 0.124, 0.5840001, 0.05, 4.457, 0.135, 0.549, 0.05
 271631304, 4.452, 0.118, 0.61, 0.05, 4.449, 0.124, 0.5840001, 0.05
 271831224, 4.474, 0.098, 0.628, 0.05, 4.452, 0.118, 0.61, 0.05
 272031144, 4.497, 0.074, 0.634, 0.05, 4.474, 0.098, 0.628, 0.05
 272231064, 4.511, 0.059, 0.625, 0.05, 4.497, 0.074, 0.634, 0.05
 272430984, 4.514, 0.049, 0.608, 0.05, 4.511, 0.059, 0.625, 0.05
 272630904, 4.512, 0.045, 0.598, 0.05, 4.514, 0.049, 0.608, 0.05
 272830824, 4.512, 0.044, 0.595, 0.05, 4.512, 0.045, 0.598, 0.05
 273030744, 4.515, 0.047, 0.594, 0.05, 4.512, 0.044, 0.595, 0.05
 273230664, 4.52, 0.05, 0.59, 0.05, 4.515, 0.047, 0.594, 0.05
 273431417, 4.521, 0.055, 0.587, 0.05, 4.52, 0.05, 0.59, 0.05
 273631337, 4.523, 0.064, 0.583, 0.05, 4.521, 0.055, 0.587, 0.05
 273831257, 4.526, 0.09, 0.577, 0.05, 4.523, 0.064, 0.583, 0.05
 274031177, 4.53, 0.121, 0.573, 0.05, 4.526, 0.09, 0.577, 0.05
 274231097, 4.532, 0.131, 0.568, 0.05, 4.53, 0.121, 0.573, 0.05
 274431017, 4.533, 0.133, 0.559, 0.05, 4.532, 0.131, 0.568, 0.05
 274630937, 4.536, 0.125, 0.552, 0.05, 4.533, 0.133, 0.559, 0.05
 274830857, 4.53, 0.112, 0.56, 0.05, 4.536, 0.125, 0.552, 0.05
 275030777, 4.526, 0.097, 0.569, 0.05, 4.53, 0.112, 0.56, 0.05
 275230697, 4.527, 0.079, 0.577, 0.05, 4.526, 0.097, 0.569, 0.05
 275431450, 4.522, 0.059, 0.591, 0.05, 4.527, 0.079, 0.577, 0.05
 275631370, 4.515, 0.044, 0.604, 0.05, 4.522, 0.059, 0.591, 0.05
 275831290, 4.522, 0.035, 0.609, 0.05, 4.515, 0.044, 0.604, 0.05
 276031210, 4.526, 0.027, 0.608, 0.05, 4.522, 0.035, 0.609, 0.05
 276231130, 4.523, 0.009000001, 0.611, 0.05, 4.526, 0.027, 0.608, 0.05
 276431050, 4.519, -0.002, 0.609, 0.05, 4.523, 0.009000001, 0.611, 0.05
 276630970, 4.519, 0.002, 0.608, 0.05, 4.519, -0.002, 0.609, 0.05
 276830890, 4.509, 0.012, 0.611, 0.05, 4.519, 0.002, 0.608, 0.05
 277030810, 4.518, 0.024, 0.604, 0.05, 4.509, 0.012, 0.611, 0.05
 277230730, 4.531, 0.049, 0.595, 0.05, 4.518, 0.024, 0.604, 0.05
 277431483, 4.533, 0.082, 0.581, 0.05, 4.531, 0.049, 0.595, 0.05
 277631403, 4.533, 0.101, 0.56, 0.05, 4.533, 0.082, 0.581, 0.05
 277831323, 4.533, 0.09200001, 0.543, 0.05, 4.533, 0.101, 0.56, 0.05
 278031243, 4.531, 0.07, 0.537, 0.05, 4.533, 0.09200001, 0.543, 0.05
 278231163, 4.529, 0.068, 0.543, 0.05, 4.531, 0.07, 0.537, 0.05
 278431083, 4.528, 0.081, 0.5560001, 0.05, 4.529, 0.068, 0.543, 0.05
 278631003, 4.53, 0.102, 0.568, 0.05, 4.528, 0.081, 0.5560001, 0.05
 278830923, 4.531, 0.118, 0.5790001, 0.05, 4.53, 0.102, 0.568, 0.05
 279030843, 4.531, 0.122, 0.587, 0.05, 4.531, 0.118, 0.5790001, 0.05
 279230763, 4.531, 0.125, 0.5930001, 0.05, 4.531, 0.122, 0.587, 0.05
 279430683, 4.532, 0.122, 0.592, 0.05, 4.531, 0.125, 0.5930001, 0.05
 279631436, 4.527, 0.09900001, 0.599, 0.05, 4.532, 0.122, 0.592, 0.05
 279831356, 4.517, 0.071, 0.609, 0.05, 4.527, 0.09900001, 0.599, 0.05
 280031276, 4.505, 0.07600001, 0.62, 0.05, 4.517, 0.071, 0.609, 0.05
 280231196, 4.507, 0.111, 0.629, 0.05, 4.505, 0.07600001, 0.62, 0.05
 280431116, 4.522, 0.147, 0.626, 0.05, 4.507, 0.111, 0.629, 0.05
 280631036, 4.533, 0.171, 0.609, 0.05, 4.522, 0.147, 0.626, 0.05
 280830956, 4.53, 0.191, 0.59, 0.05, 4.533, 0.171, 0.609, 0.05
 281030876, 4.527, 0.203, 0.578, 0.05, 4.53, 0.191, 0.59, 0.05
 281230796, 4.526, 0.188, 0.574, 0.05, 4.527, 0.203, 0.578, 0.05
 281430716, 4.524, 0.146, 0.576, 0.05, 4.526, 0.188, 0.574, 0.05
 281631469, 4.517, 0.108, 0.586, 0.05, 4.524, 0.146, 0.576, 0.05
 281831389, 4.513, 0.093, 0.595, 0.05, 4.517, 0.108, 0.586, 0.05
 282031309, 4.515, 0.087, 0.595, 0.05, 4.513, 0.093, 0.595, 0.05
 282231229, 4.517, 0.07300001, 0.591, 0.05, 4.515, 0.087, 0.595, 0.05
 282431149, 4.509, 0.048, 0.594, 0.05, 4.517, 0.07300001, 0.591, 0.05
 282631069, 4.511, 0.037, 0.5840001, 0.05, 4.509, 0.048, 0.594, 0.05
 282830989, 4.526, 0.037, 0.563, 0.05, 4.511, 0.037, 0.5840001, 0.05
 283030909, 4.528, 0.022, 0.545, 0.05, 4.526, 0.037, 0.563, 0.05
 283230829, 4.522, -0.003, 0.538, 0.05, 4.528, 0.022, 0.545, 0.05
 283430749, 4.507, -0.02, 0.5470001, 0.05, 4.522, -0.003, 0.538, 0.05
 283630669, 4.506, -0.024, 0.559, 0.05, 4.507, -0.02, 0.5470001, 0.05
 283831422, 4.522, -0.006, 0.568, 0.05, 4.506, -0.024, 0.559, 0.05
 284031342, 4.531, 0.019, 0.574, 0.05, 4.522, -0.006, 0.568, 0.05
 284231262, 4.529, 0.034, 0.5790001, 0.05, 4.531, 0.019, 0.574, 0.05
 284431182, 4.527, 0.041, 0.586, 0.05, 4.529, 0.034, 0.5790001, 0.05
 284631102, 4.529, 0.045, 0.59, 0.05, 4.527, 0.041, 0.586, 0.05
 284831022, 4.533, 0.048, 0.591, 0.05, 4.529, 0.045, 0.59, 0.05
 285030942, 4.532, 0.052, 0.591, 0.05, 4.533, 0.048, 0.591, 0.05
 285230862, 4.526, 0.04, 0.6, 0.05, 4.532, 0.052, 0.591, 0.05
 285430782, 4.518, 0.017, 0.61, 0.05, 4.526, 0.04, 0.6, 0.05
 285630702, 4.518, 0, 0.617, 0.05, 4.518, 0.017, 0.61, 0.05
 285831455, 4.52, -0.008, 0.6210001, 0.05, 4.518, 0, 0.617, 0.05
 286031375, 4.52, -0.015, 0.6210001, 0.05, 4.52, -0.008, 0.6210001, 0.05
 286231295, 4.543, -0.03, 0.538, 0.05, 4.52, -0.015, 0.6210001, 0.05
 286431215, 4.589, -0.053, 0.355, 0.05, 4.543, -0.03, 0.538, 0.05
 286631135, 4.626, -0.07300001, 0.147, 0.05, 4.589, -0.053, 0.355, 0.05
 286831055, 4.648, -0.074, -0.051, 0.05, 4.626, -0.07300001, 0.147, 0.05
 287030975, 4.666, -0.058, -0.223, 0.05, 4.648, -0.074, -0.051, 0.05
 287230895, 4.677, -0.043, -0.361, 0.05, 4.666, -0.058, -0.223, 0.05
 287430815, 4.674, -0.042, -0.466, 0.05, 4.677, -0.043, -0.361, 0.05
 287630735, 4.674, -0.054, -0.539, 0.05, 4.674, -0.042, -0.466, 0.05
 287830655, 4.681, -0.061, -0.588, 0.05, 4.674, -0.054, -0.539, 0.05
 288031408, 4.69, -0.061, -0.619, 0.05, 4.681, -0.061, -0.588, 0.05
 288231328, 4.7, -0.058, -0.637, 0.05, 4.69, -0.061, -0.619, 0.05
 288431248, 4.71, -0.058, -0.648, 0.05, 4.7, -0.058, -0.637, 0.05
 288631168, 4.709, -0.06, -0.654, 0.05, 4.71, -0.058, -0.648, 0.05
 288831088, 4.701, -0.061, -0.6580001, 0.05, 4.709, -0.06, -0.654, 0.05
 289031008, 4.691, -0.071, -0.66, 0.05, 4.701, -0.061, -0.6580001, 0.05
 289230928, 4.7, -0.082, -0.66, 0.05, 4.691, -0.071, -0.66, 0.05
 289430848, 4.725, -0.09, -0.661, 0.05, 4.7, -0.082, -0.66, 0.05
 289630768, 4.743, -0.103, -0.665, 0.05, 4.725, -0.09, -0.661, 0.05
 289830688, 4.748, -0.11, -0.668, 0.05, 4.743, -0.103, -0.665, 0.05
 290031441, 4.751, -0.111, -0.669, 0.05, 4.748, -0.11, -0.668, 0.05
 290231361, 4.763, -0.1, -0.67, 0.05, 4.751, -0.111, -0.669, 0.05
 290431281, 4.775, -0.062, -0.6720001, 0.05, 4.763, -0.1, -0.67, 0.05
 290631201, 4.78, -0.029, -0.673, 0.05, 4.775, -0.062, -0.6720001, 0.05
 290831121, 4.793, -0.038, -0.673, 0.05, 4.78, -0.029, -0.673, 0.05
 291031041, 4.815, -0.064, -0.673, 0.05, 4.793, -0.038, -0.673, 0.05
 291230961, 4.838, -0.074, -0.674, 0.05, 4.815, -0.064, -0.673, 0.05
 291430881, 4.861, -0.068, -0.674, 0.05, 4.838, -0.074, -0.674, 0.05
 291630801, 4.882, -0.064, -0.674, 0.05, 4.861, -0.068, -0.674, 0.05
 291830721, 4.899, -0.074, -0.674, 0.05, 4.882, -0.064, -0.674, 0.05
 292031474, 4.916, -0.094, -0.673, 0.05, 4.899, -0.074, -0.674, 0.05
 292231394, 4.926, -0.09900001, -0.673, 0.05, 4.916, -0.094, -0.673, 0.05
 292431314, 4.923, -0.098, -0.673, 0.05, 4.926, -0.09900001, -0.673, 0.05
 292631234, 4.922, -0.081, -0.6720001, 0.05, 4.923, -0.098, -0.673, 0.05
 292831154, 4.927, -0.044, -0.671, 0.05, 4.922, -0.081, -0.6720001, 0.05
 293031074, 4.933, 0.001, -0.671, 0.05, 4.927, -0.044, -0.671, 0.05
 293230994, 4.937, 0.021, -0.671, 0.05, 4.933, 0.001, -0.671, 0.05
 293430914, 4.948, 0.01, -0.67, 0.05, 4.937, 0.021, -0.671, 0.05
 293630834, 4.964, -0.007, -0.67, 0.05, 4.948, 0.01, -0.67, 0.05
 293830754, 4.972, -0.025, -0.671, 0.05, 4.964, -0.007, -0.67, 0.05
 294030674, 4.967, -0.035, -0.6720001, 0.05, 4.972, -0.025, -0.671, 0.05
 294231427, 4.956, -0.036, -0.671, 0.05, 4.967, -0.035, -0.6720001, 0.05
 294431347, 4.953, -0.021, -0.668, 0.05, 4.956, -0.036, -0.671, 0.05
 294631267, 4.962, -0.004, -0.6670001, 0.05, 4.953, -0.021, -0.668, 0.05
 294831187, 4.976, 0.006, -0.6670001, 0.05, 4.962, -0.004, -0.6670001, 0.05
 295031107, 4.98, -0.004, -0.669, 0.05, 4.976, 0.006, -0.6670001, 0.05
 295231027, 4.971, -0.027, -0.67, 0.05, 4.98, -0.004, -0.669, 0.05
 295430947, 4.96, -0.053, -0.67, 0.05, 4.971, -0.027, -0.67, 0.05
 295630867, 4.952, -0.081, -0.669, 0.05, 4.96, -0.053, -0.67, 0.05
 295830787, 4.946, -0.09500001, -0.669, 0.05, 4.952, -0.081, -0.669, 0.05
 296030707, 4.936, -0.087, -0.669, 0.05, 4.946, -0.09500001, -0.669, 0.05
 296231460, 4.922, -0.067, -0.67, 0.05, 4.936, -0.087, -0.669, 0.05
 296431380, 4.909, -0.044, -0.669, 0.05, 4.922, -0.067, -0.67, 0.05
 296631300, 4.904, -0.02, -0.6670001, 0.05, 4.909, -0.044, -0.669, 0.05
 296831220, 4.91, 0, -0.666, 0.05, 4.904, -0.02, -0.6670001, 0.05
 297031140, 4.923, 0.002, -0.665, 0.05, 4.91, 0, -0.666, 0.05
 297231060, 4.929, -0.023, -0.666, 0.05, 4.923, 0.002, -0.665, 0.05
 297430980, 4.937, -0.06, -0.6670001, 0.05, 4.929, -0.023, -0.666, 0.05
 297630900, 4.939, -0.072, -0.6670001, 0.05, 4.937, -0.06, -0.6670001, 0.05
 297830820, 4.947, -0.05, -0.6670001, 0.05, 4.939, -0.072, -0.6670001, 0.05
 298030740, 4.948, -0.044, -0.668, 0.05, 4.947, -0.05, -0.6670001, 0.05
 298230660, 4.951, -0.07600001, -0.6670001, 0.05, 4.948, -0.044, -0.668, 0.05
 298431413, 4.967, -0.1, -0.656, 0.05, 4.951, -0.07600001, -0.6670001, 0.05
 298631333, 4.986, -0.079, -0.649, 0.05, 4.967, -0.1, -0.656, 0.05
 298831253, 5.015, -0.042, -0.649, 0.05, 4.986, -0.079, -0.649, 0.05
 299031173, 5.013, -0.028, -0.6530001, 0.05, 5.015, -0.042, -0.649, 0.05
 299231093, 4.982, -0.034, -0.656, 0.05, 5.013, -0.028, -0.6530001, 0.05
 299431013, 4.97, -0.041, -0.657, 0.05, 4.982, -0.034, -0.656, 0.05
 299630933, 4.966, -0.031, -0.66, 0.05, 4.97, -0.041, -0.657, 0.05
 299830853, 4.961, -0.002, -0.664, 0.05, 4.966, -0.031, -0.66, 0.05
 300030773, 4.942, 0.026, -0.666, 0.05, 4.961, -0.002, -0.664, 0.05
 300230693, 4.934, 0.042, -0.665, 0.05, 4.942, 0.026, -0.666, 0.05
 300431446, 4.938, 0.054, -0.664, 0.05, 4.934, 0.042, -0.665, 0.05
 300631366, 4.94, 0.07, -0.66, 0.05, 4.938, 0.054, -0.664, 0.05
 300831286, 4.934, 0.082, -0.654, 0.05, 4.94, 0.07, -0.66, 0.05
 301031206, 4.916, 0.098, -0.649, 0.05, 4.934, 0.082, -0.654, 0.05
 301231126, 4.912, 0.115, -0.642, 0.05, 4.916, 0.098, -0.649, 0.05
 301431046, 4.922, 0.115, -0.637, 0.05, 4.912, 0.115, -0.642, 0.05
 301630966, 4.946, 0.089, -0.634, 0.05, 4.922, 0.115, -0.637, 0.05
 301830886, 4.948, 0.059, -0.632, 0.05, 4.946, 0.089, -0.634, 0.05
 302030806, 4.949, 0.043, -0.6300001, 0.05, 4.948, 0.059, -0.632, 0.05
 302230726, 4.959, 0.028, -0.628, 0.05, 4.949, 0.043, -0.6300001, 0.05
 302431479, 4.964, -0.01, -0.625, 0.05, 4.959, 0.028, -0.628, 0.05
 302631399, 4.99, -0.059, -0.617, 0.05, 4.964, -0.01, -0.625, 0.05
 302831319, 5.014, -0.087, -0.611, 0.05, 4.99, -0.059, -0.617, 0.05
 303031239, 5.016, -0.085, -0.601, 0.05, 5.014, -0.087, -0.611, 0.05
 303231159, 5.014, -0.075, -0.588, 0.05, 5.016, -0.085, -0.601, 0.05
 303431079, 5.024, -0.07, -0.586, 0.05, 5.014, -0.075, -0.588, 0.05
 303630999, 5.031, -0.063, -0.591, 0.05, 5.024, -0.07, -0.586, 0.05
 303830919, 5.029, -0.062, -0.598, 0.05, 5.031, -0.063, -0.591, 0.05
 304030839, 5.026, -0.082, -0.603, 0.05, 5.029, -0.062, -0.598, 0.05
 304230759, 5.026, -0.123, -0.609, 0.05, 5.026, -0.082, -0.603, 0.05
 304430679, 5.014, -0.15, -0.615, 0.05, 5.026, -0.123, -0.609, 0.05
 304631432, 4.98, -0.141, -0.62, 0.05, 5.014, -0.15, -0.615, 0.05
 304831352, 4.965, -0.11, -0.622, 0.05, 4.98, -0.141, -0.62, 0.05
 305031272, 4.979, -0.09200001, -0.622, 0.05, 4.965, -0.11, -0.622, 0.05
 305231192, 4.996, -0.104, -0.624, 0.05, 4.979, -0.09200001, -0.622, 0.05
 305431112, 4.997, -0.115, -0.626, 0.05, 4.996, -0.104, -0.624, 0.05
 305631032, 5.012, -0.115, -0.625, 0.05, 4.997, -0.115, -0.626, 0.05
 305830952, 5.013, -0.123, -0.626, 0.05, 5.012, -0.115, -0.625, 0.05
 306030872, 4.983, -0.14, -0.627, 0.05, 5.013, -0.123, -0.626, 0.05
 306230792, 4.965, -0.147, -0.627, 0.05, 4.983, -0.14, -0.627, 0.05
 306430712, 4.966, -0.136, -0.626, 0.05, 4.965, -0.147, -0.627, 0.05
 306631465, 4.976, -0.119, -0.626, 0.05, 4.966, -0.136, -0.626, 0.05
 306831385, 4.993, -0.108, -0.627, 0.05, 4.976, -0.119, -0.626, 0.05
 307031305, 5.02, -0.116, -0.628, 0.05, 4.993, -0.108, -0.627, 0.05
 307231225, 5.014, -0.126, -0.6300001, 0.05, 5.02, -0.116, -0.628, 0.05
 307431145, 4.984, -0.11, -0.629, 0.05, 5.014, -0.126, -0.6300001, 0.05
 307631065, 4.998, -0.07600001, -0.627, 0.05, 4.984, -0.11, -0.629, 0.05
 307830985, 5.03, -0.044, -0.628, 0.05, 4.998, -0.07600001, -0.627, 0.05
 308030905, 5.025, -0.012, -0.6300001, 0.05, 5.03, -0.044, -0.628, 0.05
 308230825, 5.004, 0.035, -0.631, 0.05, 5.025, -0.012, -0.6300001, 0.05
 308430745, 4.97, 0.086, -0.6300001, 0.05, 5.004, 0.035, -0.631, 0.05
 308630665, 4.966, 0.135, -0.629, 0.05, 4.97, 0.086, -0.6300001, 0.05
 308831418, 4.955, 0.161, -0.6300001, 0.05, 4.966, 0.135, -0.629, 0.05
 309031338, 4.945, 0.157, -0.628, 0.05, 4.955, 0.161, -0.6300001, 0.05
 309231258, 4.943, 0.143, -0.628, 0.05, 4.945, 0.157, -0.628, 0.05
 309431178, 4.942, 0.134, -0.628, 0.05, 4.943, 0.143, -0.628, 0.05
 309631098, 4.938, 0.132, -0.629, 0.05, 4.942, 0.134, -0.628, 0.05
 309831018, 4.944, 0.131, -0.627, 0.05, 4.938, 0.132, -0.629, 0.05
 310030938, 4.966, 0.126, -0.627, 0.05, 4.944, 0.131, -0.627, 0.05
 310230858, 4.991, 0.114, -0.628, 0.05, 4.966, 0.126, -0.627, 0.05
 310430778, 4.991, 0.113, -0.631, 0.05, 4.991, 0.114, -0.628, 0.05
 310630698, 4.98, 0.138, -0.631, 0.05, 4.991, 0.113, -0.631, 0.05
 310831451, 4.972, 0.163, -0.6300001, 0.05, 4.98, 0.138, -0.631, 0.05
 311031371, 4.951, 0.161, -0.628, 0.05, 4.972, 0.163, -0.6300001, 0.05
 311231291, 4.977, 0.138, -0.6300001, 0.05, 4.951, 0.161, -0.628, 0.05
 311431211, 4.974, 0.131, -0.631, 0.05, 4.977, 0.138, -0.6300001, 0.05
 311631131, 4.931, 0.155, -0.632, 0.05, 4.974, 0.131, -0.631, 0.05
 311831051, 4.936, 0.182, -0.629, 0.05, 4.931, 0.155, -0.632, 0.05
 312030971, 4.96, 0.199, -0.629, 0.05, 4.936, 0.182, -0.629, 0.05
 312230891, 4.984, 0.211, -0.629, 0.05, 4.96, 0.199, -0.629, 0.05
 312430811, 4.997, 0.209, -0.6300001, 0.05, 4.984, 0.211, -0.629, 0.05
 312630731, 4.998, 0.2, -0.6300001, 0.05, 4.997, 0.209, -0.6300001, 0.05
 312831484, 4.987, 0.206, -0.631, 0.05, 4.998, 0.2, -0.6300001, 0.05
 313031404, 4.966, 0.216, -0.631, 0.05, 4.987, 0.206, -0.631, 0.05
 313231324, 4.941, 0.206, -0.631, 0.05, 4.966, 0.216, -0.631, 0.05
 313431244, 4.921, 0.185, -0.629, 0.05, 4.941, 0.206, -0.631, 0.05
 313631164, 4.915, 0.179, -0.627, 0.05, 4.921, 0.185, -0.629, 0.05
 313831084, 4.913, 0.166, -0.628, 0.05, 4.915, 0.179, -0.627, 0.05
 314031004, 4.9, 0.123, -0.6300001, 0.05, 4.913, 0.166, -0.628, 0.05
 314230924, 4.891, 0.082, -0.628, 0.05, 4.9, 0.123, -0.6300001, 0.05
 314430844, 4.885, 0.064, -0.627, 0.05, 4.891, 0.082, -0.628, 0.05
 314630764, 4.896, 0.059, -0.627, 0.05, 4.885, 0.064, -0.627, 0.05
 314830684, 4.911, 0.049, -0.628, 0.05, 4.896, 0.059, -0.627, 0.05
 315031437, 4.925, 0.034, -0.629, 0.05, 4.911, 0.049, -0.628, 0.05
 315231357, 4.93, 0.02, -0.628, 0.05, 4.925, 0.034, -0.629, 0.05
 315431277, 4.941, 0.009000001, -0.6300001, 0.05, 4.93, 0.02, -0.628, 0.05
 315631197, 4.947, -0.004, -0.627, 0.05, 4.941, 0.009000001, -0.6300001, 0.05
 315831117, 4.921, -0.013, -0.558, 0.05, 4.947, -0.004, -0.627, 0.05
 316031037, 4.83, -0.012, -0.465, 0.05, 4.921, -0.013, -0.558, 0.05
 316230957, 4.658, -0.001, -0.367, 0.05, 4.83, -0.012, -0.465, 0.05
 316430877, 4.475, 0.007, -0.228, 0.05, 4.658, -0.001, -0.367, 0.05
 316630797, 4.383, 0.013, -0.075, 0.05, 4.475, 0.007, -0.228, 0.05
 316830717, 4.377, 0.024, 0.058, 0.05, 4.383, 0.013, -0.075, 0.05
 317031470, 4.381, 0.027, 0.163, 0.05, 4.377, 0.024, 0.058, 0.05
 317231390, 4.367, 0.022, 0.241, 0.05, 4.381, 0.027, 0.163, 0.05
 317431310, 4.351, 0.013, 0.3, 0.05, 4.367, 0.022, 0.241, 0.05
 317631230, 4.354, -0.003, 0.344, 0.05, 4.351, 0.013, 0.3, 0.05
 317831150, 4.371, -0.035, 0.372, 0.05, 4.354, -0.003, 0.344, 0.05
 318031070, 4.377, -0.08000001, 0.389, 0.05, 4.371, -0.035, 0.372, 0.05
 318230990, 4.389, -0.109, 0.399, 0.05, 4.377, -0.08000001, 0.389, 0.05
 318430910, 4.403, -0.109, 0.406, 0.05, 4.389, -0.109, 0.399, 0.05
 318630830, 4.429, -0.108, 0.412, 0.05, 4.403, -0.109, 0.406, 0.05
 318830750, 4.473, -0.126, 0.415, 0.05, 4.429, -0.108, 0.412, 0.05
 319030670, 4.516, -0.136, 0.416, 0.05, 4.473, -0.126, 0.415, 0.05
 319231423, 4.551, -0.129, 0.417, 0.05, 4.516, -0.136, 0.416, 0.05
 319431343, 4.589, -0.124, 0.418, 0.05, 4.551, -0.129, 0.417, 0.05
 319631263, 4.627, -0.132, 0.419, 0.05, 4.589, -0.124, 0.418, 0.05
 319831183, 4.662, -0.159, 0.42, 0.05, 4.627, -0.132, 0.419, 0.05
 320031103, 4.689, -0.191, 0.421, 0.05, 4.662, -0.159, 0.42, 0.05
 320231023, 4.709, -0.212, 0.421, 0.05, 4.689, -0.191, 0.421, 0.05
 320430943, 4.727, -0.211, 0.422, 0.05, 4.709, -0.212, 0.421, 0.05
 320630863, 4.743, -0.194, 0.423, 0.05, 4.727, -0.211, 0.422, 0.05
 320830783, 4.755, -0.161, 0.423, 0.05, 4.743, -0.194, 0.423, 0.05
 321030703, 4.767, -0.141, 0.423, 0.05, 4.755, -0.161, 0.423, 0.05
 321231456, 4.77, -0.149, 0.422, 0.05, 4.767, -0.141, 0.423, 0.05
 321431376, 4.762, -0.161, 0.421, 0.05, 4.77, -0.149, 0.422, 0.05
 321631296, 4.753, -0.15, 0.422, 0.05, 4.762, -0.161, 0.421, 0.05
 321831216, 4.746, -0.119, 0.422, 0.05, 4.753, -0.15, 0.422, 0.05
 322031136, 4.738, -0.097, 0.421, 0.05, 4.746, -0.119, 0.422, 0.05
 322231056, 4.735, -0.089, 0.422, 0.05, 4.738, -0.097, 0.421, 0.05
 322430976, 4.75, -0.053, 0.424, 0.05, 4.735, -0.089, 0.422, 0.05
 322630896, 4.768, 0.009000001, 0.422, 0.05, 4.75, -0.053, 0.424, 0.05
 322830816, 4.778, 0.051, 0.42, 0.05, 4.768, 0.009000001, 0.422, 0.05
 323030736, 4.785, 0.056, 0.42, 0.05, 4.778, 0.051, 0.42, 0.05
 323230656, 4.811, 0.042, 0.422, 0.05, 4.785, 0.056, 0.42, 0.05
 323431409, 4.845, 0.027, 0.423, 0.05, 4.811, 0.042, 0.422, 0.05
 323631329, 4.865, 0.005, 0.419, 0.05, 4.845, 0.027, 0.423, 0.05
 323831249, 4.866, -0.005, 0.416, 0.05, 4.865, 0.005, 0.419, 0.05
 324031169, 4.863, 0.017, 0.417, 0.05, 4.866, -0.005, 0.416, 0.05
 324231089, 4.862, 0.075, 0.419, 0.05, 4.863, 0.017, 0.417, 0.05
 324431009, 4.862, 0.129, 0.418, 0.05, 4.862, 0.075, 0.419, 0.05
 324630929, 4.854, 0.138, 0.417, 0.05, 4.862, 0.129, 0.418, 0.05
 324830849, 4.849, 0.122, 0.42, 0.05, 4.854, 0.138, 0.417, 0.05
 325030769, 4.842, 0.121, 0.419, 0.05, 4.849, 0.122, 0.42, 0.05
 325230689, 4.836, 0.133, 0.419, 0.05, 4.842, 0.121, 0.419, 0.05
 325431442, 4.835, 0.134, 0.42, 0.05, 4.836, 0.133, 0.419, 0.05
 325631362, 4.838, 0.112, 0.419, 0.05, 4.835, 0.134, 0.42, 0.05
 325831282, 4.838, 0.08800001, 0.418, 0.05, 4.838, 0.112, 0.419, 0.05
 326031202, 4.832, 0.071, 0.418, 0.05, 4.838, 0.08800001, 0.418, 0.05
 326231122, 4.82, 0.051, 0.417, 0.05, 4.832, 0.071, 0.418, 0.05
 326431042, 4.796, 0.033, 0.416, 0.05, 4.82, 0.051, 0.417, 0.05
 326630962, 4.784, 0.022, 0.417, 0.05, 4.796, 0.033, 0.416, 0.05
 326830882, 4.784, 0.026, 0.418, 0.05, 4.784, 0.022, 0.417, 0.05
 327030802, 4.794, 0.051, 0.418, 0.05, 4.784, 0.026, 0.418, 0.05
 327230722, 4.809, 0.07300001, 0.419, 0.05, 4.794, 0.051, 0.418, 0.05
 327431475, 4.843, 0.064, 0.415, 0.05, 4.809, 0.07300001, 0.419, 0.05
 327631395, 4.851, 0.015, 0.408, 0.05, 4.843, 0.064, 0.415, 0.05
 327831315, 4.845, -0.047, 0.402, 0.05, 4.851, 0.015, 0.408, 0.05
 328031235, 4.839, -0.101, 0.401, 0.05, 4.845, -0.047, 0.402, 0.05
 328231155, 4.834, -0.134, 0.403, 0.05, 4.839, -0.101, 0.401, 0.05
 328431075, 4.832, -0.132, 0.406, 0.05, 4.834, -0.134, 0.403, 0.05
 328630995, 4.826, -0.109, 0.408, 0.05, 4.832, -0.132, 0.406, 0.05
 328830915, 4.817, -0.103, 0.411, 0.05, 4.826, -0.109, 0.408, 0.05
 329030835, 4.824, -0.13, 0.415, 0.05, 4.817, -0.103, 0.411, 0.05
 329230755, 4.829, -0.157, 0.416, 0.05, 4.824, -0.13, 0.415, 0.05
 329430675, 4.83, -0.157, 0.417, 0.05, 4.829, -0.157, 0.416, 0.05
 329631428, 4.831, -0.138, 0.42, 0.05, 4.83, -0.157, 0.417, 0.05
 329831348, 4.838, -0.12, 0.419, 0.05, 4.831, -0.138, 0.42, 0.05
 330031268, 4.838, -0.123, 0.418, 0.05, 4.838, -0.12, 0.419, 0.05
 330231188, 4.847, -0.137, 0.413, 0.05, 4.838, -0.123, 0.418, 0.05
 330431108, 4.855, -0.151, 0.404, 0.05, 4.847, -0.137, 0.413, 0.05
 330631028, 4.864, -0.142, 0.397, 0.05, 4.855, -0.151, 0.404, 0.05
 330830948, 4.868, -0.114, 0.395, 0.05, 4.864, -0.142, 0.397, 0.05
 331030868, 4.87, -0.09200001, 0.395, 0.05, 4.868, -0.114, 0.395, 0.05
 331230788, 4.872, -0.07600001, 0.396, 0.05, 4.87, -0.09200001, 0.395, 0.05
 331430708, 4.874, -0.054, 0.397, 0.05, 4.872, -0.07600001, 0.396, 0.05
 331631461, 4.879, -0.02, 0.396, 0.05, 4.874, -0.054, 0.397, 0.05
 331831381, 4.886, 0.02, 0.396, 0.05, 4.879, -0.02, 0.396, 0.05
 332031301, 4.899, 0.051, 0.397, 0.05, 4.886, 0.02, 0.396, 0.05
 332231221, 4.9, 0.055, 0.398, 0.05, 4.899, 0.051, 0.397, 0.05
 332431141, 4.873, 0.051, 0.398, 0.05, 4.9, 0.055, 0.398, 0.05
 332631061, 4.872, 0.06500001, 0.401, 0.05, 4.873, 0.051, 0.398, 0.05
 332830981, 4.898, 0.081, 0.404, 0.05, 4.872, 0.06500001, 0.401, 0.05
 333030901, 4.907, 0.072, 0.404, 0.05, 4.898, 0.081, 0.404, 0.05
 333230821, 4.866, 0.048, 0.401, 0.05, 4.907, 0.072, 0.404, 0.05
 333430741, 4.86, 0.017, 0.398, 0.05, 4.866, 0.048, 0.401, 0.05
 333630661, 4.868, -0.013, 0.397, 0.05, 4.86, 0.017, 0.398, 0.05
 333831414, 4.87, -0.033, 0.397, 0.05, 4.868, -0.013, 0.397, 0.05
 334031334, 4.863, -0.05, 0.398, 0.05, 4.87, -0.033, 0.397, 0.05
 334231254, 4.856, -0.08000001, 0.401, 0.05, 4.863, -0.05, 0.398, 0.05
 334431174, 4.855, -0.109, 0.405, 0.05, 4.856, -0.08000001, 0.401, 0.05
 334631094, 4.856, -0.11, 0.407, 0.05, 4.855, -0.109, 0.405, 0.05
 334831014, 4.857, -0.075, 0.407, 0.05, 4.856, -0.11, 0.407, 0.05
 335030934, 4.858, -0.036, 0.405, 0.05, 4.857, -0.075, 0.407, 0.05
 335230854, 4.859, -0.017, 0.402, 0.05, 4.858, -0.036, 0.405, 0.05
 335430774, 4.859, -0.018, 0.401, 0.05, 4.859, -0.017, 0.402, 0.05
 335630694, 4.861, -0.029, 0.394, 0.05, 4.859, -0.018, 0.401, 0.05
 335831447, 4.865, -0.048, 0.383, 0.05, 4.861, -0.029, 0.394, 0.05
 336031367, 4.867, -0.058, 0.377, 0.05, 4.865, -0.048, 0.383, 0.05
 336231287, 4.867, -0.048, 0.375, 0.05, 4.867, -0.058, 0.377, 0.05
 336431207, 4.868, -0.028, 0.374, 0.05, 4.867, -0.048, 0.375, 0.05
 336631127, 4.868, -0.003, 0.378, 0.05, 4.868, -0.028, 0.374, 0.05
 336831047, 4.868, 0.02, 0.383, 0.05, 4.868, -0.003, 0.378, 0.05
 337030967, 4.867, 0.042, 0.389, 0.05, 4.868, 0.02, 0.383, 0.05
 337230887, 4.867, 0.054, 0.394, 0.05, 4.867, 0.042, 0.389, 0.05
 337430807, 4.867, 0.053, 0.394, 0.05, 4.867, 0.054, 0.394, 0.05
 337630727, 4.868, 0.045, 0.393, 0.05, 4.867, 0.053, 0.394, 0.05
 337831480, 4.867, 0.033, 0.394, 0.05, 4.868, 0.045, 0.393, 0.05
 338031400, 4.861, 0.012, 0.397, 0.05, 4.867, 0.033, 0.394, 0.05
 338231320, 4.855, 0.007, 0.401, 0.05, 4.861, 0.012, 0.397, 0.05
 338431240, 4.846, 0.034, 0.405, 0.05, 4.855, 0.007, 0.401, 0.05
 338631160, 4.832, 0.07700001, 0.409, 0.05, 4.846, 0.034, 0.405, 0.05
 338831080, 4.833, 0.098, 0.411, 0.05, 4.832, 0.07700001, 0.409, 0.05
 339031000, 4.848, 0.09500001, 0.409, 0.05, 4.833, 0.098, 0.411, 0.05
 339230920, 4.854, 0.09500001, 0.406, 0.05, 4.848, 0.09500001, 0.409, 0.05
 339430840, 4.853, 0.09200001, 0.405, 0.05, 4.854, 0.09500001, 0.406, 0.05
 339630760, 4.851, 0.07600001, 0.373, 0.05, 4.853, 0.09200001, 0.405, 0.05
 339830680, 4.796, 0.059, 0.315, 0.05, 4.851, 0.07600001, 0.373, 0.05
 340031433, 4.658, 0.047, 0.322, 0.05, 4.796, 0.059, 0.315, 0.05
 340231353, 4.56, 0.027, 0.362, 0.05, 4.658, 0.047, 0.322, 0.05
 340431273, 4.539, 0.015, 0.412, 0.05, 4.56, 0.027, 0.362, 0.05
 340631193, 4.542, 0.037, 0.456, 0.05, 4.539, 0.015, 0.412, 0.05
 340831113, 4.54, 0.06900001, 0.492, 0.05, 4.542, 0.037, 0.456, 0.05
 341031033, 4.541, 0.072, 0.522, 0.05, 4.54, 0.06900001, 0.492, 0.05
 341230953, 4.562, 0.034, 0.5470001, 0.05, 4.541, 0.072, 0.522, 0.05
 341430873, 4.596, -0.02, 0.563, 0.05, 4.562, 0.034, 0.5470001, 0.05
 341630793, 4.631, -0.064, 0.565, 0.05, 4.596, -0.02, 0.563, 0.05
 341830713, 4.659, -0.08400001, 0.5560001, 0.05, 4.631, -0.064, 0.565, 0.05
 342031466, 4.669, -0.066, 0.548, 0.05, 4.659, -0.08400001, 0.5560001, 0.05
 342231386, 4.674, -0.022, 0.544, 0.05, 4.669, -0.066, 0.548, 0.05
 342431306, 4.681, 0.02, 0.5420001, 0.05, 4.674, -0.022, 0.544, 0.05
 342631226, 4.686, 0.061, 0.546, 0.05, 4.681, 0.02, 0.5420001, 0.05
 342831146, 4.684, 0.108, 0.551, 0.05, 4.686, 0.061, 0.546, 0.05
 343031066, 4.682, 0.157, 0.559, 0.05, 4.684, 0.108, 0.551, 0.05
 343230986, 4.684, 0.195, 0.566, 0.05, 4.682, 0.157, 0.559, 0.05
 343430906, 4.681, 0.21, 0.571, 0.05, 4.684, 0.195, 0.566, 0.05
 343630826, 4.67, 0.207, 0.575, 0.05, 4.681, 0.21, 0.571, 0.05
 343830746, 4.672, 0.199, 0.581, 0.05, 4.67, 0.207, 0.575, 0.05
 344030666, 4.686, 0.194, 0.5840001, 0.05, 4.672, 0.199, 0.581, 0.05
 344231419, 4.697, 0.184, 0.586, 0.05, 4.686, 0.194, 0.5840001, 0.05
 344431339, 4.696, 0.165, 0.586, 0.05, 4.697, 0.184, 0.586, 0.05
 344631259, 4.691, 0.164, 0.586, 0.05, 4.696, 0.165, 0.586, 0.05
 344831179, 4.69, 0.188, 0.586, 0.05, 4.691, 0.164, 0.586, 0.05
 345031099, 4.695, 0.2, 0.578, 0.05, 4.69, 0.188, 0.586, 0.05
 345231019, 4.699, 0.195, 0.565, 0.05, 4.695, 0.2, 0.578, 0.05
 345430939, 4.699, 0.197, 0.5560001, 0.05, 4.699, 0.195, 0.565, 0.05
 345630859, 4.699, 0.214, 0.55, 0.05, 4.699, 0.197, 0.5560001, 0.05
 345830779, 4.7, 0.217, 0.544, 0.05, 4.699, 0.214, 0.55, 0.05
 346030699, 4.701, 0.193, 0.536, 0.05, 4.7, 0.217, 0.544, 0.05
 346231452, 4.702, 0.164, 0.53, 0.05, 4.701, 0.193, 0.536, 0.05
 346431372, 4.696, 0.153, 0.534, 0.05, 4.702, 0.164, 0.53, 0.05
 346631292, 4.682, 0.146, 0.5420001, 0.05, 4.696, 0.153, 0.534, 0.05
 346831212, 4.661, 0.137, 0.551, 0.05, 4.682, 0.146, 0.5420001, 0.05
 347031132, 4.64, 0.122, 0.561, 0.05, 4.661, 0.137, 0.551, 0.05
 347231052, 4.629, 0.107, 0.5700001, 0.05, 4.64, 0.122, 0.561, 0.05
 347430972, 4.625, 0.094, 0.576, 0.05, 4.629, 0.107, 0.5700001, 0.05
 347630892, 4.615, 0.08000001, 0.58, 0.05, 4.625, 0.094, 0.576, 0.05
 347830812, 4.609, 0.058, 0.5840001, 0.05, 4.615, 0.08000001, 0.58, 0.05
 348030732, 4.62, 0.033, 0.587, 0.05, 4.609, 0.058, 0.5840001, 0.05
 348231485, 4.639, 0.013, 0.587, 0.05, 4.62, 0.033, 0.587, 0.05
 348431405, 4.665, -0.008, 0.586, 0.05, 4.639, 0.013, 0.587, 0.05
 348631325, 4.645, -0.041, 0.5840001, 0.05, 4.665, -0.008, 0.586, 0.05
 348831245, 4.604, -0.066, 0.5840001, 0.05, 4.645, -0.041, 0.5840001, 0.05
 349031165, 4.618, -0.086, 0.588, 0.05, 4.604, -0.066, 0.5840001, 0.05
 349231085, 4.685, -0.127, 0.588, 0.05, 4.618, -0.086, 0.588, 0.05
 349431005, 4.705, -0.182, 0.582, 0.05, 4.685, -0.127, 0.588, 0.05
 349630925, 4.695, -0.213, 0.567, 0.05, 4.705, -0.182, 0.582, 0.05
 349830845, 4.69, -0.201, 0.555, 0.05, 4.695, -0.213, 0.567, 0.05
 350030765, 4.696, -0.188, 0.544, 0.05, 4.69, -0.201, 0.555, 0.05
 350230685, 4.703, -0.191, 0.5330001, 0.05, 4.696, -0.188, 0.544, 0.05
 350431438, 4.699, -0.215, 0.534, 0.05, 4.703, -0.191, 0.5330001, 0.05
 350631358, 4.686, -0.237, 0.54, 0.05, 4.699, -0.215, 0.534, 0.05
 350831278, 4.644, -0.236, 0.548, 0.05, 4.686, -0.237, 0.54, 0.05
 351031198, 4.612, -0.225, 0.559, 0.05, 4.644, -0.236, 0.548, 0.05
 351231118, 4.654, -0.215, 0.569, 0.05, 4.612, -0.225, 0.559, 0.05
 351431038, 4.718, -0.21, 0.5700001, 0.05, 4.654, -0.215, 0.569, 0.05
 351630958, 4.72, -0.224, 0.568, 0.05, 4.718, -0.21, 0.5700001, 0.05
 351830878, 4.701, -0.246, 0.5700001, 0.05, 4.72, -0.224, 0.568, 0.05
 352030798, 4.692, -0.246, 0.575, 0.05, 4.701, -0.246, 0.5700001, 0.05
 352230718, 4.7, -0.219, 0.577, 0.05, 4.692, -0.246, 0.575, 0.05
 352431471, 4.714, -0.184, 0.572, 0.05, 4.7, -0.219, 0.577, 0.05
 352631391, 4.721, -0.157, 0.558, 0.05, 4.714, -0.184, 0.572, 0.05
 352831311, 4.722, -0.137, 0.543, 0.05, 4.721, -0.157, 0.558, 0.05
 353031231, 4.721, -0.131, 0.5330001, 0.05, 4.722, -0.137, 0.543, 0.05
 353231151, 4.723, -0.134, 0.525, 0.05, 4.721, -0.131, 0.5330001, 0.05
 353431071, 4.725, -0.127, 0.5190001, 0.05, 4.723, -0.134, 0.525, 0.05
 353630991, 4.724, -0.118, 0.521, 0.05, 4.725, -0.127, 0.5190001, 0.05
 353830911, 4.723, -0.113, 0.526, 0.05, 4.724, -0.118, 0.521, 0.05
 354030831, 4.721, -0.106, 0.5330001, 0.05, 4.723, -0.113, 0.526, 0.05
 354230751, 4.718, -0.1, 0.544, 0.05, 4.721, -0.106, 0.5330001, 0.05
 354430671, 4.71, -0.098, 0.554, 0.05, 4.718, -0.1, 0.544, 0.05
 354631424, 4.709, -0.094, 0.558, 0.05, 4.71, -0.098, 0.554, 0.05
 354831344, 4.718, -0.079, 0.55, 0.05, 4.709, -0.094, 0.558, 0.05
 355031264, 4.724, -0.047, 0.54, 0.05, 4.718, -0.079, 0.55, 0.05
 355231184, 4.723, -0.011, 0.528, 0.05, 4.724, -0.047, 0.54, 0.05
 355431104, 4.716, 0.024, 0.53, 0.05, 4.723, -0.011, 0.528, 0.05
 355631024, 4.708, 0.064, 0.536, 0.05, 4.716, 0.024, 0.53, 0.05
 355830944, 4.703, 0.098, 0.546, 0.05, 4.708, 0.064, 0.536, 0.05
 356030864, 4.702, 0.116, 0.555, 0.05, 4.703, 0.098, 0.546, 0.05
 356230784, 4.707, 0.117, 0.5560001, 0.05, 4.702, 0.116, 0.555, 0.05
 356430704, 4.71, 0.127, 0.561, 0.05, 4.707, 0.117, 0.5560001, 0.05
 356631457, 4.705, 0.161, 0.565, 0.05, 4.71, 0.127, 0.561, 0.05
 356831377, 4.7, 0.188, 0.56, 0.05, 4.705, 0.161, 0.565, 0.05
 357031297, 4.711, 0.184, 0.537, 0.05, 4.7, 0.188, 0.56, 0.05
 357231217, 4.726, 0.149, 0.509, 0.05, 4.711, 0.184, 0.537, 0.05
 357431137, 4.72, 0.105, 0.481, 0.05, 4.726, 0.149, 0.509, 0.05
 357631057, 4.716, 0.078, 0.457, 0.05, 4.72, 0.105, 0.481, 0.05
 357830977, 4.718, 0.07700001, 0.44, 0.05, 4.716, 0.078, 0.457, 0.05
 358030897, 4.724, 0.09100001, 0.427, 0.05, 4.718, 0.07700001, 0.44, 0.05
 358230817, 4.745, 0.104, 0.417, 0.05, 4.724, 0.09100001, 0.427, 0.05
 358430737, 4.758, 0.097, 0.409, 0.05, 4.745, 0.104, 0.417, 0.05
 358630657, 4.765, 0.071, 0.405, 0.05, 4.758, 0.097, 0.409, 0.05
 358831410, 4.775, 0.037, 0.403, 0.05, 4.765, 0.071, 0.405, 0.05
 359031330, 4.794, -0.008, 0.403, 0.05, 4.775, 0.037, 0.403, 0.05
 359231250, 4.81, -0.059, 0.402, 0.05, 4.794, -0.008, 0.403, 0.05
 359431170, 4.832, -0.096, 0.395, 0.05, 4.81, -0.059, 0.402, 0.05
 359631090, 4.845, -0.119, 0.387, 0.05, 4.832, -0.096, 0.395, 0.05
 359831010, 4.848, -0.137, 0.381, 0.05, 4.845, -0.119, 0.387, 0.05
 360030930, 4.85, -0.152, 0.376, 0.05, 4.848, -0.137, 0.381, 0.05
 360230850, 4.853, -0.159, 0.371, 0.05, 4.85, -0.152, 0.376, 0.05
 360430770, 4.858, -0.159, 0.365, 0.05, 4.853, -0.159, 0.371, 0.05
 360630690, 4.861, -0.143, 0.366, 0.05, 4.858, -0.159, 0.365, 0.05
 360831443, 4.862, -0.102, 0.369, 0.05, 4.861, -0.143, 0.366, 0.05
 361031363, 4.858, -0.06500001, 0.373, 0.05, 4.862, -0.102, 0.369, 0.05
 361231283, 4.848, -0.056, 0.377, 0.05, 4.858, -0.06500001, 0.373, 0.05
 361431203, 4.845, -0.079, 0.383, 0.05, 4.848, -0.056, 0.377, 0.05
 361631123, 4.852, -0.1, 0.386, 0.05, 4.845, -0.079, 0.383, 0.05
 361831043, 4.858, -0.09900001, 0.386, 0.05, 4.852, -0.1, 0.386, 0.05
 362030963, 4.859, -0.09, 0.382, 0.05, 4.858, -0.09900001, 0.386, 0.05
 362230883, 4.855, -0.087, 0.382, 0.05, 4.859, -0.09, 0.382, 0.05
 362430803, 4.846, -0.086, 0.384, 0.05, 4.855, -0.087, 0.382, 0.05
 362630723, 4.845, -0.08400001, 0.384, 0.05, 4.846, -0.086, 0.384, 0.05
 362831476, 4.854, -0.086, 0.379, 0.05, 4.845, -0.08400001, 0.384, 0.05
 363031396, 4.859, -0.089, 0.375, 0.05, 4.854, -0.086, 0.379, 0.05
 363231316, 4.857, -0.086, 0.375, 0.05, 4.859, -0.089, 0.375, 0.05
 363431236, 4.853, -0.078, 0.375, 0.05, 4.857, -0.086, 0.375, 0.05
 363631156, 4.854, -0.078, 0.375, 0.05, 4.853, -0.078, 0.375, 0.05
 363831076, 4.855, -0.07, 0.377, 0.05, 4.854, -0.078, 0.375, 0.05
 364030996, 4.857, -0.037, 0.376, 0.05, 4.855, -0.07, 0.377, 0.05
 364230916, 4.859, 0.002, 0.371, 0.05, 4.857, -0.037, 0.376, 0.05
 364430836, 4.86, 0.019, 0.372, 0.05, 4.859, 0.002, 0.371, 0.05
 364630756, 4.858, 0.005, 0.374, 0.05, 4.86, 0.019, 0.372, 0.05
 364830676, 4.854, -0.01, 0.378, 0.05, 4.858, 0.005, 0.374, 0.05
 365031429, 4.847, -0.02, 0.381, 0.05, 4.854, -0.01, 0.378, 0.05
 365231349, 4.832, -0.035, 0.384, 0.05, 4.847, -0.02, 0.381, 0.05
 365431269, 4.823, -0.047, 0.388, 0.05, 4.832, -0.035, 0.384, 0.05
 365631189, 4.825, -0.047, 0.391, 0.05, 4.823, -0.047, 0.388, 0.05
 365831109, 4.826, -0.038, 0.393, 0.05, 4.825, -0.047, 0.391, 0.05
 366031029, 4.823, -0.033, 0.393, 0.05, 4.826, -0.038, 0.393, 0.05
 366230949, 4.821, -0.019, 0.395, 0.05, 4.823, -0.033, 0.393, 0.05
 366430869, 4.83, 0.009000001, 0.395, 0.05, 4.821, -0.019, 0.395, 0.05
 366630789, 4.841, 0.033, 0.391, 0.05, 4.83, 0.009000001, 0.395, 0.05
 366830709, 4.844, 0.044, 0.387, 0.05, 4.841, 0.033, 0.391, 0.05
 367031462, 4.84, 0.043, 0.387, 0.05, 4.844, 0.044, 0.387, 0.05
 367231382, 4.835, 0.048, 0.388, 0.05, 4.84, 0.043, 0.387, 0.05
 367431302, 4.838, 0.059, 0.387, 0.05, 4.835, 0.048, 0.388, 0.05
 367631222, 4.846, 0.063, 0.384, 0.05, 4.838, 0.059, 0.387, 0.05
 367831142, 4.848, 0.064, 0.383, 0.05, 4.846, 0.063, 0.384, 0.05
 368031062, 4.844, 0.06500001, 0.385, 0.05, 4.848, 0.064, 0.383, 0.05
 368230982, 4.84, 0.062, 0.386, 0.05, 4.844, 0.06500001, 0.385, 0.05
