TimeUS,CGpN,CGpE,CGpD,CGpe,PGpN,PGpE,PGpD,PGpe
 170860795, 0, 0, 0, 0.05, 0, 0, 0, 0
 171030727, 0, 0, 0, 0.05, 0, 0, 0, 0.05
 171231480, 0, 0, 0, 0.05, 0, 0, 0, 0.05
 171431400, 0, 0, 0, 0.05, 0, 0, 0, 0.05
 171631320, 0, 0, 0, 0.05, 0, 0, 0, 0.05
 171831240, 0, 0, 0, 0.05, 0, 0, 0, 0.05
 172031160, 0, 0, 0, 0.05, 0, 0, 0, 0.05
 172231080, 0, 0, 0, 0.05, 0, 0, 0, 0.05
 172431000, 0, 0, 0, 0.05, 0, 0, 0, 0.05
 172630920, 0, 0, 0, 0.05, 0, 0, 0, 0.05
 172830840, 0, 0, 0, 0.05, 0, 0, 0, 0.05
 173030760, 0, 0, 0, 0.05, 0, 0, 0, 0.05
 173230680, 0, 0, 0, 0.05, 0, 0, 0, 0.05
 173431433, 0, 0, 0, 0.05, 0, 0, 0, 0.05
 173631353, 0, 0, 0, 0.05, 0, 0, 0, 0.05
 173831273, 0, 0, 0, 0.05, 0, 0, 0, 0.05
 174031193, 0, 0, 0, 0.05, 0, 0, 0, 0.05
 174231113, 0, 0, 0, 0.05, 0, 0, 0, 0.05
 174431033, 0, 0, 0, 0.05, 0, 0, 0, 0.05
 174630953, 0, 0, 0, 0.05, 0, 0, 0, 0.05
 174830873, 0, 0, 0, 0.05, 0, 0, 0, 0.05
 175030793, 0, 0, 0, 0.05, 0, 0, 0, 0.05
 175230713, 0, 0, 0, 0.05, 0, 0, 0, 0.05
 175431466, 0, 0, 0, 0.05, 0, 0, 0, 0.05
 175631386, 0, 0, 0, 0.05, 0, 0, 0, 0.05
 175831306, 0, 0, 0, 0.05, 0, 0, 0, 0.05
 176031226, 0, 0, 0, 0.05, 0, 0, 0, 0.05
 176231146, 0, 0, 0, 0.05, 0, 0, 0, 0.05
 176431066, 0, 0, 0, 0.05, 0, 0, 0, 0.05
 176630986, 0, 0, 0, 0.05, 0, 0, 0, 0.05
 176830906, 0, 0, 0, 0.05, 0, 0, 0, 0.05
 177030826, 0, 0, 0, 0.05, 0, 0, 0, 0.05
 177230746, 0, 0, 0, 0.05, 0, 0, 0, 0.05
 177430666, 0, 0, 0, 0.05, 0, 0, 0, 0.05
 177631419, 0, 0, 0, 0.05, 0, 0, 0, 0.05
 177831339, 0, 0, 0, 0.05, 0, 0, 0, 0.05
 178031259, 0, 0, 0, 0.05, 0, 0, 0, 0.05
 178231179, 0, 0, 0, 0.05, 0, 0, 0, 0.05
 178431099, 0, 0, 0, 0.05, 0, 0, 0, 0.05
 178631019, 0, 0, 0, 0.05, 0, 0, 0, 0.05
 178830939, 0, 0, 0, 0.05, 0, 0, 0, 0.05
 179030859, 0, 0, 0, 0.05, 0, 0, 0, 0.05
 179230779, 0, 0, 0, 0.05, 0, 0, 0, 0.05
 179430699, 0, 0, 0, 0.05, 0, 0, 0, 0.05
 179631452, 0, 0, 0, 0.05, 0, 0, 0, 0.05
 179831372, 0, 0, 0, 0.05, 0, 0, 0, 0.05
 180031292, 0, 0, 0, 0.05, 0, 0, 0, 0.05
 180231212, 0, 0, 0, 0.05, 0, 0, 0, 0.05
 180431132, 0, 0, 0, 0.05, 0, 0, 0, 0.05
 180631052, 0, 0, 0, 0.05, 0, 0, 0, 0.05
 180830972, 0, 0, 0, 0.05, 0, 0, 0, 0.05
 181030892, 0, 0, 0, 0.05, 0, 0, 0, 0.05
 181230812, 0, 0, 0, 0.05, 0, 0, 0, 0.05
 181430732, 0, 0, 0, 0.05, 0, 0, 0, 0.05
 181631485, 0, 0, 0, 0.05, 0, 0, 0, 0.05
 181831405, 0, 0, 0, 0.05, 0, 0, 0, 0.05
 182031325, 0, 0, 0, 0.05, 0, 0, 0, 0.05
 182231245, 0, 0, 0, 0.05, 0, 0, 0, 0.05
 182431165, 0, 0, 0, 0.05, 0, 0, 0, 0.05
 182631085, 0, 0, 0, 0.05, 0, 0, 0, 0.05
 182831005, 0, 0, 0, 0.05, 0, 0, 0, 0.05
 183030925, 0, 0, 0, 0.05, 0, 0, 0, 0.05
 183230845, 0, 0, 0, 0.05, 0, 0, 0, 0.05
 183430765, 0, 0, 0, 0.05, 0, 0, 0, 0.05
 183630685, 0, 0, 0, 0.05, 0, 0, 0, 0.05
 183831438, 0, 0, 0, 0.05, 0, 0, 0, 0.05
 184031358, 0, 0, 0, 0.05, 0, 0, 0, 0.05
 184231278, 0, 0, 0, 0.05, 0, 0, 0, 0.05
 184431198, 0, 0, 0, 0.05, 0, 0, 0, 0.05
 184631118, 0, 0, 0, 0.05, 0, 0, 0, 0.05
 184831038, 0, 0, 0, 0.05, 0, 0, 0, 0.05
 185030958, 0, 0, 0, 0.05, 0, 0, 0, 0.05
 185230878, 0, 0, 0, 0.05, 0, 0, 0, 0.05
 185430798, 0, 0, 0, 0.05, 0, 0, 0, 0.05
 185630718, 0, 0, 0, 0.05, 0, 0, 0, 0.05
 185831471, 0, 0, 0, 0.05, 0, 0, 0, 0.05
 186031391, 0, 0, 0, 0.05, 0, 0, 0, 0.05
 186231311, 0, 0, 0, 0.05, 0, 0, 0, 0.05
 186431231, 0, 0, 0, 0.05, 0, 0, 0, 0.05
 186631151, 0, 0, 0, 0.05, 0, 0, 0, 0.05
 186831071, 0, 0, 0, 0.05, 0, 0, 0, 0.05
 187030991, 0, 0, 0, 0.05, 0, 0, 0, 0.05
 187230911, 0, 0, 0, 0.05, 0, 0, 0, 0.05
 187430831, 0, 0, 0, 0.05, 0, 0, 0, 0.05
 187630751, 0, 0, 0, 0.05, 0, 0, 0, 0.05
 187830671, 0, 0, 0, 0.05, 0, 0, 0, 0.05
 188031424, 0, 0, 0, 0.05, 0, 0, 0, 0.05
 188231344, 0, 0, 0, 0.05, 0, 0, 0, 0.05
 188431264, 0, 0, 0, 0.05, 0, 0, 0, 0.05
 188631184, 0, 0, 0, 0.05, 0, 0, 0, 0.05
 188831104, 0, 0, 0, 0.05, 0, 0, 0, 0.05
 189031024, 0, 0, 0, 0.05, 0, 0, 0, 0.05
 189230944, 0, 0, 0, 0.05, 0, 0, 0, 0.05
 189430864, 0, 0, 0, 0.05, 0, 0, 0, 0.05
 189630784, 0, 0, 0, 0.05, 0, 0, 0, 0.05
 189830704, 0, 0, 0, 0.05, 0, 0, 0, 0.05
 190031457, 0, 0, 0, 0.05, 0, 0, 0, 0.05
 190231377, 0, 0, 0, 0.05, 0, 0, 0, 0.05
 190431297, 0, 0, 0, 0.05, 0, 0, 0, 0.05
 190631217, 0, 0, 0, 0.05, 0, 0, 0, 0.05
 190831137, 0, 0, 0, 0.05, 0, 0, 0, 0.05
 191031057, 0, 0, 0, 0.05, 0, 0, 0, 0.05
 191230977, 0, 0, 0, 0.05, 0, 0, 0, 0.05
 191430897, 0, 0, 0, 0.05, 0, 0, 0, 0.05
 191630817, 0, 0, 0, 0.05, 0, 0, 0, 0.05
 191830737, 0, 0, 0, 0.05, 0, 0, 0, 0.05
 192030657, 0, 0, 0, 0.05, 0, 0, 0, 0.05
 192231410, 0, 0, 0, 0.05, 0, 0, 0, 0.05
 192431330, 0, 0, 0, 0.05, 0, 0, 0, 0.05
 192631250, 0, 0, 0, 0.05, 0, 0, 0, 0.05
 192831170, 0, 0, 0, 0.05, 0, 0, 0, 0.05
 193031090, 0, 0, 0, 0.05, 0, 0, 0, 0.05
 193231010, 0, 0, 0, 0.05, 0, 0, 0, 0.05
 193430930, 0, 0, 0, 0.05, 0, 0, 0, 0.05
 193630850, 0, 0, 0, 0.05, 0, 0, 0, 0.05
 193830770, 0, 0, 0, 0.05, 0, 0, 0, 0.05
 194030690, 0, 0, 0, 0.05, 0, 0, 0, 0.05
 194231443, 0, 0, 0, 0.05, 0, 0, 0, 0.05
 194431363, 0, 0, 0, 0.05, 0, 0, 0, 0.05
 194631283, 0, 0, 0, 0.05, 0, 0, 0, 0.05
 194831203, 0, 0, 0, 0.05, 0, 0, 0, 0.05
 195031123, 0, 0, 0, 0.05, 0, 0, 0, 0.05
 195231043, 0, 0, 0, 0.05, 0, 0, 0, 0.05
 195430963, 0, 0, 0, 0.05, 0, 0, 0, 0.05
 195630883, 0, 0, 0, 0.05, 0, 0, 0, 0.05
 195830803, 0, 0, 0, 0.05, 0, 0, 0, 0.05
 196030723, 0, 0, 0, 0.05, 0, 0, 0, 0.05
 196231476, 0, 0, 0, 0.05, 0, 0, 0, 0.05
 196431396, 0, 0, 0, 0.05, 0, 0, 0, 0.05
 196631316, 0, 0, 0, 0.05, 0, 0, 0, 0.05
 196831236, 0, 0, 0, 0.05, 0, 0, 0, 0.05
 197031156, 0, 0, 0, 0.05, 0, 0, 0, 0.05
 197231076, 0, 0, 0, 0.05, 0, 0, 0, 0.05
 197430996, 0, 0, 0, 0.05, 0, 0, 0, 0.05
 197630916, 0, 0, 0, 0.05, 0, 0, 0, 0.05
 197830836, 0, 0, 0, 0.05, 0, 0, 0, 0.05
 198030756, 0, 0, 0, 0.05, 0, 0, 0, 0.05
 198230676, 0, 0, 0, 0.05, 0, 0, 0, 0.05
 198431429, 0, 0, 0, 0.05, 0, 0, 0, 0.05
 198631349, 0, 0, 0, 0.05, 0, 0, 0, 0.05
 198831269, 0, 0, 0, 0.05, 0, 0, 0, 0.05
 199031189, 0, 0, 0, 0.05, 0, 0, 0, 0.05
 199231109, 0, 0, 0, 0.05, 0, 0, 0, 0.05
 199431029, 0, 0, 0, 0.05, 0, 0, 0, 0.05
 199630949, 0, 0, 0, 0.05, 0, 0, 0, 0.05
 199830869, 0, 0, 0, 0.05, 0, 0, 0, 0.05
 200030789, 0, 0, 0, 0.05, 0, 0, 0, 0.05
 200230709, 0, 0, 0, 0.05, 0, 0, 0, 0.05
 200431462, 0, 0, 0, 0.05, 0, 0, 0, 0.05
 200631382, 0, 0, 0, 0.05, 0, 0, 0, 0.05
 200831302, 0, 0, 0, 0.05, 0, 0, 0, 0.05
 201031222, 0, 0, 0, 0.05, 0, 0, 0, 0.05
 201231142, 0, 0, 0, 0.05, 0, 0, 0, 0.05
 201431062, 0, 0, 0, 0.05, 0, 0, 0, 0.05
 201630982, 0, 0, 0, 0.05, 0, 0, 0, 0.05
 201830902, 0, 0, 0, 0.05, 0, 0, 0, 0.05
 202030822, 0, 0, 0, 0.05, 0, 0, 0, 0.05
 202230742, 0, 0, 0, 0.05, 0, 0, 0, 0.05
 202430662, 0, 0, 0, 0.05, 0, 0, 0, 0.05
 202631415, 0, 0, 0, 0.05, 0, 0, 0, 0.05
 202831335, 0, 0, 0, 0.05, 0, 0, 0, 0.05
 203031255, 0, 0, 0, 0.05, 0, 0, 0, 0.05
 203231175, 0, 0, 0, 0.05, 0, 0, 0, 0.05
 203431095, 0, 0, 0, 0.05, 0, 0, 0, 0.05
 203631015, 0, 0, 0, 0.05, 0, 0, 0, 0.05
 203830935, 0, 0, 0, 0.05, 0, 0, 0, 0.05
 204030855, 0, 0, 0, 0.05, 0, 0, 0, 0.05
 204230775, 0, 0, 0, 0.05, 0, 0, 0, 0.05
 204430695, 0, 0, 0, 0.05, 0, 0, 0, 0.05
 204631448, 0, 0, 0, 0.05, 0, 0, 0, 0.05
 204831368, 0, 0, 0, 0.05, 0, 0, 0, 0.05
 205031288, 0, 0, 0, 0.05, 0, 0, 0, 0.05
 205231208, 0, 0, 0, 0.05, 0, 0, 0, 0.05
 205431128, 0, 0, 0, 0.05, 0, 0, 0, 0.05
 205631048, 0, 0, 0, 0.05, 0, 0, 0, 0.05
 205830968, 0, 0, 0, 0.05, 0, 0, 0, 0.05
 206030888, 0, 0, 0, 0.05, 0, 0, 0, 0.05
 206230808, 0, 0, 0, 0.05, 0, 0, 0, 0.05
 206430728, 0, 0, 0, 0.05, 0, 0, 0, 0.05
 206631481, 0, 0, 0, 0.05, 0, 0, 0, 0.05
 206831401, 0, 0, 0, 0.05, 0, 0, 0, 0.05
 207031321, 0, 0, 0, 0.05, 0, 0, 0, 0.05
 207231241, 0, 0, 0, 0.05, 0, 0, 0, 0.05
 207431161, 0, 0, 0, 0.05, 0, 0, 0, 0.05
 207631081, 0, 0, 0, 0.05, 0, 0, 0, 0.05
 207831001, 0, 0, 0, 0.05, 0, 0, 0, 0.05
 208030921, 0, 0, 0, 0.05, 0, 0, 0, 0.05
 208230841, 0, 0, 0, 0.05, 0, 0, 0, 0.05
 208430761, 0, 0, 0, 0.05, 0, 0, 0, 0.05
 208630681, 0, 0, 0, 0.05, 0, 0, 0, 0.05
 208831434, 0, 0, 0, 0.05, 0, 0, 0, 0.05
 209031354, 0, 0, 0, 0.05, 0, 0, 0, 0.05
 209231274, 0, 0, 0, 0.05, 0, 0, 0, 0.05
 209431194, 0, 0, 0, 0.05, 0, 0, 0, 0.05
 209631114, 0, 0, 0, 0.05, 0, 0, 0, 0.05
 209831034, 0, 0, 0, 0.05, 0, 0, 0, 0.05
 210030954, 0, 0, 0, 0.05, 0, 0, 0, 0.05
 210230874, 0, 0, 0, 0.05, 0, 0, 0, 0.05
 210430794, 0, 0, 0, 0.05, 0, 0, 0, 0.05
 210630714, 0, 0, 0, 0.05, 0, 0, 0, 0.05
 210831467, 0, 0, 0, 0.05, 0, 0, 0, 0.05
 211031387, 0, 0, 0, 0.05, 0, 0, 0, 0.05
 211231307, 0, 0, 0, 0.05, 0, 0, 0, 0.05
 211431227, 0, 0, 0, 0.05, 0, 0, 0, 0.05
 211631147, 0, 0, 0, 0.05, 0, 0, 0, 0.05
 211831067, 0, 0, 0, 0.05, 0, 0, 0, 0.05
 212030987, 0, 0, 0, 0.05, 0, 0, 0, 0.05
 212230907, 0, 0, 0, 0.05, 0, 0, 0, 0.05
 212430827, 0, 0, 0, 0.05, 0, 0, 0, 0.05
 212630747, 0, 0, 0, 0.05, 0, 0, 0, 0.05
 212830667, 0, 0, 0, 0.05, 0, 0, 0, 0.05
 213031420, 0, 0, 0, 0.05, 0, 0, 0, 0.05
 213231340, 0, 0, 0, 0.05, 0, 0, 0, 0.05
 213431260, 0, 0, 0, 0.05, 0, 0, 0, 0.05
 213631180, 0, 0, 0, 0.05, 0, 0, 0, 0.05
 213831100, 0, 0, 0, 0.05, 0, 0, 0, 0.05
 214031020, 0, 0, 0, 0.05, 0, 0, 0, 0.05
 214230940, 0, 0, 0, 0.05, 0, 0, 0, 0.05
 214430860, 0, 0, 0, 0.05, 0, 0, 0, 0.05
 214630780, 0, 0, 0, 0.05, 0, 0, 0, 0.05
 214830700, 0, 0, 0, 0.05, 0, 0, 0, 0.05
 215031453, 0, 0, 0, 0.05, 0, 0, 0, 0.05
 215231373, 0, 0, 0, 0.05, 0, 0, 0, 0.05
 215431293, 0, 0, 0, 0.05, 0, 0, 0, 0.05
 215631213, 0, 0, 0, 0.05, 0, 0, 0, 0.05
 215831133, 0, 0, 0, 0.05, 0, 0, 0, 0.05
 216031053, 0, 0, 0, 0.05, 0, 0, 0, 0.05
 216230973, 0, 0, 0, 0.05, 0, 0, 0, 0.05
 216430893, 0, 0, 0, 0.05, 0, 0, 0, 0.05
 216630813, 0, 0, 0, 0.05, 0, 0, 0, 0.05
 216830733, 0, 0, 0, 0.05, 0, 0, 0, 0.05
 217031486, 0, 0, 0, 0.05, 0, 0, 0, 0.05
 217231406, 0, 0, 0, 0.05, 0, 0, 0, 0.05
 217431326, 0, 0, 0, 0.05, 0, 0, 0, 0.05
 217631246, 0, 0, 0, 0.05, 0, 0, 0, 0.05
 217831166, 0, 0, 0, 0.05, 0, 0, 0, 0.05
 218031086, 0, 0, 0, 0.05, 0, 0, 0, 0.05
 218231006, 0, 0, 0, 0.05, 0, 0, 0, 0.05
 218430926, 0, 0, 0, 0.05, 0, 0, 0, 0.05
 218630846, 0, 0, 0, 0.05, 0, 0, 0, 0.05
 218830766, 0, 0, 0, 0.05, 0, 0, 0, 0.05
 219030686, 0, 0, 0, 0.05, 0, 0, 0, 0.05
 219231439, 0, 0, 0, 0.05, 0, 0, 0, 0.05
 219431359, 0, 0, 0, 0.05, 0, 0, 0, 0.05
 219631279, 0, 0, 0, 0.05, 0, 0, 0, 0.05
 219831199, 0, 0, 0, 0.05, 0, 0, 0, 0.05
 220031119, 0, 0, 0, 0.05, 0, 0, 0, 0.05
 220231039, 0, 0, 0, 0.05, 0, 0, 0, 0.05
 220430959, 0, 0, 0, 0.05, 0, 0, 0, 0.05
 220630879, 0, 0, 0, 0.05, 0, 0, 0, 0.05
 220830799, 0, 0, 0, 0.05, 0, 0, 0, 0.05
 221030719, 0, 0, 0, 0.05, 0, 0, 0, 0.05
 221231472, 0, 0, 0, 0.05, 0, 0, 0, 0.05
 221431392, 0, 0, 0, 0.05, 0, 0, 0, 0.05
 221631312, 0, 0, 0, 0.05, 0, 0, 0, 0.05
 221831232, 0, 0, 0, 0.05, 0, 0, 0, 0.05
 222031152, 0, 0, 0, 0.05, 0, 0, 0, 0.05
 222231072, 0, 0, 0, 0.05, 0, 0, 0, 0.05
 222430992, 0, 0, 0, 0.05, 0, 0, 0, 0.05
 222630912, 0, 0, 0, 0.05, 0, 0, 0, 0.05
 222830832, 0, 0, 0, 0.05, 0, 0, 0, 0.05
 223030752, 0, 0, -0.123, 0.05, 0, 0, 0, 0.05
 223230672, 0, 0, -0.314, 0.05, 0, 0, -0.123, 0.05
 223431425, 0, 0, -0.211, 0.05, 0, 0, -0.314, 0.05
 223631345, -0.001, -0.001, -0.794, 0.05, 0, 0, -0.211, 0.05
 223831265, -0.01, -0.01, -1.916, 0.05, -0.001, -0.001, -0.794, 0.05
 224031185, -0.025, -0.026, -2.141, 0.05, -0.01, -0.01, -1.916, 0.05
 224231105, -0.041, -0.042, -2.302, 0.05, -0.025, -0.026, -2.141, 0.05
 224431025, -0.055, -0.056, -2.549, 0.05, -0.041, -0.042, -2.302, 0.05
 224630945, -0.066, -0.067, -2.759, 0.05, -0.055, -0.056, -2.549, 0.05
 224830865, -0.07600001, -0.07600001, -2.93, 0.05, -0.066, -0.067, -2.759, 0.05
 225030785, -0.085, -0.083, -3.082, 0.05, -0.07600001, -0.07600001, -2.93, 0.05
 225230705, -0.09100001, -0.089, -3.218, 0.05, -0.085, -0.083, -3.082, 0.05
 225431458, -0.096, -0.093, -3.336, 0.05, -0.09100001, -0.089, -3.218, 0.05
 225631378, -0.09900001, -0.096, -3.439, 0.05, -0.096, -0.093, -3.336, 0.05
 225831298, -0.101, -0.098, -3.53, 0.05, -0.09900001, -0.096, -3.439, 0.05
 226031218, -0.103, -0.101, -3.609, 0.05, -0.101, -0.098, -3.53, 0.05
 226231138, -0.104, -0.102, -3.679, 0.05, -0.103, -0.101, -3.609, 0.05
 226431058, -0.107, -0.104, -3.74, 0.05, -0.104, -0.102, -3.679, 0.05
 226630978, -0.109, -0.105, -3.793, 0.05, -0.107, -0.104, -3.74, 0.05
 226830898, -0.112, -0.107, -3.841, 0.05, -0.109, -0.105, -3.793, 0.05
 227030818, -0.114, -0.109, -3.882, 0.05, -0.112, -0.107, -3.841, 0.05
 227230738, -0.113, -0.109, -3.368, 0.05, -0.114, -0.109, -3.882, 0.05
 227430658, -0.11, -0.108, -2.754, 0.05, -0.113, -0.109, -3.368, 0.05
 227631411, -0.096, -0.102, -2.031, 0.05, -0.11, -0.108, -2.754, 0.05
 227831331, -0.057, -0.086, -1.527, 0.05, -0.096, -0.102, -2.031, 0.05
 228031251, -0.014, -0.066, -1.173, 0.05, -0.057, -0.086, -1.527, 0.05
 228231171, 0.058, -0.043, -0.9, 0.05, -0.014, -0.066, -1.173, 0.05
 228431091, 0.192, -0.016, -0.677, 0.05, 0.058, -0.043, -0.9, 0.05
 228631011, 0.365, 0.011, -0.505, 0.05, 0.192, -0.016, -0.677, 0.05
 228830931, 0.546, 0.039, -0.372, 0.05, 0.365, 0.011, -0.505, 0.05
 229030851, 0.728, 0.068, -0.27, 0.05, 0.546, 0.039, -0.372, 0.05
 229230771, 0.904, 0.093, -0.192, 0.05, 0.728, 0.068, -0.27, 0.05
 229430691, 1.072, 0.115, -0.131, 0.05, 0.904, 0.093, -0.192, 0.05
 229631444, 1.23, 0.153, -0.075, 0.05, 1.072, 0.115, -0.131, 0.05
 229831364, 1.382, 0.237, -0.028, 0.05, 1.23, 0.153, -0.075, 0.05
 230031284, 1.536, 0.334, 0.001, 0.05, 1.382, 0.237, -0.028, 0.05
 230231204, 1.703, 0.396, 0.023, 0.05, 1.536, 0.334, 0.001, 0.05
 230431124, 1.89, 0.41, 0.047, 0.05, 1.703, 0.396, 0.023, 0.05
 230631044, 2.094, 0.39, 0.07300001, 0.05, 1.89, 0.41, 0.047, 0.05
 230830964, 2.3, 0.349, 0.09900001, 0.05, 2.094, 0.39, 0.07300001, 0.05
 231030884, 2.501, 0.304, 0.124, 0.05, 2.3, 0.349, 0.09900001, 0.05
 231230804, 2.697, 0.24, 0.149, 0.05, 2.501, 0.304, 0.124, 0.05
 231430724, 2.887, 0.147, 0.165, 0.05, 2.697, 0.24, 0.149, 0.05
 231631477, 3.053, 0.072, 0.17, 0.05, 2.887, 0.147, 0.165, 0.05
 231831397, 3.195, 0.066, 0.172, 0.05, 3.053, 0.072, 0.17, 0.05
 232031317, 3.328, 0.134, 0.176, 0.05, 3.195, 0.066, 0.172, 0.05
 232231237, 3.457, 0.243, 0.181, 0.05, 3.328, 0.134, 0.176, 0.05
 232431157, 3.572, 0.35, 0.183, 0.05, 3.457, 0.243, 0.181, 0.05
 232631077, 3.673, 0.427, 0.184, 0.05, 3.572, 0.35, 0.183, 0.05
 232830997, 3.766, 0.467, 0.185, 0.05, 3.673, 0.427, 0.184, 0.05
 233030917, 3.859, 0.477, 0.186, 0.05, 3.766, 0.467, 0.185, 0.05
 233230837, 3.948, 0.472, 0.186, 0.05, 3.859, 0.477, 0.186, 0.05
 233430757, 4.029, 0.466, 0.187, 0.05, 3.948, 0.472, 0.186, 0.05
 233630677, 4.1, 0.468, 0.187, 0.05, 4.029, 0.466, 0.187, 0.05
 233831430, 4.162, 0.484, 0.187, 0.05, 4.1, 0.468, 0.187, 0.05
 234031350, 4.218, 0.508, 0.187, 0.05, 4.162, 0.484, 0.187, 0.05
 234231270, 4.269, 0.534, 0.187, 0.05, 4.218, 0.508, 0.187, 0.05
 234431190, 4.316, 0.554, 0.188, 0.05, 4.269, 0.534, 0.187, 0.05
 234631110, 4.36, 0.564, 0.189, 0.05, 4.316, 0.554, 0.188, 0.05
 234831030, 4.402, 0.567, 0.189, 0.05, 4.36, 0.564, 0.189, 0.05
 235030950, 4.44, 0.566, 0.191, 0.05, 4.402, 0.567, 0.189, 0.05
 235230870, 4.476, 0.565, 0.192, 0.05, 4.44, 0.566, 0.191, 0.05
 235430790, 4.51, 0.565, 0.191, 0.05, 4.476, 0.565, 0.192, 0.05
 235630710, 4.541, 0.567, 0.191, 0.05, 4.51, 0.565, 0.191, 0.05
 235831463, 4.568, 0.571, 0.192, 0.05, 4.541, 0.567, 0.191, 0.05
 236031383, 4.593, 0.576, 0.191, 0.05, 4.568, 0.571, 0.192, 0.05
 236231303, 4.618, 0.58, 0.189, 0.05, 4.593, 0.576, 0.191, 0.05
 236431223, 4.64, 0.5840001, 0.184, 0.05, 4.618, 0.58, 0.189, 0.05
 236631143, 4.66, 0.587, 0.18, 0.05, 4.64, 0.5840001, 0.184, 0.05
 236831063, 4.677, 0.588, 0.178, 0.05, 4.66, 0.587, 0.18, 0.05
 237030983, 4.692, 0.588, 0.176, 0.05, 4.677, 0.588, 0.178, 0.05
 237230903, 4.708, 0.586, 0.174, 0.05, 4.692, 0.588, 0.176, 0.05
 237430823, 4.725, 0.582, 0.172, 0.05, 4.708, 0.586, 0.174, 0.05
 237630743, 4.74, 0.574, 0.17, 0.05, 4.725, 0.582, 0.172, 0.05
 237830663, 4.752, 0.567, 0.169, 0.05, 4.74, 0.574, 0.17, 0.05
 238031416, 4.763, 0.562, 0.169, 0.05, 4.752, 0.567, 0.169, 0.05
 238231336, 4.775, 0.56, 0.17, 0.05, 4.763, 0.562, 0.169, 0.05
 238431256, 4.786, 0.559, 0.172, 0.05, 4.775, 0.56, 0.17, 0.05
 238631176, 4.797, 0.559, 0.172, 0.05, 4.786, 0.559, 0.172, 0.05
 238831096, 4.808, 0.559, 0.172, 0.05, 4.797, 0.559, 0.172, 0.05
 239031016, 4.816, 0.56, 0.174, 0.05, 4.808, 0.559, 0.172, 0.05
 239230936, 4.824, 0.56, 0.178, 0.05, 4.816, 0.56, 0.174, 0.05
 239430856, 4.832, 0.558, 0.181, 0.05, 4.824, 0.56, 0.178, 0.05
 239630776, 4.839, 0.553, 0.184, 0.05, 4.832, 0.558, 0.181, 0.05
 239830696, 4.848, 0.548, 0.186, 0.05, 4.839, 0.553, 0.184, 0.05
 240031449, 4.857, 0.544, 0.185, 0.05, 4.848, 0.548, 0.186, 0.05
 240231369, 4.865, 0.5420001, 0.18, 0.05, 4.857, 0.544, 0.185, 0.05
 240431289, 4.871, 0.541, 0.175, 0.05, 4.865, 0.5420001, 0.18, 0.05
 240631209, 4.877, 0.541, 0.171, 0.05, 4.871, 0.541, 0.175, 0.05
 240831129, 4.881, 0.541, 0.17, 0.05, 4.877, 0.541, 0.171, 0.05
 241031049, 4.884, 0.543, 0.172, 0.05, 4.881, 0.541, 0.17, 0.05
 241230969, 4.889, 0.545, 0.174, 0.05, 4.884, 0.543, 0.172, 0.05
 241430889, 4.894, 0.548, 0.175, 0.05, 4.889, 0.545, 0.174, 0.05
 241630809, 4.898, 0.551, 0.177, 0.05, 4.894, 0.548, 0.175, 0.05
 241830729, 4.902, 0.554, 0.178, 0.05, 4.898, 0.551, 0.177, 0.05
 242031482, 4.906, 0.5560001, 0.18, 0.05, 4.902, 0.554, 0.178, 0.05
 242231402, 4.909, 0.555, 0.185, 0.05, 4.906, 0.5560001, 0.18, 0.05
 242431322, 4.912, 0.555, 0.19, 0.05, 4.909, 0.555, 0.185, 0.05
 242631242, 4.916, 0.5560001, 0.193, 0.05, 4.912, 0.555, 0.19, 0.05
 242831162, 4.921, 0.558, 0.194, 0.05, 4.916, 0.5560001, 0.193, 0.05
 243031082, 4.925, 0.56, 0.194, 0.05, 4.921, 0.558, 0.194, 0.05
 243231002, 4.929, 0.563, 0.194, 0.05, 4.925, 0.56, 0.194, 0.05
 243430922, 4.932, 0.567, 0.191, 0.05, 4.929, 0.563, 0.194, 0.05
 243630842, 4.935, 0.571, 0.186, 0.05, 4.932, 0.567, 0.191, 0.05
 243830762, 4.937, 0.575, 0.182, 0.05, 4.935, 0.571, 0.186, 0.05
 244030682, 4.939, 0.5790001, 0.181, 0.05, 4.937, 0.575, 0.182, 0.05
 244231435, 4.939, 0.5840001, 0.18, 0.05, 4.939, 0.5790001, 0.181, 0.05
 244431355, 4.94, 0.587, 0.181, 0.05, 4.939, 0.5840001, 0.18, 0.05
 244631275, 4.94, 0.587, 0.183, 0.05, 4.94, 0.587, 0.181, 0.05
 244831195, 4.942, 0.5840001, 0.184, 0.05, 4.94, 0.587, 0.183, 0.05
 245031115, 4.944, 0.58, 0.183, 0.05, 4.942, 0.5840001, 0.184, 0.05
 245231035, 4.945, 0.576, 0.182, 0.05, 4.944, 0.58, 0.183, 0.05
 245430955, 4.946, 0.574, 0.179, 0.05, 4.945, 0.576, 0.182, 0.05
 245630875, 4.947, 0.573, 0.175, 0.05, 4.946, 0.574, 0.179, 0.05
 245830795, 4.947, 0.573, 0.173, 0.05, 4.947, 0.573, 0.175, 0.05
 246030715, 4.947, 0.571, 0.172, 0.05, 4.947, 0.573, 0.173, 0.05
 246231468, 4.947, 0.5700001, 0.171, 0.05, 4.947, 0.571, 0.172, 0.05
 246431388, 4.947, 0.5700001, 0.173, 0.05, 4.947, 0.5700001, 0.171, 0.05
 246631308, 4.947, 0.572, 0.174, 0.05, 4.947, 0.5700001, 0.173, 0.05
 246831228, 4.949, 0.572, 0.175, 0.05, 4.947, 0.572, 0.174, 0.05
 247031148, 4.949, 0.572, 0.177, 0.05, 4.949, 0.572, 0.175, 0.05
 247231068, 4.949, 0.573, 0.178, 0.05, 4.949, 0.572, 0.177, 0.05
 247430988, 4.949, 0.573, 0.181, 0.05, 4.949, 0.573, 0.178, 0.05
 247630908, 4.949, 0.574, 0.184, 0.05, 4.949, 0.573, 0.181, 0.05
 247830828, 4.95, 0.575, 0.186, 0.05, 4.949, 0.574, 0.184, 0.05
 248030748, 4.95, 0.576, 0.188, 0.05, 4.95, 0.575, 0.186, 0.05
 248230668, 4.953, 0.578, 0.188, 0.05, 4.95, 0.576, 0.188, 0.05
 248431421, 4.957, 0.581, 0.186, 0.05, 4.953, 0.578, 0.188, 0.05
 248631341, 4.962, 0.5840001, 0.185, 0.05, 4.957, 0.581, 0.186, 0.05
 248831261, 4.963, 0.587, 0.183, 0.05, 4.962, 0.5840001, 0.185, 0.05
 249031181, 4.961, 0.591, 0.183, 0.05, 4.963, 0.587, 0.183, 0.05
 249231101, 4.961, 0.5930001, 0.183, 0.05, 4.961, 0.591, 0.183, 0.05
 249431021, 4.962, 0.591, 0.183, 0.05, 4.961, 0.5930001, 0.183, 0.05
 249630941, 4.964, 0.586, 0.184, 0.05, 4.962, 0.591, 0.183, 0.05
 249830861, 4.965, 0.581, 0.183, 0.05, 4.964, 0.586, 0.184, 0.05
 250030781, 4.966, 0.577, 0.181, 0.05, 4.965, 0.581, 0.183, 0.05
 250230701, 4.965, 0.574, 0.177, 0.05, 4.966, 0.577, 0.181, 0.05
 250431454, 4.964, 0.572, 0.175, 0.05, 4.965, 0.574, 0.177, 0.05
 250631374, 4.962, 0.5700001, 0.173, 0.05, 4.964, 0.572, 0.175, 0.05
 250831294, 4.958, 0.569, 0.175, 0.05, 4.962, 0.5700001, 0.173, 0.05
 251031214, 4.955, 0.569, 0.177, 0.05, 4.958, 0.569, 0.175, 0.05
 251231134, 4.962, 0.5700001, 0.178, 0.05, 4.955, 0.569, 0.177, 0.05
 251431054, 4.966, 0.569, 0.179, 0.05, 4.962, 0.5700001, 0.178, 0.05
 251630974, 4.967, 0.567, 0.177, 0.05, 4.966, 0.569, 0.179, 0.05
 251830894, 4.966, 0.562, 0.176, 0.05, 4.967, 0.567, 0.177, 0.05
 252030814, 4.966, 0.557, 0.176, 0.05, 4.966, 0.562, 0.176, 0.05
 252230734, 4.966, 0.553, 0.177, 0.05, 4.966, 0.557, 0.176, 0.05
 252430654, 4.966, 0.551, 0.18, 0.05, 4.966, 0.553, 0.177, 0.05
 252631407, 4.966, 0.549, 0.183, 0.05, 4.966, 0.551, 0.18, 0.05
 252831327, 4.966, 0.549, 0.184, 0.05, 4.966, 0.549, 0.183, 0.05
 253031247, 4.965, 0.549, 0.185, 0.05, 4.966, 0.549, 0.184, 0.05
 253231167, 4.965, 0.551, 0.182, 0.05, 4.965, 0.549, 0.185, 0.05
 253431087, 4.965, 0.552, 0.18, 0.05, 4.965, 0.551, 0.182, 0.05
 253631007, 4.965, 0.554, 0.178, 0.05, 4.965, 0.552, 0.18, 0.05
 253830927, 4.966, 0.557, 0.174, 0.05, 4.965, 0.554, 0.178, 0.05
 254030847, 4.969, 0.557, 0.153, 0.05, 4.966, 0.557, 0.174, 0.05
 254230767, 4.975, 0.539, 0.12, 0.05, 4.969, 0.557, 0.153, 0.05
 254430687, 4.986, 0.503, 0.087, 0.05, 4.975, 0.539, 0.12, 0.05
 254631440, 4.987, 0.464, 0.057, 0.05, 4.986, 0.503, 0.087, 0.05
 254831360, 4.986, 0.431, 0.034, 0.05, 4.987, 0.464, 0.057, 0.05
 255031280, 4.985, 0.405, 0.018, 0.05, 4.986, 0.431, 0.034, 0.05
 255231200, 4.983, 0.38, 0.008, 0.05, 4.985, 0.405, 0.018, 0.05
 255431120, 4.981, 0.355, 0.002, 0.05, 4.983, 0.38, 0.008, 0.05
 255631040, 4.979, 0.33, 0, 0.05, 4.981, 0.355, 0.002, 0.05
 255830960, 4.977, 0.305, -0.001, 0.05, 4.979, 0.33, 0, 0.05
 256030880, 4.975, 0.279, -0.001, 0.05, 4.977, 0.305, -0.001, 0.05
 256230800, 4.978, 0.255, -0.002, 0.05, 4.975, 0.279, -0.001, 0.05
 256430720, 4.981, 0.233, -0.001, 0.05, 4.978, 0.255, -0.002, 0.05
 256631473, 4.974, 0.212, 0, 0.05, 4.981, 0.233, -0.001, 0.05
 256831393, 4.973, 0.194, 0.001, 0.05, 4.974, 0.212, 0, 0.05
 257031313, 4.982, 0.177, 0, 0.05, 4.973, 0.194, 0.001, 0.05
 257231233, 4.987, 0.158, -0.002, 0.05, 4.982, 0.177, 0, 0.05
 257431153, 4.985, 0.136, -0.003, 0.05, 4.987, 0.158, -0.002, 0.05
 257631073, 4.985, 0.115, -0.003, 0.05, 4.985, 0.136, -0.003, 0.05
 257830993, 4.986, 0.09500001, -0.003, 0.05, 4.985, 0.115, -0.003, 0.05
 258030913, 4.989, 0.08000001, -0.005, 0.05, 4.986, 0.09500001, -0.003, 0.05
 258230833, 4.991, 0.067, -0.007, 0.05, 4.989, 0.08000001, -0.005, 0.05
 258430753, 4.991, 0.055, -0.008, 0.05, 4.991, 0.067, -0.007, 0.05
 258630673, 4.991, 0.045, -0.008, 0.05, 4.991, 0.055, -0.008, 0.05
 258831426, 4.991, 0.034, -0.007, 0.05, 4.991, 0.045, -0.008, 0.05
 259031346, 4.991, 0.025, -0.004, 0.05, 4.991, 0.034, -0.007, 0.05
 259231266, 4.991, 0.018, -0.003, 0.05, 4.991, 0.025, -0.004, 0.05
 259431186, 4.991, 0.012, 0, 0.05, 4.991, 0.018, -0.003, 0.05
 259631106, 4.992, 0.008, 0.003, 0.05, 4.991, 0.012, 0, 0.05
 259831026, 4.993, 0.003, 0.006, 0.05, 4.992, 0.008, 0.003, 0.05
 260030946, 4.994, 0, 0.01, 0.05, 4.993, 0.003, 0.006, 0.05
 260230866, 4.996, -0.004, 0.013, 0.05, 4.994, 0, 0.01, 0.05
 260430786, 4.999, -0.007, 0.016, 0.05, 4.996, -0.004, 0.013, 0.05
 260630706, 5.001, -0.008, 0.014, 0.05, 4.999, -0.007, 0.016, 0.05
 260831459, 5.002, -0.009000001, 0.01, 0.05, 5.001, -0.008, 0.014, 0.05
 261031379, 5.003, -0.009000001, 0.009000001, 0.05, 5.002, -0.009000001, 0.01, 0.05
 261231299, 5.004, -0.01, 0.007, 0.05, 5.003, -0.009000001, 0.009000001, 0.05
 261431219, 5.006, -0.01, 0.004, 0.05, 5.004, -0.01, 0.007, 0.05
 261631139, 5.007, -0.011, 0.001, 0.05, 5.006, -0.01, 0.004, 0.05
 261831059, 5.005, -0.012, 0.001, 0.05, 5.007, -0.011, 0.001, 0.05
 262030979, 5.004, -0.011, 0.001, 0.05, 5.005, -0.012, 0.001, 0.05
 262230899, 5.002, -0.01, 0.001, 0.05, 5.004, -0.011, 0.001, 0.05
 262430819, 5.001, -0.009000001, 0.001, 0.05, 5.002, -0.01, 0.001, 0.05
 262630739, 5, -0.007, 0.001, 0.05, 5.001, -0.009000001, 0.001, 0.05
 262830659, 5.001, -0.006, 0, 0.05, 5, -0.007, 0.001, 0.05
 263031412, 5.001, -0.006, 0, 0.05, 5.001, -0.006, 0, 0.05
 263231332, 5, -0.006, -0.001, 0.05, 5.001, -0.006, 0, 0.05
 263431252, 5, -0.006, -0.003, 0.05, 5, -0.006, -0.001, 0.05
 263631172, 5, -0.005, -0.006, 0.05, 5, -0.006, -0.003, 0.05
 263831092, 5, -0.005, -0.009000001, 0.05, 5, -0.005, -0.006, 0.05
 264031012, 5, -0.006, -0.011, 0.05, 5, -0.005, -0.009000001, 0.05
 264230932, 4.999, -0.006, -0.01, 0.05, 5, -0.006, -0.011, 0.05
 264430852, 4.997, -0.005, -0.009000001, 0.05, 4.999, -0.006, -0.01, 0.05
 264630772, 4.996, -0.004, -0.007, 0.05, 4.997, -0.005, -0.009000001, 0.05
 264830692, 4.997, -0.004, -0.005, 0.05, 4.996, -0.004, -0.007, 0.05
 265031445, 4.998, -0.004, -0.003, 0.05, 4.997, -0.004, -0.005, 0.05
 265231365, 4.999, -0.004, -0.002, 0.05, 4.998, -0.004, -0.003, 0.05
 265431285, 4.998, -0.004, -0.001, 0.05, 4.999, -0.004, -0.002, 0.05
 265631205, 4.998, -0.004, -0.001, 0.05, 4.998, -0.004, -0.001, 0.05
 265831125, 4.998, -0.004, 0, 0.05, 4.998, -0.004, -0.001, 0.05
 266031045, 4.998, -0.006, 0, 0.05, 4.998, -0.004, 0, 0.05
 266230965, 4.998, -0.008, 0, 0.05, 4.998, -0.006, 0, 0.05
 266430885, 4.998, -0.008, 0.001, 0.05, 4.998, -0.008, 0, 0.05
 266630805, 4.997, -0.007, 0.005, 0.05, 4.998, -0.008, 0.001, 0.05
 266830725, 4.995, -0.004, 0.009000001, 0.05, 4.997, -0.007, 0.005, 0.05
 267031478, 4.995, -0.003, 0.012, 0.05, 4.995, -0.004, 0.009000001, 0.05
 267231398, 4.996, -0.004, 0.013, 0.05, 4.995, -0.003, 0.012, 0.05
 267431318, 4.997, -0.005, 0.013, 0.05, 4.996, -0.004, 0.013, 0.05
 267631238, 4.998, -0.006, 0.012, 0.05, 4.997, -0.005, 0.013, 0.05
 267831158, 4.999, -0.007, 0.011, 0.05, 4.998, -0.006, 0.012, 0.05
 268031078, 5, -0.009000001, 0.01, 0.05, 4.999, -0.007, 0.011, 0.05
 268230998, 5, -0.01, 0.009000001, 0.05, 5, -0.009000001, 0.01, 0.05
 268430918, 5, -0.01, 0.008, 0.05, 5, -0.01, 0.009000001, 0.05
 268630838, 5, -0.01, 0.007, 0.05, 5, -0.01, 0.008, 0.05
 268830758, 4.999, -0.009000001, 0.007, 0.05, 5, -0.01, 0.007, 0.05
 269030678, 5, -0.007, 0.008, 0.05, 4.999, -0.009000001, 0.007, 0.05
 269231431, 5.001, -0.005, 0.006, 0.05, 5, -0.007, 0.008, 0.05
 269431351, 5.001, -0.004, 0.005, 0.05, 5.001, -0.005, 0.006, 0.05
 269631271, 5, -0.002, 0.004, 0.05, 5.001, -0.004, 0.005, 0.05
 269831191, 5, -0.001, 0.001, 0.05, 5, -0.002, 0.004, 0.05
 270031111, 4.999, 0, 0, 0.05, 5, -0.001, 0.001, 0.05
 270231031, 4.998, 0, 0, 0.05, 4.999, 0, 0, 0.05
 270430951, 4.998, 0, 0, 0.05, 4.998, 0, 0, 0.05
 270630871, 4.998, 0.001, 0, 0.05, 4.998, 0, 0, 0.05
 270830791, 4.998, 0.003, 0, 0.05, 4.998, 0.001, 0, 0.05
 271030711, 4.999, 0.004, 0, 0.05, 4.998, 0.003, 0, 0.05
 271231464, 5, 0.004, 0, 0.05, 4.999, 0.004, 0, 0.05
 271431384, 5.001, 0.004, -0.001, 0.05, 5, 0.004, 0, 0.05
 271631304, 5.001, 0.002, -0.001, 0.05, 5.001, 0.004, -0.001, 0.05
 271831224, 5.001, 0.001, -0.001, 0.05, 5.001, 0.002, -0.001, 0.05
 272031144, 5.001, 0, -0.002, 0.05, 5.001, 0.001, -0.001, 0.05
 272231064, 5.001, 0, -0.002, 0.05, 5.001, 0, -0.002, 0.05
 272430984, 5, 0, -0.002, 0.05, 5.001, 0, -0.002, 0.05
 272630904, 5.001, 0, -0.004, 0.05, 5, 0, -0.002, 0.05
 272830824, 5, 0, -0.005, 0.05, 5.001, 0, -0.004, 0.05
 273030744, 5, 0, -0.006, 0.05, 5, 0, -0.005, 0.05
 273230664, 4.999, 0, -0.007, 0.05, 5, 0, -0.006, 0.05
 273431417, 4.999, 0, -0.007, 0.05, 4.999, 0, -0.007, 0.05
 273631337, 4.997, 0, -0.006, 0.05, 4.999, 0, -0.007, 0.05
 273831257, 4.996, 0, -0.005, 0.05, 4.997, 0, -0.006, 0.05
 274031177, 4.997, 0, -0.003, 0.05, 4.996, 0, -0.005, 0.05
 274231097, 4.998, 0.001, -0.002, 0.05, 4.997, 0, -0.003, 0.05
 274431017, 4.999, 0.003, -0.001, 0.05, 4.998, 0.001, -0.002, 0.05
 274630937, 4.999, 0.003, 0, 0.05, 4.999, 0.003, -0.001, 0.05
 274830857, 4.999, 0.002, 0.003, 0.05, 4.999, 0.003, 0, 0.05
 275030777, 5, 0.001, 0.005, 0.05, 4.999, 0.002, 0.003, 0.05
 275230697, 5.002, 0, 0.005, 0.05, 5, 0.001, 0.005, 0.05
 275431450, 5.003, 0, 0.002, 0.05, 5.002, 0, 0.005, 0.05
 275631370, 5.002, 0, 0.002, 0.05, 5.003, 0, 0.002, 0.05
 275831290, 5.001, 0, 0.001, 0.05, 5.002, 0, 0.002, 0.05
 276031210, 5, 0, 0, 0.05, 5.001, 0, 0.001, 0.05
 276231130, 5.001, 0, 0, 0.05, 5, 0, 0, 0.05
 276431050, 5.001, 0, -0.001, 0.05, 5.001, 0, 0, 0.05
 276630970, 5.001, 0, -0.003, 0.05, 5.001, 0, -0.001, 0.05
 276830890, 5, 0, -0.004, 0.05, 5.001, 0, -0.003, 0.05
 277030810, 4.999, 0, -0.004, 0.05, 5, 0, -0.004, 0.05
 277230730, 4.998, 0.001, -0.004, 0.05, 4.999, 0, -0.004, 0.05
 277431483, 4.998, 0.002, -0.004, 0.05, 4.998, 0.001, -0.004, 0.05
 277631403, 4.998, 0.002, -0.006, 0.05, 4.998, 0.002, -0.004, 0.05
 277831323, 4.998, 0.001, -0.008, 0.05, 4.998, 0.002, -0.006, 0.05
 278031243, 4.997, 0.001, -0.008, 0.05, 4.998, 0.001, -0.008, 0.05
 278231163, 4.996, 0.002, -0.006, 0.05, 4.997, 0.001, -0.008, 0.05
 278431083, 4.997, 0.003, -0.006, 0.05, 4.996, 0.002, -0.006, 0.05
 278631003, 4.997, 0.003, -0.006, 0.05, 4.997, 0.003, -0.006, 0.05
 278830923, 4.997, 0.003, -0.006, 0.05, 4.997, 0.003, -0.006, 0.05
 279030843, 4.998, 0.002, -0.006, 0.05, 4.997, 0.003, -0.006, 0.05
 279230763, 4.998, 0.002, -0.005, 0.05, 4.998, 0.002, -0.006, 0.05
 279430683, 4.998, 0.002, -0.003, 0.05, 4.998, 0.002, -0.005, 0.05
 279631436, 4.998, 0.002, -0.002, 0.05, 4.998, 0.002, -0.003, 0.05
 279831356, 4.998, 0.001, -0.001, 0.05, 4.998, 0.002, -0.002, 0.05
 280031276, 4.997, 0.001, 0, 0.05, 4.998, 0.001, -0.001, 0.05
 280231196, 4.996, 0.002, 0, 0.05, 4.997, 0.001, 0, 0.05
 280431116, 4.996, 0.003, 0, 0.05, 4.996, 0.002, 0, 0.05
 280631036, 4.995, 0.004, 0, 0.05, 4.996, 0.003, 0, 0.05
 280830956, 4.995, 0.004, -0.001, 0.05, 4.995, 0.004, 0, 0.05
 281030876, 4.996, 0.003, -0.003, 0.05, 4.995, 0.004, -0.001, 0.05
 281230796, 4.996, 0.002, -0.005, 0.05, 4.996, 0.003, -0.003, 0.05
 281430716, 4.997, 0, -0.006, 0.05, 4.996, 0.002, -0.005, 0.05
 281631469, 4.997, 0, -0.009000001, 0.05, 4.997, 0, -0.006, 0.05
 281831389, 4.997, -0.001, -0.009000001, 0.05, 4.997, 0, -0.009000001, 0.05
 282031309, 4.997, -0.001, -0.01, 0.05, 4.997, -0.001, -0.009000001, 0.05
 282231229, 4.997, -0.002, -0.009000001, 0.05, 4.997, -0.001, -0.01, 0.05
 282431149, 4.997, -0.003, -0.008, 0.05, 4.997, -0.002, -0.009000001, 0.05
 282631069, 4.997, -0.003, -0.007, 0.05, 4.997, -0.003, -0.008, 0.05
 282830989, 4.997, -0.003, -0.006, 0.05, 4.997, -0.003, -0.007, 0.05
 283030909, 4.997, -0.003, -0.005, 0.05, 4.997, -0.003, -0.006, 0.05
 283230829, 4.997, -0.002, -0.006, 0.05, 4.997, -0.003, -0.005, 0.05
 283430749, 4.997, -0.003, -0.006, 0.05, 4.997, -0.002, -0.006, 0.05
 283630669, 4.997, -0.003, -0.005, 0.05, 4.997, -0.003, -0.006, 0.05
 283831422, 4.997, -0.004, -0.004, 0.05, 4.997, -0.003, -0.005, 0.05
 284031342, 4.996, -0.004, -0.002, 0.05, 4.997, -0.004, -0.004, 0.05
 284231262, 4.996, -0.002, 0, 0.05, 4.996, -0.004, -0.002, 0.05
 284431182, 4.997, 0, 0, 0.05, 4.996, -0.002, 0, 0.05
 284631102, 4.996, 0.001, 0.003, 0.05, 4.997, 0, 0, 0.05
 284831022, 4.996, 0.001, 0.006, 0.05, 4.996, 0.001, 0.003, 0.05
 285030942, 4.996, 0, 0.009000001, 0.05, 4.996, 0.001, 0.006, 0.05
 285230862, 4.998, 0, 0.01, 0.05, 4.996, 0, 0.009000001, 0.05
 285430782, 5, 0, 0.007, 0.05, 4.998, 0, 0.01, 0.05
 285630702, 5.005, 0, 0.003, 0.05, 5, 0, 0.007, 0.05
 285831455, 5.006, 0.001, 0.001, 0.05, 5.005, 0, 0.003, 0.05
 286031375, 5.001, 0.001, 0, 0.05, 5.006, 0.001, 0.001, 0.05
 286231295, 4.987, 0, 0.001, 0.05, 5.001, 0.001, 0, 0.05
 286431215, 5.008, 0, 0.003, 0.05, 4.987, 0, 0.001, 0.05
 286631135, 5.025, 0, 0.004, 0.05, 5.008, 0, 0.003, 0.05
 286831055, 5.018, 0, 0.004, 0.05, 5.025, 0, 0.004, 0.05
 287030975, 4.982, 0, 0.004, 0.05, 5.018, 0, 0.004, 0.05
 287230895, 4.982, 0, 0.005, 0.05, 4.982, 0, 0.004, 0.05
 287430815, 5.018, 0, 0.005, 0.05, 4.982, 0, 0.005, 0.05
 287630735, 5.027, 0, 0.001, 0.05, 5.018, 0, 0.005, 0.05
 287830655, 5.014, -0.001, 0, 0.05, 5.027, 0, 0.001, 0.05
 288031408, 4.983, -0.001, -0.001, 0.05, 5.014, -0.001, 0, 0.05
 288231328, 4.984, -0.002, 0, 0.05, 4.983, -0.001, -0.001, 0.05
 288431248, 5.016, -0.002, 0.003, 0.05, 4.984, -0.002, 0, 0.05
 288631168, 5.023, -0.002, 0.003, 0.05, 5.016, -0.002, 0.003, 0.05
 288831088, 5.009, -0.003, 0.003, 0.05, 5.023, -0.002, 0.003, 0.05
 289031008, 4.98, -0.002, 0.001, 0.05, 5.009, -0.003, 0.003, 0.05
 289230928, 4.989, -0.002, -0.001, 0.05, 4.98, -0.002, 0.001, 0.05
 289430848, 5.024, -0.001, -0.004, 0.05, 4.989, -0.002, -0.001, 0.05
 289630768, 5.022, -0.001, -0.008, 0.05, 5.024, -0.001, -0.004, 0.05
 289830688, 4.999, -0.002, -0.007, 0.05, 5.022, -0.001, -0.008, 0.05
 290031441, 4.98, -0.002, -0.006, 0.05, 4.999, -0.002, -0.007, 0.05
 290231361, 4.995, -0.001, -0.005, 0.05, 4.98, -0.002, -0.006, 0.05
 290431281, 5.024, 0, -0.005, 0.05, 4.995, -0.001, -0.005, 0.05
 290631201, 5.017, 0.001, -0.006, 0.05, 5.024, 0, -0.005, 0.05
 290831121, 4.986, 0, -0.007, 0.05, 5.017, 0.001, -0.006, 0.05
 291031041, 4.98, -0.001, -0.005, 0.05, 4.986, 0, -0.007, 0.05
 291230961, 5, -0.002, -0.005, 0.05, 4.98, -0.001, -0.005, 0.05
 291430881, 5.022, -0.001, -0.004, 0.05, 5, -0.002, -0.005, 0.05
 291630801, 5.013, -0.001, -0.003, 0.05, 5.022, -0.001, -0.004, 0.05
 291830721, 4.979, -0.001, 0, 0.05, 5.013, -0.001, -0.003, 0.05
 292031474, 4.982, -0.001, 0.005, 0.05, 4.979, -0.001, 0, 0.05
 292231394, 5.011, 0, 0.008, 0.05, 4.982, -0.001, 0.005, 0.05
 292431314, 5.025, 0, 0.008, 0.05, 5.011, 0, 0.008, 0.05
 292631234, 5.016, 0, 0.006, 0.05, 5.025, 0, 0.008, 0.05
 292831154, 4.987, 0, 0.004, 0.05, 5.016, 0, 0.006, 0.05
 293031074, 4.983, 0, 0.004, 0.05, 4.987, 0, 0.004, 0.05
 293230994, 5.018, 0, 0.002, 0.05, 4.983, 0, 0.004, 0.05
 293430914, 5.027, 0, 0, 0.05, 5.018, 0, 0.002, 0.05
 293630834, 5.015, -0.001, -0.003, 0.05, 5.027, 0, 0, 0.05
 293830754, 4.982, -0.001, -0.003, 0.05, 5.015, -0.001, -0.003, 0.05
 294030674, 4.983, 0, -0.001, 0.05, 4.982, -0.001, -0.003, 0.05
 294231427, 5.015, 0, 0, 0.05, 4.983, 0, -0.001, 0.05
 294431347, 5.023, 0, -0.001, 0.05, 5.015, 0, 0, 0.05
 294631267, 5.004, 0, -0.003, 0.05, 5.023, 0, -0.001, 0.05
 294831187, 4.93, 0, -0.011, 0.05, 5.004, 0, -0.003, 0.05
 295031107, 4.804, -0.011, -0.018, 0.05, 4.93, 0, -0.011, 0.05
 295231027, 4.629, -0.05, -0.021, 0.05, 4.804, -0.011, -0.018, 0.05
 295430947, 4.438, -0.113, -0.02, 0.05, 4.629, -0.05, -0.021, 0.05
 295630867, 4.241, -0.186, -0.019, 0.05, 4.438, -0.113, -0.02, 0.05
 295830787, 4.031, -0.265, -0.019, 0.05, 4.241, -0.186, -0.019, 0.05
 296030707, 3.802, -0.355, -0.017, 0.05, 4.031, -0.265, -0.019, 0.05
 296231460, 3.553, -0.463, -0.013, 0.05, 3.802, -0.355, -0.017, 0.05
 296431380, 3.288, -0.59, -0.007, 0.05, 3.553, -0.463, -0.013, 0.05
 296631300, 3.006, -0.734, 0, 0.05, 3.288, -0.59, -0.007, 0.05
 296831220, 2.705, -0.8940001, 0.006, 0.05, 3.006, -0.734, 0, 0.05
 297031140, 2.382, -1.064, 0.011, 0.05, 2.705, -0.8940001, 0.006, 0.05
 297231060, 2.043, -1.238, 0.013, 0.05, 2.382, -1.064, 0.011, 0.05
 297430980, 1.697, -1.416, 0.015, 0.05, 2.043, -1.238, 0.013, 0.05
 297630900, 1.363, -1.601, 0.016, 0.05, 1.697, -1.416, 0.015, 0.05
 297830820, 1.069, -1.794, 0.018, 0.05, 1.363, -1.601, 0.016, 0.05
 298030740, 0.83, -1.997, 0.02, 0.05, 1.069, -1.794, 0.018, 0.05
 298230660, 0.645, -2.206, 0.021, 0.05, 0.83, -1.997, 0.02, 0.05
 298431413, 0.497, -2.414, 0.02, 0.05, 0.645, -2.206, 0.021, 0.05
 298631333, 0.367, -2.618, 0.016, 0.05, 0.497, -2.414, 0.02, 0.05
 298831253, 0.244, -2.813, 0.013, 0.05, 0.367, -2.618, 0.016, 0.05
 299031173, 0.126, -2.993, 0.01, 0.05, 0.244, -2.813, 0.013, 0.05
 299231093, 0.021, -3.159, 0.008, 0.05, 0.126, -2.993, 0.01, 0.05
 299431013, -0.06, -3.313, 0.005, 0.05, 0.021, -3.159, 0.008, 0.05
 299630933, -0.115, -3.456, 0.004, 0.05, -0.06, -3.313, 0.005, 0.05
 299830853, -0.145, -3.589, 0.001, 0.05, -0.115, -3.456, 0.004, 0.05
 300030773, -0.156, -3.711, -0.001, 0.05, -0.145, -3.589, 0.001, 0.05
 300230693, -0.155, -3.82, -0.005, 0.05, -0.156, -3.711, -0.001, 0.05
 300431446, -0.151, -3.92, -0.007, 0.05, -0.155, -3.82, -0.005, 0.05
 300631366, -0.145, -4.01, -0.008, 0.05, -0.151, -3.92, -0.007, 0.05
 300831286, -0.14, -4.092, -0.008, 0.05, -0.145, -4.01, -0.008, 0.05
 301031206, -0.135, -4.165, -0.007, 0.05, -0.14, -4.092, -0.008, 0.05
 301231126, -0.128, -4.23, -0.008, 0.05, -0.135, -4.165, -0.007, 0.05
 301431046, -0.121, -4.288, -0.011, 0.05, -0.128, -4.23, -0.008, 0.05
 301630966, -0.108, -4.339, -0.013, 0.05, -0.121, -4.288, -0.011, 0.05
 301830886, -0.094, -4.384, -0.012, 0.05, -0.108, -4.339, -0.013, 0.05
 302030806, -0.07300001, -4.425, -0.009000001, 0.05, -0.094, -4.384, -0.012, 0.05
 302230726, -0.062, -4.462, -0.005, 0.05, -0.07300001, -4.425, -0.009000001, 0.05
 302431479, -0.054, -4.495, 0, 0.05, -0.062, -4.462, -0.005, 0.05
 302631399, -0.052, -4.525, 0.004, 0.05, -0.054, -4.495, 0, 0.05
 302831319, -0.042, -4.552, 0.007, 0.05, -0.052, -4.525, 0.004, 0.05
 303031239, -0.035, -4.577, 0.01, 0.05, -0.042, -4.552, 0.007, 0.05
 303231159, -0.031, -4.6, 0.011, 0.05, -0.035, -4.577, 0.01, 0.05
 303431079, -0.029, -4.621, 0.011, 0.05, -0.031, -4.6, 0.011, 0.05
 303630999, -0.026, -4.639, 0.009000001, 0.05, -0.029, -4.621, 0.011, 0.05
 303830919, -0.023, -4.655, 0.007, 0.05, -0.026, -4.639, 0.009000001, 0.05
 304030839, -0.021, -4.669, 0.004, 0.05, -0.023, -4.655, 0.007, 0.05
 304230759, -0.021, -4.683, 0, 0.05, -0.021, -4.669, 0.004, 0.05
 304430679, -0.021, -4.697, -0.003, 0.05, -0.021, -4.683, 0, 0.05
 304631432, -0.022, -4.709, -0.005, 0.05, -0.021, -4.697, -0.003, 0.05
 304831352, -0.023, -4.719, -0.006, 0.05, -0.022, -4.709, -0.005, 0.05
 305031272, -0.023, -4.728, -0.007, 0.05, -0.023, -4.719, -0.006, 0.05
 305231192, -0.022, -4.738, -0.008, 0.05, -0.023, -4.728, -0.007, 0.05
 305431112, -0.022, -4.747, -0.008, 0.05, -0.022, -4.738, -0.008, 0.05
 305631032, -0.022, -4.756, -0.008, 0.05, -0.022, -4.747, -0.008, 0.05
 305830952, -0.023, -4.764, -0.006, 0.05, -0.022, -4.756, -0.008, 0.05
 306030872, -0.023, -4.775, -0.006, 0.05, -0.023, -4.764, -0.006, 0.05
 306230792, -0.023, -4.785, -0.007, 0.05, -0.023, -4.775, -0.006, 0.05
 306430712, -0.024, -4.794, -0.007, 0.05, -0.023, -4.785, -0.007, 0.05
 306631465, -0.023, -4.803, -0.008, 0.05, -0.024, -4.794, -0.007, 0.05
 306831385, -0.021, -4.811, -0.008, 0.05, -0.023, -4.803, -0.008, 0.05
 307031305, -0.019, -4.819, -0.006, 0.05, -0.021, -4.811, -0.008, 0.05
 307231225, -0.017, -4.827, -0.005, 0.05, -0.019, -4.819, -0.006, 0.05
 307431145, -0.014, -4.836, -0.002, 0.05, -0.017, -4.827, -0.005, 0.05
 307631065, -0.012, -4.845, 0, 0.05, -0.014, -4.836, -0.002, 0.05
 307830985, -0.01, -4.853, 0.004, 0.05, -0.012, -4.845, 0, 0.05
 308030905, -0.008, -4.86, 0.004, 0.05, -0.01, -4.853, 0.004, 0.05
 308230825, -0.005, -4.865, 0.006, 0.05, -0.008, -4.86, 0.004, 0.05
 308430745, -0.005, -4.871, 0.009000001, 0.05, -0.005, -4.865, 0.006, 0.05
 308630665, -0.005, -4.878, 0.01, 0.05, -0.005, -4.871, 0.009000001, 0.05
 308831418, -0.004, -4.885, 0.01, 0.05, -0.005, -4.878, 0.01, 0.05
 309031338, -0.003, -4.891, 0.01, 0.05, -0.004, -4.885, 0.01, 0.05
 309231258, -0.001, -4.897, 0.009000001, 0.05, -0.003, -4.891, 0.01, 0.05
 309431178, -0.001, -4.902, 0.007, 0.05, -0.001, -4.897, 0.009000001, 0.05
 309631098, 0, -4.907, 0.005, 0.05, -0.001, -4.902, 0.007, 0.05
 309831018, 0, -4.911, 0.004, 0.05, 0, -4.907, 0.005, 0.05
 310030938, 0, -4.914, 0.006, 0.05, 0, -4.911, 0.004, 0.05
 310230858, 0, -4.919, 0.005, 0.05, 0, -4.914, 0.006, 0.05
 310430778, 0.001, -4.924, 0.003, 0.05, 0, -4.919, 0.005, 0.05
 310630698, 0.002, -4.929, 0.002, 0.05, 0.001, -4.924, 0.003, 0.05
 310831451, 0.002, -4.932, 0, 0.05, 0.002, -4.929, 0.002, 0.05
 311031371, 0.002, -4.935, 0, 0.05, 0.002, -4.932, 0, 0.05
 311231291, 0.001, -4.936, -0.002, 0.05, 0.002, -4.935, 0, 0.05
 311431211, 0, -4.937, -0.005, 0.05, 0.001, -4.936, -0.002, 0.05
 311631131, 0, -4.939, -0.008, 0.05, 0, -4.937, -0.005, 0.05
 311831051, 0, -4.941, -0.011, 0.05, 0, -4.939, -0.008, 0.05
 312030971, 0, -4.943, -0.011, 0.05, 0, -4.941, -0.011, 0.05
 312230891, 0, -4.943, -0.011, 0.05, 0, -4.943, -0.011, 0.05
 312430811, 0, -4.945, -0.009000001, 0.05, 0, -4.943, -0.011, 0.05
 312630731, 0, -4.946, -0.005, 0.05, 0, -4.945, -0.009000001, 0.05
 312831484, 0, -4.948, -0.001, 0.05, 0, -4.946, -0.005, 0.05
 313031404, 0, -4.95, 0.001, 0.05, 0, -4.948, -0.001, 0.05
 313231324, -0.001, -4.953, 0.003, 0.05, 0, -4.95, 0.001, 0.05
 313431244, -0.001, -4.956, 0.002, 0.05, -0.001, -4.953, 0.003, 0.05
 313631164, -0.001, -4.957, 0.002, 0.05, -0.001, -4.956, 0.002, 0.05
 313831084, -0.001, -4.958, 0.004, 0.05, -0.001, -4.957, 0.002, 0.05
 314031004, -0.001, -4.961, 0.005, 0.05, -0.001, -4.958, 0.004, 0.05
 314230924, -0.001, -4.963, 0.006, 0.05, -0.001, -4.961, 0.005, 0.05
 314430844, -0.002, -4.965, 0.005, 0.05, -0.001, -4.963, 0.006, 0.05
 314630764, -0.002, -4.967, 0.003, 0.05, -0.002, -4.965, 0.005, 0.05
 314830684, -0.001, -4.97, 0, 0.05, -0.002, -4.967, 0.003, 0.05
 315031437, -0.001, -4.973, -0.004, 0.05, -0.001, -4.97, 0, 0.05
 315231357, -0.001, -4.974, -0.004, 0.05, -0.001, -4.973, -0.004, 0.05
 315431277, -0.002, -4.973, -0.002, 0.05, -0.001, -4.974, -0.004, 0.05
 315631197, -0.003, -4.974, 0, 0.05, -0.002, -4.973, -0.002, 0.05
 315831117, -0.004, -4.976, -0.001, 0.05, -0.003, -4.974, 0, 0.05
 316031037, -0.004, -4.979, -0.002, 0.05, -0.004, -4.976, -0.001, 0.05
 316230957, -0.003, -4.98, -0.001, 0.05, -0.004, -4.979, -0.002, 0.05
 316430877, -0.003, -4.98, 0, 0.05, -0.003, -4.98, -0.001, 0.05
 316630797, -0.003, -4.98, 0, 0.05, -0.003, -4.98, 0, 0.05
 316830717, -0.003, -4.981, 0, 0.05, -0.003, -4.98, 0, 0.05
 317031470, -0.002, -4.982, 0, 0.05, -0.003, -4.981, 0, 0.05
 317231390, -0.001, -4.982, 0, 0.05, -0.002, -4.982, 0, 0.05
 317431310, -0.001, -4.982, 0.002, 0.05, -0.001, -4.982, 0, 0.05
 317631230, -0.001, -4.981, 0.007, 0.05, -0.001, -4.982, 0.002, 0.05
 317831150, -0.001, -4.982, 0.011, 0.05, -0.001, -4.981, 0.007, 0.05
 318031070, 0, -4.985, 0.012, 0.05, -0.001, -4.982, 0.011, 0.05
 318230990, -0.001, -4.986, 0.013, 0.05, 0, -4.985, 0.012, 0.05
 318430910, -0.001, -4.986, 0.015, 0.05, -0.001, -4.986, 0.013, 0.05
 318630830, -0.001, -4.987, 0.015, 0.05, -0.001, -4.986, 0.015, 0.05
 318830750, -0.001, -4.989, 0.014, 0.05, -0.001, -4.987, 0.015, 0.05
 319030670, -0.001, -4.991, 0.012, 0.05, -0.001, -4.989, 0.014, 0.05
 319231423, -0.001, -4.991, 0.01, 0.05, -0.001, -4.991, 0.012, 0.05
 319431343, -0.001, -4.989, 0.008, 0.05, -0.001, -4.991, 0.01, 0.05
 319631263, -0.001, -4.988, 0.006, 0.05, -0.001, -4.989, 0.008, 0.05
 319831183, -0.001, -4.988, 0.005, 0.05, -0.001, -4.988, 0.006, 0.05
 320031103, -0.001, -4.99, 0.005, 0.05, -0.001, -4.988, 0.005, 0.05
 320231023, -0.002, -4.993, 0.006, 0.05, -0.001, -4.99, 0.005, 0.05
 320430943, -0.003, -4.994, 0.007, 0.05, -0.002, -4.993, 0.006, 0.05
 320630863, -0.002, -4.992, 0.009000001, 0.05, -0.003, -4.994, 0.007, 0.05
 320830783, -0.002, -4.991, 0.01, 0.05, -0.002, -4.992, 0.009000001, 0.05
 321030703, -0.001, -4.991, 0.009000001, 0.05, -0.002, -4.991, 0.01, 0.05
 321231456, -0.001, -4.992, 0.008, 0.05, -0.001, -4.991, 0.009000001, 0.05
 321431376, -0.001, -4.993, 0.005, 0.05, -0.001, -4.992, 0.008, 0.05
 321631296, 0, -4.994, 0.002, 0.05, -0.001, -4.993, 0.005, 0.05
 321831216, -0.001, -4.998, 0, 0.05, 0, -4.994, 0.002, 0.05
 322031136, 0, -4.991, -0.001, 0.05, -0.001, -4.998, 0, 0.05
 322231056, 0, -4.987, 0, 0.05, 0, -4.991, -0.001, 0.05
 322430976, 0, -4.989, 0, 0.05, 0, -4.987, 0, 0.05
 322630896, 0, -4.991, -0.003, 0.05, 0, -4.989, 0, 0.05
 322830816, 0, -4.991, -0.007, 0.05, 0, -4.991, -0.003, 0.05
 323030736, 0, -4.992, -0.011, 0.05, 0, -4.991, -0.007, 0.05
 323230656, 0, -4.993, -0.012, 0.05, 0, -4.992, -0.011, 0.05
 323431409, 0, -4.994, -0.012, 0.05, 0, -4.993, -0.012, 0.05
 323631329, 0, -4.99, -0.011, 0.05, 0, -4.994, -0.012, 0.05
 323831249, 0, -4.988, -0.006, 0.05, 0, -4.99, -0.011, 0.05
 324031169, -0.001, -4.987, 0.002, 0.05, 0, -4.988, -0.006, 0.05
 324231089, -0.002, -4.987, 0.009000001, 0.05, -0.001, -4.987, 0.002, 0.05
 324431009, -0.002, -4.99, 0.013, 0.05, -0.002, -4.987, 0.009000001, 0.05
 324630929, -0.001, -4.992, 0.016, 0.05, -0.002, -4.99, 0.013, 0.05
 324830849, -0.001, -4.993, 0.015, 0.05, -0.001, -4.992, 0.016, 0.05
 325030769, -0.001, -4.994, 0.014, 0.05, -0.001, -4.993, 0.015, 0.05
 325230689, -0.001, -5.001, 0.012, 0.05, -0.001, -4.994, 0.014, 0.05
 325431442, 0, -5.001, 0.008, 0.05, -0.001, -5.001, 0.012, 0.05
 325631362, 0, -5, 0.004, 0.05, 0, -5.001, 0.008, 0.05
 325831282, 0, -5.001, 0.001, 0.05, 0, -5, 0.004, 0.05
 326031202, 0, -5.001, -0.002, 0.05, 0, -5.001, 0.001, 0.05
 326231122, 0, -5.001, -0.007, 0.05, 0, -5.001, -0.002, 0.05
 326431042, 0, -4.999, -0.011, 0.05, 0, -5.001, -0.007, 0.05
 326630962, 0, -4.99, -0.012, 0.05, 0, -4.999, -0.011, 0.05
 326830882, 0, -4.99, -0.012, 0.05, 0, -4.99, -0.012, 0.05
 327030802, 0, -4.995, -0.011, 0.05, 0, -4.99, -0.012, 0.05
 327230722, 0, -4.994, -0.009000001, 0.05, 0, -4.995, -0.011, 0.05
 327431475, 0.001, -4.988, -0.008, 0.05, 0, -4.994, -0.009000001, 0.05
 327631395, 0.001, -4.988, -0.009000001, 0.05, 0.001, -4.988, -0.008, 0.05
 327831315, 0.001, -4.997, -0.01, 0.05, 0.001, -4.988, -0.009000001, 0.05
 328031235, 0.002, -4.992, -0.009000001, 0.05, 0.001, -4.997, -0.01, 0.05
 328231155, 0.002, -4.979, -0.006, 0.05, 0.002, -4.992, -0.009000001, 0.05
 328431075, 0.003, -4.98, 0, 0.05, 0.002, -4.979, -0.006, 0.05
 328630995, 0.003, -4.994, 0.005, 0.05, 0.003, -4.98, 0, 0.05
 328830915, 0.003, -5.003, 0.009000001, 0.05, 0.003, -4.994, 0.005, 0.05
 329030835, 0.002, -4.996, 0.011, 0.05, 0.003, -5.003, 0.009000001, 0.05
 329230755, 0, -4.98, 0.013, 0.05, 0.002, -4.996, 0.011, 0.05
 329430675, -0.002, -4.984, 0.016, 0.05, 0, -4.98, 0.013, 0.05
 329631428, -0.003, -5.003, 0.016, 0.05, -0.002, -4.984, 0.016, 0.05
 329831348, -0.003, -5.005, 0.014, 0.05, -0.003, -5.003, 0.016, 0.05
 330031268, -0.002, -5, 0.011, 0.05, -0.003, -5.005, 0.014, 0.05
 330231188, -0.001, -4.996, 0.009000001, 0.05, -0.002, -5, 0.011, 0.05
 330431108, -0.001, -4.987, 0.005, 0.05, -0.001, -4.996, 0.009000001, 0.05
 330631028, -0.002, -5.002, 0.001, 0.05, -0.001, -4.987, 0.005, 0.05
 330830948, -0.002, -5.003, -0.002, 0.05, -0.002, -5.002, 0.001, 0.05
 331030868, -0.002, -4.995, -0.006, 0.05, -0.002, -5.003, -0.002, 0.05
 331230788, -0.001, -4.981, -0.009000001, 0.05, -0.002, -4.995, -0.006, 0.05
 331430708, 0, -4.986, -0.01, 0.05, -0.001, -4.981, -0.009000001, 0.05
 331631461, -0.001, -5.002, -0.01, 0.05, 0, -4.986, -0.01, 0.05
 331831381, -0.001, -4.997, -0.009000001, 0.05, -0.001, -5.002, -0.01, 0.05
 332031301, -0.002, -4.978, -0.006, 0.05, -0.001, -4.997, -0.009000001, 0.05
 332231221, -0.003, -4.977, 0, 0.05, -0.002, -4.978, -0.006, 0.05
 332431141, -0.002, -4.983, 0.003, 0.05, -0.003, -4.977, 0, 0.05
 332631061, -0.001, -4.996, 0.004, 0.05, -0.002, -4.983, 0.003, 0.05
 332830981, -0.001, -5, 0.003, 0.05, -0.001, -4.996, 0.004, 0.05
 333030901, -0.001, -4.984, 0.005, 0.05, -0.001, -5, 0.003, 0.05
 333230821, -0.001, -4.981, 0.006, 0.05, -0.001, -4.984, 0.005, 0.05
 333430741, 0, -4.997, 0.005, 0.05, -0.001, -4.981, 0.006, 0.05
 333630661, -0.001, -5.005, 0.005, 0.05, 0, -4.997, 0.005, 0.05
 333831414, -0.001, -4.999, 0.006, 0.05, -0.001, -5.005, 0.005, 0.05
 334031334, -0.002, -4.983, 0.009000001, 0.05, -0.001, -4.999, 0.006, 0.05
 334231254, -0.001, -4.982, 0.013, 0.05, -0.002, -4.983, 0.009000001, 0.05
 334431174, -0.001, -4.995, 0.015, 0.05, -0.001, -4.982, 0.013, 0.05
 334631094, -0.001, -5.003, 0.013, 0.05, -0.001, -4.995, 0.015, 0.05
 334831014, -0.001, -4.998, 0.01, 0.05, -0.001, -5.003, 0.013, 0.05
 335030934, -0.001, -4.982, 0.005, 0.05, -0.001, -4.998, 0.01, 0.05
 335230854, 0, -4.983, 0.002, 0.05, -0.001, -4.982, 0.005, 0.05
 335430774, 0, -5, 0, 0.05, 0, -4.983, 0.002, 0.05
 335630694, 0, -5.002, -0.001, 0.05, 0, -5, 0, 0.05
 335831447, 0, -4.992, -0.002, 0.05, 0, -5.002, -0.001, 0.05
 336031367, 0, -4.979, -0.004, 0.05, 0, -4.992, -0.002, 0.05
 336231287, 0.001, -4.984, -0.006, 0.05, 0, -4.979, -0.004, 0.05
 336431207, 0.003, -5, -0.009000001, 0.05, 0.001, -4.984, -0.006, 0.05
 336631127, 0.005, -5.003, -0.013, 0.05, 0.003, -5, -0.009000001, 0.05
 336831047, 0.005, -4.994, -0.014, 0.05, 0.005, -5.003, -0.013, 0.05
 337030967, 0.005, -4.979, -0.012, 0.05, 0.005, -4.994, -0.014, 0.05
 337230887, 0.006, -4.979, -0.007, 0.05, 0.005, -4.979, -0.012, 0.05
 337430807, 0.007, -4.984, -0.002, 0.05, 0.006, -4.979, -0.007, 0.05
 337630727, 0.007, -4.98, 0, 0.05, 0.007, -4.984, -0.002, 0.05
 337831480, 0.005, -4.891, -0.004, 0.05, 0.007, -4.98, 0, 0.05
 338031400, -0.016, -4.724, -0.005, 0.05, 0.005, -4.891, -0.004, 0.05
 338231320, -0.06900001, -4.539, -0.004, 0.05, -0.016, -4.724, -0.005, 0.05
 338431240, -0.134, -4.356, -0.001, 0.05, -0.06900001, -4.539, -0.004, 0.05
 338631160, -0.205, -4.163, 0.001, 0.05, -0.134, -4.356, -0.001, 0.05
 338831080, -0.284, -3.95, 0, 0.05, -0.205, -4.163, 0.001, 0.05
 339031000, -0.375, -3.716, 0.001, 0.05, -0.284, -3.95, 0, 0.05
 339230920, -0.485, -3.467, 0.001, 0.05, -0.375, -3.716, 0.001, 0.05
 339430840, -0.615, -3.204, 0, 0.05, -0.485, -3.467, 0.001, 0.05
 339630760, -0.761, -2.924, 0, 0.05, -0.615, -3.204, 0, 0.05
 339830680, -0.9210001, -2.627, 0, 0.05, -0.761, -2.924, 0, 0.05
 340031433, -1.089, -2.309, 0, 0.05, -0.9210001, -2.627, 0, 0.05
 340231353, -1.26, -1.974, 0.002, 0.05, -1.089, -2.309, 0, 0.05
 340431273, -1.435, -1.635, 0.005, 0.05, -1.26, -1.974, 0.002, 0.05
 340631193, -1.615, -1.31, 0.01, 0.05, -1.435, -1.635, 0.005, 0.05
 340831113, -1.806, -1.026, 0.016, 0.05, -1.615, -1.31, 0.01, 0.05
 341031033, -2.009, -0.798, 0.022, 0.05, -1.806, -1.026, 0.016, 0.05
 341230953, -2.219, -0.6210001, 0.026, 0.05, -2.009, -0.798, 0.022, 0.05
 341430873, -2.431, -0.477, 0.026, 0.05, -2.219, -0.6210001, 0.026, 0.05
 341630793, -2.636, -0.35, 0.024, 0.05, -2.431, -0.477, 0.026, 0.05
 341830713, -2.834, -0.232, 0.021, 0.05, -2.636, -0.35, 0.024, 0.05
 342031466, -3.019, -0.122, 0.017, 0.05, -2.834, -0.232, 0.021, 0.05
 342231386, -3.187, -0.025, 0.013, 0.05, -3.019, -0.122, 0.017, 0.05
 342431306, -3.341, 0.051, 0.009000001, 0.05, -3.187, -0.025, 0.013, 0.05
 342631226, -3.485, 0.102, 0.005, 0.05, -3.341, 0.051, 0.009000001, 0.05
 342831146, -3.62, 0.128, 0, 0.05, -3.485, 0.102, 0.005, 0.05
 343031066, -3.742, 0.135, -0.005, 0.05, -3.62, 0.128, 0, 0.05
 343230986, -3.853, 0.131, -0.008, 0.05, -3.742, 0.135, -0.005, 0.05
 343430906, -3.953, 0.121, -0.013, 0.05, -3.853, 0.131, -0.008, 0.05
 343630826, -4.043, 0.112, -0.018, 0.05, -3.953, 0.121, -0.013, 0.05
 343830746, -4.122, 0.104, -0.02, 0.05, -4.043, 0.112, -0.018, 0.05
 344030666, -4.191, 0.096, -0.019, 0.05, -4.122, 0.104, -0.02, 0.05
 344231419, -4.253, 0.087, -0.016, 0.05, -4.191, 0.096, -0.019, 0.05
 344431339, -4.307, 0.081, -0.015, 0.05, -4.253, 0.087, -0.016, 0.05
 344631259, -4.356, 0.071, -0.016, 0.05, -4.307, 0.081, -0.015, 0.05
 344831179, -4.398, 0.052, -0.018, 0.05, -4.356, 0.071, -0.016, 0.05
 345031099, -4.436, 0.041, -0.02, 0.05, -4.398, 0.052, -0.018, 0.05
 345231019, -4.468, 0.032, -0.02, 0.05, -4.436, 0.041, -0.02, 0.05
 345430939, -4.494, 0.018, -0.018, 0.05, -4.468, 0.032, -0.02, 0.05
 345630859, -4.518, 0.009000001, -0.016, 0.05, -4.494, 0.018, -0.018, 0.05
 345830779, -4.542, 0.009000001, -0.014, 0.05, -4.518, 0.009000001, -0.016, 0.05
 346030699, -4.563, 0.005, -0.01, 0.05, -4.542, 0.009000001, -0.014, 0.05
 346231452, -4.58, 0.001, -0.005, 0.05, -4.563, 0.005, -0.01, 0.05
 346431372, -4.599, 0, -0.001, 0.05, -4.58, 0.001, -0.005, 0.05
 346631292, -4.62, 0, 0, 0.05, -4.599, 0, -0.001, 0.05
 346831212, -4.635, 0.001, 0, 0.05, -4.62, 0, 0, 0.05
 347031132, -4.642, 0.002, 0.001, 0.05, -4.635, 0.001, 0, 0.05
 347231052, -4.657, 0.003, 0.005, 0.05, -4.642, 0.002, 0.001, 0.05
 347430972, -4.68, 0.004, 0.007, 0.05, -4.657, 0.003, 0.005, 0.05
 347630892, -4.698, 0.006, 0.005, 0.05, -4.68, 0.004, 0.007, 0.05
 347830812, -4.705, 0.015, 0, 0.05, -4.698, 0.006, 0.005, 0.05
 348030732, -4.707, 0.017, -0.005, 0.05, -4.705, 0.015, 0, 0.05
 348231485, -4.714, 0.016, -0.009000001, 0.05, -4.707, 0.017, -0.005, 0.05
 348431405, -4.728, 0.015, -0.014, 0.05, -4.714, 0.016, -0.009000001, 0.05
 348631325, -4.74, 0.015, -0.016, 0.05, -4.728, 0.015, -0.014, 0.05
 348831245, -4.751, 0.016, -0.014, 0.05, -4.74, 0.015, -0.016, 0.05
 349031165, -4.759, 0.017, -0.011, 0.05, -4.751, 0.016, -0.014, 0.05
 349231085, -4.766, 0.017, -0.006, 0.05, -4.759, 0.017, -0.011, 0.05
 349431005, -4.775, 0.018, -0.002, 0.05, -4.766, 0.017, -0.006, 0.05
 349630925, -4.779, 0.019, 0, 0.05, -4.775, 0.018, -0.002, 0.05
 349830845, -4.793, 0.019, 0.003, 0.05, -4.779, 0.019, 0, 0.05
 350030765, -4.803, 0.021, 0.006, 0.05, -4.793, 0.019, 0.003, 0.05
 350230685, -4.811, 0.022, 0.009000001, 0.05, -4.803, 0.021, 0.006, 0.05
 350431438, -4.817, 0.023, 0.012, 0.05, -4.811, 0.022, 0.009000001, 0.05
 350631358, -4.826, 0.024, 0.012, 0.05, -4.817, 0.023, 0.012, 0.05
 350831278, -4.837, 0.025, 0.01, 0.05, -4.826, 0.024, 0.012, 0.05
 351031198, -4.846, 0.025, 0.006, 0.05, -4.837, 0.025, 0.01, 0.05
 351231118, -4.854, 0.025, 0.001, 0.05, -4.846, 0.025, 0.006, 0.05
 351431038, -4.858, 0.025, -0.002, 0.05, -4.854, 0.025, 0.001, 0.05
 351630958, -4.867, 0.025, -0.007, 0.05, -4.858, 0.025, -0.002, 0.05
 351830878, -4.872, 0.025, -0.009000001, 0.05, -4.867, 0.025, -0.007, 0.05
 352030798, -4.876, 0.024, -0.007, 0.05, -4.872, 0.025, -0.009000001, 0.05
 352230718, -4.88, 0.024, -0.004, 0.05, -4.876, 0.024, -0.007, 0.05
 352431471, -4.886, 0.024, 0, 0.05, -4.88, 0.024, -0.004, 0.05
 352631391, -4.89, 0.025, 0.005, 0.05, -4.886, 0.024, 0, 0.05
 352831311, -4.896, 0.025, 0.01, 0.05, -4.89, 0.025, 0.005, 0.05
 353031231, -4.904, 0.024, 0.015, 0.05, -4.896, 0.025, 0.01, 0.05
 353231151, -4.91, 0.024, 0.018, 0.05, -4.904, 0.024, 0.015, 0.05
 353431071, -4.915, 0.023, 0.019, 0.05, -4.91, 0.024, 0.018, 0.05
 353630991, -4.92, 0.023, 0.019, 0.05, -4.915, 0.023, 0.019, 0.05
 353830911, -4.924, 0.022, 0.018, 0.05, -4.92, 0.023, 0.019, 0.05
 354030831, -4.926, 0.022, 0.018, 0.05, -4.924, 0.022, 0.018, 0.05
 354230751, -4.935, 0.021, 0.018, 0.05, -4.926, 0.022, 0.018, 0.05
 354430671, -4.94, 0.02, 0.016, 0.05, -4.935, 0.021, 0.018, 0.05
 354631424, -4.942, 0.018, 0.016, 0.05, -4.94, 0.02, 0.016, 0.05
 354831344, -4.945, 0.017, 0.015, 0.05, -4.942, 0.018, 0.016, 0.05
 355031264, -4.949, 0.017, 0.014, 0.05, -4.945, 0.017, 0.015, 0.05
 355231184, -4.954, 0.017, 0.011, 0.05, -4.949, 0.017, 0.014, 0.05
 355431104, -4.958, 0.017, 0.005, 0.05, -4.954, 0.017, 0.011, 0.05
 355631024, -4.959, 0.016, 0, 0.05, -4.958, 0.017, 0.005, 0.05
 355830944, -4.959, 0.015, -0.005, 0.05, -4.959, 0.016, 0, 0.05
 356030864, -4.95, 0.014, -0.006, 0.05, -4.959, 0.015, -0.005, 0.05
 356230784, -4.964, 0.002, -0.006, 0.05, -4.95, 0.014, -0.006, 0.05
 356430704, -4.97, 0, -0.008, 0.05, -4.964, 0.002, -0.006, 0.05
 356631457, -4.97, 0.02, -0.012, 0.05, -4.97, 0, -0.008, 0.05
 356831377, -4.968, 0.022, -0.015, 0.05, -4.97, 0.02, -0.012, 0.05
 357031297, -4.966, 0.015, -0.017, 0.05, -4.968, 0.022, -0.015, 0.05
 357231217, -4.966, -0.001, -0.016, 0.05, -4.966, 0.015, -0.017, 0.05
 357431137, -4.967, 0, -0.014, 0.05, -4.966, -0.001, -0.016, 0.05
 357631057, -4.967, 0.018, -0.011, 0.05, -4.967, 0, -0.014, 0.05
 357830977, -4.967, 0.021, -0.005, 0.05, -4.967, 0.018, -0.011, 0.05
 358030897, -4.968, 0.013, -0.002, 0.05, -4.967, 0.021, -0.005, 0.05
 358230817, -4.97, -0.001, -0.001, 0.05, -4.968, 0.013, -0.002, 0.05
 358430737, -4.971, 0, 0.001, 0.05, -4.97, -0.001, -0.001, 0.05
 358630657, -4.972, 0.007, 0.005, 0.05, -4.971, 0, 0.001, 0.05
 358831410, -4.973, 0.017, 0.009000001, 0.05, -4.972, 0.007, 0.005, 0.05
 359031330, -4.973, 0.004, 0.013, 0.05, -4.973, 0.017, 0.009000001, 0.05
 359231250, -4.973, -0.005, 0.018, 0.05, -4.973, 0.004, 0.013, 0.05
 359431170, -4.973, -0.001, 0.021, 0.05, -4.973, -0.005, 0.018, 0.05
 359631090, -4.973, 0.008, 0.023, 0.05, -4.973, -0.001, 0.021, 0.05
 359831010, -4.977, 0.018, 0.021, 0.05, -4.973, 0.008, 0.023, 0.05
 360030930, -4.982, 0.006, 0.016, 0.05, -4.977, 0.018, 0.021, 0.05
 360230850, -4.985, -0.005, 0.009000001, 0.05, -4.982, 0.006, 0.016, 0.05
 360430770, -4.986, -0.002, 0.002, 0.05, -4.985, -0.005, 0.009000001, 0.05
 360630690, -4.987, 0.008, -0.003, 0.05, -4.986, -0.002, 0.002, 0.05
 360831443, -4.988, 0.019, -0.008, 0.05, -4.987, 0.008, -0.003, 0.05
 361031363, -4.988, 0.015, -0.011, 0.05, -4.988, 0.019, -0.008, 0.05
 361231283, -4.987, -0.001, -0.013, 0.05, -4.988, 0.015, -0.011, 0.05
 361431203, -4.987, -0.001, -0.012, 0.05, -4.987, -0.001, -0.013, 0.05
 361631123, -4.987, 0.007, -0.01, 0.05, -4.987, -0.001, -0.012, 0.05
 361831043, -4.987, 0.017, -0.006, 0.05, -4.987, 0.007, -0.01, 0.05
 362030963, -4.988, -0.001, -0.003, 0.05, -4.987, 0.017, -0.006, 0.05
 362230883, -4.988, -0.007, -0.001, 0.05, -4.988, -0.001, -0.003, 0.05
 362430803, -4.988, -0.003, 0.001, 0.05, -4.988, -0.007, -0.001, 0.05
 362630723, -4.989, 0, 0.002, 0.05, -4.988, -0.003, 0.001, 0.05
 362831476, -4.994, 0.002, 0.002, 0.05, -4.989, 0, 0.002, 0.05
 363031396, -4.988, 0, 0.001, 0.05, -4.994, 0.002, 0.002, 0.05
 363231316, -4.981, 0, 0.002, 0.05, -4.988, 0, 0.001, 0.05
 363431236, -4.986, 0, 0.004, 0.05, -4.981, 0, 0.002, 0.05
 363631156, -5.004, 0, 0.002, 0.05, -4.986, 0, 0.004, 0.05
 363831076, -5.003, 0, 0, 0.05, -5.004, 0, 0.002, 0.05
 364030996, -4.989, 0, -0.004, 0.05, -5.003, 0, 0, 0.05
 364230916, -4.98, 0.001, -0.008, 0.05, -4.989, 0, -0.004, 0.05
 364430836, -4.988, 0.001, -0.012, 0.05, -4.98, 0.001, -0.008, 0.05
 364630756, -5.003, 0.001, -0.014, 0.05, -4.988, 0.001, -0.012, 0.05
 364830676, -5.002, 0.002, -0.018, 0.05, -5.003, 0.001, -0.014, 0.05
 365031429, -4.995, 0.014, -0.021, 0.05, -5.002, 0.002, -0.018, 0.05
 365231349, -4.982, 0.012, -0.021, 0.05, -4.995, 0.014, -0.021, 0.05
 365431269, -4.989, -0.006, -0.021, 0.05, -4.982, 0.012, -0.021, 0.05
 365631189, -5.003, -0.007, -0.021, 0.05, -4.989, -0.006, -0.021, 0.05
 365831109, -4.999, -0.003, -0.021, 0.05, -5.003, -0.007, -0.021, 0.05
 366031029, -4.981, -0.001, -0.018, 0.05, -4.999, -0.003, -0.021, 0.05
 366230949, -4.978, -0.001, -0.014, 0.05, -4.981, -0.001, -0.018, 0.05
 366430869, -4.983, -0.003, -0.011, 0.05, -4.978, -0.001, -0.014, 0.05
 366630789, -4.999, -0.004, -0.007, 0.05, -4.983, -0.003, -0.011, 0.05
 366830709, -5.001, -0.004, -0.006, 0.05, -4.999, -0.004, -0.007, 0.05
 367031462, -4.986, -0.003, -0.005, 0.05, -5.001, -0.004, -0.006, 0.05
 367231382, -4.979, -0.001, -0.004, 0.05, -4.986, -0.003, -0.005, 0.05
 367431302, -4.988, 0, -0.003, 0.05, -4.979, -0.001, -0.004, 0.05
 367631222, -5.004, 0, -0.002, 0.05, -4.988, 0, -0.003, 0.05
 367831142, -5.001, 0.011, -0.001, 0.05, -5.004, 0, -0.002, 0.05
 368031062, -4.986, 0.012, 0.001, 0.05, -5.001, 0.011, -0.001, 0.05
 368230982, -4.982, -0.005, 0.001, 0.05, -4.986, 0.012, 0.001, 0.05
 368430902, -4.995, -0.007, 0.002, 0.05, -4.982, -0.005, 0.001, 0.05
 368630822, -5.003, -0.002, 0.004, 0.05, -4.995, -0.007, 0.002, 0.05
 368830742, -4.999, 0.001, 0.005, 0.05, -5.003, -0.002, 0.004, 0.05
 369030662, -4.987, 0.016, 0.005, 0.05, -4.999, 0.001, 0.005, 0.05
 369231415, -4.983, 0, 0.006, 0.05, -4.987, 0.016, 0.005, 0.05
 369431335, -5.001, -0.007, 0.006, 0.05, -4.983, 0, 0.006, 0.05
 369631255, -5.002, -0.003, 0.006, 0.05, -5.001, -0.007, 0.006, 0.05
 369831175, -4.992, 0.001, 0.008, 0.05, -5.002, -0.003, 0.006, 0.05
 370031095, -4.98, 0.013, 0.008, 0.05, -4.992, 0.001, 0.008, 0.05
 370231015, -4.986, 0.003, 0.008, 0.05, -4.98, 0.013, 0.008, 0.05
 370430935, -5.004, -0.007, 0.006, 0.05, -4.986, 0.003, 0.008, 0.05
 370630855, -5.004, -0.006, 0.002, 0.05, -5.004, -0.007, 0.006, 0.05
 370830775, -4.999, -0.001, -0.001, 0.05, -5.004, -0.006, 0.002, 0.05
 371030695, -4.985, 0, -0.002, 0.05, -4.999, -0.001, -0.001, 0.05
 371231448, -4.992, 0, -0.003, 0.05, -4.985, 0, -0.002, 0.05
 371431368, -5.007, -0.002, -0.006, 0.05, -4.992, 0, -0.003, 0.05
 371631288, -5.005, -0.003, -0.008, 0.05, -5.007, -0.002, -0.006, 0.05
 371831208, -4.998, -0.003, -0.007, 0.05, -5.005, -0.003, -0.008, 0.05
 372031128, -4.983, -0.003, -0.003, 0.05, -4.998, -0.003, -0.007, 0.05
