TimeUS,CGpN,CGpE,CGpD,CGpe,PGpN,PGpE,PGpD,PGpe
 170865793, 0, 0, 0, 0.05, 0, 0, 0, 0
 171030727, 0, 0, 0, 0.05, 0, 0, 0, 0.05
 171231480, 0, 0, 0, 0.05, 0, 0, 0, 0.05
 171431400, 0, 0, 0, 0.05, 0, 0, 0, 0.05
 171631320, 0, 0, 0, 0.05, 0, 0, 0, 0.05
 171831240, 0, 0, 0, 0.05, 0, 0, 0, 0.05
 172031160, 0, 0, 0, 0.05, 0, 0, 0, 0.05
 172231080, 0, 0, 0, 0.05, 0, 0, 0, 0.05
 172431000, 0, 0, 0, 0.05, 0, 0, 0, 0.05
 172630920, 0, 0, 0, 0.05, 0, 0, 0, 0.05
 172830840, 0, 0, 0, 0.05, 0, 0, 0, 0.05
 173030760, 0, 0, 0, 0.05, 0, 0, 0, 0.05
 173230680, 0, 0, 0, 0.05, 0, 0, 0, 0.05
 173431433, 0, 0, 0, 0.05, 0, 0, 0, 0.05
 173631353, 0, 0, 0, 0.05, 0, 0, 0, 0.05
 173831273, 0, 0, 0, 0.05, 0, 0, 0, 0.05
 174031193, 0, 0, 0, 0.05, 0, 0, 0, 0.05
 174231113, 0, 0, 0, 0.05, 0, 0, 0, 0.05
 174431033, 0, 0, 0, 0.05, 0, 0, 0, 0.05
 174630953, 0, 0, 0, 0.05, 0, 0, 0, 0.05
 174830873, 0, 0, 0, 0.05, 0, 0, 0, 0.05
 175030793, 0, 0, 0, 0.05, 0, 0, 0, 0.05
 175230713, 0, 0, 0, 0.05, 0, 0, 0, 0.05
 175431466, 0, 0, 0, 0.05, 0, 0, 0, 0.05
 175631386, 0, 0, 0, 0.05, 0, 0, 0, 0.05
 175831306, 0, 0, 0, 0.05, 0, 0, 0, 0.05
 176031226, 0, 0, 0, 0.05, 0, 0, 0, 0.05
 176231146, 0, 0, 0, 0.05, 0, 0, 0, 0.05
 176431066, 0, 0, 0, 0.05, 0, 0, 0, 0.05
 176630986, 0, 0, 0, 0.05, 0, 0, 0, 0.05
 176830906, 0, 0, 0, 0.05, 0, 0, 0, 0.05
 177030826, 0, 0, 0, 0.05, 0, 0, 0, 0.05
 177230746, 0, 0, 0, 0.05, 0, 0, 0, 0.05
 177430666, 0, 0, 0, 0.05, 0, 0, 0, 0.05
 177631419, 0, 0, 0, 0.05, 0, 0, 0, 0.05
 177831339, 0, 0, 0, 0.05, 0, 0, 0, 0.05
 178031259, 0, 0, 0, 0.05, 0, 0, 0, 0.05
 178231179, 0, 0, 0, 0.05, 0, 0, 0, 0.05
 178431099, 0, 0, 0, 0.05, 0, 0, 0, 0.05
 178631019, 0, 0, 0, 0.05, 0, 0, 0, 0.05
 178830939, 0, 0, 0, 0.05, 0, 0, 0, 0.05
 179030859, 0, 0, 0, 0.05, 0, 0, 0, 0.05
 179230779, 0, 0, 0, 0.05, 0, 0, 0, 0.05
 179430699, 0, 0, 0, 0.05, 0, 0, 0, 0.05
 179631452, 0, 0, 0, 0.05, 0, 0, 0, 0.05
 179831372, 0, 0, 0, 0.05, 0, 0, 0, 0.05
 180031292, 0, 0, 0, 0.05, 0, 0, 0, 0.05
 180231212, 0, 0, 0, 0.05, 0, 0, 0, 0.05
 180431132, 0, 0, 0, 0.05, 0, 0, 0, 0.05
 180631052, 0, 0, 0, 0.05, 0, 0, 0, 0.05
 180830972, 0, 0, 0, 0.05, 0, 0, 0, 0.05
 181030892, 0, 0, 0, 0.05, 0, 0, 0, 0.05
 181230812, 0, 0, 0, 0.05, 0, 0, 0, 0.05
 181430732, 0, 0, 0, 0.05, 0, 0, 0, 0.05
 181631485, 0, 0, 0, 0.05, 0, 0, 0, 0.05
 181831405, 0, 0, 0, 0.05, 0, 0, 0, 0.05
 182031325, 0, 0, 0, 0.05, 0, 0, 0, 0.05
 182231245, 0, 0, 0, 0.05, 0, 0, 0, 0.05
 182431165, 0, 0, 0, 0.05, 0, 0, 0, 0.05
 182631085, 0, 0, 0, 0.05, 0, 0, 0, 0.05
 182831005, 0, 0, 0, 0.05, 0, 0, 0, 0.05
 183030925, 0, 0, 0, 0.05, 0, 0, 0, 0.05
 183230845, 0, 0, 0, 0.05, 0, 0, 0, 0.05
 183430765, 0, 0, 0, 0.05, 0, 0, 0, 0.05
 183630685, 0, 0, 0, 0.05, 0, 0, 0, 0.05
 183831438, 0, 0, 0, 0.05, 0, 0, 0, 0.05
 184031358, 0, 0, 0, 0.05, 0, 0, 0, 0.05
 184231278, 0, 0, 0, 0.05, 0, 0, 0, 0.05
 184431198, 0, 0, 0, 0.05, 0, 0, 0, 0.05
 184631118, 0, 0, 0, 0.05, 0, 0, 0, 0.05
 184831038, 0, 0, 0, 0.05, 0, 0, 0, 0.05
 185030958, 0, 0, 0, 0.05, 0, 0, 0, 0.05
 185230878, 0, 0, 0, 0.05, 0, 0, 0, 0.05
 185430798, 0, 0, 0, 0.05, 0, 0, 0, 0.05
 185630718, 0, 0, 0, 0.05, 0, 0, 0, 0.05
 185831471, 0, 0, 0, 0.05, 0, 0, 0, 0.05
 186031391, 0, 0, 0, 0.05, 0, 0, 0, 0.05
 186231311, 0, 0, 0, 0.05, 0, 0, 0, 0.05
 186431231, 0, 0, 0, 0.05, 0, 0, 0, 0.05
 186631151, 0, 0, 0, 0.05, 0, 0, 0, 0.05
 186831071, 0, 0, 0, 0.05, 0, 0, 0, 0.05
 187030991, 0, 0, 0, 0.05, 0, 0, 0, 0.05
 187230911, 0, 0, 0, 0.05, 0, 0, 0, 0.05
 187430831, 0, 0, 0, 0.05, 0, 0, 0, 0.05
 187630751, 0, 0, 0, 0.05, 0, 0, 0, 0.05
 187830671, 0, 0, 0, 0.05, 0, 0, 0, 0.05
 188031424, 0, 0, 0, 0.05, 0, 0, 0, 0.05
 188231344, 0, 0, 0, 0.05, 0, 0, 0, 0.05
 188431264, 0, 0, 0, 0.05, 0, 0, 0, 0.05
 188631184, 0, 0, 0, 0.05, 0, 0, 0, 0.05
 188831104, 0, 0, 0, 0.05, 0, 0, 0, 0.05
 189031024, 0, 0, 0, 0.05, 0, 0, 0, 0.05
 189230944, 0, 0, 0, 0.05, 0, 0, 0, 0.05
 189430864, 0, 0, 0, 0.05, 0, 0, 0, 0.05
 189630784, 0, 0, 0, 0.05, 0, 0, 0, 0.05
 189830704, 0, 0, 0, 0.05, 0, 0, 0, 0.05
 190031457, 0, 0, 0, 0.05, 0, 0, 0, 0.05
 190231377, 0, 0, 0, 0.05, 0, 0, 0, 0.05
 190431297, 0, 0, 0, 0.05, 0, 0, 0, 0.05
 190631217, 0, 0, 0, 0.05, 0, 0, 0, 0.05
 190831137, 0, 0, 0, 0.05, 0, 0, 0, 0.05
 191031057, 0, 0, 0, 0.05, 0, 0, 0, 0.05
 191230977, 0, 0, 0, 0.05, 0, 0, 0, 0.05
 191430897, 0, 0, 0, 0.05, 0, 0, 0, 0.05
 191630817, 0, 0, 0, 0.05, 0, 0, 0, 0.05
 191830737, 0, 0, 0, 0.05, 0, 0, 0, 0.05
 192030657, 0, 0, 0, 0.05, 0, 0, 0, 0.05
 192231410, 0, 0, 0, 0.05, 0, 0, 0, 0.05
 192431330, 0, 0, 0, 0.05, 0, 0, 0, 0.05
 192631250, 0, 0, 0, 0.05, 0, 0, 0, 0.05
 192831170, 0, 0, 0, 0.05, 0, 0, 0, 0.05
 193031090, 0, 0, 0, 0.05, 0, 0, 0, 0.05
 193231010, 0, 0, 0, 0.05, 0, 0, 0, 0.05
 193430930, 0, 0, 0, 0.05, 0, 0, 0, 0.05
 193630850, 0, 0, 0, 0.05, 0, 0, 0, 0.05
 193830770, 0, 0, 0, 0.05, 0, 0, 0, 0.05
 194030690, 0, 0, 0, 0.05, 0, 0, 0, 0.05
 194231443, 0, 0, 0, 0.05, 0, 0, 0, 0.05
 194431363, 0, 0, 0, 0.05, 0, 0, 0, 0.05
 194631283, 0, 0, 0, 0.05, 0, 0, 0, 0.05
 194831203, 0, 0, 0, 0.05, 0, 0, 0, 0.05
 195031123, 0, 0, 0, 0.05, 0, 0, 0, 0.05
 195231043, 0, 0, 0, 0.05, 0, 0, 0, 0.05
 195430963, 0, 0, 0, 0.05, 0, 0, 0, 0.05
 195630883, 0, 0, 0, 0.05, 0, 0, 0, 0.05
 195830803, 0, 0, 0, 0.05, 0, 0, 0, 0.05
 196030723, 0, 0, 0, 0.05, 0, 0, 0, 0.05
 196231476, 0, 0, 0, 0.05, 0, 0, 0, 0.05
 196431396, 0, 0, 0, 0.05, 0, 0, 0, 0.05
 196631316, 0, 0, 0, 0.05, 0, 0, 0, 0.05
 196831236, 0, 0, 0, 0.05, 0, 0, 0, 0.05
 197031156, 0, 0, 0, 0.05, 0, 0, 0, 0.05
 197231076, 0, 0, 0, 0.05, 0, 0, 0, 0.05
 197430996, 0, 0, 0, 0.05, 0, 0, 0, 0.05
 197630916, 0, 0, 0, 0.05, 0, 0, 0, 0.05
 197830836, 0, 0, 0, 0.05, 0, 0, 0, 0.05
 198030756, 0, 0, 0, 0.05, 0, 0, 0, 0.05
 198230676, 0, 0, 0, 0.05, 0, 0, 0, 0.05
 198431429, 0, 0, 0, 0.05, 0, 0, 0, 0.05
 198631349, 0, 0, 0, 0.05, 0, 0, 0, 0.05
 198831269, 0, 0, 0, 0.05, 0, 0, 0, 0.05
 199031189, 0, 0, 0, 0.05, 0, 0, 0, 0.05
 199231109, 0, 0, 0, 0.05, 0, 0, 0, 0.05
 199431029, 0, 0, 0, 0.05, 0, 0, 0, 0.05
 199630949, 0, 0, 0, 0.05, 0, 0, 0, 0.05
 199830869, 0, 0, 0, 0.05, 0, 0, 0, 0.05
 200030789, 0, 0, 0, 0.05, 0, 0, 0, 0.05
 200230709, 0, 0, 0, 0.05, 0, 0, 0, 0.05
 200431462, 0, 0, 0, 0.05, 0, 0, 0, 0.05
 200631382, 0, 0, 0, 0.05, 0, 0, 0, 0.05
 200831302, 0, 0, 0, 0.05, 0, 0, 0, 0.05
 201031222, 0, 0, 0, 0.05, 0, 0, 0, 0.05
 201231142, 0, 0, 0, 0.05, 0, 0, 0, 0.05
 201431062, 0, 0, 0, 0.05, 0, 0, 0, 0.05
 201630982, 0, 0, 0, 0.05, 0, 0, 0, 0.05
 201830902, 0, 0, 0, 0.05, 0, 0, 0, 0.05
 202030822, 0, 0, 0, 0.05, 0, 0, 0, 0.05
 202230742, 0, 0, 0, 0.05, 0, 0, 0, 0.05
 202430662, 0, 0, 0, 0.05, 0, 0, 0, 0.05
 202631415, 0, 0, 0, 0.05, 0, 0, 0, 0.05
 202831335, 0, 0, 0, 0.05, 0, 0, 0, 0.05
 203031255, 0, 0, 0, 0.05, 0, 0, 0, 0.05
 203231175, 0, 0, 0, 0.05, 0, 0, 0, 0.05
 203431095, 0, 0, 0, 0.05, 0, 0, 0, 0.05
 203631015, 0, 0, 0, 0.05, 0, 0, 0, 0.05
 203830935, 0, 0, 0, 0.05, 0, 0, 0, 0.05
 204030855, 0, 0, 0, 0.05, 0, 0, 0, 0.05
 204230775, 0, 0, 0, 0.05, 0, 0, 0, 0.05
 204430695, 0, 0, 0, 0.05, 0, 0, 0, 0.05
 204631448, 0, 0, 0, 0.05, 0, 0, 0, 0.05
 204831368, 0, 0, 0, 0.05, 0, 0, 0, 0.05
 205031288, 0, 0, 0, 0.05, 0, 0, 0, 0.05
 205231208, 0, 0, 0, 0.05, 0, 0, 0, 0.05
 205431128, 0, 0, 0, 0.05, 0, 0, 0, 0.05
 205631048, 0, 0, 0, 0.05, 0, 0, 0, 0.05
 205830968, 0, 0, 0, 0.05, 0, 0, 0, 0.05
 206030888, 0, 0, 0, 0.05, 0, 0, 0, 0.05
 206230808, 0, 0, 0, 0.05, 0, 0, 0, 0.05
 206430728, 0, 0, 0, 0.05, 0, 0, 0, 0.05
 206631481, 0, 0, 0, 0.05, 0, 0, 0, 0.05
 206831401, 0, 0, 0, 0.05, 0, 0, 0, 0.05
 207031321, 0, 0, 0, 0.05, 0, 0, 0, 0.05
 207231241, 0, 0, 0, 0.05, 0, 0, 0, 0.05
 207431161, 0, 0, 0, 0.05, 0, 0, 0, 0.05
 207631081, 0, 0, 0, 0.05, 0, 0, 0, 0.05
 207831001, 0, 0, 0, 0.05, 0, 0, 0, 0.05
 208030921, 0, 0, 0, 0.05, 0, 0, 0, 0.05
 208230841, 0, 0, 0, 0.05, 0, 0, 0, 0.05
 208430761, 0, 0, 0, 0.05, 0, 0, 0, 0.05
 208630681, 0, 0, 0, 0.05, 0, 0, 0, 0.05
 208831434, 0, 0, 0, 0.05, 0, 0, 0, 0.05
 209031354, 0, 0, 0, 0.05, 0, 0, 0, 0.05
 209231274, 0, 0, 0, 0.05, 0, 0, 0, 0.05
 209431194, 0, 0, 0, 0.05, 0, 0, 0, 0.05
 209631114, 0, 0, 0, 0.05, 0, 0, 0, 0.05
 209831034, 0, 0, 0, 0.05, 0, 0, 0, 0.05
 210030954, 0, 0, 0, 0.05, 0, 0, 0, 0.05
 210230874, 0, 0, 0, 0.05, 0, 0, 0, 0.05
 210430794, 0, 0, 0, 0.05, 0, 0, 0, 0.05
 210630714, 0, 0, 0, 0.05, 0, 0, 0, 0.05
 210831467, 0, 0, 0, 0.05, 0, 0, 0, 0.05
 211031387, 0, 0, 0, 0.05, 0, 0, 0, 0.05
 211231307, 0, 0, 0, 0.05, 0, 0, 0, 0.05
 211431227, 0, 0, 0, 0.05, 0, 0, 0, 0.05
 211631147, 0, 0, 0, 0.05, 0, 0, 0, 0.05
 211831067, 0, 0, 0, 0.05, 0, 0, 0, 0.05
 212030987, 0, 0, 0, 0.05, 0, 0, 0, 0.05
 212230907, 0, 0, 0, 0.05, 0, 0, 0, 0.05
 212430827, 0, 0, 0, 0.05, 0, 0, 0, 0.05
 212630747, 0, 0, 0, 0.05, 0, 0, 0, 0.05
 212830667, 0, 0, 0, 0.05, 0, 0, 0, 0.05
 213031420, 0, 0, 0, 0.05, 0, 0, 0, 0.05
 213231340, 0, 0, 0, 0.05, 0, 0, 0, 0.05
 213431260, 0, 0, 0, 0.05, 0, 0, 0, 0.05
 213631180, 0, 0, 0, 0.05, 0, 0, 0, 0.05
 213831100, 0, 0, 0, 0.05, 0, 0, 0, 0.05
 214031020, 0, 0, 0, 0.05, 0, 0, 0, 0.05
 214230940, 0, 0, 0, 0.05, 0, 0, 0, 0.05
 214430860, 0, 0, 0, 0.05, 0, 0, 0, 0.05
 214630780, 0, 0, 0, 0.05, 0, 0, 0, 0.05
 214830700, 0, 0, 0, 0.05, 0, 0, 0, 0.05
 215031453, 0, 0, 0, 0.05, 0, 0, 0, 0.05
 215231373, 0, 0, 0, 0.05, 0, 0, 0, 0.05
 215431293, 0, 0, 0, 0.05, 0, 0, 0, 0.05
 215631213, 0, 0, 0, 0.05, 0, 0, 0, 0.05
 215831133, 0, 0, 0, 0.05, 0, 0, 0, 0.05
 216031053, 0, 0, 0, 0.05, 0, 0, 0, 0.05
 216230973, 0, 0, 0, 0.05, 0, 0, 0, 0.05
 216430893, 0, 0, 0, 0.05, 0, 0, 0, 0.05
 216630813, 0, 0, 0, 0.05, 0, 0, 0, 0.05
 216830733, 0, 0, 0, 0.05, 0, 0, 0, 0.05
 217031486, 0, 0, 0, 0.05, 0, 0, 0, 0.05
 217231406, 0, 0, 0, 0.05, 0, 0, 0, 0.05
 217431326, 0, 0, 0, 0.05, 0, 0, 0, 0.05
 217631246, 0, 0, 0, 0.05, 0, 0, 0, 0.05
 217831166, 0, 0, 0, 0.05, 0, 0, 0, 0.05
 218031086, 0, 0, 0, 0.05, 0, 0, 0, 0.05
 218231006, 0, 0, 0, 0.05, 0, 0, 0, 0.05
 218430926, 0, 0, 0, 0.05, 0, 0, 0, 0.05
 218630846, 0, 0, 0, 0.05, 0, 0, 0, 0.05
 218830766, 0, 0, 0, 0.05, 0, 0, 0, 0.05
 219030686, 0, 0, 0, 0.05, 0, 0, 0, 0.05
 219231439, 0, 0, 0, 0.05, 0, 0, 0, 0.05
 219431359, 0, 0, 0, 0.05, 0, 0, 0, 0.05
 219631279, 0, 0, 0, 0.05, 0, 0, 0, 0.05
 219831199, 0, 0, 0, 0.05, 0, 0, 0, 0.05
 220031119, 0, 0, 0, 0.05, 0, 0, 0, 0.05
 220231039, 0, 0, 0, 0.05, 0, 0, 0, 0.05
 220430959, 0, 0, 0, 0.05, 0, 0, 0, 0.05
 220630879, 0, 0, 0, 0.05, 0, 0, 0, 0.05
 220830799, 0, 0, 0, 0.05, 0, 0, 0, 0.05
 221030719, 0, 0, 0, 0.05, 0, 0, 0, 0.05
 221231472, 0, 0, 0, 0.05, 0, 0, 0, 0.05
 221431392, 0, 0, 0, 0.05, 0, 0, 0, 0.05
 221631312, 0, 0, 0, 0.05, 0, 0, 0, 0.05
 221831232, 0, 0, 0, 0.05, 0, 0, 0, 0.05
 222031152, 0, 0, 0, 0.05, 0, 0, 0, 0.05
 222231072, 0, 0, 0, 0.05, 0, 0, 0, 0.05
 222430992, 0, 0, 0, 0.05, 0, 0, 0, 0.05
 222630912, 0, 0, 0, 0.05, 0, 0, 0, 0.05
 222830832, 0, 0, 0, 0.05, 0, 0, 0, 0.05
 223030752, 0, 0, -0.25, 0.05, 0, 0, 0, 0.05
 223230672, 0, 0, -0.285, 0.05, 0, 0, -0.25, 0.05
 223431425, 0, 0, -0.186, 0.05, 0, 0, -0.285, 0.05
 223631345, -0.002, -0.003, -1.284, 0.05, 0, 0, -0.186, 0.05
 223831265, -0.015, -0.015, -2.049, 0.05, -0.002, -0.003, -1.284, 0.05
 224031185, -0.03, -0.032, -2.179, 0.05, -0.015, -0.015, -2.049, 0.05
 224231105, -0.046, -0.047, -2.384, 0.05, -0.03, -0.032, -2.179, 0.05
 224431025, -0.059, -0.06, -2.626, 0.05, -0.046, -0.047, -2.384, 0.05
 224630945, -0.07, -0.07, -2.819, 0.05, -0.059, -0.06, -2.626, 0.05
 224830865, -0.079, -0.079, -2.983, 0.05, -0.07, -0.07, -2.819, 0.05
 225030785, -0.087, -0.085, -3.13, 0.05, -0.079, -0.079, -2.983, 0.05
 225230705, -0.093, -0.09, -3.259, 0.05, -0.087, -0.085, -3.13, 0.05
 225431458, -0.098, -0.094, -3.372, 0.05, -0.093, -0.09, -3.259, 0.05
 225631378, -0.101, -0.097, -3.471, 0.05, -0.098, -0.094, -3.372, 0.05
 225831298, -0.103, -0.09900001, -3.558, 0.05, -0.101, -0.097, -3.471, 0.05
 226031218, -0.104, -0.101, -3.634, 0.05, -0.103, -0.09900001, -3.558, 0.05
 226231138, -0.105, -0.104, -3.701, 0.05, -0.104, -0.101, -3.634, 0.05
 226431058, -0.107, -0.106, -3.759, 0.05, -0.105, -0.104, -3.701, 0.05
 226630978, -0.11, -0.108, -3.81, 0.05, -0.107, -0.106, -3.759, 0.05
 226830898, -0.112, -0.11, -3.855, 0.05, -0.11, -0.108, -3.81, 0.05
 227030818, -0.113, -0.111, -3.645, 0.05, -0.112, -0.11, -3.855, 0.05
 227230738, -0.11, -0.11, -3.099, 0.05, -0.113, -0.111, -3.645, 0.05
 227430658, -0.108, -0.11, -2.632, 0.05, -0.11, -0.11, -3.099, 0.05
 227631411, -0.105, -0.108, -2.115, 0.05, -0.108, -0.11, -2.632, 0.05
 227831331, -0.094, -0.098, -1.696, 0.05, -0.105, -0.108, -2.115, 0.05
 228031251, -0.066, -0.07700001, -1.423, 0.05, -0.094, -0.098, -1.696, 0.05
 228231171, 0.043, -0.019, -1.249, 0.05, -0.066, -0.07700001, -1.423, 0.05
 228431091, 0.252, 0.07600001, -1.136, 0.05, 0.043, -0.019, -1.249, 0.05
 228631011, 0.494, 0.185, -1.065, 0.05, 0.252, 0.07600001, -1.136, 0.05
 228830931, 0.7180001, 0.284, -1.027, 0.05, 0.494, 0.185, -1.065, 0.05
 229030851, 0.913, 0.372, -1.019, 0.05, 0.7180001, 0.284, -1.027, 0.05
 229230771, 1.094, 0.477, -1.033, 0.05, 0.913, 0.372, -1.019, 0.05
 229430691, 1.264, 0.6350001, -1.072, 0.05, 1.094, 0.477, -1.033, 0.05
 229631444, 1.431, 0.8100001, -1.143, 0.05, 1.264, 0.6350001, -1.072, 0.05
 229831364, 1.612, 0.9390001, -1.233, 0.05, 1.431, 0.8100001, -1.143, 0.05
 230031284, 1.826, 1.015, -1.331, 0.05, 1.612, 0.9390001, -1.233, 0.05
 230231204, 2.065, 1.057, -1.433, 0.05, 1.826, 1.015, -1.331, 0.05
 230431124, 2.301, 1.079, -1.531, 0.05, 2.065, 1.057, -1.433, 0.05
 230631044, 2.515, 1.089, -1.618, 0.05, 2.301, 1.079, -1.531, 0.05
 230830964, 2.699, 1.106, -1.691, 0.05, 2.515, 1.089, -1.618, 0.05
 231030884, 2.863, 1.13, -1.748, 0.05, 2.699, 1.106, -1.691, 0.05
 231230804, 3.032, 1.125, -1.791, 0.05, 2.863, 1.13, -1.748, 0.05
 231430724, 3.196, 1.101, -1.83, 0.05, 3.032, 1.125, -1.791, 0.05
 231631477, 3.323, 1.11, -1.864, 0.05, 3.196, 1.101, -1.83, 0.05
 231831397, 3.41, 1.184, -1.891, 0.05, 3.323, 1.11, -1.864, 0.05
 232031317, 3.477, 1.306, -1.912, 0.05, 3.41, 1.184, -1.891, 0.05
 232231237, 3.526, 1.429, -1.9, 0.05, 3.477, 1.306, -1.912, 0.05
 232431157, 3.545, 1.518, -1.868, 0.05, 3.526, 1.429, -1.9, 0.05
 232631077, 3.544, 1.566, -1.829, 0.05, 3.545, 1.518, -1.868, 0.05
 232830997, 3.55, 1.584, -1.788, 0.05, 3.544, 1.566, -1.829, 0.05
 233030917, 3.572, 1.586, -1.75, 0.05, 3.55, 1.584, -1.788, 0.05
 233230837, 3.597, 1.583, -1.719, 0.05, 3.572, 1.586, -1.75, 0.05
 233430757, 3.613, 1.58, -1.695, 0.05, 3.597, 1.583, -1.719, 0.05
 233630677, 3.62, 1.581, -1.678, 0.05, 3.613, 1.58, -1.695, 0.05
 233831430, 3.625, 1.588, -1.666, 0.05, 3.62, 1.581, -1.678, 0.05
 234031350, 3.628, 1.598, -1.658, 0.05, 3.625, 1.588, -1.666, 0.05
 234231270, 3.631, 1.608, -1.653, 0.05, 3.628, 1.598, -1.658, 0.05
 234431190, 3.633, 1.616, -1.649, 0.05, 3.631, 1.608, -1.653, 0.05
 234631110, 3.637, 1.618, -1.647, 0.05, 3.633, 1.616, -1.649, 0.05
 234831030, 3.641, 1.616, -1.645, 0.05, 3.637, 1.618, -1.647, 0.05
 235030950, 3.64, 1.609, -1.611, 0.05, 3.641, 1.616, -1.645, 0.05
 235230870, 3.645, 1.608, -1.599, 0.05, 3.64, 1.609, -1.611, 0.05
 235430790, 3.654, 1.61, -1.604, 0.05, 3.645, 1.608, -1.599, 0.05
 235630710, 3.663, 1.61, -1.617, 0.05, 3.654, 1.61, -1.604, 0.05
 235831463, 3.669, 1.608, -1.631, 0.05, 3.663, 1.61, -1.617, 0.05
 236031383, 3.673, 1.607, -1.643, 0.05, 3.669, 1.608, -1.631, 0.05
 236231303, 3.676, 1.608, -1.654, 0.05, 3.673, 1.607, -1.643, 0.05
 236431223, 3.679, 1.608, -1.661, 0.05, 3.676, 1.608, -1.654, 0.05
 236631143, 3.682, 1.608, -1.666, 0.05, 3.679, 1.608, -1.661, 0.05
 236831063, 3.679, 1.605, -1.652, 0.05, 3.682, 1.608, -1.666, 0.05
 237030983, 3.627, 1.583, -1.52, 0.05, 3.679, 1.605, -1.652, 0.05
 237230903, 3.499, 1.527, -1.325, 0.05, 3.627, 1.583, -1.52, 0.05
 237430823, 3.381, 1.431, -1.083, 0.05, 3.499, 1.527, -1.325, 0.05
 237630743, 3.363, 1.297, -0.8280001, 0.05, 3.381, 1.431, -1.083, 0.05
 237830663, 3.413, 1.151, -0.603, 0.05, 3.363, 1.297, -0.8280001, 0.05
 238031416, 3.478, 1.015, -0.424, 0.05, 3.413, 1.151, -0.603, 0.05
 238231336, 3.542, 0.899, -0.286, 0.05, 3.478, 1.015, -0.424, 0.05
 238431256, 3.613, 0.802, -0.186, 0.05, 3.542, 0.899, -0.286, 0.05
 238631176, 3.694, 0.716, -0.117, 0.05, 3.613, 0.802, -0.186, 0.05
 238831096, 3.779, 0.634, -0.072, 0.05, 3.694, 0.716, -0.117, 0.05
 239031016, 3.862, 0.55, -0.044, 0.05, 3.779, 0.634, -0.072, 0.05
 239230936, 3.941, 0.466, -0.027, 0.05, 3.862, 0.55, -0.044, 0.05
 239430856, 4.016, 0.387, -0.017, 0.05, 3.941, 0.466, -0.027, 0.05
 239630776, 4.087, 0.318, -0.011, 0.05, 4.016, 0.387, -0.017, 0.05
 239830696, 4.153, 0.26, -0.007, 0.05, 4.087, 0.318, -0.011, 0.05
 240031449, 4.213, 0.215, -0.005, 0.05, 4.153, 0.26, -0.007, 0.05
 240231369, 4.268, 0.181, -0.005, 0.05, 4.213, 0.215, -0.005, 0.05
 240431289, 4.319, 0.154, -0.004, 0.05, 4.268, 0.181, -0.005, 0.05
 240631209, 4.366, 0.131, -0.003, 0.05, 4.319, 0.154, -0.004, 0.05
 240831129, 4.411, 0.113, -0.002, 0.05, 4.366, 0.131, -0.003, 0.05
 241031049, 4.45, 0.097, 0, 0.05, 4.411, 0.113, -0.002, 0.05
 241230969, 4.485, 0.083, 0, 0.05, 4.45, 0.097, 0, 0.05
 241430889, 4.519, 0.07, 0.001, 0.05, 4.485, 0.083, 0, 0.05
 241630809, 4.55, 0.061, 0.003, 0.05, 4.519, 0.07, 0.001, 0.05
 241830729, 4.579, 0.054, 0.003, 0.05, 4.55, 0.061, 0.003, 0.05
 242031482, 4.604, 0.051, 0.003, 0.05, 4.579, 0.054, 0.003, 0.05
 242231402, 4.625, 0.048, 0.004, 0.05, 4.604, 0.051, 0.003, 0.05
 242431322, 4.644, 0.046, 0.005, 0.05, 4.625, 0.048, 0.004, 0.05
 242631242, 4.663, 0.044, 0.006, 0.05, 4.644, 0.046, 0.005, 0.05
 242831162, 4.681, 0.042, 0.007, 0.05, 4.663, 0.044, 0.006, 0.05
 243031082, 4.698, 0.04, 0.007, 0.05, 4.681, 0.042, 0.007, 0.05
 243231002, 4.713, 0.038, 0.007, 0.05, 4.698, 0.04, 0.007, 0.05
 243430922, 4.727, 0.037, 0.005, 0.05, 4.713, 0.038, 0.007, 0.05
 243630842, 4.741, 0.036, 0.004, 0.05, 4.727, 0.037, 0.005, 0.05
 243830762, 4.752, 0.037, 0.002, 0.05, 4.741, 0.036, 0.004, 0.05
 244030682, 4.763, 0.035, 0.001, 0.05, 4.752, 0.037, 0.002, 0.05
 244231435, 4.774, 0.028, 0.001, 0.05, 4.763, 0.035, 0.001, 0.05
 244431355, 4.785, 0.018, 0.002, 0.05, 4.774, 0.028, 0.001, 0.05
 244631275, 4.795, 0.007, 0.002, 0.05, 4.785, 0.018, 0.002, 0.05
 244831195, 4.803, -0.002, 0.002, 0.05, 4.795, 0.007, 0.002, 0.05
 245031115, 4.81, -0.011, 0.001, 0.05, 4.803, -0.002, 0.002, 0.05
 245231035, 4.817, -0.019, 0.001, 0.05, 4.81, -0.011, 0.001, 0.05
 245430955, 4.825, -0.026, 0.001, 0.05, 4.817, -0.019, 0.001, 0.05
 245630875, 4.834, -0.032, 0, 0.05, 4.825, -0.026, 0.001, 0.05
 245830795, 4.841, -0.037, -0.001, 0.05, 4.834, -0.032, 0, 0.05
 246030715, 4.848, -0.042, -0.002, 0.05, 4.841, -0.037, -0.001, 0.05
 246231468, 4.855, -0.045, -0.003, 0.05, 4.848, -0.042, -0.002, 0.05
 246431388, 4.861, -0.048, -0.003, 0.05, 4.855, -0.045, -0.003, 0.05
 246631308, 4.867, -0.05, -0.003, 0.05, 4.861, -0.048, -0.003, 0.05
 246831228, 4.873, -0.051, -0.003, 0.05, 4.867, -0.05, -0.003, 0.05
 247031148, 4.879, -0.05, -0.002, 0.05, 4.873, -0.051, -0.003, 0.05
 247231068, 4.884, -0.049, -0.002, 0.05, 4.879, -0.05, -0.002, 0.05
 247430988, 4.89, -0.048, -0.001, 0.05, 4.884, -0.049, -0.002, 0.05
 247630908, 4.896, -0.047, -0.001, 0.05, 4.89, -0.048, -0.001, 0.05
 247830828, 4.901, -0.045, 0, 0.05, 4.896, -0.047, -0.001, 0.05
 248030748, 4.906, -0.043, 0, 0.05, 4.901, -0.045, 0, 0.05
 248230668, 4.911, -0.041, 0, 0.05, 4.906, -0.043, 0, 0.05
 248431421, 4.915, -0.039, -0.001, 0.05, 4.911, -0.041, 0, 0.05
 248631341, 4.919, -0.036, -0.001, 0.05, 4.915, -0.039, -0.001, 0.05
 248831261, 4.923, -0.034, -0.001, 0.05, 4.919, -0.036, -0.001, 0.05
 249031181, 4.927, -0.032, 0, 0.05, 4.923, -0.034, -0.001, 0.05
 249231101, 4.93, -0.03, 0, 0.05, 4.927, -0.032, 0, 0.05
 249431021, 4.935, -0.029, 0, 0.05, 4.93, -0.03, 0, 0.05
 249630941, 4.939, -0.028, 0, 0.05, 4.935, -0.029, 0, 0.05
 249830861, 4.943, -0.027, 0, 0.05, 4.939, -0.028, 0, 0.05
 250030781, 4.946, -0.026, 0, 0.05, 4.943, -0.027, 0, 0.05
 250230701, 4.948, -0.025, -0.001, 0.05, 4.946, -0.026, 0, 0.05
 250431454, 4.949, -0.023, -0.002, 0.05, 4.948, -0.025, -0.001, 0.05
 250631374, 4.951, -0.021, -0.003, 0.05, 4.949, -0.023, -0.002, 0.05
 250831294, 4.952, -0.019, -0.003, 0.05, 4.951, -0.021, -0.003, 0.05
 251031214, 4.954, -0.018, -0.002, 0.05, 4.952, -0.019, -0.003, 0.05
 251231134, 4.956, -0.017, -0.002, 0.05, 4.954, -0.018, -0.002, 0.05
 251431054, 4.958, -0.016, -0.002, 0.05, 4.956, -0.017, -0.002, 0.05
 251630974, 4.96, -0.015, -0.003, 0.05, 4.958, -0.016, -0.002, 0.05
 251830894, 4.962, -0.015, -0.003, 0.05, 4.96, -0.015, -0.003, 0.05
 252030814, 4.964, -0.014, -0.003, 0.05, 4.962, -0.015, -0.003, 0.05
 252230734, 4.967, -0.014, -0.002, 0.05, 4.964, -0.014, -0.003, 0.05
 252430654, 4.969, -0.013, -0.002, 0.05, 4.967, -0.014, -0.002, 0.05
 252631407, 4.97, -0.013, -0.001, 0.05, 4.969, -0.013, -0.002, 0.05
 252831327, 4.972, -0.013, -0.001, 0.05, 4.97, -0.013, -0.001, 0.05
 253031247, 4.974, -0.013, -0.001, 0.05, 4.972, -0.013, -0.001, 0.05
 253231167, 4.975, -0.012, -0.002, 0.05, 4.974, -0.013, -0.001, 0.05
 253431087, 4.976, -0.012, -0.002, 0.05, 4.975, -0.012, -0.002, 0.05
 253631007, 4.976, -0.011, -0.002, 0.05, 4.976, -0.012, -0.002, 0.05
 253830927, 4.977, -0.011, -0.003, 0.05, 4.976, -0.011, -0.002, 0.05
 254030847, 4.978, -0.01, -0.004, 0.05, 4.977, -0.011, -0.003, 0.05
 254230767, 4.979, -0.01, -0.004, 0.05, 4.978, -0.01, -0.004, 0.05
 254430687, 4.98, -0.009000001, -0.005, 0.05, 4.979, -0.01, -0.004, 0.05
 254631440, 4.981, -0.008, -0.005, 0.05, 4.98, -0.009000001, -0.005, 0.05
 254831360, 4.982, -0.008, -0.005, 0.05, 4.981, -0.008, -0.005, 0.05
 255031280, 4.982, -0.008, -0.004, 0.05, 4.982, -0.008, -0.005, 0.05
 255231200, 4.983, -0.008, -0.004, 0.05, 4.982, -0.008, -0.004, 0.05
 255431120, 4.985, -0.007, -0.004, 0.05, 4.983, -0.008, -0.004, 0.05
 255631040, 4.986, -0.007, -0.003, 0.05, 4.985, -0.007, -0.004, 0.05
 255830960, 4.986, -0.006, -0.002, 0.05, 4.986, -0.007, -0.003, 0.05
 256030880, 4.987, -0.006, -0.003, 0.05, 4.986, -0.006, -0.002, 0.05
 256230800, 4.988, -0.006, -0.003, 0.05, 4.987, -0.006, -0.003, 0.05
 256430720, 4.989, -0.005, -0.002, 0.05, 4.988, -0.006, -0.003, 0.05
 256631473, 4.989, -0.005, -0.001, 0.05, 4.989, -0.005, -0.002, 0.05
 256831393, 4.99, -0.006, -0.001, 0.05, 4.989, -0.005, -0.001, 0.05
 257031313, 4.99, -0.006, -0.001, 0.05, 4.99, -0.006, -0.001, 0.05
 257231233, 4.99, -0.005, -0.001, 0.05, 4.99, -0.006, -0.001, 0.05
 257431153, 4.99, -0.005, -0.001, 0.05, 4.99, -0.005, -0.001, 0.05
 257631073, 4.991, -0.004, 0, 0.05, 4.99, -0.005, -0.001, 0.05
 257830993, 4.991, -0.004, 0, 0.05, 4.991, -0.004, 0, 0.05
 258030913, 4.992, -0.003, 0, 0.05, 4.991, -0.004, 0, 0.05
 258230833, 4.993, -0.003, -0.001, 0.05, 4.992, -0.003, 0, 0.05
 258430753, 4.993, -0.003, -0.001, 0.05, 4.993, -0.003, -0.001, 0.05
 258630673, 4.994, -0.002, 0, 0.05, 4.993, -0.003, -0.001, 0.05
 258831426, 4.994, -0.002, 0, 0.05, 4.994, -0.002, 0, 0.05
 259031346, 4.995, -0.002, 0, 0.05, 4.994, -0.002, 0, 0.05
 259231266, 4.995, -0.002, 0, 0.05, 4.995, -0.002, 0, 0.05
 259431186, 4.995, -0.001, 0, 0.05, 4.995, -0.002, 0, 0.05
 259631106, 4.995, -0.001, 0, 0.05, 4.995, -0.001, 0, 0.05
 259831026, 4.995, -0.001, 0.001, 0.05, 4.995, -0.001, 0, 0.05
 260030946, 4.995, -0.002, 0.002, 0.05, 4.995, -0.001, 0.001, 0.05
 260230866, 4.995, -0.002, 0.003, 0.05, 4.995, -0.002, 0.002, 0.05
 260430786, 4.995, -0.002, 0.004, 0.05, 4.995, -0.002, 0.003, 0.05
 260630706, 4.995, -0.003, 0.003, 0.05, 4.995, -0.002, 0.004, 0.05
 260831459, 4.995, -0.002, 0.002, 0.05, 4.995, -0.003, 0.003, 0.05
 261031379, 4.994, -0.002, 0.002, 0.05, 4.995, -0.002, 0.002, 0.05
 261231299, 4.994, -0.002, 0.002, 0.05, 4.994, -0.002, 0.002, 0.05
 261431219, 4.995, -0.002, 0.001, 0.05, 4.994, -0.002, 0.002, 0.05
 261631139, 4.995, -0.002, 0, 0.05, 4.995, -0.002, 0.001, 0.05
 261831059, 4.995, -0.002, 0, 0.05, 4.995, -0.002, 0, 0.05
 262030979, 4.995, -0.002, 0, 0.05, 4.995, -0.002, 0, 0.05
 262230899, 4.996, -0.002, 0, 0.05, 4.995, -0.002, 0, 0.05
 262430819, 4.996, -0.002, 0, 0.05, 4.996, -0.002, 0, 0.05
 262630739, 4.996, -0.001, -0.001, 0.05, 4.996, -0.002, 0, 0.05
 262830659, 4.997, 0, -0.001, 0.05, 4.996, -0.001, -0.001, 0.05
 263031412, 4.997, 0, -0.002, 0.05, 4.997, 0, -0.001, 0.05
 263231332, 0, 0.0125, -0.002, 0.05, 4.997, 0, -0.002, 0.05
 263431252, 0, 0.0125, -0.002, 0.05, 0, 0.0125, -0.002, 0.05
 263631172, 0, 0.0125, -0.003, 0.05, 0, 0.0125, -0.002, 0.05
 263831092, 0, 0.0125, -0.003, 0.05, 0, 0.0125, -0.003, 0.05
 264031012, 0, 0.0125, -0.002, 0.05, 0, 0.0125, -0.003, 0.05
 264230932, 0, 0.0125, 0, 0.05, 0, 0.0125, -0.002, 0.05
 264430852, 0, 0.0125, 0.002, 0.05, 0, 0.0125, 0, 0.05
 264630772, 0, 0.0125, 0.006, 0.05, 0, 0.0125, 0.002, 0.05
 264830692, 0, 0.0125, 0.007, 0.05, 0, 0.0125, 0.006, 0.05
 265031445, 0, 0.0125, 0.008, 0.05, 0, 0.0125, 0.007, 0.05
 265231365, 0, 0.0125, 0.012, 0.05, 0, 0.0125, 0.008, 0.05
 265431285, 0, 0.0125, 0.018, 0.05, 0, 0.0125, 0.012, 0.05
 265631205, 0, 0.0125, 0.025, 0.05, 0, 0.0125, 0.018, 0.05
 265831125, 0, 0.0125, 0.035, 0.05, 0, 0.0125, 0.025, 0.05
 266031045, 0, 0.0125, 0.049, 0.05, 0, 0.0125, 0.035, 0.05
 266230965, 0, 0.0125, 0.08000001, 0.05, 0, 0.0125, 0.049, 0.05
 266430885, 0, 0.0125, 0.176, 0.05, 0, 0.0125, 0.08000001, 0.05
 266630805, 0, 0.0125, 0.248, 0.05, 0, 0.0125, 0.176, 0.05
 266830725, 0, 0.0125, 0.243, 0.05, 0, 0.0125, 0.248, 0.05
 267031478, 0, 0.0125, 0.178, 0.05, 0, 0.0125, 0.243, 0.05
 267231398, 0, 0.0125, 0.135, 0.05, 0, 0.0125, 0.178, 0.05
 267431318, 0, 0.0125, 0.138, 0.05, 0, 0.0125, 0.135, 0.05
 267631238, 0, 0.0125, 0.157, 0.05, 0, 0.0125, 0.138, 0.05
 267831158, 0, 0.0125, 0.16, 0.05, 0, 0.0125, 0.157, 0.05
 268031078, 0, 0.0125, 0.149, 0.05, 0, 0.0125, 0.16, 0.05
 268230998, 0, 0.0125, 0.136, 0.05, 0, 0.0125, 0.149, 0.05
 268430918, 0, 0.0125, 0.129, 0.05, 0, 0.0125, 0.136, 0.05
 268630838, 0, 0.0125, 0.127, 0.05, 0, 0.0125, 0.129, 0.05
 268830758, 0, 0.0125, 0.131, 0.05, 0, 0.0125, 0.127, 0.05
 269030678, 0, 0.0125, 0.138, 0.05, 0, 0.0125, 0.131, 0.05
 269231431, 0, 0.0125, 0.147, 0.05, 0, 0.0125, 0.138, 0.05
 269431351, 0, 0.0125, 0.157, 0.05, 0, 0.0125, 0.147, 0.05
 269631271, 0, 0.0125, 0.167, 0.05, 0, 0.0125, 0.157, 0.05
 269831191, 0, 0.0125, 0.175, 0.05, 0, 0.0125, 0.167, 0.05
 270031111, 0, 0.0125, 0.18, 0.05, 0, 0.0125, 0.175, 0.05
 270231031, 0, 0.0125, 0.181, 0.05, 0, 0.0125, 0.18, 0.05
 270430951, 0, 0.0125, 0.178, 0.05, 0, 0.0125, 0.181, 0.05
 270630871, 0, 0.0125, 0.163, 0.05, 0, 0.0125, 0.178, 0.05
 270830791, 0, 0.0125, 0.136, 0.05, 0, 0.0125, 0.163, 0.05
 271030711, 0, 0.0125, 0.09900001, 0.05, 0, 0.0125, 0.136, 0.05
 271231464, 0, 0.0125, 0.058, 0.05, 0, 0.0125, 0.09900001, 0.05
 271431384, 0, 0.0125, 0.015, 0.05, 0, 0.0125, 0.058, 0.05
 271631304, 0, 0.0125, -0.03, 0.05, 0, 0.0125, 0.015, 0.05
 271831224, 0, 0.0125, -0.07600001, 0.05, 0, 0.0125, -0.03, 0.05
 272031144, 0, 0.0125, -0.123, 0.05, 0, 0.0125, -0.07600001, 0.05
 272231064, 0, 0.0125, -0.167, 0.05, 0, 0.0125, -0.123, 0.05
 272430984, 0, 0.0125, -0.208, 0.05, 0, 0.0125, -0.167, 0.05
 272630904, 0, 0.0125, -0.241, 0.05, 0, 0.0125, -0.208, 0.05
 272830824, 0, 0.0125, -0.265, 0.05, 0, 0.0125, -0.241, 0.05
 273030744, 0, 0.0125, -0.279, 0.05, 0, 0.0125, -0.265, 0.05
 273230664, 0, 0.0125, -0.282, 0.05, 0, 0.0125, -0.279, 0.05
 273431417, 0, 0.0125, -0.275, 0.05, 0, 0.0125, -0.282, 0.05
 273631337, 0, 0.0125, -0.257, 0.05, 0, 0.0125, -0.275, 0.05
 273831257, 0, 0.0125, -0.232, 0.05, 0, 0.0125, -0.257, 0.05
 274031177, 0, 0.0125, -0.199, 0.05, 0, 0.0125, -0.232, 0.05
 274231097, 0, 0.0125, -0.163, 0.05, 0, 0.0125, -0.199, 0.05
 274431017, 0, 0.0125, -0.125, 0.05, 0, 0.0125, -0.163, 0.05
 274630937, 0, 0.0125, -0.08800001, 0.05, 0, 0.0125, -0.125, 0.05
 274830857, 0, 0.0125, -0.052, 0.05, 0, 0.0125, -0.08800001, 0.05
 275030777, 0, 0.0125, -0.02, 0.05, 0, 0.0125, -0.052, 0.05
 275230697, 0, 0.0125, 0.007, 0.05, 0, 0.0125, -0.02, 0.05
 275431450, 0, 0.0125, 0.027, 0.05, 0, 0.0125, 0.007, 0.05
 275631370, 0, 0.0125, 0.038, 0.05, 0, 0.0125, 0.027, 0.05
 275831290, 0, 0.0125, 0.044, 0.05, 0, 0.0125, 0.038, 0.05
 276031210, 0, 0.0125, 0.045, 0.05, 0, 0.0125, 0.044, 0.05
 276231130, 0, 0.0125, 0.044, 0.05, 0, 0.0125, 0.045, 0.05
 276431050, 0, 0.0125, 0.041, 0.05, 0, 0.0125, 0.044, 0.05
 276630970, 0, 0.0125, 0.036, 0.05, 0, 0.0125, 0.041, 0.05
 276830890, 0, 0.0125, 0.031, 0.05, 0, 0.0125, 0.036, 0.05
 277030810, 0, 0.0125, 0.026, 0.05, 0, 0.0125, 0.031, 0.05
 277230730, 0, 0.0125, 0.022, 0.05, 0, 0.0125, 0.026, 0.05
 277431483, 0, 0.0125, 0.017, 0.05, 0, 0.0125, 0.022, 0.05
 277631403, 0, 0.0125, 0.014, 0.05, 0, 0.0125, 0.017, 0.05
 277831323, 0, 0.0125, 0.011, 0.05, 0, 0.0125, 0.014, 0.05
 278031243, 0, 0.0125, 0.009000001, 0.05, 0, 0.0125, 0.011, 0.05
 278231163, 0, 0.0125, 0.008, 0.05, 0, 0.0125, 0.009000001, 0.05
 278431083, 0, 0.0125, 0.007, 0.05, 0, 0.0125, 0.008, 0.05
 278631003, 0, 0.0125, 0.006, 0.05, 0, 0.0125, 0.007, 0.05
 278830923, 0, 0.0125, 0.005, 0.05, 0, 0.0125, 0.006, 0.05
 279030843, 0, 0.0125, 0.004, 0.05, 0, 0.0125, 0.005, 0.05
 279230763, 0, 0.0125, 0.002, 0.05, 0, 0.0125, 0.004, 0.05
 279430683, 0, 0.0125, 0.001, 0.05, 0, 0.0125, 0.002, 0.05
 279631436, 0, 0.0125, 0, 0.05, 0, 0.0125, 0.001, 0.05
 279831356, 0, 0.0125, -0.002, 0.05, 0, 0.0125, 0, 0.05
 280031276, 0, 0.0125, -0.005, 0.05, 0, 0.0125, -0.002, 0.05
 280231196, 0, 0.0125, -0.008, 0.05, 0, 0.0125, -0.005, 0.05
 280431116, 0, 0.0125, -0.011, 0.05, 0, 0.0125, -0.008, 0.05
 280631036, 0, 0.0125, -0.014, 0.05, 0, 0.0125, -0.011, 0.05
 280830956, 0, 0.0125, -0.017, 0.05, 0, 0.0125, -0.014, 0.05
 281030876, 0, 0.0125, -0.02, 0.05, 0, 0.0125, -0.017, 0.05
 281230796, 0, 0.0125, -0.023, 0.05, 0, 0.0125, -0.02, 0.05
 281430716, 0, 0.0125, -0.027, 0.05, 0, 0.0125, -0.023, 0.05
 281631469, 0, 0.0125, -0.031, 0.05, 0, 0.0125, -0.027, 0.05
 281831389, 0, 0.0125, -0.033, 0.05, 0, 0.0125, -0.031, 0.05
 282031309, 0, 0.0125, -0.036, 0.05, 0, 0.0125, -0.033, 0.05
 282231229, 0, 0.0125, -0.04, 0.05, 0, 0.0125, -0.036, 0.05
 282431149, 0, 0.0125, -0.043, 0.05, 0, 0.0125, -0.04, 0.05
 282631069, 0, 0.0125, -0.045, 0.05, 0, 0.0125, -0.043, 0.05
 282830989, 0, 0.0125, -0.047, 0.05, 0, 0.0125, -0.045, 0.05
 283030909, 0, 0.0125, -0.049, 0.05, 0, 0.0125, -0.047, 0.05
 283230829, 0, 0.0125, -0.05, 0.05, 0, 0.0125, -0.049, 0.05
 283430749, 0, 0.0125, -0.052, 0.05, 0, 0.0125, -0.05, 0.05
 283630669, 0, 0.0125, -0.052, 0.05, 0, 0.0125, -0.052, 0.05
 283831422, 0, 0.0125, -0.052, 0.05, 0, 0.0125, -0.052, 0.05
 284031342, 0, 0.0125, -0.052, 0.05, 0, 0.0125, -0.052, 0.05
 284231262, 0, 0.0125, -0.051, 0.05, 0, 0.0125, -0.052, 0.05
 284431182, 0, 0.0125, -0.05, 0.05, 0, 0.0125, -0.051, 0.05
 284631102, 0, 0.0125, -0.049, 0.05, 0, 0.0125, -0.05, 0.05
 284831022, 0, 0.0125, -0.048, 0.05, 0, 0.0125, -0.049, 0.05
 285030942, 0, 0.0125, -0.048, 0.05, 0, 0.0125, -0.048, 0.05
 285230862, 0, 0.0125, -0.049, 0.05, 0, 0.0125, -0.048, 0.05
 285430782, 0, 0.0125, -0.051, 0.05, 0, 0.0125, -0.049, 0.05
 285630702, 0, 0.0125, -0.052, 0.05, 0, 0.0125, -0.051, 0.05
 285831455, 0, 0.0125, -0.055, 0.05, 0, 0.0125, -0.052, 0.05
 286031375, 0, 0.0125, -0.056, 0.05, 0, 0.0125, -0.055, 0.05
 286231295, 0, 0.0125, -0.056, 0.05, 0, 0.0125, -0.056, 0.05
 286431215, 0, 0.0125, -0.055, 0.05, 0, 0.0125, -0.056, 0.05
 286631135, 0, 0.0125, -0.053, 0.05, 0, 0.0125, -0.055, 0.05
 286831055, 0, 0.0125, -0.051, 0.05, 0, 0.0125, -0.053, 0.05
 287030975, 0, 0.0125, -0.048, 0.05, 0, 0.0125, -0.051, 0.05
 287230895, 0, 0.0125, -0.046, 0.05, 0, 0.0125, -0.048, 0.05
 287430815, 0, 0.0125, -0.044, 0.05, 0, 0.0125, -0.046, 0.05
 287630735, 0, 0.0125, -0.041, 0.05, 0, 0.0125, -0.044, 0.05
 287830655, 0, 0.0125, -0.038, 0.05, 0, 0.0125, -0.041, 0.05
 288031408, 0, 0.0125, -0.036, 0.05, 0, 0.0125, -0.038, 0.05
 288231328, 0, 0.0125, -0.034, 0.05, 0, 0.0125, -0.036, 0.05
 288431248, 0, 0.0125, -0.032, 0.05, 0, 0.0125, -0.034, 0.05
 288631168, 0, 0.0125, -0.03, 0.05, 0, 0.0125, -0.032, 0.05
 288831088, 0, 0.0125, -0.028, 0.05, 0, 0.0125, -0.03, 0.05
 289031008, 0, 0.0125, -0.026, 0.05, 0, 0.0125, -0.028, 0.05
 289230928, 0, 0.0125, -0.025, 0.05, 0, 0.0125, -0.026, 0.05
 289430848, 0, 0.0125, -0.024, 0.05, 0, 0.0125, -0.025, 0.05
 289630768, 0, 0.0125, -0.023, 0.05, 0, 0.0125, -0.024, 0.05
 289830688, 0, 0.0125, -0.022, 0.05, 0, 0.0125, -0.023, 0.05
 290031441, 0, 0.0125, -0.021, 0.05, 0, 0.0125, -0.022, 0.05
 290231361, 0, 0.0125, -0.02, 0.05, 0, 0.0125, -0.021, 0.05
 290431281, 0, 0.0125, -0.017, 0.05, 0, 0.0125, -0.02, 0.05
 290631201, 0, 0.0125, -0.014, 0.05, 0, 0.0125, -0.017, 0.05
 290831121, 0, 0.0125, -0.01, 0.05, 0, 0.0125, -0.014, 0.05
 291031041, 0, 0.0125, -0.005, 0.05, 0, 0.0125, -0.01, 0.05
 291230961, 0, 0.0125, -0.002, 0.05, 0, 0.0125, -0.005, 0.05
 291430881, 0, 0.0125, 0, 0.05, 0, 0.0125, -0.002, 0.05
 291630801, 0, 0.0125, 0.002, 0.05, 0, 0.0125, 0, 0.05
 291830721, 0, 0.0125, 0.003, 0.05, 0, 0.0125, 0.002, 0.05
 292031474, 0, 0.0125, 0.004, 0.05, 0, 0.0125, 0.003, 0.05
 292231394, 0, 0.0125, 0.003, 0.05, 0, 0.0125, 0.004, 0.05
 292431314, 0, 0.0125, 0.004, 0.05, 0, 0.0125, 0.003, 0.05
 292631234, 0, 0.0125, 0.003, 0.05, 0, 0.0125, 0.004, 0.05
 292831154, 0, 0.0125, 0.003, 0.05, 0, 0.0125, 0.003, 0.05
 293031074, 0, 0.0125, 0.002, 0.05, 0, 0.0125, 0.003, 0.05
 293230994, 0, 0.0125, 0.002, 0.05, 0, 0.0125, 0.002, 0.05
 293430914, 0, 0.0125, 0.001, 0.05, 0, 0.0125, 0.002, 0.05
 293630834, 0, 0.0125, 0.001, 0.05, 0, 0.0125, 0.001, 0.05
 293830754, 0, 0.0125, 0.001, 0.05, 0, 0.0125, 0.001, 0.05
 294030674, 0, 0.0125, 0.001, 0.05, 0, 0.0125, 0.001, 0.05
 294231427, 0, 0.0125, 0.001, 0.05, 0, 0.0125, 0.001, 0.05
 294431347, 0, 0.0125, 0.001, 0.05, 0, 0.0125, 0.001, 0.05
 294631267, 0, 0.0125, 0.001, 0.05, 0, 0.0125, 0.001, 0.05
 294831187, 0, 0.0125, 0.001, 0.05, 0, 0.0125, 0.001, 0.05
 295031107, 0, 0.0125, 0, 0.05, 0, 0.0125, 0.001, 0.05
 295231027, 0, 0.0125, 0, 0.05, 0, 0.0125, 0, 0.05
 295430947, 0, 0.0125, 0, 0.05, 0, 0.0125, 0, 0.05
 295630867, 0, 0.0125, -0.001, 0.05, 0, 0.0125, 0, 0.05
 295830787, 0, 0.0125, -0.001, 0.05, 0, 0.0125, -0.001, 0.05
 296030707, 0, 0.0125, -0.001, 0.05, 0, 0.0125, -0.001, 0.05
 296231460, 0, 0.0125, 0, 0.05, 0, 0.0125, -0.001, 0.05
 296431380, 0, 0.0125, -0.001, 0.05, 0, 0.0125, 0, 0.05
 296631300, 0, 0.0125, -0.001, 0.05, 0, 0.0125, -0.001, 0.05
 296831220, 0, 0.0125, 0, 0.05, 0, 0.0125, -0.001, 0.05
 297031140, 0, 0.0125, 0, 0.05, 0, 0.0125, 0, 0.05
 297231060, 0, 0.0125, 0, 0.05, 0, 0.0125, 0, 0.05
 297430980, 0, 0.0125, 0.001, 0.05, 0, 0.0125, 0, 0.05
 297630900, 0, 0.0125, 0.001, 0.05, 0, 0.0125, 0.001, 0.05
 297830820, 0, 0.0125, 0.002, 0.05, 0, 0.0125, 0.001, 0.05
 298030740, 0, 0.0125, 0.002, 0.05, 0, 0.0125, 0.002, 0.05
 298230660, 0, 0.0125, 0.003, 0.05, 0, 0.0125, 0.002, 0.05
 298431413, 0, 0.0125, 0.003, 0.05, 0, 0.0125, 0.003, 0.05
 298631333, 0, 0.0125, 0.004, 0.05, 0, 0.0125, 0.003, 0.05
 298831253, 0, 0.0125, 0.005, 0.05, 0, 0.0125, 0.004, 0.05
 299031173, 0, 0.0125, 0.005, 0.05, 0, 0.0125, 0.005, 0.05
 299231093, 0, 0.0125, 0.006, 0.05, 0, 0.0125, 0.005, 0.05
 299431013, 0, 0.0125, 0.006, 0.05, 0, 0.0125, 0.006, 0.05
 299630933, 0, 0.0125, 0.006, 0.05, 0, 0.0125, 0.006, 0.05
 299830853, 0, 0.0125, 0.006, 0.05, 0, 0.0125, 0.006, 0.05
 300030773, 0, 0.0125, 0.007, 0.05, 0, 0.0125, 0.006, 0.05
 300230693, 0, 0.0125, 0.007, 0.05, 0, 0.0125, 0.007, 0.05
 300431446, 0, 0.0125, 0.007, 0.05, 0, 0.0125, 0.007, 0.05
 300631366, 0, 0.0125, 0.007, 0.05, 0, 0.0125, 0.007, 0.05
 300831286, 0, 0.0125, 0.007, 0.05, 0, 0.0125, 0.007, 0.05
 301031206, 0, 0.0125, 0.007, 0.05, 0, 0.0125, 0.007, 0.05
 301231126, 0, 0.0125, 0.006, 0.05, 0, 0.0125, 0.007, 0.05
 301431046, 0, 0.0125, 0.007, 0.05, 0, 0.0125, 0.006, 0.05
 301630966, 0, 0.0125, 0.006, 0.05, 0, 0.0125, 0.007, 0.05
 301830886, 0, 0.0125, 0.005, 0.05, 0, 0.0125, 0.006, 0.05
 302030806, 0, 0.0125, 0.005, 0.05, 0, 0.0125, 0.005, 0.05
 302230726, 0, 0.0125, 0.005, 0.05, 0, 0.0125, 0.005, 0.05
 302431479, 0, 0.0125, 0.004, 0.05, 0, 0.0125, 0.005, 0.05
 302631399, 0, 0.0125, 0.004, 0.05, 0, 0.0125, 0.004, 0.05
 302831319, 0, 0.0125, 0.004, 0.05, 0, 0.0125, 0.004, 0.05
 303031239, 0, 0.0125, 0.003, 0.05, 0, 0.0125, 0.004, 0.05
 303231159, 0, 0.0125, 0.003, 0.05, 0, 0.0125, 0.003, 0.05
 303431079, 0, 0.0125, 0.003, 0.05, 0, 0.0125, 0.003, 0.05
 303630999, 0, 0.0125, 0.003, 0.05, 0, 0.0125, 0.003, 0.05
 303830919, 0, 0.0125, 0.002, 0.05, 0, 0.0125, 0.003, 0.05
 304030839, 0, 0.0125, 0.002, 0.05, 0, 0.0125, 0.002, 0.05
 304230759, 0, 0.0125, 0.001, 0.05, 0, 0.0125, 0.002, 0.05
 304430679, 0, 0.0125, 0.001, 0.05, 0, 0.0125, 0.001, 0.05
 304631432, 0, 0.0125, 0, 0.05, 0, 0.0125, 0.001, 0.05
 304831352, 0, 0.0125, 0, 0.05, 0, 0.0125, 0, 0.05
 305031272, 0, 0.0125, 0, 0.05, 0, 0.0125, 0, 0.05
 305231192, 0, 0.0125, 0, 0.05, 0, 0.0125, 0, 0.05
 305431112, 0, 0.0125, 0, 0.05, 0, 0.0125, 0, 0.05
 305631032, 0, 0.0125, 0, 0.05, 0, 0.0125, 0, 0.05
 305830952, 0, 0.0125, -0.001, 0.05, 0, 0.0125, 0, 0.05
 306030872, 0, 0.0125, 0, 0.05, 0, 0.0125, -0.001, 0.05
 306230792, 0, 0.0125, 0, 0.05, 0, 0.0125, 0, 0.05
 306430712, 0, 0.0125, 0, 0.05, 0, 0.0125, 0, 0.05
 306631465, 0, 0.0125, -0.001, 0.05, 0, 0.0125, 0, 0.05
 306831385, 0, 0.0125, -0.001, 0.05, 0, 0.0125, -0.001, 0.05
 307031305, 0, 0.0125, -0.001, 0.05, 0, 0.0125, -0.001, 0.05
 307231225, 0, 0.0125, -0.001, 0.05, 0, 0.0125, -0.001, 0.05
 307431145, 0, 0.0125, -0.002, 0.05, 0, 0.0125, -0.001, 0.05
 307631065, 0, 0.0125, -0.002, 0.05, 0, 0.0125, -0.002, 0.05
 307830985, 0, 0.0125, -0.002, 0.05, 0, 0.0125, -0.002, 0.05
 308030905, 0, 0.0125, -0.001, 0.05, 0, 0.0125, -0.002, 0.05
 308230825, 0, 0.0125, -0.001, 0.05, 0, 0.0125, -0.001, 0.05
 308430745, 0, 0.0125, -0.001, 0.05, 0, 0.0125, -0.001, 0.05
 308630665, 0, 0.0125, -0.001, 0.05, 0, 0.0125, -0.001, 0.05
 308831418, 0, 0.0125, -0.002, 0.05, 0, 0.0125, -0.001, 0.05
 309031338, 0, 0.0125, -0.002, 0.05, 0, 0.0125, -0.002, 0.05
 309231258, 0, 0.0125, -0.003, 0.05, 0, 0.0125, -0.002, 0.05
 309431178, 0, 0.0125, -0.002, 0.05, 0, 0.0125, -0.003, 0.05
 309631098, 0, 0.0125, -0.002, 0.05, 0, 0.0125, -0.002, 0.05
 309831018, 0, 0.0125, -0.003, 0.05, 0, 0.0125, -0.002, 0.05
 310030938, 0, 0.0125, -0.002, 0.05, 0, 0.0125, -0.003, 0.05
 310230858, 0, 0.0125, -0.001, 0.05, 0, 0.0125, -0.002, 0.05
 310430778, 0, 0.0125, -0.002, 0.05, 0, 0.0125, -0.001, 0.05
 310630698, 0, 0.0125, -0.001, 0.05, 0, 0.0125, -0.002, 0.05
 310831451, 0, 0.0125, -0.001, 0.05, 0, 0.0125, -0.001, 0.05
 311031371, 0, 0.0125, -0.001, 0.05, 0, 0.0125, -0.001, 0.05
 311231291, 0, 0.0125, -0.001, 0.05, 0, 0.0125, -0.001, 0.05
 311431211, 0, 0.0125, -0.001, 0.05, 0, 0.0125, -0.001, 0.05
 311631131, 0, 0.0125, -0.001, 0.05, 0, 0.0125, -0.001, 0.05
 311831051, 0, 0.0125, -0.002, 0.05, 0, 0.0125, -0.001, 0.05
 312030971, 0, 0.0125, -0.001, 0.05, 0, 0.0125, -0.002, 0.05
 312230891, 0, 0.0125, -0.001, 0.05, 0, 0.0125, -0.001, 0.05
 312430811, 0, 0.0125, -0.002, 0.05, 0, 0.0125, -0.001, 0.05
 312630731, 0, 0.0125, -0.002, 0.05, 0, 0.0125, -0.002, 0.05
 312831484, 0, 0.0125, -0.002, 0.05, 0, 0.0125, -0.002, 0.05
 313031404, 0, 0.0125, -0.001, 0.05, 0, 0.0125, -0.002, 0.05
 313231324, 0, 0.0125, -0.001, 0.05, 0, 0.0125, -0.001, 0.05
 313431244, 0, 0.0125, -0.002, 0.05, 0, 0.0125, -0.001, 0.05
 313631164, 0, 0.0125, -0.002, 0.05, 0, 0.0125, -0.002, 0.05
 313831084, 0, 0.0125, -0.002, 0.05, 0, 0.0125, -0.002, 0.05
 314031004, 0, 0.0125, -0.002, 0.05, 0, 0.0125, -0.002, 0.05
 314230924, 0, 0.0125, -0.001, 0.05, 0, 0.0125, -0.002, 0.05
 314430844, 0, 0.0125, 0, 0.05, 0, 0.0125, -0.001, 0.05
 314630764, 0, 0.0125, 0, 0.05, 0, 0.0125, 0, 0.05
 314830684, 0, 0.0125, 0, 0.05, 0, 0.0125, 0, 0.05
 315031437, 0, 0.0125, 0, 0.05, 0, 0.0125, 0, 0.05
 315231357, 0, 0.0125, 0, 0.05, 0, 0.0125, 0, 0.05
 315431277, 0, 0.0125, 0, 0.05, 0, 0.0125, 0, 0.05
 315631197, 0, 0.0125, 0, 0.05, 0, 0.0125, 0, 0.05
 315831117, 0, 0.0125, 0.001, 0.05, 0, 0.0125, 0, 0.05
 316031037, 0, 0.0125, 0.001, 0.05, 0, 0.0125, 0.001, 0.05
 316230957, 0, 0.0125, 0.001, 0.05, 0, 0.0125, 0.001, 0.05
 316430877, 0, 0.0125, 0.001, 0.05, 0, 0.0125, 0.001, 0.05
 316630797, 0, 0.0125, 0.001, 0.05, 0, 0.0125, 0.001, 0.05
 316830717, 0, 0.0125, 0.001, 0.05, 0, 0.0125, 0.001, 0.05
 317031470, 0, 0.0125, 0.001, 0.05, 0, 0.0125, 0.001, 0.05
 317231390, 0, 0.0125, 0, 0.05, 0, 0.0125, 0.001, 0.05
 317431310, 0, 0.0125, 0, 0.05, 0, 0.0125, 0, 0.05
 317631230, 0, 0.0125, 0.001, 0.05, 0, 0.0125, 0, 0.05
 317831150, 0, 0.0125, 0.001, 0.05, 0, 0.0125, 0.001, 0.05
 318031070, 0, 0.0125, 0, 0.05, 0, 0.0125, 0.001, 0.05
 318230990, 0, 0.0125, 0.001, 0.05, 0, 0.0125, 0, 0.05
 318430910, 0, 0.0125, 0.001, 0.05, 0, 0.0125, 0.001, 0.05
 318630830, 0, 0.0125, 0, 0.05, 0, 0.0125, 0.001, 0.05
 318830750, 0, 0.0125, 0, 0.05, 0, 0.0125, 0, 0.05
 319030670, 0, 0.0125, 0, 0.05, 0, 0.0125, 0, 0.05
 319231423, 0, 0.0125, 0, 0.05, 0, 0.0125, 0, 0.05
 319431343, 0, 0.0125, 0, 0.05, 0, 0.0125, 0, 0.05
 319631263, 0, 0.0125, -0.001, 0.05, 0, 0.0125, 0, 0.05
 319831183, 0, 0.0125, 0, 0.05, 0, 0.0125, -0.001, 0.05
 320031103, 0, 0.0125, 0, 0.05, 0, 0.0125, 0, 0.05
 320231023, 0, 0.0125, 0, 0.05, 0, 0.0125, 0, 0.05
 320430943, 0, 0.0125, -0.001, 0.05, 0, 0.0125, 0, 0.05
 320630863, 0, 0.0125, -0.001, 0.05, 0, 0.0125, -0.001, 0.05
 320830783, 0, 0.0125, 0, 0.05, 0, 0.0125, -0.001, 0.05
 321030703, 0, 0.0125, 0, 0.05, 0, 0.0125, 0, 0.05
 321231456, 0, 0.0125, 0, 0.05, 0, 0.0125, 0, 0.05
 321431376, 0, 0.0125, 0, 0.05, 0, 0.0125, 0, 0.05
 321631296, 0, 0.0125, 0.001, 0.05, 0, 0.0125, 0, 0.05
 321831216, 0, 0.0125, 0.001, 0.05, 0, 0.0125, 0.001, 0.05
 322031136, 0, 0.0125, 0.002, 0.05, 0, 0.0125, 0.001, 0.05
 322231056, 0, 0.0125, 0.002, 0.05, 0, 0.0125, 0.002, 0.05
 322430976, 0, 0.0125, 0.001, 0.05, 0, 0.0125, 0.002, 0.05
 322630896, 0, 0.0125, 0.001, 0.05, 0, 0.0125, 0.001, 0.05
 322830816, 0, 0.0125, 0, 0.05, 0, 0.0125, 0.001, 0.05
 323030736, 0, 0.0125, 0, 0.05, 0, 0.0125, 0, 0.05
 323230656, 0, 0.0125, 0, 0.05, 0, 0.0125, 0, 0.05
 323431409, 0, 0.0125, 0, 0.05, 0, 0.0125, 0, 0.05
 323631329, 14.286, -4.907, 0, 0.05, 0, 0.0125, 0, 0.05
 323831249, 14.277, -4.914, 0, 0.05, 14.286, -4.907, 0, 0.05
 324031169, 14.269, -4.922, 0, 0.05, 14.277, -4.914, 0, 0.05
 324231089, 14.262, -4.93, -0.002, 0.05, 14.269, -4.922, 0, 0.05
 324431009, 14.233, -4.93, -0.012, 0.05, 14.262, -4.93, -0.002, 0.05
 324630929, 13.971, -4.846, -0.025, 0.05, 14.233, -4.93, -0.012, 0.05
 324830849, 13.728, -4.738, 0.059, 0.05, 13.971, -4.846, -0.025, 0.05
 325030769, 12.985, -4.222, 0.048, 0.05, 13.728, -4.738, 0.059, 0.05
 325230689, 10.933, -3.207, 0.264, 0.05, 12.985, -4.222, 0.048, 0.05
 325431442, 8.326, -1.803, 0.613, 0.05, 10.933, -3.207, 0.264, 0.05
 325631362, 5.893, -0.293, 0.848, 0.05, 8.326, -1.803, 0.613, 0.05
 325831282, 3.813, 0.8280001, 1.02, 0.05, 5.893, -0.293, 0.848, 0.05
 326031202, 1.984, 1.458, 1.165, 0.05, 3.813, 0.8280001, 1.02, 0.05
 326231122, 0.514, 1.654, 1.262, 0.05, 1.984, 1.458, 1.165, 0.05
 326431042, -0.568, 1.558, 1.35, 0.05, 0.514, 1.654, 1.262, 0.05
 326630962, -1.399, 1.246, 1.455, 0.05, -0.568, 1.558, 1.35, 0.05
 326830882, -2.092, 0.7270001, 1.587, 0.05, -1.399, 1.246, 1.455, 0.05
 327030802, -2.646, 0.048, 1.737, 0.05, -2.092, 0.7270001, 1.587, 0.05
 327230722, -3.036, -0.703, 1.879, 0.05, -2.646, 0.048, 1.737, 0.05
 327431475, -3.24, -1.438, 1.977, 0.05, -3.036, -0.703, 1.879, 0.05
 327631395, -3.233, -2.07, 1.996, 0.05, -3.24, -1.438, 1.977, 0.05
 327831315, -3.016, -2.536, 1.928, 0.05, -3.233, -2.07, 1.996, 0.05
 328031235, -2.634, -2.816, 1.791, 0.05, -3.016, -2.536, 1.928, 0.05
 328231155, -2.142, -2.923, 1.61, 0.05, -2.634, -2.816, 1.791, 0.05
 328431075, -1.59, -2.883, 1.412, 0.05, -2.142, -2.923, 1.61, 0.05
 328630995, -1.011, -2.722, 1.226, 0.05, -1.59, -2.883, 1.412, 0.05
 328830915, -0.443, -2.448, 1.07, 0.05, -1.011, -2.722, 1.226, 0.05
 329030835, -0.025, -2.097, 0.955, 0.05, -0.443, -2.448, 1.07, 0.05
 329230755, 0.207, -1.725, 0.906, 0.05, -0.025, -2.097, 0.955, 0.05
 329430675, 0.363, -1.347, 0.918, 0.05, 0.207, -1.725, 0.906, 0.05
 329631428, 0.493, -0.9720001, 0.975, 0.05, 0.363, -1.347, 0.918, 0.05
 329831348, 0.59, -0.612, 1.056, 0.05, 0.493, -0.9720001, 0.975, 0.05
 330031268, 0.646, -0.282, 1.149, 0.05, 0.59, -0.612, 1.056, 0.05
 330231188, 0.673, 0.011, 1.242, 0.05, 0.646, -0.282, 1.149, 0.05
 330431108, 0.6810001, 0.271, 1.328, 0.05, 0.673, 0.011, 1.242, 0.05
 330631028, 0.673, 0.504, 1.4, 0.05, 0.6810001, 0.271, 1.328, 0.05
 330830948, 0.647, 0.707, 1.458, 0.05, 0.673, 0.504, 1.4, 0.05
 331030868, 0.601, 0.8660001, 1.501, 0.05, 0.647, 0.707, 1.458, 0.05
 331230788, 0.536, 0.9710001, 1.532, 0.05, 0.601, 0.8660001, 1.501, 0.05
 331430708, 0.454, 1.026, 1.553, 0.05, 0.536, 0.9710001, 1.532, 0.05
 331631461, 0.365, 1.039, 1.566, 0.05, 0.454, 1.026, 1.553, 0.05
 331831381, 0.275, 1.018, 1.572, 0.05, 0.365, 1.039, 1.566, 0.05
 332031301, 0.187, 0.97, 1.574, 0.05, 0.275, 1.018, 1.572, 0.05
 332231221, 0.104, 0.901, 1.571, 0.05, 0.187, 0.97, 1.574, 0.05
 332431141, 0.028, 0.816, 1.565, 0.05, 0.104, 0.901, 1.571, 0.05
 332631061, -0.038, 0.717, 1.556, 0.05, 0.028, 0.816, 1.565, 0.05
 332830981, -0.093, 0.608, 1.547, 0.05, -0.038, 0.717, 1.556, 0.05
 333030901, -0.137, 0.499, 1.537, 0.05, -0.093, 0.608, 1.547, 0.05
 333230821, -0.168, 0.396, 1.528, 0.05, -0.137, 0.499, 1.537, 0.05
 333430741, -0.186, 0.301, 1.52, 0.05, -0.168, 0.396, 1.528, 0.05
 333630661, -0.195, 0.216, 1.515, 0.05, -0.186, 0.301, 1.52, 0.05
 333831414, -0.199, 0.139, 1.511, 0.05, -0.195, 0.216, 1.515, 0.05
 334031334, -0.195, 0.067, 1.506, 0.05, -0.199, 0.139, 1.511, 0.05
 334231254, -0.185, 0.002, 1.5, 0.05, -0.195, 0.067, 1.506, 0.05
 334431174, -0.169, -0.052, 1.493, 0.05, -0.185, 0.002, 1.5, 0.05
 334631094, -0.148, -0.094, 1.485, 0.05, -0.169, -0.052, 1.493, 0.05
 334831014, -0.123, -0.124, 1.478, 0.05, -0.148, -0.094, 1.485, 0.05
 335030934, -0.093, -0.144, 1.469, 0.05, -0.123, -0.124, 1.478, 0.05
 335230854, -0.06, -0.155, 1.462, 0.05, -0.093, -0.144, 1.469, 0.05
 335430774, -0.027, -0.158, 1.455, 0.05, -0.06, -0.155, 1.462, 0.05
 335630694, 0.006, -0.154, 1.448, 0.05, -0.027, -0.158, 1.455, 0.05
 335831447, 0.038, -0.143, 1.442, 0.05, 0.006, -0.154, 1.448, 0.05
 336031367, 0.067, -0.126, 1.437, 0.05, 0.038, -0.143, 1.442, 0.05
 336231287, 0.089, -0.106, 1.433, 0.05, 0.067, -0.126, 1.437, 0.05
 336431207, 0.106, -0.083, 1.429, 0.05, 0.089, -0.106, 1.433, 0.05
 336631127, 0.119, -0.058, 1.426, 0.05, 0.106, -0.083, 1.429, 0.05
 336831047, 0.128, -0.032, 1.424, 0.05, 0.119, -0.058, 1.426, 0.05
 337030967, 0.132, -0.007, 1.422, 0.05, 0.128, -0.032, 1.424, 0.05
 337230887, 0.13, 0.015, 1.421, 0.05, 0.132, -0.007, 1.422, 0.05
 337430807, 0.123, 0.035, 1.42, 0.05, 0.13, 0.015, 1.421, 0.05
 337630727, 0.111, 0.052, 1.42, 0.05, 0.123, 0.035, 1.42, 0.05
 337831480, 0.096, 0.067, 1.419, 0.05, 0.111, 0.052, 1.42, 0.05
 338031400, 0.08000001, 0.07600001, 1.419, 0.05, 0.096, 0.067, 1.419, 0.05
 338231320, 0.062, 0.083, 1.419, 0.05, 0.08000001, 0.07600001, 1.419, 0.05
 338431240, 0.042, 0.087, 1.419, 0.05, 0.062, 0.083, 1.419, 0.05
 338631160, 0.02, 0.08800001, 1.418, 0.05, 0.042, 0.087, 1.419, 0.05
 338831080, 0, 0.086, 1.418, 0.05, 0.02, 0.08800001, 1.418, 0.05
 339031000, -0.021, 0.082, 1.418, 0.05, 0, 0.086, 1.418, 0.05
 339230920, -0.04, 0.075, 1.418, 0.05, -0.021, 0.082, 1.418, 0.05
 339430840, -0.056, 0.06500001, 1.419, 0.05, -0.04, 0.075, 1.418, 0.05
 339630760, -0.067, 0.052, 1.42, 0.05, -0.056, 0.06500001, 1.419, 0.05
 339830680, -0.07600001, 0.038, 1.42, 0.05, -0.067, 0.052, 1.42, 0.05
 340031433, -0.083, 0.025, 1.421, 0.05, -0.07600001, 0.038, 1.42, 0.05
 340231353, -0.09, 0.012, 1.421, 0.05, -0.083, 0.025, 1.421, 0.05
 340431273, -0.093, 0, 1.421, 0.05, -0.09, 0.012, 1.421, 0.05
 340631193, -0.09100001, -0.009000001, 1.422, 0.05, -0.093, 0, 1.421, 0.05
 340831113, -0.085, -0.019, 1.422, 0.05, -0.09100001, -0.009000001, 1.422, 0.05
 341031033, -0.07600001, -0.028, 1.422, 0.05, -0.085, -0.019, 1.422, 0.05
 341230953, -0.064, -0.037, 1.422, 0.05, -0.07600001, -0.028, 1.422, 0.05
 341430873, -0.051, -0.046, 1.422, 0.05, -0.064, -0.037, 1.422, 0.05
 341630793, -0.039, -0.052, 1.422, 0.05, -0.051, -0.046, 1.422, 0.05
 341830713, -0.027, -0.056, 1.409, 0.05, -0.039, -0.052, 1.422, 0.05
 342031466, -0.013, -0.057, 1.362, 0.05, -0.027, -0.056, 1.409, 0.05
 342231386, 0.001, -0.056, 1.273, 0.05, -0.013, -0.057, 1.362, 0.05
 342431306, 0.014, -0.054, 1.138, 0.05, 0.001, -0.056, 1.273, 0.05
 342631226, 0.023, -0.05, 0.956, 0.05, 0.014, -0.054, 1.138, 0.05
 342831146, 0.031, -0.044, 0.756, 0.05, 0.023, -0.05, 0.956, 0.05
 343031066, 0.036, -0.035, 0.577, 0.05, 0.031, -0.044, 0.756, 0.05
 343230986, 0.04, -0.027, 0.438, 0.05, 0.036, -0.035, 0.577, 0.05
 343430906, 0.041, -0.018, 0.35, 0.05, 0.04, -0.027, 0.438, 0.05
 343630826, 0.04, -0.01, 0.316, 0.05, 0.041, -0.018, 0.35, 0.05
 343830746, 0.037, -0.001, 0.324, 0.05, 0.04, -0.01, 0.316, 0.05
 344030666, 0.033, 0.006, 0.35, 0.05, 0.037, -0.001, 0.324, 0.05
 344231419, 0.029, 0.013, 0.383, 0.05, 0.033, 0.006, 0.35, 0.05
 344431339, 0.025, 0.019, 0.414, 0.05, 0.029, 0.013, 0.383, 0.05
 344631259, 0.019, 0.024, 0.441, 0.05, 0.025, 0.019, 0.414, 0.05
 344831179, 0.012, 0.028, 0.461, 0.05, 0.019, 0.024, 0.441, 0.05
 345031099, 0.006, 0.03, 0.475, 0.05, 0.012, 0.028, 0.461, 0.05
 345231019, 0, 0.03, 0.484, 0.05, 0.006, 0.03, 0.475, 0.05
 345430939, -0.006, 0.031, 0.488, 0.05, 0, 0.03, 0.484, 0.05
 345630859, -0.011, 0.029, 0.49, 0.05, -0.006, 0.031, 0.488, 0.05
 345830779, -0.012, 0.025, 0.49, 0.05, -0.011, 0.029, 0.49, 0.05
 346030699, -0.009000001, 0.018, 0.489, 0.05, -0.012, 0.025, 0.49, 0.05
 346231452, -0.009000001, 0.012, 0.488, 0.05, -0.009000001, 0.018, 0.489, 0.05
 346431372, -0.01, 0.007, 0.485, 0.05, -0.009000001, 0.012, 0.488, 0.05
 346631292, -0.011, 0.002, 0.484, 0.05, -0.01, 0.007, 0.485, 0.05
 346831212, -0.011, -0.003, 0.483, 0.05, -0.011, 0.002, 0.484, 0.05
 347031132, -0.009000001, -0.009000001, 0.483, 0.05, -0.011, -0.003, 0.483, 0.05
 347231052, -0.007, -0.012, 0.482, 0.05, -0.009000001, -0.009000001, 0.483, 0.05
 347430972, -0.007, -0.015, 0.482, 0.05, -0.007, -0.012, 0.482, 0.05
 347630892, -0.006, -0.018, 0.482, 0.05, -0.007, -0.015, 0.482, 0.05
 347830812, -0.006, -0.019, 0.482, 0.05, -0.006, -0.018, 0.482, 0.05
 348030732, -0.005, -0.018, 0.483, 0.05, -0.006, -0.019, 0.482, 0.05
 348231485, -0.003, -0.015, 0.483, 0.05, -0.005, -0.018, 0.483, 0.05
 348431405, -0.002, -0.01, 0.483, 0.05, -0.003, -0.015, 0.483, 0.05
 348631325, -0.001, -0.004, 0.483, 0.05, -0.002, -0.01, 0.483, 0.05
 348831245, 0, 0, 0.483, 0.05, -0.001, -0.004, 0.483, 0.05
 349031165, 0.001, 0.001, 0.482, 0.05, 0, 0, 0.483, 0.05
 349231085, 0.003, 0.002, 0.482, 0.05, 0.001, 0.001, 0.482, 0.05
 349431005, 0.005, 0.002, 0.482, 0.05, 0.003, 0.002, 0.482, 0.05
 349630925, 0.006, 0.003, 0.481, 0.05, 0.005, 0.002, 0.482, 0.05
 349830845, 0.008, 0.003, 0.481, 0.05, 0.006, 0.003, 0.481, 0.05
 350030765, 0.009000001, 0.003, 0.481, 0.05, 0.008, 0.003, 0.481, 0.05
 350230685, 0.01, 0.003, 0.48, 0.05, 0.009000001, 0.003, 0.481, 0.05
 350431438, 0.01, 0.003, 0.479, 0.05, 0.01, 0.003, 0.48, 0.05
 350631358, 0.01, 0.002, 0.479, 0.05, 0.01, 0.003, 0.479, 0.05
 350831278, 0.008, 0.002, 0.48, 0.05, 0.01, 0.002, 0.479, 0.05
 351031198, 0.007, 0.004, 0.48, 0.05, 0.008, 0.002, 0.48, 0.05
 351231118, 0.004, 0.006, 0.48, 0.05, 0.007, 0.004, 0.48, 0.05
 351431038, 0.002, 0.008, 0.48, 0.05, 0.004, 0.006, 0.48, 0.05
 351630958, 0, 0.012, 0.48, 0.05, 0.002, 0.008, 0.48, 0.05
 351830878, -0.003, 0.013, 0.481, 0.05, 0, 0.012, 0.48, 0.05
 352030798, -0.005, 0.013, 0.481, 0.05, -0.003, 0.013, 0.481, 0.05
 352230718, -0.006, 0.011, 0.48, 0.05, -0.005, 0.013, 0.481, 0.05
 352431471, -0.006, 0, 0.479, 0.05, -0.006, 0.011, 0.48, 0.05
 352631391, -0.005, 0, 0.479, 0.05, -0.006, 0, 0.479, 0.05
 352831311, -0.003, 0.016, 0.478, 0.05, -0.005, 0, 0.479, 0.05
 353031231, 0, 0.007, 0.477, 0.05, -0.003, 0.016, 0.478, 0.05
 353231151, 0.005, -0.009000001, 0.476, 0.05, 0, 0.007, 0.477, 0.05
 353431071, 0.01, -0.004, 0.477, 0.05, 0.005, -0.009000001, 0.476, 0.05
 353630991, 0.011, 0, 0.477, 0.05, 0.01, -0.004, 0.477, 0.05
 353830911, 0.011, -0.001, 0.477, 0.05, 0.011, 0, 0.477, 0.05
 354030831, 0.011, -0.004, 0.478, 0.05, 0.011, -0.001, 0.477, 0.05
 354230751, 0.011, -0.005, 0.478, 0.05, 0.011, -0.004, 0.478, 0.05
 354430671, 0.012, -0.003, 0.478, 0.05, 0.011, -0.005, 0.478, 0.05
 354631424, 0.014, 0.001, 0.478, 0.05, 0.012, -0.003, 0.478, 0.05
 354831344, 0.016, 0.005, 0.478, 0.05, 0.014, 0.001, 0.478, 0.05
 355031264, 0.018, 0.008, 0.478, 0.05, 0.016, 0.005, 0.478, 0.05
 355231184, 0.019, 0.008, 0.478, 0.05, 0.018, 0.008, 0.478, 0.05
 355431104, 0.017, 0.009000001, 0.478, 0.05, 0.019, 0.008, 0.478, 0.05
 355631024, 0.012, 0.012, 0.479, 0.05, 0.017, 0.009000001, 0.478, 0.05
 355830944, 0.006, 0.017, 0.48, 0.05, 0.012, 0.012, 0.479, 0.05
 356030864, 0, 0.021, 0.481, 0.05, 0.006, 0.017, 0.48, 0.05
 356230784, -0.003, 0.026, 0.482, 0.05, 0, 0.021, 0.481, 0.05
 356430704, -0.005, 0.026, 0.481, 0.05, -0.003, 0.026, 0.482, 0.05
 356631457, -0.011, 0.024, 0.482, 0.05, -0.005, 0.026, 0.481, 0.05
 356831377, -0.018, 0.022, 0.483, 0.05, -0.011, 0.024, 0.482, 0.05
 357031297, -0.025, 0.021, 0.484, 0.05, -0.018, 0.022, 0.483, 0.05
 357231217, -0.028, 0.018, 0.483, 0.05, -0.025, 0.021, 0.484, 0.05
 357431137, -0.028, 0.012, 0.482, 0.05, -0.028, 0.018, 0.483, 0.05
 357631057, -0.028, 0.007, 0.482, 0.05, -0.028, 0.012, 0.482, 0.05
 357830977, -0.027, 0.003, 0.481, 0.05, -0.028, 0.007, 0.482, 0.05
 358030897, -0.023, 0.002, 0.482, 0.05, -0.027, 0.003, 0.481, 0.05
 358230817, -0.017, 0.004, 0.483, 0.05, -0.023, 0.002, 0.482, 0.05
 358430737, -0.013, 0.006, 0.484, 0.05, -0.017, 0.004, 0.483, 0.05
 358630657, -0.007, 0.008, 0.482, 0.05, -0.013, 0.006, 0.484, 0.05
 358831410, 0.001, 0.006, 0.479, 0.05, -0.007, 0.008, 0.482, 0.05
 359031330, 0.009000001, 0.001, 0.476, 0.05, 0.001, 0.006, 0.479, 0.05
 359231250, 0.014, -0.003, 0.475, 0.05, 0.009000001, 0.001, 0.476, 0.05
 359431170, 0.017, -0.006, 0.473, 0.05, 0.014, -0.003, 0.475, 0.05
 359631090, 0.02, -0.01, 0.473, 0.05, 0.017, -0.006, 0.473, 0.05
 359831010, 0.023, -0.014, 0.473, 0.05, 0.02, -0.01, 0.473, 0.05
 360030930, 0.021, 0.001, 0.474, 0.05, 0.023, -0.014, 0.473, 0.05
 360230850, 0.011, 0.008, 0.473, 0.05, 0.021, 0.001, 0.474, 0.05
 360430770, -0.002, 0.008, 0.47, 0.05, 0.011, 0.008, 0.473, 0.05
 360630690, -0.014, 0.015, 0.475, 0.05, -0.002, 0.008, 0.47, 0.05
 360831443, -0.02, 0.018, 0.487, 0.05, -0.014, 0.015, 0.475, 0.05
 361031363, -0.022, 0.023, 0.502, 0.05, -0.02, 0.018, 0.487, 0.05
 361231283, -0.014, 0.015, 0.266, 0.05, -0.022, 0.023, 0.502, 0.05
 361431203, -0.001, -0.007, -0.15, 0.05, -0.014, 0.015, 0.266, 0.05
 361631123, 0, -0.007, -0.017, 0.05, -0.001, -0.007, -0.15, 0.05
 361831043, 0, -0.007, 0.022, 0.05, 0, -0.007, -0.017, 0.05
 362030963, 0, -0.007, 0, 0.05, 0, -0.007, 0.022, 0.05
 362230883, 0, -0.007, -0.002, 0.05, 0, -0.007, 0, 0.05
 362430803, 0, -0.007, 0, 0.05, 0, -0.007, -0.002, 0.05
 362630723, 0, -0.007, 0, 0.05, 0, -0.007, 0, 0.05
 362831476, 0, -0.007, 0, 0.05, 0, -0.007, 0, 0.05
 363031396, 0, -0.007, 0, 0.05, 0, -0.007, 0, 0.05
 363231316, 0, -0.007, 0, 0.05, 0, -0.007, 0, 0.05
 363431236, 0, -0.007, 0, 0.05, 0, -0.007, 0, 0.05
 363631156, 0, -0.007, 0, 0.05, 0, -0.007, 0, 0.05
