TimeUS,CAN,CAE,CAD,CAe,NAN,NAE,NAD,NAe,m10,m00
 196160671, -3.917789E-06, 4.496069E-05, -7.91233E-07, 6.484905E-06, 0, 0, 0, 0, -0.9999978, -0.00144333
 196231476, -0.2587642, 3.429484, -0.1218783, 0.5092208, -0.1925485, 3.43437, 0.0004293441, 0.5092143, -0.9999978, -0.00144279
 196431396, -0.19247, 3.441797, 0.0001778702, 0.5097404, -4.790335E-05, 0.004182424, -0.0001906502, 0.0005187925, -0.9999978, -0.001438866
 196631316, -0.0002378824, 0.01141707, -0.0003684393, 0.00104407, -0.0003987439, 0.003961852, 1.107488E-05, 0.0005187925, -0.9999978, -0.001432786
 196831236, -0.000432633, 0.01084234, -0.0001440307, 0.00104407, 0.0001924464, 0.004110239, -6.95868E-05, 0.0005187925, -0.9999978, -0.001425883
 197031156, -0.0002791668, 0.01118723, -2.70711E-05, 0.00104407, -0.0005187992, 0.003931674, -0.0002435103, 0.0005187925, -0.9999978, -0.001420059
 197231076, -0.0002405584, 0.01145549, -0.0004401342, 0.00104407, 0.0001167684, 0.004260274, -0.0001641463, 0.0005187925, -0.9999978, -0.001414016
 197430996, 0.0001393243, 0.01157085, -0.000469934, 0.00104407, -7.8788E-06, 0.00388643, -0.0004939153, 0.0005187925, -0.9999978, -0.001408897
 197630916, -5.714913E-05, 0.01100545, -0.0008839348, 0.00104407, 5.159964E-05, 0.003995184, -0.0001979179, 0.0005187925, -0.9999978, -0.0014037
 197830836, 0.0004331045, 0.01156927, -0.0004648815, 0.00104407, 0.0001660503, 0.004324478, -0.0003319294, 0.0005187925, -0.9999978, -0.001396811
 198030756, 0.0004153239, 0.01175433, -0.0008588037, 0.00104407, -1.667306E-05, 0.004380681, -0.0003571882, 0.0005187925, -0.9999978, -0.001390295
 198230676, 0.0001037876, 0.01191823, -0.0003443259, 0.00104407, 0.0003567853, 0.004039672, -0.0003232854, 0.0005187925, -0.9999978, -0.001383463
 198431429, 0.0002753192, 0.01138111, -0.0004934242, 0.001046232, 0.0001034452, 0.004128554, -0.0001311099, 0.0005209541, -0.9999978, -0.001379021
 198631349, -2.099498E-05, 0.01145023, -0.0002009018, 0.001046232, -0.000227559, 0.004208298, -0.0001422766, 0.0005187925, -0.9999978, -0.001384838
 198831269, 2.874341E-05, 0.01142637, -0.0001070131, 0.00104407, 0.0001896451, 0.004125988, -0.0005052463, 0.0005187925, -0.9999978, -0.001389498
 199031189, 0.0002988442, 0.01191947, -0.0006638802, 0.00104407, 0.0002373094, 0.00474982, -0.0002938358, 0.0005187925, -0.9999978, -0.001395063
 199231109, 0.0001279891, 0.01191385, -0.0004149577, 0.00104407, -0.0001384402, 0.004263312, -2.455087E-05, 0.0005187925, -0.9999978, -0.001398915
 199431029, -0.0001952092, 0.01145075, -3.454854E-05, 0.00104407, 7.172223E-05, 0.00413348, 3.21081E-05, 0.0005187925, -0.9999978, -0.001401676
 199630949, 3.023247E-05, 0.01124952, 0.0001429534, 0.00104407, 0.0001547194, 0.003789781, 5.253955E-05, 0.0005187925, -0.9999978, -0.001403694
 199830869, -7.156357E-05, 0.01144062, 2.235715E-05, 0.00104407, -0.0003767509, 0.004603362, -0.000157969, 0.0005187925, -0.9999978, -0.001405186
 200030789, -0.0003034397, 0.01184402, -0.0003129029, 0.00104407, 0.0005358801, 0.003849129, -0.0002665884, 0.0005187925, -0.9999978, -0.001405728
 200230709, 0.0007598068, 0.01102249, -4.588199E-05, 0.00104407, 0.0003070977, 0.004245373, 4.502164E-05, 0.0005187925, -0.9999978, -0.001405695
 200431462, 0.0003243685, 0.01140444, -0.0004629492, 0.001046232, 0.0001496624, 0.003896138, -0.000403345, 0.0005209541, -0.9999978, -0.001406929
 200631382, -2.996423E-05, 0.01144992, -0.0006613536, 0.001046232, -0.0001102529, 0.004230603, -0.0002703229, 0.0005187925, -0.9999978, -0.001406044
 200831302, 2.299016E-05, 0.01129603, -0.0002818184, 0.00104407, -2.758702E-05, 0.00423794, -3.636335E-05, 0.0005187925, -0.9999978, -0.001403679
 201031222, 4.746975E-05, 0.01151172, 4.854048E-05, 0.00104407, 0.0003803018, 0.00398677, -0.0002457804, 0.0005187925, -0.9999979, -0.001398147
 201231142, 0.0002797395, 0.01096269, -0.0003694581, 0.00104407, -0.0001015881, 0.003900267, 0.0001453486, 0.0005187925, -0.9999979, -0.001393225
 201431062, -0.0004246827, 0.0111252, 0.0001609158, 0.00104407, -0.000231258, 0.003975047, 8.133968E-06, 0.0005187925, -0.9999979, -0.001388214
 201630982, -4.717797E-05, 0.01093931, 4.772063E-05, 0.00104407, 0.0001033817, 0.003768706, 0.0003816902, 0.0005187925, -0.9999979, -0.001382701
 201830902, -0.0001381136, 0.01095723, 0.0002096446, 0.00104407, -0.0007017711, 0.004352215, 3.504544E-06, 0.0005187925, -0.9999979, -0.001376478
 202030822, -0.0005997897, 0.01172052, -0.0002117836, 0.00104407, 0.0002165221, 0.003955781, -0.000173572, 0.0005187925, -0.9999979, -0.001370417
 202230742, 0.0003080751, 0.01131484, -0.0003502838, 0.00104407, 0.0002779012, 0.00424851, 0.0002782006, 0.0005187925, -0.9999978, -0.001363494
 202430662, 0.0005213824, 0.01145699, -2.938764E-05, 0.00104407, 0.0002102833, 0.004096992, -0.000362579, 0.0005187925, -0.9999978, -0.001357292
 202631415, 0.0004201373, 0.0113155, -0.0005556481, 0.001046232, 0.000305081, 0.003831868, -0.0002002753, 0.0005209541, -0.9999978, -0.001352737
 202831335, 0.0004954245, 0.01108607, -0.0003913222, 0.001046232, -0.000108226, 0.003811744, 3.772537E-05, 0.0005187925, -0.9999978, -0.001346351
 203031255, -9.533431E-05, 0.01128107, -2.30029E-05, 0.00104407, 0.0004499948, 0.004692324, 0.000211401, 0.0005187925, -0.9999978, -0.001338868
 203231175, 0.000341177, 0.01198904, -0.0001492559, 0.00104407, 5.165142E-05, 0.004317418, -0.0005468444, 0.0005187925, -0.9999978, -0.001331675
 203431095, 0.0001560333, 0.01140657, -0.0005738989, 0.00104407, 0.000268492, 0.004122587, 0.0001712138, 0.0005187925, -0.9999978, -0.001322748
 203631015, 0.0004299453, 0.01161758, 0.0003243388, 0.00104407, 0.0004303707, 0.004209277, 2.716527E-05, 0.0005187925, -0.9999978, -0.001315509
 203830935, 0.0004612722, 0.01177184, -1.232012E-05, 0.00104407, -0.0002123349, 0.004330025, -5.01289E-05, 0.0005187925, -0.9999978, -0.001322408
 204030855, 9.348941E-05, 0.01174139, -0.0002990909, 0.00104407, 0.0001584115, 0.004287592, -0.0003141124, 0.0005187925, -0.9999978, -0.001329195
 204230775, 0.0002663386, 0.01160712, -0.0005063737, 0.00104407, 0.0004297442, 0.00410033, -0.0002557709, 0.0005187925, -0.9999978, -0.001334444
 204430695, 0.0005906124, 0.01133875, -0.0005899238, 0.00104407, -0.0001397281, 0.004242624, -0.0002154847, 0.0005187925, -0.9999978, -0.001338779
 204631448, -0.0001138123, 0.01153507, -3.417672E-05, 0.001046232, -1.030637E-05, 0.004491099, -0.0003133358, 0.0005209541, -0.9999979, -0.001344768
 204831368, 0.0001450977, 0.01142675, -0.0001664619, 0.001046232, -9.981704E-05, 0.003902861, 0.0001338554, 0.0005187925, -0.9999978, -0.001346504
 205031288, -0.0002065067, 0.01128679, -0.0003098774, 0.00104407, 1.524834E-05, 0.004399259, -0.0002634735, 0.0005187925, -0.9999978, -0.001347652
 205231208, -7.152273E-05, 0.01165363, -0.0003832929, 0.00104407, 0.0002180303, 0.004175725, -0.0002500583, 0.0005187925, -0.9999978, -0.001348746
 205431128, 0.000299225, 0.01130674, -0.000200779, 0.00104407, -0.000175412, 0.003595399, 0.0003008342, 0.0005187925, -0.9999978, -0.00135015
 205631048, 7.817188E-05, 0.01106074, -2.023958E-05, 0.00104407, 1.898719E-05, 0.003892448, 0.000300609, 0.0005187925, -0.9999978, -0.001350206
 205830968, -6.725476E-05, 0.01122257, 0.0001772922, 0.00104407, -0.000153073, 0.004424763, 0.000171265, 0.0005187925, -0.9999978, -0.001348299
 206030888, 6.083217E-06, 0.01159673, -0.0001404152, 0.00104407, -0.000184416, 0.003976133, -0.0002015309, 0.0005187925, -0.9999978, -0.001346545
 206230808, 6.720235E-05, 0.01111312, -0.0002107396, 0.00104407, 5.655297E-05, 0.004209923, 6.348931E-05, 0.0005187925, -0.9999978, -0.001344774
 206430728, 0.0002153375, 0.01134915, 0.0001606942, 0.00104407, 0.0003190202, 0.004108829, -0.0001404534, 0.0005187925, -0.9999978, -0.001342901
 206631481, 0.0004903033, 0.01137882, -0.0001202551, 0.001046232, -8.001728E-07, 0.004371379, 9.018548E-06, 0.0005209541, -0.9999978, -0.001342095
 206831401, -8.592712E-05, 0.01187716, 9.258181E-05, 0.001046232, -5.812333E-05, 0.004158967, -1.08449E-05, 0.0005187925, -0.9999979, -0.001340573
 207031321, -0.0001848396, 0.01120431, -0.0003327159, 0.00104407, -0.0001202839, 0.004475929, -0.0004644788, 0.0005187925, -0.9999979, -0.001337991
 207231241, 4.083879E-05, 0.01174234, -0.0004913916, 0.00104407, -9.257117E-05, 0.003841149, -2.102017E-06, 0.0005187925, -0.9999978, -0.001333253
 207431161, -0.0001823725, 0.01089793, 3.559238E-05, 0.00104407, -0.0002812225, 0.004178381, 0.0001050278, 0.0005187925, -0.9999978, -0.001328357
 207631081, -0.0001146662, 0.01138934, -7.225125E-05, 0.00104407, 0.0002360787, 0.004461291, 0.0001353009, 0.0005187925, -0.9999978, -0.001323485
 207831001, 0.0001311201, 0.0115153, 0.0001815344, 0.00104407, -1.428353E-05, 0.003710917, 0.0006072929, 0.0005187925, -0.9999978, -0.001318677
 208030921, -0.0001855476, 0.01136272, 0.0004758528, 0.00104407, -0.0001750195, 0.004352413, 0.0004429666, 0.0005187925, -0.9999978, -0.001313293
 208230841, -1.090332E-05, 0.01164236, 0.0003381996, 0.00104407, 0.0002124824, 0.004016838, -0.0002642408, 0.0005187925, -0.9999978, -0.001307344
 208430761, -3.215516E-05, 0.01129202, -0.0003072558, 0.00104407, -0.0002269485, 0.004470134, -0.0002232743, 0.0005187925, -0.9999978, -0.0013024
 208630681, -0.0001615201, 0.01190522, -0.0004451103, 0.00104407, -3.774675E-05, 0.004207174, -0.0001108441, 0.0005187925, -0.9999978, -0.001296205
 208831434, 4.65086E-05, 0.01200669, -0.0001105971, 0.001046232, 0.0002323659, 0.004456051, -4.289341E-05, 0.0005209541, -0.9999979, -0.001292189
 209031354, 0.0005222344, 0.01184206, 7.981088E-05, 0.001046232, 0.0005781366, 0.004156759, 0.000710333, 0.0005187925, -0.9999979, -0.001300871
 209231274, 0.0006545138, 0.01145556, 0.0007702153, 0.00104407, 0.0001213017, 0.003985586, 0.0005110448, 0.0005187925, -0.9999979, -0.001307267
 209431194, 6.59889E-05, 0.01139829, 0.0003366612, 0.00104407, -0.0003780129, 0.003721685, -0.0003019245, 0.0005187925, -0.9999979, -0.00131292
 209631114, -0.0006302721, 0.01103056, -0.0002268098, 0.00104407, 1.488942E-05, 0.004255923, 2.767648E-05, 0.0005187925, -0.9999979, -0.001317776
 209831034, -0.0001125498, 0.01159605, 1.563638E-05, 0.00104407, 0.0001330494, 0.004795221, 2.156587E-05, 0.0005187925, -0.9999979, -0.001321251
 210030954, 0.0002529174, 0.01212986, 0.0001558717, 0.00104407, 2.794337E-05, 0.004245426, -0.000218714, 0.0005187925, -0.9999979, -0.001324998
 210230874, -0.0001620247, 0.01159446, -8.250037E-05, 0.00104407, -0.0003045295, 0.004162956, 0.0002436128, 0.0005187925, -0.9999979, -0.001327641
 210430794, -0.0002124011, 0.01149994, 0.0001300303, 0.00104407, 0.0001876852, 0.00437935, -4.786722E-05, 0.0005187925, -0.9999979, -0.001328825
 210630714, 0.0001077518, 0.01115007, -6.48823E-05, 0.00104407, 0.0004009453, 0.003873941, -0.00014481, 0.0005187925, -0.9999979, -0.001327206
 210831467, 0.0002845612, 0.01135535, -2.028564E-05, 0.001046232, 0.0001126037, 0.003763667, 7.549722E-05, 0.0005209541, -0.9999979, -0.001327744
 211031387, 0.0001499814, 0.01117758, 9.345369E-05, 0.001046232, 3.740307E-06, 0.004262551, -0.0003960205, 0.0005187925, -0.9999979, -0.001327649
 211231307, 5.85808E-05, 0.01125957, -0.0007090056, 0.00104407, -6.737938E-05, 0.003741227, 2.025699E-07, 0.0005187925, -0.9999979, -0.001326652
 211431227, -0.0002905509, 0.01109074, -0.0003058843, 0.00104407, 0.0003254308, 0.004328186, 0.0001817834, 0.0005187925, -0.9999979, -0.001323969
 211631147, 0.0002374696, 0.01148798, -0.0001292915, 0.00104407, -0.0004244735, 0.004056428, -0.0001948673, 0.0005187925, -0.9999979, -0.001322264
 211831067, -0.0008235318, 0.01129176, -0.0002054691, 0.00104407, -0.0001014113, 0.004309672, -0.0004208669, 0.0005187925, -0.9999979, -0.001319887
 212030987, 1.518955E-05, 0.01175643, -0.0004078973, 0.00104407, 0.0002301249, 0.00444305, 5.966422E-05, 0.0005187925, -0.9999979, -0.001316278
 212230907, 0.0002378571, 0.01152752, 0.0001796373, 0.00104407, 6.059792E-05, 0.004017076, 0.0002935547, 0.0005187925, -0.9999979, -0.001313005
 212430827, 0.0001965706, 0.01110449, 0.00015425, 0.00104407, 0.000318942, 0.004049122, -0.0003098559, 0.0005187925, -0.9999979, -0.001308361
 212630747, 0.0003772544, 0.01117815, -0.0002460508, 0.00104407, 0.0001145686, 0.003731741, 0.0001267629, 0.0005187925, -0.9999979, -0.001303892
 212830667, -0.0001984703, 0.01071267, -6.226549E-05, 0.00104407, -0.0003140897, 0.004180911, -0.0001623624, 0.0005187925, -0.9999979, -0.001299034
 213031420, -0.0002855969, 0.0113881, -0.0006162815, 0.001046232, -0.0005167879, 0.003701382, -0.0001831824, 0.0005209541, -0.9999979, -0.001295616
 213231340, -0.0004602541, 0.01124565, 4.410531E-05, 0.001046232, 0.0002285214, 0.004086807, 0.0004851092, 0.0005187925, -0.9999979, -0.001290731
 213431260, 0.0002524924, 0.01138202, 0.0005273092, 0.00104407, -0.0001844961, 0.004320855, -0.0001577104, 0.0005187925, -0.9999979, -0.001283395
 213631180, -0.0001543851, 0.01144914, -0.0003607093, 0.00104407, -4.263574E-05, 0.00394679, -0.0005155276, 0.0005187925, -0.9999979, -0.001277928
 213831100, -0.0001247566, 0.0111904, -0.0007244368, 0.00104407, -8.726554E-05, 0.003804215, -0.0003269901, 0.0005187925, -0.9999979, -0.001272149
 214031020, 0.0002394053, 0.01140462, -0.0003980784, 0.00104407, 3.295787E-05, 0.004446248, 7.425079E-05, 0.0005187925, -0.9999979, -0.001266188
 214230940, 0.0002046095, 0.01195166, 7.893977E-05, 0.00104407, -7.144749E-05, 0.003902471, 4.459027E-06, 0.0005187925, -0.9999979, -0.001275673
 214430860, 0.0003918243, 0.01115034, 2.716704E-07, 0.00104407, -6.744417E-05, 0.004139185, 7.876583E-06, 0.0005187925, -0.9999979, -0.001284298
 214630780, 0.0001777381, 0.01169538, -0.0003071438, 0.00104407, -8.363143E-05, 0.004247583, -0.0003335047, 0.0005187925, -0.9999979, -0.001291671
 214830700, 4.133457E-05, 0.01190674, -0.0003881189, 0.00104407, 7.853426E-05, 0.004640676, -6.836777E-05, 0.0005187925, -0.9999979, -0.001298483
 215031453, 0.0001155462, 0.0120423, -0.0006343092, 0.001046232, 0.0001920936, 0.004571861, -0.0003624658, 0.0005209541, -0.9999979, -0.001303837
 215231373, 6.250241E-05, 0.01221525, -0.0005520041, 0.001046232, -5.345633E-06, 0.004387664, 1.037064E-05, 0.0005187925, -0.9999979, -0.001307905
 215431293, 0.0001455686, 0.01150178, 6.328793E-05, 0.00104407, 6.764112E-05, 0.003891461, 0.0003577947, 0.0005187925, -0.9999979, -0.001310055
 215631213, 9.007871E-05, 0.01117294, 0.0002745007, 0.00104407, -0.0001522488, 0.003716754, -0.0002372567, 0.0005187925, -0.9999979, -0.001311686
 215831133, 0.0002315053, 0.01068911, -0.0001915285, 0.00104407, 0.0003305747, 0.004201483, -9.845133E-06, 0.0005187925, -0.9999979, -0.001313014
 216031053, 0.000503591, 0.01130722, -8.188665E-05, 0.00104407, 0.0001618023, 0.004339243, -9.518272E-05, 0.0005187925, -0.9999979, -0.001313288
 216230973, 0.0003386684, 0.01159419, -0.0002264738, 0.00104407, 0.0002441872, 0.003625463, 2.331277E-05, 0.0005187925, -0.9999979, -0.001313508
 216430893, 0.0007149284, 0.01083149, -0.0002973427, 0.00104407, 0.0003047438, 0.004293659, -0.0002462546, 0.0005187925, -0.9999979, -0.001312872
 216630813, 9.783342E-05, 0.01144481, -0.0002860485, 0.00104407, 0.00023838, 0.00428561, 0.0004968597, 0.0005187925, -0.9999979, -0.001312292
 216830733, -4.903685E-05, 0.01149113, 4.840918E-05, 0.00104407, -0.0003327157, 0.003684038, -0.0003061786, 0.0005187925, -0.9999979, -0.001309966
 217031486, -0.0001952252, 0.0107866, -0.0009199659, 0.001046232, -0.0001126369, 0.003814469, -0.0002793982, 0.0005187925, -0.9999979, -0.001306185
 217231406, 0.0001214508, 0.01101617, -0.0001258822, 0.001046232, -6.59272E-05, 0.004165121, 0.0001143264, 0.0005209541, -0.9999979, -0.00130464
 217431326, -1.26778E-05, 0.01130189, 1.896736E-05, 0.001046232, 0.0003245716, 0.004172901, -9.900425E-05, 0.0005187925, -0.9999979, -0.001301343
 217631246, -0.0001264657, 0.01124303, -0.0003043161, 0.00104407, -0.0003468803, 0.004236283, -0.0003430471, 0.0005187925, -0.9999979, -0.001295936
 217831166, -0.0006872049, 0.01179344, -0.000376268, 0.00104407, -0.0001951977, 0.004251342, 1.949484E-05, 0.0005187925, -0.9999979, -0.001293579
 218031086, -0.0001133756, 0.01154837, -0.0003062966, 0.00104407, -0.0001171283, 0.00410437, -0.0001564806, 0.0005187925, -0.9999979, -0.001290663
 218231006, -0.0001693334, 0.01123072, -0.0003676005, 0.00104407, -0.0001477404, 0.003995565, -0.0001027364, 0.0005187925, -0.9999979, -0.00128718
 218430926, 0.0001000838, 0.01141895, -0.00015379, 0.00104407, -5.378569E-05, 0.004403883, -0.0001294822, 0.0005187925, -0.9999979, -0.001283932
 218630846, -9.177752E-05, 0.01161802, -0.0005148474, 0.00104407, 0.0001032225, 0.004277578, 0.0004033716, 0.0005187925, -0.9999978, -0.001280114
 218830766, 0.0001707808, 0.01174637, 7.252297E-05, 0.00104407, -0.0002442318, 0.004368221, -0.000390153, 0.0005187925, -0.9999978, -0.001276288
 219030686, -0.0004050853, 0.01180762, -0.0003690399, 0.00104407, -5.170296E-05, 0.004250457, -0.0002337307, 0.0005187925, -0.9999978, -0.001273118
 219231439, 0.0002381297, 0.01198421, -0.0005471278, 0.001046232, 0.0001598468, 0.004228997, -0.000291051, 0.0005209541, -0.9999978, -0.001269583
 219431359, 0.0004273884, 0.01145978, -0.0002849702, 0.001046232, 0.0004930868, 0.004494317, -9.890413E-05, 0.0005187925, -0.9999978, -0.00127945
 219631279, 0.0005673761, 0.011604, -0.000443044, 0.00104407, 3.703011E-05, 0.004071416, -0.0001979703, 0.0005187925, -0.9999978, -0.001287561
 219831199, 0.0001226639, 0.01147584, -0.0004127984, 0.00104407, 0.0001238181, 0.004236031, 5.441515E-05, 0.0005187925, -0.9999978, -0.001295759
 220031119, 0.0001580138, 0.01161273, -0.0001749614, 0.00104407, -1.039633E-05, 0.004499011, 9.573565E-05, 0.0005187925, -0.9999978, -0.001303637
 220231039, 7.346894E-05, 0.0115277, -0.0002198758, 0.00104407, -0.0001171265, 0.003856153, 5.234889E-05, 0.0005187925, -0.9999978, -0.001311799
 220430959, -0.0002464973, 0.01115403, 0.000126011, 0.00104407, -0.0001160059, 0.004248581, 4.014079E-05, 0.0005187925, -0.9999978, -0.001319241
 220630879, -0.0003312998, 0.01176334, -5.398256E-05, 0.00104407, -0.0002725338, 0.004211298, -8.34596E-05, 0.0005187925, -0.9999978, -0.001324563
 220830799, -0.0003905591, 0.01169746, 0.0001338518, 0.00104407, -0.0004771297, 0.004969895, 0.0001555238, 0.0005187925, -0.9999978, -0.001329474
 221030719, -0.0004103881, 0.0124014, -0.0001246954, 0.00104407, 0.0004458299, 0.004025656, 0.0002124151, 0.0005187925, -0.9999978, -0.00133331
 221231472, 0.0006536451, 0.01115348, -8.8433E-05, 0.001046232, 0.0002811307, 0.003800199, -6.736007E-05, 0.0005209541, -0.9999978, -0.00133437
 221431392, 0.0001809582, 0.01128521, -0.0003646289, 0.001046232, 0.0001655662, 0.00445521, 0.0004590248, 0.0005187925, -0.9999978, -0.001338086
 221631312, 0.0005337652, 0.01165997, 0.0004770505, 0.00104407, 0.0004465894, 0.004114857, -0.0001663556, 0.0005187925, -0.9999978, -0.001341025
 221831232, 0.000265765, 0.0113769, -0.0005974908, 0.00104407, -0.0004910489, 0.004323229, -0.0001561375, 0.0005187925, -0.9999978, -0.001341241
 222031152, -0.000366227, 0.01183426, -0.0002969757, 0.00104407, -0.0001190749, 0.004104919, 0.000182863, 0.0005187925, -0.9999978, -0.001341439
 222231072, -0.0001021632, 0.01152931, -3.236548E-05, 0.00104407, 0.0002315304, 0.004176565, 0.0002399974, 0.0005187925, -0.9999978, -0.001341297
 222430992, 0.0001959055, 0.01161015, -0.0001755525, 0.00104407, 0.0001062779, 0.004286449, -0.0004002638, 0.0005187925, -0.9999978, -0.00134154
 222630912, -0.0002524821, 0.01133073, -0.0007104857, 0.00104407, -0.000216546, 0.004143274, -0.0007018808, 0.0005187925, -0.9999978, -0.001343155
 222830832, 6.404066E-05, 0.01154655, -0.0007148993, 0.00104407, -0.0002393797, 0.004870831, -0.0001434563, 0.0005187925, -0.9999978, -0.001343718
 223030752, -0.0002773122, 0.01195543, -0.0005114714, 0.00104407, -0.0002871827, 0.003944713, -0.0002497103, 0.0005187925, -0.9999978, -0.001342892
 223230672, -0.0006367174, 0.01106205, -0.0003261394, 0.00104407, -1.851336E-05, 0.004243797, -0.0001734004, 0.0005187925, -0.9999978, -0.001341315
 223431425, 8.364683E-06, 0.01149053, -0.0003706744, 0.001046232, -7.816984E-07, 0.004092967, -0.0005207009, 0.0005209541, -0.9999978, -0.001339267
 223631345, -5.932404E-05, 0.01148159, -0.000846347, 0.001046232, -0.0003528456, 0.004370032, -0.0001839521, 0.0005187925, -0.9999978, -0.001336765
 223831265, -0.0005848947, 0.01168214, -0.0002808353, 0.00104407, -0.000173064, 0.004400978, 6.599885E-05, 0.0005187925, -0.9999978, -0.001333036
 224031185, -0.0005556444, 0.01198667, 5.811753E-05, 0.00104407, -0.0005565154, 0.004587955, -0.0001826593, 0.0005187925, -0.9999978, -0.001330189
 224231105, -0.0005500859, 0.01200975, -0.0004262197, 0.00104407, -9.719076E-05, 0.004080883, -0.0003390648, 0.0005187925, -0.9999978, -0.001327181
 224431025, 4.648482E-05, 0.01131441, -0.0005355005, 0.00104407, -0.0003090834, 0.004490238, 0.0001022693, 0.0005187925, -0.9999978, -0.001323851
 224630945, -0.0005125566, 0.01173645, -0.0001973221, 0.00104407, -0.0002836699, 0.004283045, -8.590598E-05, 0.0005187925, -0.9999977, -0.00133633
 224830865, -2.342851E-05, 0.01171645, -6.87217E-05, 0.00104407, -1.207689E-05, 0.003886308, -0.0001038636, 0.0005187925, -0.9999977, -0.001347728
 225030785, -0.0001358681, 0.01123646, -1.905396E-05, 0.00104407, -0.0004815864, 0.004211084, 0.0001686268, 0.0005187925, -0.9999977, -0.001360138
 225230705, -0.0001139717, 0.01138479, 0.0001139078, 0.00104407, 0.0002760758, 0.00464668, -8.08738E-05, 0.0005187925, -0.9999977, -0.00136966
 225431458, 0.0002123764, 0.01197198, -0.0004079752, 0.001046232, 0.0001509539, 0.004383293, 5.595436E-06, 0.0005209541, -0.9999977, -0.001378776
 225631378, -0.0001710096, 0.01170899, -0.0004146625, 0.001046232, -0.0001370188, 0.003928133, -0.0003497894, 0.0005187925, -0.9999977, -0.00138657
 225831298, 0.0001383538, 0.01176034, -0.0004301103, 0.00104407, 0.0001223137, 0.004354388, -0.0001206488, 0.0005187925, -0.9999977, -0.001392291
 226031218, 0.0002287604, 0.01162591, -0.0001635672, 0.00104407, -0.0002031069, 0.004172104, 6.695214E-05, 0.0005187925, -0.9999977, -0.001396856
 226231138, -8.599814E-05, 0.01136234, -0.0001691952, 0.00104407, -0.0001356456, 0.00422335, 1.081869E-05, 0.0005187925, -0.9999977, -0.001402162
 226431058, -0.0002223818, 0.011568, -0.000506053, 0.00104407, 3.646839E-05, 0.00419161, -0.0003455568, 0.0005187925, -0.9999977, -0.001407345
 226630978, -2.186021E-05, 0.01176427, -0.000448057, 0.00104407, 0.0001234468, 0.004446421, -0.000278159, 0.0005187925, -0.9999977, -0.001411089
 226830898, -0.0001234886, 0.01177467, -0.0006816128, 0.00104407, -0.0002246694, 0.00407112, -0.0001996219, 0.0005187925, -0.9999977, -0.001414683
 227030818, -0.000274965, 0.01145604, -0.0003455627, 0.00104407, 0.000262613, 0.004098592, -0.0002325999, 0.0005187925, -0.9999977, -0.001417802
 227230738, 0.0003723323, 0.01173312, -0.0004216749, 0.00104407, 0.0002504826, 0.00406914, -0.0003980557, 0.0005187925, -0.9999977, -0.001419455
 227430658, 0.0003153573, 0.01151944, -0.0006009416, 0.00104407, -0.0003771387, 0.004427155, -7.590714E-05, 0.0005187925, -0.9999977, -0.001423042
 227631411, -0.0004756355, 0.0120482, 8.621938E-05, 0.001046232, -1.917812E-05, 0.004352476, 0.0001102412, 0.0005209541, -0.9999977, -0.001424335
 227831331, 0.0001753058, 0.01214427, -0.0004214508, 0.001046232, 0.0001863012, 0.004392564, -0.0003509345, 0.0005187925, -0.9999977, -0.001424668
 228031251, 0.000358829, 0.01148909, -0.0006382009, 0.00104407, -0.0001631885, 0.004447107, -2.877276E-05, 0.0005187925, -0.9999977, -0.001423747
 228231171, -0.0001481007, 0.01199503, -0.0001023324, 0.00104407, 0.0003412476, 0.004502377, -0.0005736274, 0.0005187925, -0.9999977, -0.001422876
 228431091, 0.0006502144, 0.01180822, -0.0006137729, 0.00104407, 0.0005435435, 0.004381811, -0.0003152992, 0.0005187925, -0.9999977, -0.001421174
 228631011, 0.000793251, 0.01173611, -0.0002749273, 0.00104407, 0.0001189199, 0.003965309, -2.745603E-05, 0.0005187925, -0.9999977, -0.001420617
 228830931, 0.0003417045, 0.01153995, -4.288508E-05, 0.00104407, 0.0001849714, 0.004741063, 0.000256487, 0.0005187925, -0.9999976, -0.001418781
 229030851, 0.0001519163, 0.01220922, 0.0002421268, 0.00104407, -0.0002218388, 0.004364475, -0.0003469903, 0.0005187925, -0.9999976, -0.001416743
 229230771, -0.0004821109, 0.01171181, -0.0006272977, 0.00104407, -7.477761E-05, 0.004013265, -0.0001980645, 0.0005187925, -0.9999976, -0.001414554
 229430691, 0.0002491204, 0.01155241, -0.0004052519, 0.00104407, -0.0001346418, 0.004343063, 0.0003436978, 0.0005187925, -0.9999976, -0.001412844
 229631444, 9.525039E-05, 0.01161084, 0.0003821209, 0.001046232, -3.992904E-05, 0.004370032, 8.201298E-05, 0.0005209541, -0.9999976, -0.001413011
 229831364, 0.0001027916, 0.01207824, -1.440666E-05, 0.001046232, 0.0001558621, 0.004812882, -0.0001209466, 0.0005187925, -0.9999976, -0.001425556
 230031284, -0.0001419639, 0.01216664, -0.0007220346, 0.00104407, -3.354641E-05, 0.0042304, -0.0003448823, 0.0005187925, -0.9999976, -0.001436011
 230231204, -8.994115E-05, 0.01149884, -0.0005648427, 0.00104407, -0.0001585135, 0.004497003, 7.067355E-05, 0.0005187925, -0.9999976, -0.001447091
 230431124, -0.0001989011, 0.01187899, 9.84239E-05, 0.00104407, -0.0001834034, 0.003970515, 0.0002700571, 0.0005187925, -0.9999976, -0.001455887
 230631044, 2.506808E-06, 0.01141566, 0.0002007957, 0.00104407, 0.0001091015, 0.004723346, -0.0001013112, 0.0005187925, -0.9999976, -0.001463921
 230830964, 0.0001691869, 0.01232516, -0.0001816535, 0.00104407, -0.0003003243, 0.004614577, -0.000196364, 0.0005187925, -0.9999976, -0.001470426
 231030884, -0.0004133973, 0.01187175, -0.0003795987, 0.00104407, 9.72597E-05, 0.00431098, 0.0001127197, 0.0005187925, -0.9999976, -0.001476314
 231230804, -0.0001259706, 0.01186613, -0.0002751024, 0.00104407, -0.0004274953, 0.004313655, -0.0001257894, 0.0005187925, -0.9999976, -0.001481414
 231430724, -0.0007089211, 0.01158895, -0.0004191581, 0.00104407, 3.620272E-05, 0.004219586, -4.812941E-06, 0.0005187925, -0.9999976, -0.001483914
 231631477, -1.96343E-05, 0.01158758, -0.0005058211, 0.001046232, -8.181656E-05, 0.00397754, -0.0001643322, 0.0005209541, -0.9999976, -0.001487038
 231831397, -0.0002505872, 0.01123596, -0.0001326649, 0.001046232, -0.0001663416, 0.004402685, 0.0001420561, 0.0005187925, -0.9999976, -0.001491097
 232031317, -0.0003464016, 0.0115713, 0.0001006892, 0.00104407, -0.0001275884, 0.004073842, 5.499665E-05, 0.0005187925, -0.9999976, -0.001492777
 232231237, -0.0003440465, 0.01126959, -1.506799E-05, 0.00104407, -0.000235382, 0.004027472, -0.000203721, 0.0005187925, -0.9999976, -0.00149175
 232431157, -2.926354E-06, 0.01125207, -0.0003179434, 0.00104407, 0.0001080764, 0.004035295, -0.000223291, 0.0005187925, -0.9999976, -0.00149132
 232631077, 3.080372E-05, 0.01110837, -0.000413441, 0.00104407, -0.0001743363, 0.004321903, 0.0001767119, 0.0005187925, -0.9999976, -0.001491249
 232830997, -6.623175E-05, 0.01188785, 0.0003114527, 0.00104407, -3.060656E-05, 0.004364779, -0.0001005879, 0.0005187925, -0.9999976, -0.00149104
 233030917, 0.0001237726, 0.01215499, -0.0003167053, 0.00104407, -0.0001107751, 0.004574263, 3.057329E-05, 0.0005187925, -0.9999976, -0.001489931
 233230837, -0.0003893036, 0.01172474, -0.0003179541, 0.00104407, -0.0005605918, 0.004195076, 0.0003696226, 0.0005187925, -0.9999976, -0.001487921
 233430757, -0.0008390787, 0.0114036, 0.0004369275, 0.00104407, -0.0003027518, 0.004071636, 0.0001831192, 0.0005187925, -0.9999976, -0.001485892
 233630677, -0.0005518529, 0.01145558, 7.347145E-05, 0.00104407, -0.0001283817, 0.004210529, 0.0002496674, 0.0005187925, -0.9999976, -0.001482593
 233831430, -0.0003260516, 0.01152347, -0.0001148519, 0.001046232, -0.000106097, 0.004149579, -3.134983E-05, 0.0005209541, -0.9999976, -0.001482273
 234031350, 0.0001261104, 0.0116438, -0.0001717377, 0.001046232, -0.0003494648, 0.00399228, -0.0001694919, 0.0005187925, -0.9999976, -0.001478762
 234231270, -0.000116887, 0.01139286, -0.0004417893, 0.00104407, 0.0004307594, 0.00407396, -0.0004465843, 0.0005187925, -0.9999976, -0.001474516
 234431190, 0.0006301864, 0.01133837, -0.0003248941, 0.00104407, -0.0001611113, 0.004000921, -0.0003304149, 0.0005187925, -0.9999976, -0.00147094
 234631110, -0.0001699659, 0.01165438, -0.0006403316, 0.00104407, 8.706276E-05, 0.004386993, 0.0001024754, 0.0005187925, -0.9999976, -0.001468218
 234831030, 4.777993E-05, 0.01213658, -0.0001025195, 0.00104407, 0.0001553158, 0.004380456, -0.0002414024, 0.0005187925, -0.9999976, -0.001464208
 235030950, 7.21453E-05, 0.01160218, -0.0005298724, 0.00104407, -9.740852E-05, 0.004069943, -0.0005268325, 0.0005187925, -0.9999976, -0.001474892
 235230870, -9.447912E-05, 0.01131542, -0.0008828922, 0.00104407, 0.0001109094, 0.004152641, -6.849647E-05, 0.0005187925, -0.9999974, -0.001485132
 235430790, 0.0002066922, 0.01146683, -0.0001539067, 0.00104407, 0.0002931521, 0.00460004, -0.0001160098, 0.0005187925, -0.9999974, -0.00149353
 235630710, 0.0003561527, 0.01197025, -0.0003237204, 0.00104407, 0.0001544958, 0.00447717, 0.0002117359, 0.0005187925, -0.9999974, -0.001502455
 235831463, -7.337154E-05, 0.01167409, 0.0002535469, 0.001046232, -0.0002159188, 0.003764675, -2.300296E-05, 0.0005209541, -0.9999974, -0.001511163
 236031383, -0.0007498279, 0.01112583, -0.0001905847, 0.001046232, -0.0007408753, 0.004497934, -5.835939E-05, 0.0005187925, -0.9999974, -0.001517522
 236231303, -0.0008029689, 0.01168188, -9.547108E-05, 0.00104407, -6.968335E-05, 0.004216705, 0.0001173277, 0.0005187925, -0.9999976, -0.001522907
 236431223, 0.0002586337, 0.01138981, -0.0001755727, 0.00104407, 0.0003467222, 0.004517543, -0.0005021482, 0.0005187925, -0.9999974, -0.001526146
 236631143, 0.0003489371, 0.01139196, -0.0007774507, 0.00104407, -0.0001899558, 0.004154448, -0.0004172301, 0.0005187925, -0.9999974, -0.001530846
 236831063, -0.0002860868, 0.01132298, -0.0002987024, 0.00104407, -0.0005246552, 0.004156338, 0.0002076188, 0.0005187925, -0.9999974, -0.001534209
 237030983, -0.0003072243, 0.01161991, 0.0001801223, 0.00104407, 0.0002389574, 0.004502611, -0.00026607, 0.0005187925, -0.9999974, -0.001537673
 237230903, 6.062672E-05, 0.01216283, -0.0004077448, 0.00104407, 0.0005180088, 0.004150514, -0.0002978539, 0.0005187925, -0.9999974, -0.001539999
 237430823, 2.709816E-05, 0.01159685, -0.0005161818, 0.00104407, -0.0002243986, 0.004437492, -0.0001640462, 0.0005187925, -0.9999974, -0.001542134
 237630743, -0.0002317756, 0.01158865, -5.951883E-05, 0.00104407, -0.0001745037, 0.00366411, -0.0001519191, 0.0005187925, -0.9999974, -0.001543146
 237830663, -0.0002219023, 0.01085716, -9.193912E-05, 0.00104407, 0.0003273758, 0.004357737, -0.0001182143, 0.0005187925, -0.9999974, -0.001544212
 238031416, 0.0004725733, 0.0120566, -0.0004384775, 0.001046232, 4.154331E-05, 0.004448588, -0.0002244604, 0.0005209541, -0.9999974, -0.001546362
 238231336, -8.994195E-05, 0.01175207, -0.0003937294, 0.001046232, -4.989374E-05, 0.004114812, -0.0001952356, 0.0005187925, -0.9999974, -0.001547177
 238431256, 8.201435E-05, 0.01152581, -0.0002788023, 0.00104407, 0.0001535338, 0.004338888, -0.0001721814, 0.0005187925, -0.9999974, -0.001544849
 238631176, 0.0001200239, 0.01179209, -6.391595E-05, 0.00104407, -1.20052E-05, 0.004237715, -0.0001064745, 0.0005187925, -0.9999974, -0.001544156
 238831096, -0.0002510058, 0.01138532, -0.000243477, 0.00104407, -0.0002009274, 0.004279621, -0.0001323528, 0.0005187925, -0.9999974, -0.001541886
 239031016, -0.0001731191, 0.01131354, -0.000166545, 0.00104407, -0.0004807858, 0.003837334, -0.0001894646, 0.0005187925, -0.9999974, -0.001539866
 239230936, -0.0004820713, 0.01115349, -0.0004994003, 0.00104407, -0.0004933364, 0.004248317, -0.0003602148, 0.0005187925, -0.9999974, -0.001537596
 239430856, -0.000322688, 0.01157039, -0.000497869, 0.00104407, 5.506663E-05, 0.004133129, 0.0002833878, 0.0005187925, -0.9999974, -0.001535033
 239630776, -5.701321E-05, 0.01165393, 0.000124798, 0.00104407, -4.446067E-05, 0.004281919, -8.820341E-06, 0.0005187925, -0.9999974, -0.001532434
 239830696, 0.0002098957, 0.01180281, -1.19972E-05, 0.00104407, 0.0002969772, 0.004186549, 0.0001280666, 0.0005187925, -0.9999974, -0.001530072
 240031449, 0.0004097078, 0.01162157, 0.000401759, 0.001046232, -1.716857E-05, 0.004196362, -4.178605E-07, 0.0005209541, -0.9999974, -0.001530178
 240231369, -0.000445502, 0.01175532, -0.0001166636, 0.001046232, -0.0002399101, 0.004481378, -0.0001200434, 0.0005187925, -0.9999974, -0.001539658
 240431289, -0.0002001957, 0.01187116, 0.0001110967, 0.00104407, -6.394271E-05, 0.003977727, -1.708182E-05, 0.0005187925, -0.9999974, -0.00154693
 240631209, -0.0005240383, 0.0113832, -0.0002495887, 0.00104407, -0.0001427668, 0.004380436, -0.0003777351, 0.0005187925, -0.9999974, -0.001554187
 240831129, -0.0003178012, 0.01184534, -0.0007127497, 0.00104407, -0.0004114668, 0.004246243, -0.0003272523, 0.0005187925, -0.9999974, -0.001561708
 241031049, -0.0002268454, 0.01115539, -0.0004434612, 0.00104407, -9.222323E-05, 0.00369483, -9.397085E-05, 0.0005187925, -0.9999974, -0.001567572
 241230969, -0.0005446393, 0.01115123, -0.0001212969, 0.00104407, -0.0002830769, 0.004350968, 0.0001159001, 0.0005187925, -0.9999974, -0.001572665
 241430889, -0.0003507909, 0.01170902, 0.00010779, 0.00104407, -0.0001552634, 0.004259215, -0.0003586966, 0.0005187925, -0.9999974, -0.001577513
 241630809, -0.0002447573, 0.01156074, -0.000509778, 0.00104407, -0.0002511045, 0.004239226, 3.510382E-05, 0.0005187925, -0.9999974, -0.00158166
 241830729, -9.311338E-05, 0.01144671, -0.0002960785, 0.00104407, 0.0003344388, 0.003645502, -0.0001572421, 0.0005187925, -0.9999974, -0.001584606
 242031482, 0.0003470892, 0.01132838, -9.964253E-05, 0.001046232, -1.671403E-05, 0.004281013, -3.266339E-05, 0.0005209541, -0.9999973, -0.001589048
 242231402, -3.124387E-05, 0.01152728, -5.569615E-05, 0.001046232, -0.0001887778, 0.004748382, 7.757897E-05, 0.0005187925, -0.9999973, -0.001592599
 242431322, -0.0002919287, 0.01205901, -0.0003434428, 0.00104407, 7.838073E-06, 0.004460966, -0.0002471757, 0.0005187925, -0.9999973, -0.001594716
 242631242, 8.332243E-06, 0.01185495, -0.0005023258, 0.00104407, 0.0001922352, 0.003768762, 2.810188E-05, 0.0005187925, -0.9999973, -0.001593096
 242831162, 1.672652E-05, 0.01093685, -0.0003352588, 0.00104407, -0.0002413953, 0.004185386, 4.312459E-05, 0.0005187925, -0.9999973, -0.001593612
 243031082, -0.000290164, 0.01176531, -0.0001463829, 0.00104407, 0.0003248515, 0.004107864, 0.0004319632, 0.0005187925, -0.9999973, -0.001593164
 243231002, 5.835946E-05, 0.01146664, 0.0004501376, 0.00104407, -0.000229947, 0.00436911, -7.385517E-05, 0.0005187925, -0.9999973, -0.00159367
 243430922, -0.000118178, 0.01162337, -0.000258775, 0.00104407, 0.0004881644, 0.004029334, -3.808882E-05, 0.0005187925, -0.9999973, -0.001592962
 243630842, 0.0006098345, 0.0117106, -2.252274E-05, 0.00104407, -0.0001369091, 0.004441292, -0.0001232012, 0.0005187925, -0.9999973, -0.001591791
 243830762, -0.0003091138, 0.01209047, -0.0003036798, 0.00104407, -0.0003450924, 0.004484773, 8.197008E-05, 0.0005187925, -0.9999973, -0.001590041
 244030682, -0.0005274452, 0.01167382, 0.0001172014, 0.00104407, 8.043506E-05, 0.00452485, -0.0001785041, 0.0005187925, -0.9999973, -0.001587218
 244231435, -0.0004619354, 0.01205437, -0.0004164491, 0.001046232, -0.0001421557, 0.00450819, 0.0001397022, 0.0005209541, -0.9999973, -0.001587861
 244431355, -6.978361E-05, 0.01197109, -0.000149833, 0.001046232, 0.0001881198, 0.004458105, -0.0001738627, 0.0005187925, -0.9999973, -0.001584698
 244631275, 9.093458E-05, 0.01197583, -0.000490561, 0.00104407, 0.0002914536, 0.004350246, 7.532204E-05, 0.0005187925, -0.9999973, -0.001578388
 244831195, 0.0002139147, 0.01167313, -0.0002205908, 0.00104407, -0.0002585058, 0.004243772, 9.497177E-06, 0.0005187925, -0.9999973, -0.001573919
 245031115, -0.0003595418, 0.01174123, -0.0001978464, 0.00104407, 0.0002548604, 0.004472652, -8.705352E-05, 0.0005187925, -0.9999973, -0.001567311
 245231035, 0.0005347406, 0.01206397, -0.0001341115, 0.00104407, -0.0003297629, 0.00442818, -3.090337E-05, 0.0005187925, -0.9999973, -0.001562462
 245430955, -0.0004278283, 0.01182444, -0.0001481405, 0.00104407, -0.000286224, 0.004422748, -0.0005584712, 0.0005187925, -0.9999973, -0.001571596
 245630875, -0.0006850976, 0.01184403, -0.0006259991, 0.00104407, -0.0002308837, 0.00413825, 0.0002476453, 0.0005187925, -0.9999974, -0.00157875
 245830795, -0.0003160581, 0.01094166, 0.0001370251, 0.00104407, 0.0002120429, 0.003985684, -0.000489753, 0.0005187925, -0.9999974, -0.001585174
 246030715, 0.000705988, 0.01112391, -0.0006299883, 0.00104407, 0.0004793205, 0.003911632, -0.0003658154, 0.0005187925, -0.9999974, -0.001589444
 246231468, 0.0006098576, 0.01112667, -0.0005485095, 0.001046232, -0.0004806551, 0.004032261, -0.0002386044, 0.0005209541, -0.9999974, -0.001594618
 246431388, -0.000521203, 0.0116083, -0.0009877437, 0.001046232, -1.800358E-06, 0.004028666, -0.000114444, 0.0005187925, -0.9999974, -0.001599409
 246631308, 0.000158747, 0.01151951, -0.0002783377, 0.00104407, 8.746776E-05, 0.004665672, -0.0001698792, 0.0005187925, -0.9999974, -0.001602395
 246831228, 0.0001294185, 0.01151393, -0.0003111786, 0.00104407, -0.0001717289, 0.003811327, -0.0006587647, 0.0005187925, -0.9999974, -0.001602684
 247031148, -0.0002100813, 0.01131077, -0.0006043652, 0.00104407, -3.305458E-05, 0.004384129, 0.0004416153, 0.0005187925, -0.9999974, -0.00160385
 247231068, -0.0002479551, 0.0118435, 0.0005061044, 0.00104407, 4.764941E-05, 0.004304266, 4.127281E-05, 0.0005187925, -0.9999974, -0.001604627
 247430988, -4.825642E-05, 0.01174213, 0.000233882, 0.00104407, 0.0001071272, 0.004354192, 0.0003937553, 0.0005187925, -0.9999974, -0.001604023
 247630908, 2.337383E-06, 0.01170646, 0.0003575861, 0.00104407, 7.895004E-06, 0.004320385, 0.0001502187, 0.0005187925, -0.9999974, -0.001603649
 247830828, 0.0003203446, 0.01175682, -0.06310199, 0.00104407, 0.0004575749, 0.004645484, -0.1244933, 0.0005187925, -0.9999974, -0.001601907
 248030748, 0.0008578049, 0.01237643, -0.3841496, 0.00104407, -0.0001742056, 0.004187898, -0.03844092, 0.0005187925, -0.9999974, -0.001599348
 248230668, -0.000582657, 0.01124355, 0.05453005, 0.00104407, -0.000222081, 0.004290504, 0.0668442, 0.0005187925, -0.9999974, -0.001597281
 248431421, -0.0005035842, 0.0113141, -0.3031495, 0.001046232, -0.0004901543, 0.003819145, -0.6709277, 0.0005209541, -0.9999987, -0.001614386
 248631341, -0.008143136, 0.002824506, -1.923356, 0.001046232, -0.007045738, -0.003330208, -0.5229899, 0.0005187925, -0.9999867, -0.001661121
 248831261, -0.02374882, -0.01278265, -0.8296973, 0.00104407, -0.01062472, -0.006106844, -0.06505304, 0.0005187925, -0.9999745, -0.001704248
 249031181, -0.02829122, -0.01629151, -0.2090937, 0.00104407, -0.00981371, -0.00554322, -0.1129605, 0.0005187925, -0.9999721, -0.001778965
 249231101, -0.02542486, -0.0132386, -0.3611788, 0.00104407, -0.008304957, -0.004003482, -0.1456041, 0.0005187925, -0.9999731, -0.001870868
 249431021, -0.02138619, -0.009174027, -0.3659514, 0.00104407, -0.007074976, -0.002549722, -0.1151402, 0.0005187925, -0.9999748, -0.001966672
 249630941, -0.01779098, -0.00536046, -0.2919356, 0.00104407, -0.005751387, -0.001383985, -0.09630323, 0.0005187925, -0.9999767, -0.002054618
 249830861, -0.01439162, -0.002305172, -0.2531362, 0.00104407, -0.004375585, -0.0002011653, -0.08687621, 0.0005187925, -0.9999793, -0.002127954
 250030781, -0.01139787, 0.0009877714, -0.2264296, 0.00104407, -0.003745561, 0.001077034, -0.07610559, 0.0005187925, -0.9999818, -0.002195209
 250230701, -0.00926033, 0.004063071, -0.1974195, 0.00104407, -0.003106339, 0.001971759, -0.06619063, 0.0005187925, -0.9999835, -0.002108462
 250431454, -0.007397383, 0.005918444, -0.1736743, 0.001046232, -0.002117682, 0.002382739, -0.05866176, 0.0005209541, -0.9999849, -0.001926525
 250631374, -0.005119272, 0.007462151, -0.1526861, 0.001046232, -0.00176395, 0.002877093, -0.05166734, 0.0005187925, -0.9999861, -0.001774971
 250831294, -0.004906405, 0.008699198, -0.1336022, 0.00104407, -0.002024619, 0.003501858, -0.04443217, 0.0005187925, -0.9999872, -0.00171021
 251031214, -0.005448663, 0.009915844, -0.1152334, 0.00104407, -0.001876217, 0.003781617, -0.03852637, 0.0005187925, -0.9999872, -0.002032068
 251231134, -0.005369582, 0.009849163, -0.1019945, 0.00104407, -0.002057678, 0.003229496, -0.03519959, 0.0005187925, -0.9999841, -0.002615715
 251431054, -0.005642911, 0.008665042, -0.09125995, 0.00104407, -0.001893683, 0.002991338, -0.03103677, 0.0005187925, -0.9999803, -0.003171165
 251630974, -0.005442426, 0.007517069, -0.0802946, 0.00104407, -0.00213465, 0.002605394, -0.02722251, 0.0005187925, -0.9999761, -0.003705123
 251830894, -0.005013826, 0.00689116, -0.07046611, 0.00104407, -0.001482098, 0.002238438, -0.02372259, 0.0005187925, -0.9999719, -0.004214078
 252030814, -0.004319987, 0.005819596, -0.06158946, 0.00104407, -0.001664336, 0.001953133, -0.02064815, 0.0005187925, -0.9999674, -0.004695076
 252230734, -0.003998884, 0.005138807, -0.05388783, 0.00104407, -0.00133246, 0.001916899, -0.01811273, 0.0005187925, -0.999963, -0.005149295
 252430654, -0.003592601, 0.004943111, -0.04725825, 0.00104407, -0.001061391, 0.001664802, -0.01601926, 0.0005187925, -0.9999586, -0.00558284
 252631407, -0.002538325, 0.00478115, -0.04186775, 0.001046232, -0.0005155343, 0.001866516, -0.01438011, 0.0005209541, -0.9999564, -0.005980544
 252831327, -0.001356985, 0.005602381, -0.0371814, 0.001046232, -0.0007291482, 0.002342167, -0.01240357, 0.0005187925, -0.9999553, -0.006353502
 253031247, -0.001079597, 0.007267212, -0.03193643, 0.00104407, -9.832485E-05, 0.002953329, -0.0107562, 0.0005187925, -0.9999551, -0.006696155
 253231167, 0.0002176781, 0.008828185, -0.02823147, 0.00104407, 0.0004243802, 0.003683071, -0.009464866, 0.0005187925, -0.9999548, -0.007020876
 253431087, 0.001158491, 0.01028537, -0.02493536, 0.00104407, 0.0008524679, 0.004119439, -0.00848822, 0.0005187925, -0.9999543, -0.007325958
 253631007, 0.001929869, 0.01153406, -0.02181427, 0.00104407, 0.0008282213, 0.004425388, -0.007298411, 0.0005187925, -0.9999536, -0.007613566
 253830927, 0.002342375, 0.01260368, -0.01831594, 0.00104407, 0.0006380588, 0.005141087, -0.006125283, 0.0005187925, -0.9999518, -0.008027015
 254030847, 0.002288797, 0.01379859, -0.01641405, 0.00104407, 0.0008449475, 0.004656207, -0.005796294, 0.0005187925, -0.9999485, -0.008586105
 254230767, 0.002448475, 0.01350573, -0.01491326, 0.00104407, 0.001134495, 0.005332141, -0.005046083, 0.0005187925, -0.9999447, -0.009119547
 254430687, 0.002639672, 0.0143968, -0.01305565, 0.00104407, 0.0007487026, 0.005025743, -0.004064849, 0.0005187925, -0.9999412, -0.009622907
 254631440, 0.002420912, 0.01448423, -0.01135295, 0.001046232, 0.001009112, 0.005710772, -0.004011551, 0.0005209541, -0.9999374, -0.01010091
 254831360, 0.00246508, 0.01540178, -0.01031662, 0.001046232, 0.0007422647, 0.005966431, -0.003346063, 0.0005187925, -0.9999336, -0.01054968
 255031280, 0.002328899, 0.01563718, -0.009228938, 0.00104407, 0.0008651453, 0.005469106, -0.003166562, 0.0005187925, -0.9999298, -0.01097317
 255231200, 0.00465272, 0.01758063, 0.5204618, 0.00104407, 0.002163778, 0.007540204, 0.378478, 0.0005187925, -0.9999263, -0.0114744
 255431120, 0.006252121, 0.02074093, 0.980121, 0.00104407, 0.002096682, 0.007563126, 0.3289688, 0.0005187925, -0.9999214, -0.01202043
 255631040, 0.005695054, 0.02031368, 0.8564755, 0.00104407, 0.002042546, 0.007452358, 0.2891018, 0.0005187925, -0.9999151, -0.01255283
 255830960, 0.005144667, 0.01957824, 0.7524003, 0.00104407, 0.001622757, 0.007132775, 0.253765, 0.0005187925, -0.9999079, -0.01308057
 256030880, 0.004502783, 0.01854062, 0.6603722, 0.00104407, 0.00168176, 0.006336836, 0.222896, 0.0005187925, -0.9999008, -0.01357169
 256230800, 0.003906182, 0.0166122, 0.5576485, 0.00104407, 0.001250248, 0.005578741, 0.1605008, 0.0005187925, -0.9998916, -0.01401076
 256430720, 0.01794323, 0.004918053, 0.4067117, 0.00104407, 0.01663803, -0.005079813, 0.1322872, 0.0005187925, -0.9997678, -0.0142439
 256631473, 0.06993984, -0.02145198, 0.3462791, 0.001046232, 0.03710469, -0.008736797, 0.1193632, 0.0005209541, -0.999756, -0.01429086
 256831393, 0.10146, 0.002624589, 0.3091683, 0.001046232, 0.03436632, 0.01719581, 0.1028302, 0.0005187925, -0.9998555, -0.014004
 257031313, 0.07485908, 0.07687031, 0.2617736, 0.00104407, 0.01654616, 0.04104679, 0.08444771, 0.0005187925, -0.9994052, -0.014819
 257231233, 0.04135658, 0.116364, 0.2122458, 0.00104407, 0.01581056, 0.0428302, 0.06664136, 0.0005187925, -0.9992724, -0.01613903
 257431153, 0.06641914, 0.1029461, 0.1664191, 0.00104407, 0.03734072, 0.02933596, 0.05208267, 0.0005187925, -0.9994993, -0.01736131
 257631073, 0.123473, 0.08094441, 0.1286077, 0.00104407, 0.05386666, 0.03278368, 0.04001308, 0.0005187925, -0.9992473, -0.01753328
 257830993, 0.1343239, 0.08172724, 0.09840547, 0.00104407, 0.03829556, 0.02110386, 0.02963782, 0.0005187925, -0.9995765, -0.01863154
 258030913, 0.06135423, 0.02380199, 0.07396166, 0.00104407, -0.001446806, -0.008759974, 0.02253107, 0.0005187925, -0.9998137, -0.01887966
 258230833, -0.04815109, -0.04255328, 0.05804669, 0.00104407, -0.03872286, -0.02275653, 0.01854146, 0.0005187925, -0.9996964, -0.01795253
 258430753, -0.1245872, -0.05582087, 0.04618983, 0.00104407, -0.05218142, -0.01482075, 0.01372269, 0.0005187925, -0.9997862, -0.01769456
 258630673, -0.1319529, -0.02296825, 0.03373953, 0.00104407, -0.04040184, 0.0006301661, 0.009769219, 0.0005187925, -0.9998354, -0.0180947
 258831426, -0.08281907, 0.009136068, 0.0247885, 0.001046232, -0.01508245, 0.006042698, 0.007219866, 0.0005209541, -0.9998183, -0.01854306
 259031346, -0.03045822, 0.01039306, 0.0187178, 0.001046232, -0.008976764, 0.0005222636, 0.005518438, 0.0005187925, -0.9998182, -0.01905246
 259231266, -0.05257974, -0.002751858, 0.01418824, 0.00104407, -0.03626677, -0.002447651, 0.004376801, 0.0005187925, -0.9997997, -0.01968391
 259431186, -0.1094207, -0.007527004, 0.01091411, 0.00104407, -0.03955838, -0.003399078, 0.003049309, 0.0005187925, -0.9997755, -0.02023915
 259631106, -0.07835681, -0.02347263, 0.007387858, 0.00104407, -0.01260119, -0.01746013, 0.002043597, 0.0005187925, -0.9995655, -0.02035791
 259831026, -0.01774453, -0.06232162, 0.005413614, 0.00104407, -0.0007645653, -0.02803568, 0.001298902, 0.0005187925, -0.999302, -0.02067763
 260030946, -0.005547849, -0.06244974, 0.002749335, 0.00104407, -0.004109296, -0.01256171, -0.0002348449, 0.0005187925, -0.9996178, -0.02142458
 260230866, -0.01133017, -0.008189639, 0.0005964778, 0.00104407, -0.00326468, 0.009863332, 0.000392249, 0.0005187925, -0.9997519, -0.02227974
 260430786, -0.001474863, 0.03293496, 0.0004094929, 0.00104407, 0.003253139, 0.01309244, -0.0006594474, 0.0005187925, -0.9997389, -0.02273869
 260630706, -0.001064327, 0.04000767, -0.0007266036, 0.00104407, -0.008578919, 0.01890793, -0.0001892191, 0.0005187925, -0.9996832, -0.02316993
 260831459, -0.03780072, 0.06307499, -0.0005763294, 0.001046232, -0.01846487, 0.02803122, -0.000367239, 0.0005209541, -0.9995459, -0.02376003
 261031379, -0.03531443, 0.06688573, -0.001324169, 0.001046232, -0.002477954, 0.01690903, -0.0009782298, 0.0005187925, -0.9996774, -0.02391112
 261231299, 0.02107332, 0.01936143, -0.001648866, 0.00104407, 0.02114486, -0.006928654, -0.0006003351, 0.0005187925, -0.9996454, -0.02407133
 261431219, 0.05718189, -0.02737376, -0.001323681, 0.00104407, 0.01651109, -0.01094788, -0.000443529, 0.0005187925, -0.9996021, -0.02433443
 261631139, 0.02203862, -0.03250626, -0.001260597, 0.00104407, -0.003556374, -0.01488591, -0.0009219521, 0.0005187925, -0.9994568, -0.02469212
 261831059, -0.01990208, -0.05861047, -0.001135208, 0.00104407, -0.01121021, -0.03061907, -0.000258359, 0.0005187925, -0.9989482, -0.02476044
 262030979, -0.0437815, -0.0808113, -0.0009464257, 0.00104407, -0.02485052, -0.0238142, -0.0005308042, 0.0005187925, -0.9991435, -0.02538548
 262230899, -0.09282186, -0.0366092, -0.00104922, 0.00104407, -0.04626831, 0.001823254, -0.0001565045, 0.0005187925, -0.9995607, -0.02687921
 262430819, -0.1141859, 0.0254107, -0.001964541, 0.00104407, -0.02867813, 0.01865634, -0.001690713, 0.0005187925, -0.9996153, -0.02768072
 262630739, -0.02313907, 0.05692396, -0.003256453, 0.00104407, 0.02084414, 0.0228748, -0.0005738108, 0.0005187925, -0.9995925, -0.02751835
 262830659, 0.09218626, 0.05618116, -0.002522086, 0.00104407, 0.04757354, 0.01595039, -0.001639224, 0.0005187925, -0.9996215, -0.027419
 263031412, 0.1301229, 0.02763316, -0.00326427, 0.001046232, 0.04541185, 0.001786329, -0.00105419, 0.0005209541, -0.9995784, -0.02763898
 263231332, 0.1096909, 0.01175484, -0.002073754, 0.001046232, 0.03116613, 0.01139745, -0.0004414972, 0.0005187925, -0.9996146, -0.02770613
 263431252, 0.05696323, 0.02604189, -0.001921256, 0.00104407, 0.004636488, 0.001592648, -0.0009102362, 0.0005187925, -0.9995058, -0.02841824
 263631172, -0.01037324, -0.04569475, -0.001651253, 0.00104407, -0.01413233, -0.04437459, -0.0004955883, 0.0005187925, -0.9978638, -0.02817175
 263831092, -0.04502334, -0.1671736, 0.0011815, 0.00104407, -0.01835993, -0.08157973, 0.0007265772, 0.0005187925, -0.9949232, -0.02760357
 264031012, -0.04433263, -0.2352289, 0.00110633, 0.00104407, -0.0124466, -0.08823576, 6.389443E-05, 0.0005187925, -0.9935789, -0.02793619
 264230932, -0.02910218, -0.2308601, 4.780741E-06, 0.00104407, -0.008606847, -0.0776461, -0.0002358316, 0.0005187925, -0.993518, -0.02883032
 264430852, -0.02241892, -0.2048707, -0.0002224152, 0.00104407, -0.008491376, -0.07124873, -0.000660477, 0.0005187925, -0.992825, -0.02974554
 264630772, -0.02596319, -0.2013066, -0.0009046369, 0.00104407, -0.01105042, -0.0769544, -4.977976E-05, 0.0005187925, -0.990825, -0.0302576
 264830692, -0.03262388, -0.2221354, -0.001336022, 0.00104407, -0.01316468, -0.08642681, -0.000363058, 0.0005187925, -0.9880973, -0.03057651
 265031445, -0.03650576, -0.2430841, -4.601106E-05, 0.001046232, -0.01291435, -0.09067264, 3.639037E-05, 0.0005209541, -0.9857316, -0.0310919
 265231365, -0.03504109, -0.2468223, -0.001536781, 0.001046232, -0.01235387, -0.08877853, -0.001888371, 0.0005187925, -0.9837973, -0.03193105
 265431285, -0.03381, -0.2422843, -0.003357809, 0.00104407, -0.01236434, -0.08793126, -0.0005475523, 0.0005187925, -0.9814905, -0.0328947
 265631205, -0.03442712, -0.2429045, -0.001546739, 0.00104407, -0.01328271, -0.08971743, -0.0008476622, 0.0005187925, -0.9784603, -0.03385902
 265831125, -0.03674405, -0.2506616, -0.001711724, 0.00104407, -0.01392649, -0.09345052, -0.0009628556, 0.0005187925, -0.9747569, -0.03486034
 266031045, -0.0376233, -0.2607403, -0.00155603, 0.00104407, -0.01348779, -0.09685491, -0.0005772367, 0.0005187925, -0.9707732, -0.03595302
 266230965, -0.03687806, -0.2682886, -0.001229581, 0.00104407, -0.01325352, -0.09866473, -0.0007097742, 0.0005187925, -0.9667028, -0.03719776
 266430885, -0.03642747, -0.2726204, -0.001263115, 0.00104407, -0.01303235, -0.1007177, -0.0007653976, 0.0005187925, -0.9622267, -0.03842818
 266630805, -0.03649345, -0.2783034, -0.00122999, 0.00104407, -0.01358039, -0.102739, -0.000521462, 0.0005187925, -0.957297, -0.03964723
 266830725, -0.03746049, -0.2838845, -0.001168465, 0.00104407, -0.01381624, -0.1044282, -0.0006657082, 0.0005187925, -0.9519735, -0.04083749
 267031478, -0.03793673, -0.2895291, -0.002466274, 0.001046232, -0.01364942, -0.1072729, -0.001412625, 0.0005209541, -0.9462455, -0.04206217
 267231398, -0.03733125, -0.2947548, -0.003490978, 0.001046232, -0.01375976, -0.1081331, -0.001850765, 0.0005187925, -0.9401444, -0.04334499
 267431318, -0.03747322, -0.2996066, -0.005065156, 0.00104407, -0.0135627, -0.1107281, -0.002392761, 0.0005187925, -0.9335405, -0.04466837
 267631238, -0.03702014, -0.3057748, -0.006469804, 0.00104407, -0.01363237, -0.1124529, -0.003102249, 0.0005187925, -0.9266216, -0.04607173
 267831158, -0.0365922, -0.3099479, -0.008383496, 0.00104407, -0.01297733, -0.1140855, -0.003629109, 0.0005187925, -0.9193481, -0.04750121
 268031078, -0.03541091, -0.3154715, -0.009962545, 0.00104407, -0.0126523, -0.1164898, -0.004431614, 0.0005187925, -0.9114614, -0.04890393
 268230998, -0.03480184, -0.3220138, -0.01189368, 0.00104407, -0.01252295, -0.1187901, -0.005250003, 0.0005187925, -0.903204, -0.0503328
 268430918, -0.03455484, -0.3290997, -0.01444221, 0.00104407, -0.01277558, -0.1216362, -0.006345765, 0.0005187925, -0.8946191, -0.05178558
 268630838, -0.03410335, -0.3352328, -0.01698155, 0.00104407, -0.01190662, -0.1232166, -0.007220397, 0.0005187925, -0.8858669, -0.05328492
 268830758, -0.03331628, -0.3401072, -0.01943938, 0.00104407, -0.01232935, -0.1254401, -0.008308473, 0.0005187925, -0.8767717, -0.05488461
 269030678, -0.03341675, -0.3456558, -0.02290493, 0.00104407, -0.01221212, -0.1272581, -0.009727485, 0.0005187925, -0.8674288, -0.05659418
 269231431, -0.03316367, -0.3518803, -0.02574801, 0.001046232, -0.01201191, -0.1303065, -0.01055239, 0.0005209541, -0.8576084, -0.05843254
 269431351, -0.03224331, -0.358155, -0.02835468, 0.001046232, -0.01176181, -0.1324947, -0.01150712, 0.0005187925, -0.8475282, -0.06039146
 269631271, -0.03175141, -0.364623, -0.03105723, 0.00104407, -0.01149528, -0.1347843, -0.01288444, 0.0005187925, -0.8372914, -0.06241632
 269831191, -0.03096369, -0.3711147, -0.03458443, 0.00104407, -0.01107262, -0.1369406, -0.01385004, 0.0005187925, -0.8269325, -0.06446785
 270031111, -0.03038162, -0.3774183, -0.03770203, 0.00104407, -0.01112093, -0.139764, -0.01540067, 0.0005187925, -0.8163944, -0.06655889
 270231031, -0.03018147, -0.3844845, -0.04129609, 0.00104407, -0.01108865, -0.1420623, -0.0169648, 0.0005187925, -0.8057489, -0.06865758
 270430951, -0.02958379, -0.3911029, -0.04530723, 0.00104407, -0.01058489, -0.1452629, -0.01814717, 0.0005187925, -0.7950456, -0.07080828
 270630871, -0.02823128, -0.3992527, -0.04924452, 0.00104407, -0.01029251, -0.14775, -0.01972317, 0.0005187925, -0.7842133, -0.07297567
 270830791, -0.02733141, -0.406639, -0.05312289, 0.00104407, -0.01000511, -0.1509171, -0.02133871, 0.0005187925, -0.7735282, -0.07516357
 271030711, -0.02684406, -0.4143628, -0.05784589, 0.00104407, -0.009982849, -0.1533776, -0.02341992, 0.0005187925, -0.7630069, -0.07733385
 271231464, -0.02684814, -0.4216785, -0.06313019, 0.001046232, -0.009893822, -0.1558342, -0.02503969, 0.0005209541, -0.7525856, -0.079454
 271431384, -0.02667189, -0.4269067, -0.06731351, 0.001046232, -0.009666077, -0.157934, -0.02714673, 0.0005187925, -0.7423227, -0.08162478
 271631304, -0.0255201, -0.4342152, -0.07244077, 0.00104407, -0.009206504, -0.1613652, -0.02839642, 0.0005187925, -0.7320258, -0.08367389
 271831224, -0.02437172, -0.4429329, -0.07695764, 0.00104407, -0.009070073, -0.1643228, -0.03070724, 0.0005187925, -0.7219241, -0.08568531
 272031144, -0.02366865, -0.4510976, -0.08268232, 0.00104407, -0.008643466, -0.1674829, -0.03257608, 0.0005187925, -0.7122376, -0.08768051
 272231064, -0.01912949, -0.4425468, -0.09517034, 0.00104407, -0.003927577, -0.150537, -0.042049, 0.0005187925, -0.7128239, -0.09130828
 272430984, 0.006180769, -0.3410235, -0.1228604, 0.00104407, 0.01170564, -0.08633172, -0.05153182, 0.0005187925, -0.7267331, -0.0969777
 272630904, 0.05479125, -0.1444371, -0.1436279, 0.00104407, 0.03091927, -0.007508604, -0.05602288, 0.0005187925, -0.7438217, -0.1027864
 272830824, 0.1040048, 0.05882666, -0.1471143, 0.00104407, 0.04652109, 0.05780265, -0.05405495, 0.0005187925, -0.757081, -0.1070893
 273030744, 0.1386809, 0.2134941, -0.1403411, 0.00104407, 0.05551405, 0.1011714, -0.05146883, 0.0005187925, -0.7654801, -0.1096301
 273230664, 0.1577404, 0.314342, -0.136726, 0.00104407, 0.06016161, 0.1297509, -0.0515772, 0.0005187925, -0.7710447, -0.111351
 273431417, 0.170638, 0.384978, -0.1400206, 0.001046232, 0.06491605, 0.1519421, -0.0541894, 0.0005209541, -0.7758948, -0.11316
 273631337, 0.1835214, 0.4417487, -0.1469689, 0.001046232, 0.06967427, 0.1716571, -0.05614468, 0.0005187925, -0.7807615, -0.115514
 273831257, 0.1977859, 0.4960267, -0.1514496, 0.00104407, 0.07548593, 0.1919595, -0.05677938, 0.0005187925, -0.7857949, -0.1186198
 274031177, 0.2122257, 0.5504998, -0.1499387, 0.00104407, 0.0794475, 0.2109667, -0.05426518, 0.0005187925, -0.7902169, -0.1219737
 274231097, 0.2191621, 0.5990998, -0.1394898, 0.00104407, 0.08008233, 0.2265932, -0.04829287, 0.0005187925, -0.7932881, -0.1253918
 274431017, 0.2192531, 0.6362436, -0.1189119, 0.00104407, 0.07940441, 0.2372096, -0.03846278, 0.0005187925, -0.7942709, -0.1285419
 274630937, 0.2180433, 0.6568337, -0.08904598, 0.00104407, 0.07929017, 0.2405272, -0.02591631, 0.0005187925, -0.792894, -0.1312776
 274830857, 0.2163464, 0.6583074, -0.05274492, 0.00104407, 0.0779966, 0.2373224, -0.01157083, 0.0005187925, -0.7890836, -0.1335491
 275030777, 0.210777, 0.6428912, -0.01249062, 0.00104407, 0.07497715, 0.2283568, 0.004192499, 0.0005187925, -0.7830801, -0.1353758
 275230697, 0.2009269, 0.6137833, 0.02982774, 0.00104407, 0.07068846, 0.2159035, 0.01907375, 0.0005187925, -0.7752373, -0.1368609
 275431450, 0.1883933, 0.5769026, 0.06977197, 0.001046232, 0.06553575, 0.2013306, 0.03405267, 0.0005209541, -0.7659694, -0.1381262
 275631370, 0.172463, 0.5303515, 0.1060705, 0.001046232, 0.05938613, 0.1822799, 0.04559828, 0.0005187925, -0.7556726, -0.1392016
 275831290, 0.1558629, 0.4774211, 0.1346309, 0.00104407, 0.05330038, 0.1620456, 0.05360719, 0.0005187925, -0.7448347, -0.1401785
 276031210, 0.138985, 0.4220034, 0.1531625, 0.00104407, 0.04727788, 0.1417192, 0.05799062, 0.0005187925, -0.7342759, -0.141064
 276231130, 0.1222917, 0.3678777, 0.1623897, 0.00104407, 0.04079945, 0.123042, 0.06003762, 0.0005187925, -0.7242702, -0.1418463
 276431050, 0.105897, 0.3166881, 0.1636551, 0.00104407, 0.03526053, 0.1045835, 0.05871753, 0.0005187925, -0.7151584, -0.1425613
 276630970, 0.08979408, 0.2680942, 0.1555986, 0.00104407, 0.02881471, 0.08855449, 0.05416539, 0.0005187925, -0.7072388, -0.1433627
 276830890, 0.07291768, 0.226203, 0.139762, 0.00104407, 0.02327063, 0.07467932, 0.04671613, 0.0005187925, -0.7010615, -0.1441793
 277030810, 0.05825548, 0.1926293, 0.1179894, 0.00104407, 0.01855824, 0.06438784, 0.03787969, 0.0005187925, -0.6964716, -0.1450023
 277230730, 0.04583814, 0.1676657, 0.09371538, 0.00104407, 0.01432005, 0.0570407, 0.02874776, 0.0005187925, -0.6935028, -0.1459483
 277431483, 0.03605248, 0.1518018, 0.06784359, 0.001046232, 0.01143749, 0.05331072, 0.01915574, 0.0005209541, -0.6917742, -0.1469852
 277631403, 0.02904915, 0.1431747, 0.04272729, 0.001046232, 0.009554254, 0.05128356, 0.01068027, 0.0005187925, -0.6909567, -0.1480677
 277831323, 0.02430557, 0.1419436, 0.02128656, 0.00104407, 0.008146162, 0.05248369, 0.00401852, 0.0005187925, -0.6910313, -0.1492107
 278031243, 0.02120555, 0.1471753, 0.004463729, 0.00104407, 0.006971044, 0.05511815, -0.001775614, 0.0005187925, -0.6913771, -0.1502973
 278231163, 0.01917278, 0.1550219, -0.008830291, 0.00104407, 0.006934861, 0.05795449, -0.005655508, 0.0005187925, -0.6918243, -0.1512642
 278431083, 0.01829706, 0.1636174, -0.01807426, 0.00104407, 0.005886399, 0.06108516, -0.008582315, 0.0005187925, -0.6921768, -0.1520451
 278631003, 0.01555294, 0.1724017, -0.02450332, 0.00104407, 0.005147514, 0.06537978, -0.009998178, 0.0005187925, -0.6927316, -0.1528527
 278830923, 0.01352678, 0.185196, -0.02897176, 0.00104407, 0.005022829, 0.07039517, -0.01219977, 0.0005187925, -0.6942497, -0.1538565
 279030843, 0.01517079, 0.2032356, -0.03274161, 0.00104407, 0.006249774, 0.07879528, -0.01160696, 0.0005187925, -0.6962194, -0.1547144
 279230763, 0.02001323, 0.2235527, -0.03098776, 0.00104407, 0.008528113, 0.08531865, -0.01054077, 0.0005187925, -0.6976994, -0.1552558
 279430683, 0.02432982, 0.2397589, -0.02711647, 0.00104407, 0.009535759, 0.08998488, -0.009527324, 0.0005187925, -0.6987135, -0.1555456
 279631436, 0.02527123, 0.2516079, -0.02312793, 0.001046232, 0.008815649, 0.09397225, -0.007077512, 0.0005209541, -0.6993845, -0.1557458
 279831356, 0.02343751, 0.2584678, -0.01824684, 0.001046232, 0.008176896, 0.09460556, -0.006285609, 0.0005187925, -0.6998143, -0.1558868
