TimeUS,COFN,COFE,COFD,CNe,CEe,CDe,POFN,POFE,POFD,PNe,PEe,PDe
 195658372, 0.01156953, 0.02452899, 0.002666938, 0.02661891, -0.02594079, 6.032759E-05, 0, 0, 0, 0, 0, 0
 195735841, 0.005154307, -0.01094684, -7.452738E-06, 0.02627834, -0.02683675, 0.1000075, 0.01156953, 0.02452899, 0.002666938, 0.02661891, -0.02594079, 6.032759E-05
 195835801, 0.0005530559, 0.01649891, 2.676222E-05, 0.02617337, -0.02624167, 0.1000083, 0.005154307, -0.01094684, -7.452738E-06, 0.02627834, -0.02683675, 0.1000075
 195935761, 0.01303201, -0.01030706, 8.252664E-06, 0.02646863, -0.0268209, 0.1000078, 0.0005530559, 0.01649891, 2.676222E-05, 0.02617337, -0.02624167, 0.1000083
 196035721, -0.006486828, -0.001740695, -1.480991E-05, 0.02602205, -0.02662006, 0.1000071, 0.01303201, -0.01030706, 8.252664E-06, 0.02646863, -0.0268209, 0.1000078
 196135681, -0.005030675, -0.01208979, -2.826126E-05, 0.02605307, -0.02686482, 0.1000067, -0.006486828, -0.001740695, -1.480991E-05, 0.02602205, -0.02662006, 0.1000071
 196236474, 0.007115087, -0.0140973, -8.84486E-06, 0.02632621, -0.0269148, 0.100007, -0.005030675, -0.01208979, -2.826126E-05, 0.02605307, -0.02686482, 0.1000067
 196336434, -0.0007870499, 0.01771595, 2.625894E-05, 0.02614516, -0.02621917, 0.1000078, 0.007115087, -0.0140973, -8.84486E-06, 0.02632621, -0.0269148, 0.100007
 196436394, -0.01689952, 0.008477899, -1.819349E-05, 0.02581562, -0.0264001, 0.1000069, -0.0007870499, 0.01771595, 2.625894E-05, 0.02614516, -0.02621917, 0.1000078
 196536354, 0.01382098, -0.009368199, 1.116175E-05, 0.02648831, -0.02679865, 0.1000077, -0.01689952, 0.008477899, -1.819349E-05, 0.02581562, -0.0264001, 0.1000069
 196636314, 0.00811283, -0.003978211, 8.999614E-06, 0.02634785, -0.0266716, 0.1000078, 0.01382098, -0.009368199, 1.116175E-05, 0.02648831, -0.02679865, 0.1000077
 196736274, 0.02261154, -0.008065452, 2.984637E-05, 0.02671562, -0.02676764, 0.1000084, 0.00811283, -0.003978211, 8.999614E-06, 0.02634785, -0.0266716, 0.1000078
 196836234, 0.01257039, 0.01819866, 5.232766E-05, 0.02645611, -0.0262109, 0.1000087, 0.02261154, -0.008065452, 2.984637E-05, 0.02671562, -0.02676764, 0.1000084
 196936194, -0.01047011, -0.01144526, -3.77999E-05, 0.02593899, -0.0268501, 0.1000066, 0.01257039, 0.01819866, 5.232766E-05, 0.02645611, -0.0262109, 0.1000087
 197036154, -0.007461011, -0.02464069, -5.312983E-05, 0.02600036, -0.02719254, 0.100006, -0.01047011, -0.01144526, -3.77999E-05, 0.02593899, -0.0268501, 0.1000066
 197136114, -0.02214549, 0.01611476, -1.617454E-05, 0.02571803, -0.0262509, 0.100007, -0.007461011, -0.02464069, -5.312983E-05, 0.02600036, -0.02719254, 0.100006
 197236074, 0.02486858, 0.01684708, 7.374157E-05, 0.02677624, -0.0262375, 0.100009, -0.02214549, 0.01611476, -1.617454E-05, 0.02571803, -0.0262509, 0.100007
 197336034, 0.004536417, -0.01086836, -8.814619E-06, 0.02626408, -0.0268372, 0.1000068, 0.02486858, 0.01684708, 7.374157E-05, 0.02677624, -0.0262375, 0.100009
 197435994, -0.02313381, -0.02068, -7.658605E-05, 0.02570143, -0.02708775, 0.100005, 0.004536417, -0.01086836, -8.814619E-06, 0.02626408, -0.0268372, 0.1000068
 197535954, -0.006783534, -0.009343766, -2.774318E-05, 0.02601545, -0.02680099, 0.100006, -0.02313381, -0.02068, -7.658605E-05, 0.02570143, -0.02708775, 0.100005
 197635914, -0.01337414, -0.004307828, -3.205828E-05, 0.0258824, -0.02668216, 0.100006, -0.006783534, -0.009343766, -2.774318E-05, 0.02601545, -0.02680099, 0.100006
 197735874, -0.01414913, -0.006630366, -3.731195E-05, 0.02586714, -0.02673667, 0.1000058, -0.01337414, -0.004307828, -3.205828E-05, 0.0258824, -0.02668216, 0.100006
 197835834, -0.01873022, -0.008295683, -4.869612E-05, 0.02578036, -0.02677652, 0.1000056, -0.01414913, -0.006630366, -3.731195E-05, 0.02586714, -0.02673667, 0.1000058
 197935794, -0.01404767, 0.007768594, -1.400697E-05, 0.02586862, -0.02641812, 0.1000065, -0.01873022, -0.008295683, -4.869612E-05, 0.02578036, -0.02677652, 0.1000056
 198035754, -0.002640906, -0.02518791, -4.561055E-05, 0.02610247, -0.02720928, 0.1000058, -0.01404767, 0.007768594, -1.400697E-05, 0.02586862, -0.02641812, 0.1000065
 198135714, 0.006963531, -0.01598729, -1.271914E-05, 0.02632084, -0.02696653, 0.1000063, -0.002640906, -0.02518791, -4.561055E-05, 0.02610247, -0.02720928, 0.1000058
 198235674, -0.02104901, 0.01951163, -7.977949E-06, 0.02573854, -0.02619046, 0.1000062, 0.006963531, -0.01598729, -1.271914E-05, 0.02632084, -0.02696653, 0.1000063
 198336467, 0.02235784, 0.002317951, 4.58047E-05, 0.0267102, -0.02653549, 0.1000071, -0.02104901, 0.01951163, -7.977949E-06, 0.02573854, -0.02619046, 0.1000062
 198436427, 0.02100493, -0.02271394, 2.111177E-06, 0.02667487, -0.0271445, 0.1000057, 0.02235784, 0.002317951, 4.58047E-05, 0.0267102, -0.02653549, 0.1000071
 198536387, 0.00813893, 0.006985569, 2.662835E-05, 0.02635077, -0.02643616, 0.1000063, 0.02100493, -0.02271394, 2.111177E-06, 0.02667487, -0.0271445, 0.1000057
 198636347, -0.007101696, 0.005190013, -4.806802E-06, 0.02601059, -0.02647332, 0.1000057, 0.00813893, 0.006985569, 2.662835E-05, 0.02635077, -0.02643616, 0.1000063
 198736307, -0.01709113, 0.0220686, 3.978854E-06, 0.02581338, -0.02614425, 0.1000059, -0.007101696, 0.005190013, -4.806802E-06, 0.02601059, -0.02647332, 0.1000057
 198836267, 0.00337957, -0.0003072677, 5.787726E-06, 0.02624018, -0.02659217, 0.1000059, -0.01709113, 0.0220686, 3.978854E-06, 0.02581338, -0.02614425, 0.1000059
 198936227, -0.0229924, 0.01516456, -1.828056E-05, 0.02570643, -0.02627085, 0.1000056, 0.00337957, -0.0003072677, 5.787726E-06, 0.02624018, -0.02659217, 0.1000059
 199036187, -0.02044014, -0.02142447, -7.236825E-05, 0.0257517, -0.02710733, 0.1000045, -0.0229924, 0.01516456, -1.828056E-05, 0.02570643, -0.02627085, 0.1000056
 199136147, -0.005174752, 0.0114972, 8.796749E-06, 0.02605137, -0.02634155, 0.1000065, -0.02044014, -0.02142447, -7.236825E-05, 0.0257517, -0.02710733, 0.1000045
 199236107, 0.01904198, -0.004272747, 2.859425E-05, 0.02662389, -0.02668043, 0.1000071, -0.005174752, 0.0114972, 8.796749E-06, 0.02605137, -0.02634155, 0.1000065
 199336067, 0.0207851, -0.009656414, 2.322401E-05, 0.02666971, -0.0268078, 0.1000069, 0.01904198, -0.004272747, 2.859425E-05, 0.02662389, -0.02668043, 0.1000071
 199436027, -0.001606521, -0.01395404, -2.530674E-05, 0.02612795, -0.02691367, 0.1000058, 0.0207851, -0.009656414, 2.322401E-05, 0.02666971, -0.0268078, 0.1000069
 199535987, -0.01522065, -0.003129302, -3.341179E-05, 0.02584791, -0.02665391, 0.1000059, -0.001606521, -0.01395404, -2.530674E-05, 0.02612795, -0.02691367, 0.1000058
 199635947, 0.02233824, 0.01966314, 7.316945E-05, 0.02670945, -0.02618525, 0.1000085, -0.01522065, -0.003129302, -3.341179E-05, 0.02584791, -0.02665391, 0.1000059
 199735907, -0.0215705, 0.01333244, -1.910737E-05, 0.02573018, -0.02630455, 0.1000064, 0.02233824, 0.01966314, 7.316945E-05, 0.02670945, -0.02618525, 0.1000085
 199835867, -0.02333405, 0.0237432, -5.761733E-06, 0.0256993, -0.02611219, 0.1000066, -0.0215705, 0.01333244, -1.910737E-05, 0.02573018, -0.02630455, 0.1000064
 199935827, -0.01722711, 0.01821385, -3.290561E-06, 0.02580984, -0.02621101, 0.1000068, -0.02333405, 0.0237432, -5.761733E-06, 0.0256993, -0.02611219, 0.1000066
 200035787, 0.01537252, 0.006310527, 3.869307E-05, 0.02652844, -0.02644554, 0.100008, -0.01722711, 0.01821385, -3.290561E-06, 0.02580984, -0.02621101, 0.1000068
 200135747, -0.024557, 0.007548514, -3.390482E-05, 0.02567801, -0.02641994, 0.1000063, 0.01537252, 0.006310527, 3.869307E-05, 0.02652844, -0.02644554, 0.100008
 200235707, 0.0230478, 0.01609212, 6.847358E-05, 0.02672938, -0.02625081, 0.1000085, -0.024557, 0.007548514, -3.390482E-05, 0.02567801, -0.02641994, 0.1000063
 200335667, 0.007501849, -0.01375913, -7.855613E-06, 0.02633599, -0.0269074, 0.1000065, 0.0230478, 0.01609212, 6.847358E-05, 0.02672938, -0.02625081, 0.1000085
 200436460, -0.01435289, -0.005372554, -3.511849E-05, 0.02586583, -0.0267046, 0.1000059, 0.007501849, -0.01375913, -7.855613E-06, 0.02633599, -0.0269074, 0.1000065
 200536420, -0.02457494, -0.002228801, -4.923531E-05, 0.02567827, -0.02663167, 0.100006, -0.01435289, -0.005372554, -3.511849E-05, 0.02586583, -0.0267046, 0.1000059
 200636380, -0.01235253, 0.004987155, -1.522487E-05, 0.02590363, -0.02647255, 0.100007, -0.02457494, -0.002228801, -4.923531E-05, 0.02567827, -0.02663167, 0.100006
 200736340, -0.01915336, 0.003695329, -2.996283E-05, 0.02577421, -0.02649979, 0.1000068, -0.01235253, 0.004987155, -1.522487E-05, 0.02590363, -0.02647255, 0.100007
 200836300, 0.01151174, -0.02299223, -1.447597E-05, 0.02643226, -0.02714514, 0.1000071, -0.01915336, 0.003695329, -2.996283E-05, 0.02577421, -0.02649979, 0.1000068
 200936260, -0.005117023, 0.02446864, 2.855818E-05, 0.02605101, -0.02609622, 0.1000083, 0.01151174, -0.02299223, -1.447597E-05, 0.02643226, -0.02714514, 0.1000071
 201036220, -0.004117734, -0.0171013, -3.429588E-05, 0.02607164, -0.02698885, 0.1000073, -0.005117023, 0.02446864, 2.855818E-05, 0.02605101, -0.02609622, 0.1000083
 201136180, 0.02157428, 0.02111195, 7.343449E-05, 0.02668812, -0.02615476, 0.1000099, -0.004117734, -0.0171013, -3.429588E-05, 0.02607164, -0.02698885, 0.1000073
 201236140, -0.0215125, -0.01397544, -6.230935E-05, 0.02572947, -0.02690934, 0.100007, 0.02157428, 0.02111195, 7.343449E-05, 0.02668812, -0.02615476, 0.1000099
 201336100, -0.0189506, -0.01954698, -6.617713E-05, 0.02577592, -0.02705249, 0.1000068, -0.0215125, -0.01397544, -6.230935E-05, 0.02572947, -0.02690934, 0.100007
 201436060, 0.004683283, 0.01879744, 3.813199E-05, 0.02626717, -0.02619704, 0.1000091, -0.0189506, -0.01954698, -6.617713E-05, 0.02577592, -0.02705249, 0.1000068
 201536020, -0.01361102, -0.0227309, -6.11834E-05, 0.02587674, -0.02713723, 0.1000069, 0.004683283, 0.01879744, 3.813199E-05, 0.02626717, -0.02619704, 0.1000091
 201635980, -0.02520641, -0.01304901, -6.812662E-05, 0.02566439, -0.02688669, 0.100007, -0.01361102, -0.0227309, -6.11834E-05, 0.02587674, -0.02713723, 0.1000069
 201735940, -0.01694254, -0.02314051, -6.823946E-05, 0.02581251, -0.02714816, 0.1000069, -0.02520641, -0.01304901, -6.812662E-05, 0.02566439, -0.02688669, 0.100007
 201835900, 0.01355353, 0.02243806, 6.074507E-05, 0.02647991, -0.02613117, 0.1000098, -0.01694254, -0.02314051, -6.823946E-05, 0.02581251, -0.02714816, 0.1000069
 201935860, -0.02545991, 0.02285239, -1.270974E-05, 0.02565994, -0.02612398, 0.1000082, 0.01355353, 0.02243806, 6.074507E-05, 0.02647991, -0.02613117, 0.1000098
 202035820, 0.02462573, 0.02370496, 8.395231E-05, 0.02676937, -0.02610974, 0.1000102, -0.02545991, 0.02285239, -1.270974E-05, 0.02565994, -0.02612398, 0.1000082
 202135780, 0.01462277, 0.01022974, 4.393252E-05, 0.02650703, -0.02636348, 0.1000091, 0.02462573, 0.02370496, 8.395231E-05, 0.02676937, -0.02610974, 0.1000102
 202235740, -0.008463229, 0.00890572, -2.029135E-06, 0.02597907, -0.02639104, 0.100008, 0.01462277, 0.01022974, 4.393252E-05, 0.02650703, -0.02636348, 0.1000091
 202335700, 0.01396081, -0.00742842, 1.486451E-05, 0.02649009, -0.02675188, 0.1000084, -0.008463229, 0.00890572, -2.029135E-06, 0.02597907, -0.02639104, 0.100008
 202435660, -0.007437941, 0.01036717, 2.246303E-06, 0.02599995, -0.02636161, 0.100008, 0.01396081, -0.00742842, 1.486451E-05, 0.02649009, -0.02675188, 0.1000084
 202536453, 0.01279259, 0.02126711, 5.814754E-05, 0.0264609, -0.02615422, 0.1000092, -0.007437941, 0.01036717, 2.246303E-06, 0.02599995, -0.02636161, 0.100008
 202636413, 0.02056731, 0.009055034, 5.362901E-05, 0.02666034, -0.02638823, 0.1000092, 0.01279259, 0.02126711, 5.814754E-05, 0.0264609, -0.02615422, 0.1000092
 202736373, -0.0176532, -0.01184829, -5.249833E-05, 0.02579938, -0.02685913, 0.1000067, 0.02056731, 0.009055034, 5.362901E-05, 0.02666034, -0.02638823, 0.1000092
 202836333, -0.01075166, -0.006795368, -3.131352E-05, 0.02593319, -0.02673736, 0.100007, -0.0176532, -0.01184829, -5.249833E-05, 0.02579938, -0.02685913, 0.1000067
 202936293, -0.02084349, 0.01434272, -1.669938E-05, 0.02574152, -0.02628425, 0.1000071, -0.01075166, -0.006795368, -3.131352E-05, 0.02593319, -0.02673736, 0.100007
 203036253, -0.01989864, 0.01935477, -6.677281E-06, 0.02575893, -0.02619061, 0.100007, -0.02084349, 0.01434272, -1.669938E-05, 0.02574152, -0.02628425, 0.1000071
 203136213, 0.01525582, 0.0254518, 7.001047E-05, 0.02652368, -0.02608283, 0.1000087, -0.01989864, 0.01935477, -6.677281E-06, 0.02575893, -0.02619061, 0.100007
 203236173, 0.01635173, 0.009296329, 4.612398E-05, 0.02655158, -0.0263849, 0.1000084, 0.01525582, 0.0254518, 7.001047E-05, 0.02652368, -0.02608283, 0.1000087
 203336133, -0.005919764, 0.02398226, 2.733679E-05, 0.02603261, -0.0261079, 0.1000078, 0.01635173, 0.009296329, 4.612398E-05, 0.02655158, -0.0263849, 0.1000084
 203436093, 0.01583302, 0.02527288, 7.101436E-05, 0.0265379, -0.0260859, 0.1000089, -0.005919764, 0.02398226, 2.733679E-05, 0.02603261, -0.0261079, 0.1000078
 203536053, -0.01975239, 0.02445061, 1.863751E-06, 0.02576111, -0.02610046, 0.1000072, 0.01583302, 0.02527288, 7.101436E-05, 0.0265379, -0.0260859, 0.1000089
 203636013, -0.007966609, -0.007819873, -2.795642E-05, 0.02598988, -0.0267642, 0.1000064, -0.01975239, 0.02445061, 1.863751E-06, 0.02576111, -0.02610046, 0.1000072
 203735973, -0.02295566, -0.01509291, -6.843769E-05, 0.0257035, -0.0269431, 0.1000055, -0.007966609, -0.007819873, -2.795642E-05, 0.02598988, -0.0267642, 0.1000064
 203835933, 0.02095151, -0.01530945, 1.515288E-05, 0.02667106, -0.02694846, 0.1000074, -0.02295566, -0.01509291, -6.843769E-05, 0.0257035, -0.0269431, 0.1000055
 203935893, 0.005156211, 0.00246995, 1.383769E-05, 0.02627811, -0.02652938, 0.1000074, 0.02095151, -0.01530945, 1.515288E-05, 0.02667106, -0.02694846, 0.1000074
 204035853, -0.02147775, 0.01995555, -8.684859E-06, 0.02573045, -0.02617981, 0.100007, 0.005156211, 0.00246995, 1.383769E-05, 0.02627811, -0.02652938, 0.1000074
 204135813, 0.000169515, 0.0209238, 3.401859E-05, 0.02616537, -0.0261621, 0.1000077, -0.02147775, 0.01995555, -8.684859E-06, 0.02573045, -0.02617981, 0.100007
 204235773, -0.0006209504, -0.02311668, -3.83305E-05, 0.02614828, -0.02715107, 0.100006, 0.000169515, 0.0209238, 3.401859E-05, 0.02616537, -0.0261621, 0.1000077
 204335733, 0.01225947, 0.009804105, 3.88527E-05, 0.02645037, -0.02637414, 0.1000078, -0.0006209504, -0.02311668, -3.83305E-05, 0.02614828, -0.02715107, 0.100006
 204435693, -0.02413652, -0.01130415, -6.352417E-05, 0.0256853, -0.02684642, 0.1000056, 0.01225947, 0.009804105, 3.88527E-05, 0.02645037, -0.02637414, 0.1000078
 204536486, -0.01009648, -0.006029629, -2.860263E-05, 0.02594908, -0.02671945, 0.1000063, -0.02413652, -0.01130415, -6.352417E-05, 0.0256853, -0.02684642, 0.1000056
 204636446, 0.0009862557, -0.00821753, -1.122941E-05, 0.02618593, -0.02677082, 0.1000066, -0.01009648, -0.006029629, -2.860263E-05, 0.02594908, -0.02671945, 0.1000063
 204736406, -0.01600964, -0.00527176, -3.834186E-05, 0.02583419, -0.02670193, 0.1000059, 0.0009862557, -0.00821753, -1.122941E-05, 0.02618593, -0.02677082, 0.1000066
 204836366, -0.006917791, -0.006693827, -2.363313E-05, 0.02601545, -0.02673578, 0.1000059, -0.01600964, -0.00527176, -3.834186E-05, 0.02583419, -0.02670193, 0.1000059
 204936326, -0.01035637, 0.00230125, -1.558771E-05, 0.02594551, -0.02653189, 0.100006, -0.006917791, -0.006693827, -2.363313E-05, 0.02601545, -0.02673578, 0.1000059
 205036286, -0.003189464, 0.01766537, 2.242432E-05, 0.02609524, -0.02622161, 0.1000066, -0.01035637, 0.00230125, -1.558771E-05, 0.02594551, -0.02653189, 0.100006
 205136246, 0.02518387, -0.02397074, 8.37231E-06, 0.02678999, -0.0271738, 0.1000064, -0.003189464, 0.01766537, 2.242432E-05, 0.02609524, -0.02622161, 0.1000066
 205236206, -0.02200164, 0.01179959, -2.196706E-05, 0.02572547, -0.02633377, 0.1000059, 0.02518387, -0.02397074, 8.37231E-06, 0.02678999, -0.0271738, 0.1000064
 205336166, -0.02405318, 0.01326137, -2.341687E-05, 0.02568963, -0.0263048, 0.1000058, -0.02200164, 0.01179959, -2.196706E-05, 0.02572547, -0.02633377, 0.1000059
 205436126, 0.02548902, 0.02254302, 8.313562E-05, 0.02679846, -0.02613228, 0.1000082, -0.02405318, 0.01326137, -2.341687E-05, 0.02568963, -0.0263048, 0.1000058
 205536086, -0.01938155, 0.0002974239, -3.540659E-05, 0.02577301, -0.02657496, 0.1000056, 0.02548902, 0.02254302, 8.313562E-05, 0.02679846, -0.02613228, 0.1000082
 205636046, 0.009291233, -0.006445365, 6.941999E-06, 0.02638119, -0.02672893, 0.1000065, -0.01938155, 0.0002974239, -3.540659E-05, 0.02577301, -0.02657496, 0.1000056
 205736006, -0.0148962, 0.005183797, -1.929184E-05, 0.02585732, -0.02646916, 0.1000058, 0.009291233, -0.006445365, 6.941999E-06, 0.02638119, -0.02672893, 0.1000065
 205835966, 0.01000303, 0.02366162, 5.627656E-05, 0.02639846, -0.02611272, 0.1000073, -0.0148962, 0.005183797, -1.929184E-05, 0.02585732, -0.02646916, 0.1000058
 205935926, 0.02203608, -0.01092454, 2.334619E-05, 0.02670551, -0.02683661, 0.1000068, 0.01000303, 0.02366162, 5.627656E-05, 0.02639846, -0.02611272, 0.1000073
 206035886, 0.003368502, -0.02309843, -3.051303E-05, 0.02624197, -0.02714921, 0.1000056, 0.02203608, -0.01092454, 2.334619E-05, 0.02670551, -0.02683661, 0.1000068
 206135846, 0.0105142, 0.01026918, 3.581111E-05, 0.02641114, -0.02636409, 0.100007, 0.003368502, -0.02309843, -3.051303E-05, 0.02624197, -0.02714921, 0.1000056
 206235806, 0.008054192, 0.006567226, 2.538119E-05, 0.02635195, -0.02644045, 0.1000066, 0.0105142, 0.01026918, 3.581111E-05, 0.02641114, -0.02636409, 0.100007
 206335766, -0.01497908, -0.01601725, -5.326082E-05, 0.02585627, -0.02696451, 0.1000047, 0.008054192, 0.006567226, 2.538119E-05, 0.02635195, -0.02644045, 0.1000066
 206435726, 0.003997718, 0.008273179, 2.061372E-05, 0.02625737, -0.02640529, 0.1000063, -0.01497908, -0.01601725, -5.326082E-05, 0.02585627, -0.02696451, 0.1000047
 206535686, 0.004918768, -0.0002864847, 8.639679E-06, 0.02627795, -0.02658879, 0.1000062, 0.003997718, 0.008273179, 2.061372E-05, 0.02625737, -0.02640529, 0.1000063
 206636479, 0.0007731041, -0.003636355, -4.402635E-06, 0.02618259, -0.0266648, 0.1000061, 0.004918768, -0.0002864847, 8.639679E-06, 0.02627795, -0.02658879, 0.1000062
 206736439, 0.01782282, 0.006706046, 4.384213E-05, 0.02659413, -0.02643798, 0.1000072, 0.0007731041, -0.003636355, -4.402635E-06, 0.02618259, -0.0266648, 0.1000061
 206836399, -0.006384432, 0.006115704, -2.041034E-06, 0.02602788, -0.02645013, 0.1000061, 0.01782282, 0.006706046, 4.384213E-05, 0.02659413, -0.02643798, 0.1000072
 206936359, -0.00612315, -0.003909586, -1.763101E-05, 0.02603323, -0.02667057, 0.1000059, -0.006384432, 0.006115704, -2.041034E-06, 0.02602788, -0.02645013, 0.1000061
 207036319, -0.003342097, 0.01370832, 1.571012E-05, 0.02609242, -0.02629611, 0.1000066, -0.00612315, -0.003909586, -1.763101E-05, 0.02603323, -0.02667057, 0.1000059
 207136279, 0.0206129, 0.01816908, 6.739239E-05, 0.02666698, -0.02621173, 0.1000078, -0.003342097, 0.01370832, 1.571012E-05, 0.02609242, -0.02629611, 0.1000066
 207236239, 0.02272354, 0.01267706, 6.256562E-05, 0.02672326, -0.0263168, 0.1000077, 0.0206129, 0.01816908, 6.739239E-05, 0.02666698, -0.02621173, 0.1000078
 207336199, -0.0008397134, -0.001895247, -4.60598E-06, 0.02614685, -0.02662489, 0.1000061, 0.02272354, 0.01267706, 6.256562E-05, 0.02672326, -0.0263168, 0.1000077
 207436159, -0.01785918, 0.009438194, -1.806288E-05, 0.02580073, -0.02638172, 0.1000058, -0.0008397134, -0.001895247, -4.60598E-06, 0.02614685, -0.02662489, 0.1000061
 207536119, -0.01061719, 0.006538739, -9.254361E-06, 0.02594055, -0.02644179, 0.1000059, -0.01785918, 0.009438194, -1.806288E-05, 0.02580073, -0.02638172, 0.1000058
 207636079, 0.006346087, 0.009567885, 2.730672E-05, 0.02631004, -0.02637969, 0.1000067, -0.01061719, 0.006538739, -9.254361E-06, 0.02594055, -0.02644179, 0.1000059
 207736039, -0.007220561, -0.01155925, -3.215313E-05, 0.02600966, -0.02685361, 0.1000054, 0.006346087, 0.009567885, 2.730672E-05, 0.02631004, -0.02637969, 0.1000067
 207835999, 0.00734449, 0.0177483, 4.239416E-05, 0.02633357, -0.02622038, 0.1000071, -0.007220561, -0.01155925, -3.215313E-05, 0.02600966, -0.02685361, 0.1000054
 207935959, 0.000931947, 0.002866072, 6.386471E-06, 0.02618546, -0.02652046, 0.1000063, 0.00734449, 0.0177483, 4.239416E-05, 0.02633357, -0.02622038, 0.1000071
 208035919, 0.01433647, -0.01671619, -2.783909E-07, 0.02650416, -0.02698381, 0.1000061, 0.000931947, 0.002866072, 6.386471E-06, 0.02618546, -0.02652046, 0.1000063
 208135879, 0.01129255, -0.007625751, 8.750192E-06, 0.0264287, -0.02675936, 0.1000062, 0.01433647, -0.01671619, -2.783909E-07, 0.02650416, -0.02698381, 0.1000061
 208235839, -0.0243453, 0.01459774, -2.179815E-05, 0.02568373, -0.02628117, 0.1000055, 0.01129255, -0.007625751, 8.750192E-06, 0.0264287, -0.02675936, 0.1000062
 208335799, 0.0230807, -0.01342776, 2.132469E-05, 0.02673233, -0.02690112, 0.1000064, -0.0243453, 0.01459774, -2.179815E-05, 0.02568373, -0.02628117, 0.1000055
 208435759, 0.007610853, -0.02375833, -2.455949E-05, 0.02633982, -0.02717019, 0.1000052, 0.0230807, -0.01342776, 2.132469E-05, 0.02673233, -0.02690112, 0.1000064
 208535719, 0.01727319, -0.01116472, 1.414275E-05, 0.02657881, -0.0268459, 0.1000061, 0.007610853, -0.02375833, -2.455949E-05, 0.02633982, -0.02717019, 0.1000052
 208635679, -0.0151225, 0.00441003, -2.123473E-05, 0.02585091, -0.02648947, 0.1000053, 0.01727319, -0.01116472, 1.414275E-05, 0.02657881, -0.0268459, 0.1000061
 208736472, -0.0123299, -0.003050586, -2.832204E-05, 0.02590479, -0.02665428, 0.1000053, -0.0151225, 0.00441003, -2.123473E-05, 0.02585091, -0.02648947, 0.1000053
 208836432, 0.006640685, 0.02007885, 4.559641E-05, 0.02631525, -0.02617975, 0.100007, -0.0123299, -0.003050586, -2.832204E-05, 0.02590479, -0.02665428, 0.1000053
 208936392, -0.01586467, 0.01564876, -4.332156E-06, 0.02583666, -0.02626125, 0.100006, 0.006640685, 0.02007885, 4.559641E-05, 0.02631525, -0.02617975, 0.100007
 209036352, -0.003214048, 0.00450276, 1.28182E-06, 0.02609389, -0.02648553, 0.1000062, -0.01586467, 0.01564876, -4.332156E-06, 0.02583666, -0.02626125, 0.100006
 209136312, 0.01029401, -0.002410519, 1.536608E-05, 0.02640457, -0.02663746, 0.1000064, -0.003214048, 0.00450276, 1.28182E-06, 0.02609389, -0.02648553, 0.1000062
 209236272, -0.01724508, -0.006003915, -4.19211E-05, 0.02581214, -0.02672028, 0.1000051, 0.01029401, -0.002410519, 1.536608E-05, 0.02640457, -0.02663746, 0.1000064
 209336232, 0.0005303918, 0.01972247, 3.284022E-05, 0.02617757, -0.02618369, 0.1000067, -0.01724508, -0.006003915, -4.19211E-05, 0.02581214, -0.02672028, 0.1000051
 209436192, -0.0007569992, 0.004427652, 5.724537E-06, 0.02614942, -0.02648586, 0.1000061, 0.0005303918, 0.01972247, 3.284022E-05, 0.02617757, -0.02618369, 0.1000067
 209536152, 0.01208038, 0.01990954, 5.429209E-05, 0.02644981, -0.02617927, 0.1000073, -0.0007569992, 0.004427652, 5.724537E-06, 0.02614942, -0.02648586, 0.1000061
 209636112, -0.0004374888, 0.01262714, 1.933689E-05, 0.02615695, -0.02631643, 0.1000066, 0.01208038, 0.01990954, 5.429209E-05, 0.02644981, -0.02617927, 0.1000073
 209736072, -0.0006652317, -0.02528312, -4.152137E-05, 0.02615205, -0.02720814, 0.1000052, -0.0004374888, 0.01262714, 1.933689E-05, 0.02615695, -0.02631643, 0.1000066
 209836032, -0.01394908, -0.005226094, -3.407176E-05, 0.02587669, -0.02669974, 0.1000055, -0.0006652317, -0.02528312, -4.152137E-05, 0.02615205, -0.02720814, 0.1000052
 209935992, -0.01433979, 0.01855767, 3.037529E-06, 0.02586934, -0.02620274, 0.1000063, -0.01394908, -0.005226094, -3.407176E-05, 0.02587669, -0.02669974, 0.1000055
 210035952, -0.009639027, 0.009508263, -2.688566E-06, 0.02596254, -0.02637785, 0.1000062, -0.01433979, 0.01855767, 3.037529E-06, 0.02586934, -0.02620274, 0.1000063
 210135912, -0.01967863, -0.002168994, -3.959204E-05, 0.02576957, -0.02662852, 0.1000055, -0.009639027, 0.009508263, -2.688566E-06, 0.02596254, -0.02637785, 0.1000062
 210235872, -0.005403987, 0.001610483, -7.368328E-06, 0.02605097, -0.02654393, 0.1000061, -0.01967863, -0.002168994, -3.959204E-05, 0.02576957, -0.02662852, 0.1000055
 210335832, -0.009478996, -0.01037841, -3.371699E-05, 0.02596615, -0.02682057, 0.1000058, -0.005403987, 0.001610483, -7.368328E-06, 0.02605097, -0.02654393, 0.1000061
 210435792, -0.02222896, 0.02050013, -8.83402E-06, 0.02572344, -0.026165, 0.1000066, -0.009478996, -0.01037841, -3.371699E-05, 0.02596615, -0.02682057, 0.1000058
 210535752, -0.004186871, -0.01670438, -3.379441E-05, 0.02607644, -0.02697781, 0.1000059, -0.02222896, 0.02050013, -8.83402E-06, 0.02572344, -0.026165, 0.1000066
 210635712, 0.01363446, 0.01009711, 4.075091E-05, 0.0264902, -0.02636368, 0.1000076, -0.004186871, -0.01670438, -3.379441E-05, 0.02607644, -0.02697781, 0.1000059
 210735672, -0.01156139, -0.02190185, -5.542418E-05, 0.02592468, -0.02711396, 0.1000053, 0.01363446, 0.01009711, 4.075091E-05, 0.0264902, -0.02636368, 0.1000076
 210836465, -0.02141864, -0.01537903, -6.335925E-05, 0.02573853, -0.02694457, 0.1000051, -0.01156139, -0.02190185, -5.542418E-05, 0.02592468, -0.02711396, 0.1000053
 210936425, 0.001647323, 0.01830536, 3.169925E-05, 0.02620535, -0.0262054, 0.1000071, -0.02141864, -0.01537903, -6.335925E-05, 0.02573853, -0.02694457, 0.1000051
 211036385, 0.0223659, -0.02333582, 4.319871E-06, 0.02671698, -0.02715272, 0.1000065, 0.001647323, 0.01830536, 3.169925E-05, 0.02620535, -0.0262054, 0.1000071
 211136345, 0.009682358, 0.007094111, 2.877937E-05, 0.02639373, -0.02642549, 0.1000071, 0.0223659, -0.02333582, 4.319871E-06, 0.02671698, -0.02715272, 0.1000065
 211236305, -0.01539799, -0.01335857, -4.894836E-05, 0.02585086, -0.02689307, 0.1000053, 0.009682358, 0.007094111, 2.877937E-05, 0.02639373, -0.02642549, 0.1000071
 211336265, -0.004828714, 0.0122027, 1.027916E-05, 0.02606425, -0.02632179, 0.1000066, -0.01539799, -0.01335857, -4.894836E-05, 0.02585086, -0.02689307, 0.1000053
 211436225, 0.01460489, -0.001728172, 2.392909E-05, 0.02651574, -0.02661682, 0.1000069, -0.004828714, 0.0122027, 1.027916E-05, 0.02606425, -0.02632179, 0.1000066
 211536185, 0.004012491, 0.01870215, 3.666728E-05, 0.02626013, -0.02619819, 0.100007, 0.01460489, -0.001728172, 2.392909E-05, 0.02651574, -0.02661682, 0.1000069
 211636145, 0.02080584, -0.01248818, 1.828022E-05, 0.02667617, -0.02687233, 0.1000066, 0.004012491, 0.01870215, 3.666728E-05, 0.02626013, -0.02619819, 0.100007
 211736105, -0.01903916, 0.01600579, -9.514202E-06, 0.02578304, -0.02624893, 0.1000059, 0.02080584, -0.01248818, 1.828022E-05, 0.02667617, -0.02687233, 0.1000066
 211836065, -0.02165342, -0.002664187, -4.366618E-05, 0.02573563, -0.02663898, 0.1000052, -0.01903916, 0.01600579, -9.514202E-06, 0.02578304, -0.02624893, 0.1000059
 211936025, -0.003884648, 0.01754449, 2.055689E-05, 0.02608448, -0.02622016, 0.1000065, -0.02165342, -0.002664187, -4.366618E-05, 0.02573563, -0.02663898, 0.1000052
 212035985, 0.01919237, 0.02295422, 7.128567E-05, 0.02663312, -0.0261224, 0.1000077, -0.003884648, 0.01754449, 2.055689E-05, 0.02608448, -0.02622016, 0.1000065
 212135945, -0.006519428, -0.004849077, -1.95616E-05, 0.02602826, -0.02668897, 0.1000058, 0.01919237, 0.02295422, 7.128567E-05, 0.02663312, -0.0261224, 0.1000077
 212235905, 0.01731494, 0.0002291313, 3.208083E-05, 0.02658423, -0.02657343, 0.1000071, -0.006519428, -0.004849077, -1.95616E-05, 0.02602826, -0.02668897, 0.1000058
 212335865, 0.01481245, 0.001020051, 2.874235E-05, 0.02652048, -0.02655657, 0.1000069, 0.01731494, 0.0002291313, 3.208083E-05, 0.02658423, -0.02657343, 0.1000071
 212435825, -0.003417508, -0.007133614, -1.757461E-05, 0.02609399, -0.02674353, 0.1000056, 0.01481245, 0.001020051, 2.874235E-05, 0.02652048, -0.02655657, 0.1000069
 212535785, -0.02327263, -0.008603473, -5.644386E-05, 0.02570572, -0.02677876, 0.100005, -0.003417508, -0.007133614, -1.757461E-05, 0.02609399, -0.02674353, 0.1000056
 212635745, 0.002034673, -0.01477164, -1.97085E-05, 0.02621329, -0.02693052, 0.1000058, -0.02327263, -0.008603473, -5.644386E-05, 0.02570572, -0.02677876, 0.100005
 212735705, -0.02145196, -0.006991421, -5.072621E-05, 0.02573729, -0.02674048, 0.1000052, 0.002034673, -0.01477164, -1.97085E-05, 0.02621329, -0.02693052, 0.1000058
 212835665, 0.0036353, -0.01428548, -1.602524E-05, 0.02624961, -0.02691852, 0.1000059, -0.02145196, -0.006991421, -5.072621E-05, 0.02573729, -0.02674048, 0.1000052
 212936458, -0.01369649, -0.008804785, -3.942211E-05, 0.02588159, -0.02678411, 0.1000054, 0.0036353, -0.01428548, -1.602524E-05, 0.02624961, -0.02691852, 0.1000059
 213036418, -0.00758059, -0.02144965, -4.837097E-05, 0.02600394, -0.02710452, 0.1000051, -0.01369649, -0.008804785, -3.942211E-05, 0.02588159, -0.02678411, 0.1000054
 213136378, 0.02500249, 0.0165769, 7.300127E-05, 0.02678614, -0.0262404, 0.100008, -0.00758059, -0.02144965, -4.837097E-05, 0.02600394, -0.02710452, 0.1000051
 213236338, 0.0172518, -0.006841272, 2.109159E-05, 0.02658059, -0.02673795, 0.1000067, 0.02500249, 0.0165769, 7.300127E-05, 0.02678614, -0.0262404, 0.100008
 213336298, -0.01965389, 0.008319263, -2.319315E-05, 0.02576889, -0.0264033, 0.1000057, 0.0172518, -0.006841272, 2.109159E-05, 0.02658059, -0.02673795, 0.1000067
 213436258, 0.01725381, -0.01948804, 7.699018E-07, 0.02658037, -0.02705343, 0.1000062, -0.01965389, 0.008319263, -2.319315E-05, 0.02576889, -0.0264033, 0.1000057
 213536218, -0.01515293, 0.02108461, 5.839052E-06, 0.02585293, -0.0261583, 0.1000061, 0.01725381, -0.01948804, 7.699018E-07, 0.02658037, -0.02705343, 0.1000062
 213636178, 0.01378474, 0.02162792, 6.076536E-05, 0.02649223, -0.02614924, 0.1000072, -0.01515293, 0.02108461, 5.839052E-06, 0.02585293, -0.0261583, 0.1000061
 213736138, -0.004597358, 0.01119589, 9.620137E-06, 0.02606643, -0.02634655, 0.100006, 0.01378474, 0.02162792, 6.076536E-05, 0.02649223, -0.02614924, 0.1000072
 213836098, 0.0207329, 0.0184709, 6.87899E-05, 0.026671, -0.02620722, 0.1000073, -0.004597358, 0.01119589, 9.620137E-06, 0.02606643, -0.02634655, 0.100006
 213936058, 0.01407162, 0.02213319, 6.250668E-05, 0.0264988, -0.02614123, 0.1000071, 0.0207329, 0.0184709, 6.87899E-05, 0.026671, -0.02620722, 0.1000073
 214036018, 0.002688787, 0.02410406, 4.452548E-05, 0.02622591, -0.02610687, 0.1000067, 0.01407162, 0.02213319, 6.250668E-05, 0.0264988, -0.02614123, 0.1000071
 214135978, 0.001773921, -0.00999084, -1.301498E-05, 0.02620576, -0.02681593, 0.1000054, 0.002688787, 0.02410406, 4.452548E-05, 0.02622591, -0.02610687, 0.1000067
 214235938, 0.01967585, 0.02534063, 7.800043E-05, 0.02664334, -0.02608537, 0.1000073, 0.001773921, -0.00999084, -1.301498E-05, 0.02620576, -0.02681593, 0.1000054
 214335898, -0.02533505, 0.02354939, -8.778403E-06, 0.02566905, -0.02611551, 0.1000054, 0.01967585, 0.02534063, 7.800043E-05, 0.02664334, -0.02608537, 0.1000073
 214435858, 0.01338077, 0.02197451, 6.036581E-05, 0.0264831, -0.02614304, 0.1000069, -0.02533505, 0.02354939, -8.778403E-06, 0.02566905, -0.02611551, 0.1000054
 214535818, -0.005006961, -0.01366381, -3.143639E-05, 0.02605888, -0.02690579, 0.1000047, 0.01338077, 0.02197451, 6.036581E-05, 0.0264831, -0.02614304, 0.1000069
 214635778, -0.01752772, 0.01036627, -1.550041E-05, 0.0258094, -0.02636378, 0.100005, -0.005006961, -0.01366381, -3.143639E-05, 0.02605888, -0.02690579, 0.1000047
 214735738, 0.006841325, 0.01662541, 3.953015E-05, 0.02632489, -0.02624122, 0.1000062, -0.01752772, 0.01036627, -1.550041E-05, 0.0258094, -0.02636378, 0.100005
 214835698, -0.004546757, -0.01385626, -3.070821E-05, 0.02606922, -0.02690978, 0.1000048, 0.006841325, 0.01662541, 3.953015E-05, 0.02632489, -0.02624122, 0.1000062
 214935658, -0.01594686, -0.01312889, -5.044977E-05, 0.02583911, -0.02689094, 0.1000047, -0.004546757, -0.01385626, -3.070821E-05, 0.02606922, -0.02690978, 0.1000048
 215036451, -0.01303755, -0.01717275, -5.146496E-05, 0.02589492, -0.02699257, 0.1000049, -0.01594686, -0.01312889, -5.044977E-05, 0.02583911, -0.02689094, 0.1000047
 215136411, -0.0002712961, 0.01797887, 2.813642E-05, 0.0261619, -0.02621348, 0.1000066, -0.01303755, -0.01717275, -5.146496E-05, 0.02589492, -0.02699257, 0.1000049
 215236371, 0.02207156, 0.004800351, 4.820011E-05, 0.02670861, -0.02647592, 0.1000072, -0.0002712961, 0.01797887, 2.813642E-05, 0.0261619, -0.02621348, 0.1000066
 215336331, 0.01366237, -0.006311108, 1.508041E-05, 0.02649121, -0.02672405, 0.1000065, 0.02207156, 0.004800351, 4.820011E-05, 0.02670861, -0.02647592, 0.1000072
 215436291, 0.002487315, 0.0004879697, 5.337239E-06, 0.02622439, -0.02656842, 0.1000063, 0.01366237, -0.006311108, 1.508041E-05, 0.02649121, -0.02672405, 0.1000065
 215536251, 0.02482636, 0.007068348, 5.683456E-05, 0.02678273, -0.02642694, 0.1000078, 0.002487315, 0.0004879697, 5.337239E-06, 0.02622439, -0.02656842, 0.1000063
 215636211, 0.02101021, 0.01269279, 5.870025E-05, 0.02667962, -0.02631278, 0.100008, 0.02482636, 0.007068348, 5.683456E-05, 0.02678273, -0.02642694, 0.1000078
 215736171, 0.002653921, -0.004405229, -2.033391E-06, 0.02622756, -0.02667824, 0.1000066, 0.02101021, 0.01269279, 5.870025E-05, 0.02667962, -0.02631278, 0.100008
 215836131, 0.01313235, -0.01381815, 2.45533E-06, 0.02647766, -0.02690486, 0.1000067, 0.002653921, -0.004405229, -2.033391E-06, 0.02622756, -0.02667824, 0.1000066
 215936091, -0.003844195, 0.02114972, 2.615574E-05, 0.0260847, -0.02615339, 0.1000069, 0.01313235, -0.01381815, 2.45533E-06, 0.02647766, -0.02690486, 0.1000067
 216036051, 0.01097707, 0.005756565, 2.908159E-05, 0.02642562, -0.02645364, 0.1000069, -0.003844195, 0.02114972, 2.615574E-05, 0.0260847, -0.02615339, 0.1000069
 216136011, -0.02226491, -0.004239492, -4.725366E-05, 0.02572486, -0.02667448, 0.1000052, 0.01097707, 0.005756565, 2.908159E-05, 0.02642562, -0.02645364, 0.1000069
 216235971, 0.006472505, -0.02427429, -2.636042E-05, 0.02631801, -0.02717814, 0.1000054, -0.02226491, -0.004239492, -4.725366E-05, 0.02572486, -0.02667448, 0.1000052
 216335931, 0.004541741, -0.001422449, 6.016118E-06, 0.02627332, -0.0266103, 0.1000061, 0.006472505, -0.02427429, -2.636042E-05, 0.02631801, -0.02717814, 0.1000054
 216435891, 0.00931254, -0.01785281, -1.117987E-05, 0.02638642, -0.02700786, 0.1000056, 0.004541741, -0.001422449, 6.016118E-06, 0.02627332, -0.0266103, 0.1000061
 216535851, -0.02160504, 0.01596317, -1.411715E-05, 0.0257377, -0.02624917, 0.1000057, 0.00931254, -0.01785281, -1.117987E-05, 0.02638642, -0.02700786, 0.1000056
 216635811, 0.002561804, 0.008853931, 1.851743E-05, 0.02622825, -0.02638903, 0.1000064, -0.02160504, 0.01596317, -1.411715E-05, 0.0257377, -0.02624917, 0.1000057
 216735771, 0.01917071, -0.01834883, 6.116232E-06, 0.02663409, -0.02701985, 0.1000063, 0.002561804, 0.008853931, 1.851743E-05, 0.02622825, -0.02638903, 0.1000064
 216835731, -0.01530246, -0.002662741, -3.200821E-05, 0.02585356, -0.02663742, 0.1000056, 0.01917071, -0.01834883, 6.116232E-06, 0.02663409, -0.02701985, 0.1000063
 216935691, -0.0009060731, 0.01478306, 2.149578E-05, 0.02614989, -0.02627126, 0.1000067, -0.01530246, -0.002662741, -3.200821E-05, 0.02585356, -0.02663742, 0.1000056
 217036484, -0.02147081, -0.01341557, -6.01982E-05, 0.02573912, -0.02689482, 0.1000049, -0.0009060731, 0.01478306, 2.149578E-05, 0.02614989, -0.02627126, 0.1000067
 217136444, -0.02062585, -0.01765672, -6.528279E-05, 0.02575454, -0.02700268, 0.1000047, -0.02147081, -0.01341557, -6.01982E-05, 0.02573912, -0.02689482, 0.1000049
 217236404, 0.005259788, 0.01698624, 3.630758E-05, 0.02628985, -0.02623013, 0.1000068, -0.02062585, -0.01765672, -6.528279E-05, 0.02575454, -0.02700268, 0.1000047
 217336364, 0.008002887, -0.01303728, -6.026968E-06, 0.02635419, -0.02688639, 0.1000057, 0.005259788, 0.01698624, 3.630758E-05, 0.02628985, -0.02623013, 0.1000068
 217436324, 0.004338507, 0.009886729, 2.365341E-05, 0.02626761, -0.02637007, 0.1000063, 0.008002887, -0.01303728, -6.026968E-06, 0.02635419, -0.02688639, 0.1000057
 217536284, -0.01878558, -0.01089856, -5.194155E-05, 0.02578672, -0.02683535, 0.1000047, 0.004338507, 0.009886729, 2.365341E-05, 0.02626761, -0.02637007, 0.1000063
 217636244, 0.02096912, -0.003082323, 3.367943E-05, 0.02667915, -0.02665119, 0.1000065, -0.01878558, -0.01089856, -5.194155E-05, 0.02578672, -0.02683535, 0.1000047
 217736204, -0.005413876, 0.001380379, -7.769605E-06, 0.02605043, -0.02655142, 0.1000055, 0.02096912, -0.003082323, 3.367943E-05, 0.02667915, -0.02665119, 0.1000065
 217836164, 0.005532849, 0.01671811, 3.721794E-05, 0.02629355, -0.02623885, 0.1000065, -0.005413876, 0.001380379, -7.769605E-06, 0.02605043, -0.02655142, 0.1000055
 217936124, -0.008715626, 0.01658162, 1.059076E-05, 0.02598115, -0.0262412, 0.100006, 0.005532849, 0.01671811, 3.721794E-05, 0.02629355, -0.02623885, 0.1000065
 218036084, 0.001749418, 0.02075653, 3.671421E-05, 0.02620609, -0.02616416, 0.1000067, -0.008715626, 0.01658162, 1.059076E-05, 0.02598115, -0.0262412, 0.100006
 218136044, -0.004591193, -0.01273921, -2.921799E-05, 0.02606679, -0.02688277, 0.100005, 0.001749418, 0.02075653, 3.671421E-05, 0.02620609, -0.02616416, 0.1000067
 218236004, -0.02438799, 0.009498219, -2.985347E-05, 0.02568471, -0.02638209, 0.1000049, -0.004591193, -0.01273921, -2.921799E-05, 0.02606679, -0.02688277, 0.100005
 218335964, -0.01340028, 0.01115941, -6.667289E-06, 0.02588679, -0.02634892, 0.1000052, -0.02438799, 0.009498219, -2.985347E-05, 0.02568471, -0.02638209, 0.1000049
 218435924, -0.009758201, 0.01257197, 2.451958E-06, 0.02595908, -0.02632117, 0.1000054, -0.01340028, 0.01115941, -6.667289E-06, 0.02588679, -0.02634892, 0.1000052
 218535884, -0.0008409093, -0.00575125, -1.105024E-05, 0.02614739, -0.0267165, 0.100005, -0.009758201, 0.01257197, 2.451958E-06, 0.02595908, -0.02632117, 0.1000054
 218635844, -0.0238393, -0.01980729, -7.738301E-05, 0.02569316, -0.02706641, 0.1000035, -0.0008409093, -0.00575125, -1.105024E-05, 0.02614739, -0.0267165, 0.100005
 218735804, 0.003849036, 0.006366299, 1.77612E-05, 0.0262526, -0.02644865, 0.1000056, -0.0238393, -0.01980729, -7.738301E-05, 0.02569316, -0.02706641, 0.1000035
 218835764, -0.02358875, 0.005020599, -3.590474E-05, 0.02569741, -0.0264773, 0.1000044, 0.003849036, 0.006366299, 1.77612E-05, 0.0262526, -0.02644865, 0.1000056
 218935724, 0.01971717, -0.01730711, 8.267714E-06, 0.02664327, -0.02700163, 0.1000054, -0.02358875, 0.005020599, -3.590474E-05, 0.02569741, -0.0264773, 0.1000044
 219035684, -0.00400835, 0.01307419, 1.419977E-05, 0.02607761, -0.02631309, 0.1000055, 0.01971717, -0.01730711, 8.267714E-06, 0.02664327, -0.02700163, 0.1000054
 219136477, 0.01536856, 0.004917035, 3.710519E-05, 0.02653055, -0.02647964, 0.1000061, -0.00400835, 0.01307419, 1.419977E-05, 0.02607761, -0.02631309, 0.1000055
 219236437, -0.02042023, 0.004924616, -3.028967E-05, 0.02575296, -0.02647942, 0.1000047, 0.01536856, 0.004917035, 3.710519E-05, 0.02653055, -0.02647964, 0.1000061
 219336397, 0.02200919, 0.01317949, 6.322257E-05, 0.0267038, -0.02631124, 0.1000066, -0.02042023, 0.004924616, -3.028967E-05, 0.02575296, -0.02647942, 0.1000047
 219436357, -0.002891239, -0.004458956, -1.28126E-05, 0.02610222, -0.02668758, 0.1000048, 0.02200919, 0.01317949, 6.322257E-05, 0.0267038, -0.02631124, 0.1000066
 219536317, 0.02472599, -0.006733887, 3.488511E-05, 0.02677855, -0.02674065, 0.1000058, -0.002891239, -0.004458956, -1.28126E-05, 0.02610222, -0.02668758, 0.1000048
 219636277, -0.01551068, -0.0243326, -6.907446E-05, 0.02584643, -0.02718771, 0.1000032, 0.02472599, -0.006733887, 3.488511E-05, 0.02677855, -0.02674065, 0.1000058
 219736237, 0.02465807, 0.01912657, 7.728879E-05, 0.02677734, -0.02619821, 0.1000065, -0.01551068, -0.0243326, -6.907446E-05, 0.02584643, -0.02718771, 0.1000032
 219836197, -0.01894793, -0.01885416, -6.614884E-05, 0.02578257, -0.0270415, 0.1000032, 0.02465807, 0.01912657, 7.728879E-05, 0.02677734, -0.02619821, 0.1000065
 219936157, 0.01996628, -0.01645676, 9.735619E-06, 0.0266524, -0.02697902, 0.100005, -0.01894793, -0.01885416, -6.614884E-05, 0.02578257, -0.0270415, 0.1000032
 220036117, 0.002699739, 0.02361102, 4.371706E-05, 0.02622874, -0.02611679, 0.1000056, 0.01996628, -0.01645676, 9.735619E-06, 0.0266524, -0.02697902, 0.100005
 220136077, 0.01957426, -0.006647576, 2.506949E-05, 0.02664266, -0.02673719, 0.1000054, 0.002699739, 0.02361102, 4.371706E-05, 0.02622874, -0.02611679, 0.1000056
 220236037, 0.0001367357, -0.009315804, -1.497403E-05, 0.02617175, -0.02680061, 0.1000044, 0.01957426, -0.006647576, 2.506949E-05, 0.02664266, -0.02673719, 0.1000054
 220335997, 0.01835057, -0.01340561, 1.163216E-05, 0.02661138, -0.02690117, 0.1000049, 0.0001367357, -0.009315804, -1.497403E-05, 0.02617175, -0.02680061, 0.1000044
 220435957, -0.004456061, 0.004777432, -3.157438E-07, 0.02607228, -0.02648109, 0.1000045, 0.01835057, -0.01340561, 1.163216E-05, 0.02661138, -0.02690117, 0.1000049
 220535917, 0.007833966, 0.01246389, 3.463128E-05, 0.0263501, -0.02632366, 0.1000051, -0.004456061, 0.004777432, -3.157438E-07, 0.02607228, -0.02648109, 0.1000045
 220635877, -0.002609202, -0.002577901, -8.946051E-06, 0.02611281, -0.02664287, 0.1000041, 0.007833966, 0.01246389, 3.463128E-05, 0.0263501, -0.02632366, 0.1000051
 220735837, -0.02026836, 0.0007345849, -3.555436E-05, 0.02576132, -0.02656827, 0.1000036, -0.002609202, -0.002577901, -8.946051E-06, 0.02611281, -0.02664287, 0.1000041
 220835797, 0.01714498, -1.637152E-05, 3.101671E-05, 0.02658158, -0.02658446, 0.1000052, -0.02026836, 0.0007345849, -3.555436E-05, 0.02576132, -0.02656827, 0.1000036
 220935757, -0.01323834, 0.02349929, 1.416064E-05, 0.02589424, -0.02611731, 0.1000047, 0.01714498, -1.637152E-05, 3.101671E-05, 0.02658158, -0.02658446, 0.1000052
 221035717, 0.0008853787, -0.02091072, -3.224287E-05, 0.02619072, -0.02709309, 0.1000036, -0.01323834, 0.02349929, 1.416064E-05, 0.02589424, -0.02611731, 0.1000047
 221135677, 0.01667681, 0.003156311, 3.523165E-05, 0.02656988, -0.02651471, 0.1000052, 0.0008853787, -0.02091072, -3.224287E-05, 0.02619072, -0.02709309, 0.1000036
 221236470, -4.100239E-05, -0.002597678, -4.288555E-06, 0.02616963, -0.02664253, 0.1000043, 0.01667681, 0.003156311, 3.523165E-05, 0.02656988, -0.02651471, 0.1000052
 221336430, 0.01999833, 0.01365711, 5.824435E-05, 0.02665604, -0.02629948, 0.1000057, -4.100239E-05, -0.002597678, -4.288555E-06, 0.02616963, -0.02664253, 0.1000043
 221436390, -0.001099361, -0.007167788, -1.361026E-05, 0.02614647, -0.02674875, 0.100004, 0.01999833, 0.01365711, 5.824435E-05, 0.02665604, -0.02629948, 0.1000057
 221536350, 0.02342103, 0.01415452, 6.516108E-05, 0.0267473, -0.0262896, 0.1000059, -0.001099361, -0.007167788, -1.361026E-05, 0.02614647, -0.02674875, 0.100004
 221636310, 0.0009295153, -0.002689841, -2.665839E-06, 0.02619155, -0.02664401, 0.1000044, 0.02342103, 0.01415452, 6.516108E-05, 0.0267473, -0.0262896, 0.1000059
 221736270, 0.01812724, 0.002668576, 3.69546E-05, 0.02660761, -0.02652507, 0.1000052, 0.0009295153, -0.002689841, -2.665839E-06, 0.02619155, -0.02664401, 0.1000044
 221836230, 0.02136778, -0.004447522, 3.118767E-05, 0.02669321, -0.0266846, 0.100005, 0.01812724, 0.002668576, 3.69546E-05, 0.02660761, -0.02652507, 0.1000052
 221936190, -0.01066239, 0.02213831, 1.657682E-05, 0.0259459, -0.02614097, 0.1000046, 0.02136778, -0.004447522, 3.118767E-05, 0.02669321, -0.0266846, 0.100005
 222036150, -0.02274093, -0.02278053, -7.767595E-05, 0.02571794, -0.02714303, 0.1000027, -0.01066239, 0.02213831, 1.657682E-05, 0.0259459, -0.02614097, 0.1000046
 222136110, -0.002930865, 0.02205847, 3.05596E-05, 0.02610707, -0.0261434, 0.1000047, -0.02274093, -0.02278053, -7.767595E-05, 0.02571794, -0.02714303, 0.1000027
 222236070, -0.001375669, -0.008188691, -1.584838E-05, 0.02614117, -0.02677429, 0.1000034, -0.002930865, 0.02205847, 3.05596E-05, 0.02610707, -0.0261434, 0.1000047
 222336030, 0.0003036262, -0.001180678, -1.382847E-06, 0.02617853, -0.02661168, 0.1000037, -0.001375669, -0.008188691, -1.584838E-05, 0.02614117, -0.02677429, 0.1000034
 222435990, -0.002703866, 0.02379772, 3.400585E-05, 0.02611252, -0.02611365, 0.1000044, 0.0003036262, -0.001180678, -1.382847E-06, 0.02617853, -0.02661168, 0.1000037
 222535950, 0.0141542, 0.01758035, 5.41244E-05, 0.02650677, -0.02622612, 0.1000049, -0.002703866, 0.02379772, 3.400585E-05, 0.02611252, -0.02611365, 0.1000044
 222635910, 0.0177777, -0.001981806, 2.866563E-05, 0.02659912, -0.02663031, 0.1000043, 0.0141542, 0.01758035, 5.41244E-05, 0.02650677, -0.02622612, 0.1000049
 222735870, 0.01483588, -0.01847389, -3.601464E-06, 0.02652334, -0.02703165, 0.1000036, 0.0177777, -0.001981806, 2.866563E-05, 0.02659912, -0.02663031, 0.1000043
 222835830, -0.008693077, -0.02257453, -5.284062E-05, 0.02598477, -0.02714049, 0.1000025, 0.01483588, -0.01847389, -3.601464E-06, 0.02652334, -0.02703165, 0.1000036
 222935790, -0.02139232, 0.0146529, -1.451302E-05, 0.0257415, -0.02628258, 0.1000034, -0.008693077, -0.02257453, -5.284062E-05, 0.02598477, -0.02714049, 0.1000025
 223035750, -0.02520852, -0.009961298, -6.190122E-05, 0.02567455, -0.02681831, 0.1000024, -0.02139232, 0.0146529, -1.451302E-05, 0.0257415, -0.02628258, 0.1000034
 223135710, 0.01193865, -0.01455554, -2.40368E-06, 0.0264501, -0.0269322, 0.1000037, -0.02520852, -0.009961298, -6.190122E-05, 0.02567455, -0.02681831, 0.1000024
 223235670, 0.01584726, 0.02288653, 6.664541E-05, 0.02654733, -0.02613188, 0.1000052, 0.01193865, -0.01455554, -2.40368E-06, 0.0264501, -0.0269322, 0.1000037
 223336463, 0.004958796, 0.01723087, 3.754918E-05, 0.02628163, -0.02623455, 0.1000047, 0.01584726, 0.02288653, 6.664541E-05, 0.02654733, -0.02613188, 0.1000052
 223436423, 0.01622369, -0.01058141, 1.215615E-05, 0.02655577, -0.02683434, 0.1000043, 0.004958796, 0.01723087, 3.754918E-05, 0.02628163, -0.02623455, 0.1000047
 223536383, 0.005768578, 0.0132944, 3.264192E-05, 0.02629964, -0.02631037, 0.1000047, 0.01622369, -0.01058141, 1.215615E-05, 0.02655577, -0.02683434, 0.1000043
 223636343, -0.02277304, -0.002957308, -4.669619E-05, 0.02571415, -0.02665515, 0.100003, 0.005768578, 0.0132944, 3.264192E-05, 0.02629964, -0.02631037, 0.1000047
 223736303, 0.01051839, 0.001078131, 2.114487E-05, 0.0264125, -0.02656501, 0.1000044, -0.02277304, -0.002957308, -4.669619E-05, 0.02571415, -0.02665515, 0.100003
 223836263, 0.02137191, 0.001649966, 4.219844E-05, 0.02668859, -0.02655298, 0.100005, 0.01051839, 0.001078131, 2.114487E-05, 0.0264125, -0.02656501, 0.1000044
 223936223, -0.01710926, 0.01269723, -1.032981E-05, 0.02581573, -0.02632385, 0.1000038, 0.02137191, 0.001649966, 4.219844E-05, 0.02668859, -0.02655298, 0.100005
 224036183, 0.02043556, -0.0173288, 8.726951E-06, 0.0266628, -0.02700611, 0.1000042, -0.01710926, 0.01269723, -1.032981E-05, 0.02581573, -0.02632385, 0.1000038
 224136143, 0.02072321, -0.01462393, 1.395444E-05, 0.02666985, -0.02693705, 0.1000045, 0.02043556, -0.0173288, 8.726951E-06, 0.0266628, -0.02700611, 0.1000042
 224236103, 0.002458252, -0.002030378, 1.171483E-06, 0.02622008, -0.02663561, 0.1000043, 0.02072321, -0.01462393, 1.395444E-05, 0.02666985, -0.02693705, 0.1000045
 224336063, 0.01786408, -0.02299603, -5.368125E-06, 0.02659438, -0.0271553, 0.1000042, 0.002458252, -0.002030378, 1.171483E-06, 0.02622008, -0.02663561, 0.1000043
 224436023, -0.005709387, 0.01871606, 2.089652E-05, 0.02604077, -0.02620976, 0.1000047, 0.01786408, -0.02299603, -5.368125E-06, 0.02659438, -0.0271553, 0.1000042
 224535983, 0.004680165, 0.02238215, 4.644516E-05, 0.02627114, -0.02614351, 0.1000052, -0.005709387, 0.01871606, 2.089652E-05, 0.02604077, -0.02620976, 0.1000047
 224635943, 0.009470625, 0.006612661, 2.872171E-05, 0.02638512, -0.02644754, 0.1000048, 0.004680165, 0.02238215, 4.644516E-05, 0.02627114, -0.02614351, 0.1000052
 224735903, 0.005884675, -0.0056159, 1.469989E-06, 0.0263002, -0.02671812, 0.1000041, 0.009470625, 0.006612661, 2.872171E-05, 0.02638512, -0.02644754, 0.1000048
 224835863, 0.01409858, -0.001785363, 2.304742E-05, 0.02649998, -0.02663004, 0.1000045, 0.005884675, -0.0056159, 1.469989E-06, 0.0263002, -0.02671812, 0.1000041
 224935823, 0.009284824, 0.002084921, 2.060363E-05, 0.02638172, -0.02654378, 0.1000044, 0.01409858, -0.001785363, 2.304742E-05, 0.02649998, -0.02663004, 0.1000045
 225035783, -0.0002148517, -0.006784128, -1.17189E-05, 0.02616196, -0.02674493, 0.1000037, 0.009284824, 0.002084921, 2.060363E-05, 0.02638172, -0.02654378, 0.1000044
 225135743, -0.008590849, -0.02018563, -4.953026E-05, 0.02598307, -0.02708011, 0.1000027, -0.0002148517, -0.006784128, -1.17189E-05, 0.02616196, -0.02674493, 0.1000037
 225235703, -0.0007784928, 0.01943407, 3.108743E-05, 0.02614937, -0.02619633, 0.1000044, -0.008590849, -0.02018563, -4.953026E-05, 0.02598307, -0.02708011, 0.1000027
 225335663, -0.02237083, 0.0103138, -2.373797E-05, 0.02572066, -0.02637144, 0.1000033, -0.0007784928, 0.01943407, 3.108743E-05, 0.02614937, -0.02619633, 0.1000044
 225436456, 0.02466644, -0.01092843, 2.678892E-05, 0.02677823, -0.02684485, 0.1000043, -0.02237083, 0.0103138, -2.373797E-05, 0.02572066, -0.02637144, 0.1000033
 225536416, -0.006888458, -0.02523148, -5.452995E-05, 0.02601939, -0.02721545, 0.1000023, 0.02466644, -0.01092843, 2.678892E-05, 0.02677823, -0.02684485, 0.1000043
 225636376, -0.002863107, -0.02527835, -4.717894E-05, 0.02610504, -0.02721645, 0.1000025, -0.006888458, -0.02523148, -5.452995E-05, 0.02601939, -0.02721545, 0.1000023
 225736336, -0.007880701, -0.005296557, -2.312676E-05, 0.02599893, -0.02670972, 0.1000033, -0.002863107, -0.02527835, -4.717894E-05, 0.02610504, -0.02721645, 0.1000025
 225836296, 0.02074379, 0.02522959, 7.959877E-05, 0.02667249, -0.0260929, 0.1000056, -0.007880701, -0.005296557, -2.312676E-05, 0.02599893, -0.02670972, 0.1000033
 225936256, 0.01397237, -0.0001805751, 2.514647E-05, 0.02649819, -0.02659333, 0.1000044, 0.02074379, 0.02522959, 7.959877E-05, 0.02667249, -0.0260929, 0.1000056
 226036216, 0.002758919, -0.01144717, -1.398486E-05, 0.02622982, -0.02685738, 0.1000034, 0.01397237, -0.0001805751, 2.514647E-05, 0.02649819, -0.02659333, 0.1000044
 226136176, 0.0145708, -0.01207974, 6.43981E-06, 0.02651354, -0.02687283, 0.1000038, 0.002758919, -0.01144717, -1.398486E-05, 0.02622982, -0.02685738, 0.1000034
 226236136, 0.01921861, -0.01335213, 1.27416E-05, 0.02663307, -0.0269044, 0.1000039, 0.0145708, -0.01207974, 6.43981E-06, 0.02651354, -0.02687283, 0.1000038
 226336096, 0.01569648, -0.007918097, 1.536483E-05, 0.026542, -0.02677206, 0.100004, 0.01921861, -0.01335213, 1.27416E-05, 0.02663307, -0.0269044, 0.1000039
 226436056, -0.005227204, 0.005721372, 8.476491E-09, 0.02605431, -0.02646602, 0.1000036, 0.01569648, -0.007918097, 1.536483E-05, 0.026542, -0.02677206, 0.100004
 226536016, -0.01806245, 0.01985903, 2.139059E-07, 0.02579889, -0.02618895, 0.1000035, -0.005227204, 0.005721372, 8.476491E-09, 0.02605431, -0.02646602, 0.1000036
 226635976, 0.01624317, 0.006367996, 4.027263E-05, 0.02655491, -0.02645365, 0.1000044, -0.01806245, 0.01985903, 2.139059E-07, 0.02579889, -0.02618895, 0.1000035
 226735936, -0.01661034, -0.01370711, -5.312492E-05, 0.0258256, -0.02691461, 0.1000024, 0.01624317, 0.006367996, 4.027263E-05, 0.02655491, -0.02645365, 0.1000044
 226835896, 0.02417946, 0.01213704, 6.422419E-05, 0.02676413, -0.02633546, 0.1000052, -0.01661034, -0.01370711, -5.312492E-05, 0.0258256, -0.02691461, 0.1000024
 226935856, -0.01511992, 0.02383059, 1.201976E-05, 0.02585408, -0.02611777, 0.1000039, 0.02417946, 0.01213704, 6.422419E-05, 0.02676413, -0.02633546, 0.1000052
 227035816, -0.01927675, 0.01037, -1.7926E-05, 0.02577612, -0.02637026, 0.1000034, -0.01511992, 0.02383059, 1.201976E-05, 0.02585408, -0.02611777, 0.1000039
 227135776, -0.01418417, -0.00397013, -3.246415E-05, 0.02587184, -0.02668028, 0.100003, -0.01927675, 0.01037, -1.7926E-05, 0.02577612, -0.02637026, 0.1000034
 227235736, -0.008477931, 0.02220486, 2.154581E-05, 0.02598541, -0.02614712, 0.100004, -0.01418417, -0.00397013, -3.246415E-05, 0.02587184, -0.02668028, 0.100003
 227335696, -0.01336056, 0.009702079, -8.270064E-06, 0.0258871, -0.02638484, 0.1000036, -0.008477931, 0.02220486, 2.154581E-05, 0.02598541, -0.02614712, 0.100004
 227435656, -0.01950134, 0.01869597, -4.591984E-06, 0.02577049, -0.02621091, 0.1000038, -0.01336056, 0.009702079, -8.270064E-06, 0.0258871, -0.02638484, 0.1000036
 227536449, 0.008085592, 0.01985758, 4.792388E-05, 0.02635204, -0.02618952, 0.1000048, -0.01950134, 0.01869597, -4.591984E-06, 0.02577049, -0.02621091, 0.1000038
 227636409, -0.0221859, 0.02432242, -1.227563E-07, 0.02572256, -0.02610998, 0.1000038, 0.008085592, 0.01985758, 4.792388E-05, 0.02635204, -0.02618952, 0.1000048
 227736369, -0.009996098, 0.0190736, 1.344981E-05, 0.02595347, -0.02620369, 0.1000042, -0.0221859, 0.02432242, -1.227563E-07, 0.02572256, -0.02610998, 0.1000038
 227836329, -0.02030939, 0.01121991, -1.858946E-05, 0.02575572, -0.02635426, 0.1000036, -0.009996098, 0.0190736, 1.344981E-05, 0.02595347, -0.02620369, 0.1000042
 227936289, 0.0214314, 0.02171049, 7.548102E-05, 0.02668874, -0.02615623, 0.1000056, -0.02030939, 0.01121991, -1.858946E-05, 0.02575572, -0.02635426, 0.1000036
 228036249, 0.004964222, -0.0100799, -7.703805E-06, 0.02627885, -0.02682521, 0.1000036, 0.0214314, 0.02171049, 7.548102E-05, 0.02668874, -0.02615623, 0.1000056
 228136209, 0.006219153, 0.02324392, 5.011668E-05, 0.02630807, -0.02612893, 0.1000048, 0.004964222, -0.0100799, -7.703805E-06, 0.02627885, -0.02682521, 0.1000036
 228236169, 0.02439927, -0.003569479, 3.867577E-05, 0.0267693, -0.02667162, 0.1000047, 0.006219153, 0.02324392, 5.011668E-05, 0.02630807, -0.02612893, 0.1000048
 228336129, 0.008604448, 0.009568019, 3.168242E-05, 0.02636513, -0.02638759, 0.1000044, 0.02439927, -0.003569479, 3.867577E-05, 0.0267693, -0.02667162, 0.1000047
 228436089, -0.001465661, -0.002632979, -7.07153E-06, 0.02613415, -0.02665035, 0.1000034, 0.008604448, 0.009568019, 3.168242E-05, 0.02636513, -0.02638759, 0.1000044
 228536049, 0.003057832, 0.01079812, 2.362576E-05, 0.0262357, -0.02636308, 0.100004, -0.001465661, -0.002632979, -7.07153E-06, 0.02613415, -0.02665035, 0.1000034
 228636009, -0.0005593516, 0.009256018, 1.447923E-05, 0.02615453, -0.02639448, 0.1000037, 0.003057832, 0.01079812, 2.362576E-05, 0.0262357, -0.02636308, 0.100004
 228735969, 0.0006245321, -0.0008899217, -3.495536E-07, 0.02618013, -0.02661159, 0.1000035, -0.0005593516, 0.009256018, 1.447923E-05, 0.02615453, -0.02639448, 0.1000037
 228835929, -0.001767569, -0.01860603, -3.447706E-05, 0.02612652, -0.0270409, 0.1000028, 0.0006245321, -0.0008899217, -3.495536E-07, 0.02618013, -0.02661159, 0.1000035
 228935889, 0.01119077, 0.01582444, 4.718118E-05, 0.02642728, -0.02626621, 0.1000044, -0.001767569, -0.01860603, -3.447706E-05, 0.02612652, -0.0270409, 0.1000028
 229035849, -0.004291872, -0.0007698718, -9.164399E-06, 0.02607244, -0.02661038, 0.100003, 0.01119077, 0.01582444, 4.718118E-05, 0.02642728, -0.02626621, 0.1000044
 229135809, -0.01575627, 0.008688003, -1.411478E-05, 0.02584089, -0.02640837, 0.1000027, -0.004291872, -0.0007698718, -9.164399E-06, 0.02607244, -0.02661038, 0.100003
 229235769, 0.0114419, 0.006617929, 3.227755E-05, 0.02643347, -0.02645186, 0.1000036, -0.01575627, 0.008688003, -1.411478E-05, 0.02584089, -0.02640837, 0.1000027
 229335729, 0.01661806, 0.02219598, 6.850071E-05, 0.02656264, -0.02615142, 0.1000044, 0.0114419, 0.006617929, 3.227755E-05, 0.02643347, -0.02645186, 0.1000036
 229435689, -0.0161274, 0.009856239, -1.290872E-05, 0.02583256, -0.02638573, 0.1000028, 0.01661806, 0.02219598, 6.850071E-05, 0.02656264, -0.02615142, 0.1000044
 229536482, -0.02236616, -0.01023314, -5.877207E-05, 0.02571823, -0.02683338, 0.1000017, -0.0161274, 0.009856239, -1.290872E-05, 0.02583256, -0.02638573, 0.1000028
 229636442, -0.0103312, -0.02113264, -5.519388E-05, 0.02594611, -0.02711052, 0.1000016, -0.02236616, -0.01023314, -5.877207E-05, 0.02571823, -0.02683338, 0.1000017
 229736402, 0.02507639, -0.01327476, 2.329061E-05, 0.02678755, -0.02690793, 0.1000034, -0.0103312, -0.02113264, -5.519388E-05, 0.02594611, -0.02711052, 0.1000016
 229836362, 0.01533674, 0.0002087338, 2.832375E-05, 0.02653152, -0.02659001, 0.1000033, 0.02507639, -0.01327476, 2.329061E-05, 0.02678755, -0.02690793, 0.1000034
 229936322, -0.02183054, 0.007612192, -2.68599E-05, 0.02572967, -0.0264306, 0.1000023, 0.01533674, 0.0002087338, 2.832375E-05, 0.02653152, -0.02659001, 0.1000033
 230036282, -0.01300469, -0.01780646, -5.37466E-05, 0.02589445, -0.02702165, 0.1000018, -0.02183054, 0.007612192, -2.68599E-05, 0.02572967, -0.0264306, 0.1000023
 230136242, 0.01590501, -0.02155168, -7.33824E-06, 0.02654603, -0.02711943, 0.1000029, -0.01300469, -0.01780646, -5.37466E-05, 0.02589445, -0.02702165, 0.1000018
 230236202, 0.01705098, 0.016421, 5.852718E-05, 0.0265753, -0.02625503, 0.1000044, 0.01590501, -0.02155168, -7.33824E-06, 0.02654603, -0.02711943, 0.1000029
 230336162, 0.01995241, 0.02321541, 7.511675E-05, 0.02665038, -0.02613098, 0.100005, 0.01705098, 0.016421, 5.852718E-05, 0.0265753, -0.02625503, 0.1000044
 230436122, -0.02484671, 0.004003114, -3.85279E-05, 0.02567643, -0.02650459, 0.1000027, 0.01995241, 0.02321541, 7.511675E-05, 0.02665038, -0.02613098, 0.100005
 230536082, 0.01639407, -0.008906238, 1.496062E-05, 0.02655825, -0.02679768, 0.1000039, -0.02484671, 0.004003114, -3.85279E-05, 0.02567643, -0.02650459, 0.1000027
 230636042, -0.02123242, 0.01457576, -1.43134E-05, 0.02574028, -0.02628879, 0.1000032, 0.01639407, -0.008906238, 1.496062E-05, 0.02655825, -0.02679768, 0.1000039
 230736002, -0.01775194, -0.005143902, -4.074895E-05, 0.02580367, -0.02670845, 0.1000027, -0.02123242, 0.01457576, -1.43134E-05, 0.02574028, -0.02628879, 0.1000032
 230835962, 0.006054693, 0.002857486, 1.573088E-05, 0.02630455, -0.0265286, 0.100004, -0.01775194, -0.005143902, -4.074895E-05, 0.02580367, -0.02670845, 0.1000027
 230935922, 0.00286546, 0.02400189, 4.481552E-05, 0.02623108, -0.02611546, 0.1000046, 0.006054693, 0.002857486, 1.573088E-05, 0.02630455, -0.0265286, 0.100004
 231035882, -0.02294091, -0.02136712, -7.654319E-05, 0.02571021, -0.02711182, 0.100002, 0.00286546, 0.02400189, 4.481552E-05, 0.02623108, -0.02611546, 0.1000046
 231135842, 0.001073869, -0.01900878, -2.916721E-05, 0.02619055, -0.02704877, 0.1000033, -0.02294091, -0.02136712, -7.654319E-05, 0.02571021, -0.02711182, 0.100002
 231235802, 0.01148565, -0.01349429, -1.173212E-06, 0.02643496, -0.02690729, 0.1000043, 0.001073869, -0.01900878, -2.916721E-05, 0.02619055, -0.02704877, 0.1000033
 231335762, -0.01373693, -0.007107693, -3.649064E-05, 0.02588004, -0.02675234, 0.1000034, 0.01148565, -0.01349429, -1.173212E-06, 0.02643496, -0.02690729, 0.1000043
 231435722, -0.01070093, 0.0005892028, -1.840274E-05, 0.02594013, -0.02657637, 0.1000037, -0.01373693, -0.007107693, -3.649064E-05, 0.02588004, -0.02675234, 0.1000034
 231535682, 0.007828479, -0.01453936, -9.573868E-06, 0.02634666, -0.0269339, 0.1000039, -0.01070093, 0.0005892028, -1.840274E-05, 0.02594013, -0.02657637, 0.1000037
 231636475, -0.01039585, 0.02378856, 1.994886E-05, 0.02594636, -0.02611723, 0.1000046, 0.007828479, -0.01453936, -9.573868E-06, 0.02634666, -0.0269339, 0.1000039
 231736435, 0.01228053, 0.002278554, 2.586783E-05, 0.02645513, -0.02653857, 0.1000048, -0.01039585, 0.02378856, 1.994886E-05, 0.02594636, -0.02611723, 0.1000046
 231836395, -0.01806878, -0.003673299, -3.85899E-05, 0.02579812, -0.02667182, 0.1000034, 0.01228053, 0.002278554, 2.586783E-05, 0.02645513, -0.02653857, 0.1000048
 231936355, -0.00768228, 0.02052705, 1.944538E-05, 0.02600165, -0.02617472, 0.1000047, -0.01806878, -0.003673299, -3.85899E-05, 0.02579812, -0.02667182, 0.1000034
 232036315, -0.002316112, -0.02486166, -4.447078E-05, 0.0261151, -0.02720383, 0.1000034, -0.00768228, 0.02052705, 1.944538E-05, 0.02600165, -0.02617472, 0.1000047
 232136275, 0.02177468, 0.01687599, 6.681535E-05, 0.02669825, -0.02624198, 0.1000061, -0.002316112, -0.02486166, -4.447078E-05, 0.0261151, -0.02720383, 0.1000034
 232236235, 0.01097202, -0.02238487, -1.640082E-05, 0.02642216, -0.02713681, 0.1000041, 0.02177468, 0.01687599, 6.681535E-05, 0.02669825, -0.02624198, 0.1000061
 232336195, -0.01096762, -5.679099E-05, -1.997099E-05, 0.02593431, -0.02658975, 0.100004, 0.01097202, -0.02238487, -1.640082E-05, 0.02642216, -0.02713681, 0.1000041
 232436155, 0.009246871, -0.02299629, -2.068015E-05, 0.02638019, -0.02715395, 0.1000038, -0.01096762, -5.679099E-05, -1.997099E-05, 0.02593431, -0.02658975, 0.100004
