TimeUS,CAN,CAE,CAD,CAe
 196458885, 0, 0, 0, 0
 196536354, 0.2962311, 3.418124, 0.2058879, 0.5100057
 196636314, -0.0002102005, 0.003521059, -6.684491E-05, 0.0002593961
 196736274, -4.013172E-05, 0.003443622, -0.0001125934, 0.0002593961
 196836234, 3.273905E-05, 0.003283735, -3.33152E-05, 0.0002593961
 196936194, -0.0001972158, 0.003514614, -2.291597E-05, 0.0002593961
 197036154, -0.0001360918, 0.003379874, 6.025168E-05, 0.0002593961
 197136114, 1.113774E-05, 0.00372581, -7.375866E-05, 0.0002593961
 197236074, 0.0002634901, 0.003550546, -6.803651E-05, 0.0002593961
 197336034, 0.0001039525, 0.003523025, -8.964528E-05, 0.0002593961
 197435994, -8.427492E-05, 0.003606553, -0.0001047931, 0.0002593961
 197535954, -6.77102E-05, 0.003356379, -0.0001724137, 0.0002593961
 197635914, -1.941834E-05, 0.003558861, -0.0001751414, 0.0002593961
 197735874, 0.0002868666, 0.003623213, -0.0001174016, 0.0002593961
 197835834, 0.0001818479, 0.00366561, -0.0001515963, 0.0002593961
 197935794, 0.0001836725, 0.003657768, -0.0001543012, 0.0002593961
 198035754, 0.000154115, 0.00361017, -0.0002930673, 0.0002593961
 198135714, 3.428941E-05, 0.003751839, -4.413508E-05, 0.0002593961
 198235674, 0.0002202587, 0.003593958, 2.667312E-05, 0.0002593961
 198336467, -3.558213E-05, 0.003521334, -9.97184E-05, 0.0002615578
 198436427, -8.872419E-05, 0.003641626, -5.923167E-05, 0.0002593961
 198536387, -0.000133667, 0.003620256, 6.517957E-07, 0.0002593961
 198636347, 5.712287E-05, 0.003509485, -0.0001399982, 0.0002593961
 198736307, 0.0001124382, 0.00348138, 0.0002156074, 0.0002593961
 198836267, 0.0001396534, 0.003543057, -0.0001679798, 0.0002593961
 198936227, 0.0002177134, 0.003703611, -0.0001195405, 0.0002593961
 199036187, -9.537637E-05, 0.003863721, -2.833903E-05, 0.0002593961
 199136147, -8.352488E-05, 0.003382431, -0.0001258216, 0.0002593961
 199236107, -6.098965E-05, 0.003583425, 1.340211E-05, 0.0002593961
 199336067, -0.0001652968, 0.003425256, -1.28909E-05, 0.0002593961
 199436027, 0.0001908982, 0.003590222, -0.0001629964, 0.0002593961
 199535987, -9.044009E-05, 0.003548593, 1.096167E-05, 0.0002593961
 199635947, 8.049637E-05, 0.003373146, 4.398261E-06, 0.0002593961
 199735907, -1.251308E-05, 0.003605126, 6.140398E-06, 0.0002593961
 199835867, -0.0002503619, 0.003869856, -0.0001314782, 0.0002593961
 199935827, -0.0001215965, 0.003521603, -5.554003E-05, 0.0002593961
 200035787, 0.0001928867, 0.003486126, 4.128354E-05, 0.0002593961
 200135747, -2.697232E-05, 0.003482942, 8.500511E-05, 0.0002593961
 200235707, 0.0002501117, 0.003437096, 0.0001020357, 0.0002593961
 200335667, -0.0001915241, 0.003499485, -0.0003667401, 0.0002593961
 200436460, 0.0001588968, 0.003543258, -0.0001865006, 0.0002615578
 200536420, -8.50963E-05, 0.003712816, -0.000152453, 0.0002593961
 200636380, -0.0001915479, 0.003635426, -6.038276E-05, 0.0002593961
 200736340, 7.263184E-05, 0.003518966, 0.0001246859, 0.0002593961
 200836300, 8.782184E-05, 0.003430805, -8.10454E-05, 0.0002593961
 200936260, -6.765281E-05, 0.00352899, 8.327965E-05, 0.0002593961
 201036220, 0.0001659969, 0.00360515, 2.574842E-05, 0.0002593961
 201136180, -8.617622E-05, 0.003484984, -0.0001757538, 0.0002593961
 201236140, -6.893907E-05, 0.003369363, 1.171955E-05, 0.0002593961
 201336100, -0.0002275311, 0.003488224, 7.868358E-05, 0.0002593961
 201436060, -0.0001685598, 0.003558233, -8.694626E-05, 0.0002593961
 201536020, 4.601631E-05, 0.0034768, -9.180687E-05, 0.0002593961
 201635980, 5.346643E-05, 0.003374209, 0.0001587971, 0.0002593961
 201735940, -8.41551E-05, 0.003496201, -9.061644E-05, 0.0002593961
 201835900, -0.0001663192, 0.003577664, -4.009781E-06, 0.0002593961
 201935860, 7.231921E-06, 0.003590949, -8.36157E-05, 0.0002593961
 202035820, 0.0001520217, 0.003508824, -0.0001350959, 0.0002593961
 202135780, 5.723482E-05, 0.003684019, 9.061884E-05, 0.0002593961
 202235740, -9.865176E-06, 0.003528721, -0.0002740086, 0.0002593961
 202335700, 0.0001816162, 0.003612416, -8.055204E-05, 0.0002593961
 202435660, -2.20696E-05, 0.003413353, -0.0001937734, 0.0002593961
 202536453, 0.0002215557, 0.003550694, -5.382214E-05, 0.0002615578
 202636413, 9.042962E-05, 0.003435809, 8.847754E-06, 0.0002593961
 202736373, 5.478929E-05, 0.003646624, -7.540666E-05, 0.0002593961
 202836333, 9.761928E-05, 0.003483091, -7.952009E-05, 0.0002593961
 202936293, -4.779407E-05, 0.003518833, -0.0002305288, 0.0002593961
 203036253, 0.0001269967, 0.003724206, 7.154821E-05, 0.0002593961
 203136213, 7.134471E-05, 0.003554777, -8.987765E-05, 0.0002593961
 203236173, -0.0001795525, 0.003620729, -0.0002615526, 0.0002593961
 203336133, -7.460962E-05, 0.003596507, -0.0001437828, 0.0002593961
 203436093, 0.000165539, 0.003335032, 3.902782E-05, 0.0002593961
 203536053, -0.0001910038, 0.003749212, 0.0001872386, 0.0002593961
 203636013, 0.0002410039, 0.003595349, 2.56126E-05, 0.0002593961
 203735973, 2.225831E-05, 0.003704577, -0.0001135205, 0.0002593961
 203835933, -1.189283E-06, 0.003711329, -2.252989E-05, 0.0002593961
 203935893, 0.0001383089, 0.003742004, -5.897308E-05, 0.0002593961
 204035853, 8.721155E-05, 0.003510096, -0.0001371205, 0.0002593961
 204135813, -2.551404E-05, 0.003521979, 1.926248E-05, 0.0002593961
 204235773, 8.513084E-05, 0.003665973, -0.0001598636, 0.0002593961
 204335733, 7.529351E-05, 0.00367622, -0.0002401368, 0.0002593961
 204435693, 6.960285E-06, 0.003477674, -8.140644E-05, 0.0002593961
 204536486, 9.149116E-06, 0.003521746, 8.379086E-05, 0.0002593961
 204636446, 3.335692E-05, 0.003553428, 0.0001467074, 0.0002615578
 204736406, 0.0001234864, 0.003392311, 0.0001322158, 0.0002593961
 204836366, 5.210652E-05, 0.003375528, 3.171725E-05, 0.0002593961
 204936326, 2.751049E-05, 0.003531832, -0.0001170739, 0.0002593961
 205036286, -8.01728E-05, 0.003694562, -0.000275, 0.0002593961
 205136246, -4.303057E-05, 0.003574427, -1.602841E-05, 0.0002593961
 205236206, 1.329034E-05, 0.003557682, -0.00016481, 0.0002593961
 205336166, -4.353862E-05, 0.003418936, 4.394561E-05, 0.0002593961
 205436126, 0.0001101076, 0.003441689, 1.831635E-05, 0.0002593961
 205536086, 0.0002191006, 0.003703057, -0.0001480333, 0.0002593961
 205636046, 5.354142E-05, 0.003574653, -0.0001108334, 0.0002593961
 205736006, -4.803506E-05, 0.003431005, -9.995992E-05, 0.0002593961
 205835966, -0.000108571, 0.003739775, -7.721671E-06, 0.0002593961
 205935926, 0.0001819192, 0.003524782, -0.0001308966, 0.0002593961
 206035886, -5.511344E-05, 0.003448638, -0.0002096374, 0.0002593961
 206135846, 0.0003003013, 0.00346834, -0.0001123468, 0.0002593961
 206235806, -8.321114E-05, 0.003482124, -3.292078E-05, 0.0002593961
 206335766, 0.0001152788, 0.00340621, 1.084967E-05, 0.0002593961
 206435726, 9.930143E-05, 0.003438968, 4.314603E-05, 0.0002593961
 206535686, 5.039891E-05, 0.003443294, -0.0001042628, 0.0002593961
 206636479, 1.886402E-05, 0.003703381, 4.834385E-05, 0.0002615578
 206736439, 0.000155606, 0.003593944, -9.411375E-06, 0.0002593961
 206836399, -0.0001423726, 0.003706723, 1.578533E-05, 0.0002593961
 206936359, -0.0001471377, 0.003272097, -5.659223E-05, 0.0002593961
 207036319, 9.081986E-05, 0.003669312, -0.0002577633, 0.0002593961
 207136279, 4.575981E-05, 0.003661714, -5.358581E-05, 0.0002593961
 207236239, 9.236183E-05, 0.003397581, 2.3196E-05, 0.0002593961
 207336199, 6.436849E-06, 0.003444744, -3.629066E-05, 0.0002593961
 207436159, -0.0001385813, 0.00345616, 8.4625E-05, 0.0002593961
 207536119, 0.0001606093, 0.00337468, -0.000253135, 0.0002593961
 207636079, 3.505831E-05, 0.003659972, 5.205812E-05, 0.0002593961
 207736039, -4.904392E-05, 0.003437878, -1.090925E-05, 0.0002593961
 207835999, -2.562664E-06, 0.003398367, 5.400761E-05, 0.0002593961
 207935959, 4.864702E-05, 0.003714017, -0.0001781799, 0.0002593961
 208035919, -0.0001517467, 0.003739603, 0.0001055212, 0.0002593961
 208135879, 2.107175E-05, 0.003497347, 7.042688E-05, 0.0002593961
 208235839, 0.0002030132, 0.003631267, -0.0001297181, 0.0002593961
 208335799, -0.0001631304, 0.003596517, 0.0002456183, 0.0002593961
 208435759, 2.507416E-06, 0.003545319, -9.182355E-05, 0.0002593961
 208535719, 0.0001068155, 0.003641353, -0.0001214364, 0.0002593961
 208635679, -3.037651E-05, 0.003668081, -0.0001420728, 0.0002593961
 208736472, -4.057037E-05, 0.003786111, 4.615136E-06, 0.0002615578
 208836432, 0.0001546803, 0.003658985, -5.321639E-05, 0.0002593961
 208936392, 9.783709E-05, 0.003652252, -0.0001265329, 0.0002593961
 209036352, 0.0002111247, 0.003456669, 0.0002491145, 0.0002593961
 209136312, 0.0001271404, 0.003568137, -1.826629E-05, 0.0002593961
 209236272, -8.823529E-06, 0.003557398, 2.913859E-05, 0.0002593961
 209336232, 8.471424E-05, 0.003766684, -2.352251E-05, 0.0002593961
 209436192, -5.329334E-05, 0.003395727, -0.0001059859, 0.0002593961
 209536152, -0.0002184981, 0.003491637, -4.476067E-05, 0.0002593961
 209636112, 1.658833E-05, 0.003586278, 0.0001258239, 0.0002593961
 209736072, -6.607556E-05, 0.003430284, -9.669487E-05, 0.0002593961
 209836032, -8.401574E-05, 0.003765429, 4.965226E-05, 0.0002593961
 209935992, 6.706746E-05, 0.003502509, 0.0001004508, 0.0002593961
 210035952, 7.750993E-05, 0.003641908, -3.706164E-05, 0.0002593961
 210135912, -0.0001571952, 0.003534754, 1.117258E-05, 0.0002593961
 210235872, -5.881366E-05, 0.003601788, 0.0001898042, 0.0002593961
 210335832, 3.795304E-05, 0.003609962, -0.0001464961, 0.0002593961
 210435792, 5.79165E-06, 0.003522262, 6.229292E-05, 0.0002593961
 210535752, -0.0001300251, 0.003223376, -8.007597E-07, 0.0002593961
 210635712, 6.867026E-05, 0.003413089, -4.338554E-05, 0.0002593961
 210735672, -0.0001192626, 0.003534952, 0.0001181035, 0.0002593961
 210836465, 2.358156E-05, 0.003715959, -9.600853E-06, 0.0002615578
 210936425, -7.494906E-05, 0.003644025, 1.97844E-05, 0.0002593961
 211036385, 0.0001808735, 0.003601309, -1.039924E-05, 0.0002593961
 211136345, -1.356426E-05, 0.003345401, -1.944598E-05, 0.0002593961
 211236305, -3.16463E-05, 0.003486693, -0.0002907949, 0.0002593961
 211336265, -0.0001784505, 0.003500276, -0.000204243, 0.0002593961
 211436225, -0.0001048985, 0.003695371, 9.793869E-06, 0.0002593961
 211536185, -4.840871E-05, 0.003422686, -0.0003990793, 0.0002593961
 211636145, -6.609836E-05, 0.003537777, -3.799587E-05, 0.0002593961
 211736105, -0.0001987261, 0.003508365, 3.96105E-05, 0.0002593961
 211836065, -0.0001841921, 0.003520242, -9.043174E-05, 0.0002593961
 211936025, 8.47121E-05, 0.003653154, 7.653869E-05, 0.0002593961
 212035985, 3.182002E-05, 0.003642095, -0.0001088136, 0.0002593961
 212135945, 7.888749E-05, 0.003370931, -6.652077E-05, 0.0002593961
 212235905, -7.814602E-06, 0.003592744, 0.0001705381, 0.0002593961
 212335865, -2.697014E-05, 0.003588333, 1.158845E-05, 0.0002593961
 212435825, 0.0001518355, 0.003325274, -0.0001434253, 0.0002593961
 212535785, -3.717266E-05, 0.003601935, 8.918173E-05, 0.0002593961
 212635745, 7.674875E-05, 0.003436287, -5.837724E-06, 0.0002593961
 212735705, -0.000126196, 0.003445324, -6.124668E-05, 0.0002593961
 212835665, -0.0002202563, 0.003456866, -7.16185E-05, 0.0002593961
 212936458, 9.853821E-05, 0.003477835, -0.0002122097, 0.0002615578
 213036418, -0.0001077976, 0.003483193, -0.0002545042, 0.0002593961
 213136378, 0.0001393938, 0.003633255, 7.896958E-05, 0.0002593961
 213236338, -2.222977E-05, 0.003660767, 0.0001248539, 0.0002593961
 213336298, 2.213714E-05, 0.003501819, -2.85547E-05, 0.0002593961
 213436258, 8.420933E-06, 0.003550942, -6.533632E-05, 0.0002593961
 213536218, -2.087865E-05, 0.003560244, -6.577124E-05, 0.0002593961
 213636178, 1.867159E-05, 0.003382641, -0.0001791845, 0.0002593961
 213736138, -0.0001028588, 0.003570665, -4.215104E-05, 0.0002593961
 213836098, 5.604309E-05, 0.003443908, -7.329154E-05, 0.0002593961
 213936058, 9.449777E-05, 0.003609037, -7.435327E-05, 0.0002593961
 214036018, 0.0002138632, 0.003729549, 6.291732E-05, 0.0002593961
 214135978, 1.125382E-05, 0.003716955, -2.769196E-05, 0.0002593961
 214235938, 3.629958E-05, 0.003530824, -1.903845E-05, 0.0002593961
 214335898, 0.0004431675, 0.003517909, 7.996694E-05, 0.0002593961
 214435858, 8.010044E-05, 0.003556106, -3.687574E-05, 0.0002593961
 214535818, 0.0001442823, 0.003643388, -0.0001832086, 0.0002593961
 214635778, 5.918538E-05, 0.003641549, -9.373371E-05, 0.0002593961
 214735738, 3.294638E-05, 0.003798734, -1.576389E-05, 0.0002593961
 214835698, 9.542874E-05, 0.003720739, -7.998604E-05, 0.0002593961
 214935658, -4.931695E-06, 0.003584639, -0.0003369283, 0.0002593961
 215036451, 6.353889E-05, 0.003574197, -0.0002044174, 0.0002615578
 215136411, -0.0001192736, 0.003722462, -2.77301E-05, 0.0002593961
 215236371, -1.709232E-05, 0.003720297, -9.837977E-06, 0.0002593961
 215336331, -6.257564E-05, 0.00352519, -6.4812E-06, 0.0002593961
 215436291, 0.000101306, 0.003302222, 1.558871E-05, 0.0002593961
 215536251, -4.945877E-05, 0.003600165, -8.965482E-05, 0.0002593961
 215636211, 3.262534E-06, 0.003493272, 2.228918E-05, 0.0002593961
 215736171, 0.000252982, 0.003426788, -0.0001303235, 0.0002593961
 215836131, 0.0001477816, 0.003414381, 0.0001083286, 0.0002593961
 215936091, 0.0001087955, 0.003421303, -6.277792E-05, 0.0002593961
 216036051, -3.114634E-06, 0.003428385, -7.604885E-06, 0.0002593961
 216136011, -1.040409E-05, 0.003550186, -7.77041E-05, 0.0002593961
 216235971, 6.10528E-05, 0.003399645, 8.069385E-05, 0.0002593961
 216335931, 0.0002151342, 0.003290017, -0.0002101677, 0.0002593961
 216435891, 0.0001118246, 0.003728268, -0.0001133608, 0.0002593961
 216535851, -9.039984E-05, 0.0034591, -0.0001145679, 0.0002593961
 216635811, -0.0001087916, 0.003465794, 8.435688E-05, 0.0002593961
 216735771, -0.0002455762, 0.003502527, -0.0002041882, 0.0002593961
 216835731, 2.947066E-05, 0.003371898, -0.0002605933, 0.0002593961
 216935691, -8.291783E-06, 0.00350078, -0.0002837786, 0.0002593961
 217036484, 5.765996E-05, 0.003480335, -0.0002497683, 0.0002615578
 217136444, 1.1753E-05, 0.003429532, -8.602397E-05, 0.0002593961
 217236404, 0.0001417086, 0.003544666, 0.0001623362, 0.0002593961
 217336364, 4.842839E-06, 0.003456964, 5.729406E-05, 0.0002593961
 217436324, 1.564944E-05, 0.003464827, -0.0002061532, 0.0002593961
 217536284, -0.0002081163, 0.00351366, 2.224748E-05, 0.0002593961
 217636244, -0.000139431, 0.003459725, -0.0001228294, 0.0002593961
 217736204, -0.0001198899, 0.003696138, 8.820699E-05, 0.0002593961
 217836164, -0.0001628277, 0.003657703, -3.350705E-05, 0.0002593961
 217936124, 8.382917E-05, 0.003529578, -0.0001967716, 0.0002593961
 218036084, -8.59631E-05, 0.003561798, -3.372155E-05, 0.0002593961
 218136044, -5.777002E-05, 0.003511325, -2.352489E-05, 0.0002593961
 218236004, 4.374424E-05, 0.003466395, -7.654464E-05, 0.0002593961
 218335964, 1.709395E-05, 0.003702246, 2.119767E-05, 0.0002593961
 218435924, 0.0001925895, 0.003562568, -0.0001578998, 0.0002593961
 218535884, 2.096367E-05, 0.003527971, -0.0003319342, 0.0002593961
 218635844, -7.084483E-05, 0.00355051, -9.511492E-06, 0.0002593961
 218735804, 4.889073E-05, 0.003579, -8.825823E-05, 0.0002593961
 218835764, 6.38006E-05, 0.003619183, -0.0001960602, 0.0002593961
 218935724, -5.68215E-05, 0.0036826, 2.197579E-05, 0.0002593961
 219035684, -5.614409E-05, 0.003579594, -0.0001703987, 0.0002593961
 219136477, 0.000200287, 0.003924957, -0.0001600257, 0.0002615578
 219236437, 6.190939E-05, 0.003617502, -7.55437E-05, 0.0002593961
 219336397, 4.452986E-05, 0.003488527, 0.0001163482, 0.0002593961
 219436357, 0.0002018713, 0.003602132, -0.0001584742, 0.0002593961
 219536317, 2.081855E-05, 0.003506387, -0.0003697549, 0.0002593961
 219636277, -7.956239E-05, 0.003443641, 4.81425E-05, 0.0002593961
 219736237, -2.340767E-05, 0.003700436, -0.0001513412, 0.0002593961
 219836197, 9.436889E-05, 0.003567025, -2.196506E-05, 0.0002593961
 219936157, -2.634181E-05, 0.003498808, -0.0002060519, 0.0002593961
 220036117, 4.409569E-05, 0.003681576, 6.354878E-06, 0.0002593961
 220136077, 0.0001030896, 0.003591628, -0.0001518488, 0.0002593961
 220236037, -3.502199E-06, 0.00324518, -4.79411E-05, 0.0002593961
 220335997, -8.413095E-05, 0.0035269, 2.712833E-05, 0.0002593961
 220435957, 3.816759E-05, 0.00363308, -2.041834E-05, 0.0002593961
 220535917, -3.668586E-05, 0.003515427, -4.35059E-05, 0.0002593961
 220635877, -8.2881E-05, 0.00378943, -8.309974E-05, 0.0002593961
 220735837, 5.163631E-05, 0.003533901, 0.0001163828, 0.0002593961
 220835797, -0.0001767094, 0.00377965, -2.912906E-05, 0.0002593961
 220935757, 4.82426E-05, 0.003636094, -0.0002561736, 0.0002593961
 221035717, 3.284875E-05, 0.003558778, 5.207958E-05, 0.0002593961
 221135677, 0.0002295978, 0.003539849, -2.36071E-05, 0.0002593961
 221236470, -2.383221E-05, 0.003517016, -0.0002924654, 0.0002615578
 221336430, -0.0001335946, 0.003623989, -0.0002966052, 0.0002593961
 221436390, 5.414453E-05, 0.003658306, 3.048275E-05, 0.0002593961
 221536350, 0.0001251897, 0.003562142, 0.0002107373, 0.0002593961
 221636310, 0.0002202323, 0.003454755, -0.0002426976, 0.0002593961
 221736270, -0.0001284979, 0.003432795, -0.0002057849, 0.0002593961
 221836230, -0.0001265284, 0.003622586, -0.0001444822, 0.0002593961
 221936190, 0.0001038695, 0.003712904, -6.490851E-05, 0.0002593961
 222036150, 9.816228E-05, 0.003639092, -1.049933E-05, 0.0002593961
 222136110, 3.563417E-05, 0.00357767, -5.394089E-05, 0.0002593961
 222236070, -1.068361E-05, 0.003660801, -0.0001288411, 0.0002593961
 222336030, -6.774686E-05, 0.003684543, -0.0002240381, 0.0002593961
 222435990, 2.345622E-05, 0.003595269, -0.0001595634, 0.0002593961
 222535950, -0.0003290864, 0.003378811, -0.0002197924, 0.0002593961
 222635910, -2.22122E-05, 0.003526592, -7.339165E-05, 0.0002593961
 222735870, 0.0001529177, 0.003545183, -0.0001006999, 0.0002593961
 222835830, 0.0001667338, 0.003796882, 8.935334E-05, 0.0002593961
 222935790, -0.0001037695, 0.003468024, -0.0002090631, 0.0002593961
 223035750, 5.328442E-05, 0.003435278, -0.0002611486, 0.0002593961
 223135710, -0.0001251619, 0.003508064, -7.389093E-05, 0.0002593961
 223235670, -0.0001458658, 0.003428353, -2.695913E-05, 0.0002593961
 223336463, -3.696724E-06, 0.0034683, -2.113808E-05, 0.0002615578
 223436423, -7.785748E-05, 0.003618901, -0.0001630798, 0.0002593961
 223536383, 0.0001481437, 0.003622973, -0.0001690498, 0.0002593961
 223636343, -0.000238554, 0.003623613, -3.54291E-05, 0.0002593961
 223736303, -3.666523E-05, 0.003574247, -7.67365E-05, 0.0002593961
 223836263, -0.0002049204, 0.003638577, -2.430062E-05, 0.0002593961
 223936223, -0.0001286616, 0.003739057, 0.0001526198, 0.0002593961
 224036183, -0.0003104379, 0.003684953, -0.0001456203, 0.0002593961
 224136143, -7.36259E-05, 0.003690694, -7.937592E-05, 0.0002593961
 224236103, 1.776459E-05, 0.003566357, -0.0001254712, 0.0002593961
 224336063, 0.0001157891, 0.00341627, -0.0001904286, 0.0002593961
 224436023, 5.647693E-05, 0.003562914, -6.953199E-05, 0.0002593961
 224535983, -6.421648E-05, 0.003585493, -0.0001121454, 0.0002593961
 224635943, -0.0001534345, 0.003599728, -0.0001613234, 0.0002593961
 224735903, 0.0002308586, 0.003670455, -6.249429E-05, 0.0002593961
 224835863, 3.718356E-06, 0.003450271, -3.635263E-05, 0.0002593961
 224935823, -4.696582E-05, 0.003578848, 1.253699E-05, 0.0002593961
 225035783, -7.658316E-05, 0.003537729, -1.187207E-05, 0.0002593961
 225135743, 0.0001783985, 0.003464669, 5.747997E-05, 0.0002593961
 225235703, 0.0001223141, 0.003543165, -3.21784E-05, 0.0002593961
 225335663, -3.952043E-05, 0.003709155, -0.0002505349, 0.0002593961
 225436456, -1.089656E-05, 0.003490774, -6.541695E-05, 0.0002615578
 225536416, -0.0001906265, 0.00355169, -0.0001967597, 0.0002593961
 225636376, -0.0001600815, 0.003569097, -0.0001474362, 0.0002593961
 225736336, -2.826933E-05, 0.003763905, -3.982858E-05, 0.0002593961
 225836296, 0.0003219807, 0.003744353, 1.748098E-06, 0.0002593961
 225936256, 7.564601E-05, 0.003542945, 2.920294E-05, 0.0002593961
 226036216, -6.222352E-05, 0.003569623, -6.48835E-05, 0.0002593961
 226136176, 7.684653E-05, 0.003486532, -0.0001374041, 0.0002593961
 226236136, 8.92028E-05, 0.003513818, -5.824261E-05, 0.0002593961
 226336096, -0.0002047145, 0.003626089, -0.0003191422, 0.0002593961
 226436056, 9.059365E-05, 0.003572599, -0.0002368313, 0.0002593961
 226536016, 2.611971E-05, 0.003624699, 3.566388E-05, 0.0002593961
 226635976, -0.0001178973, 0.003770904, -0.0001843263, 0.0002593961
 226735936, -2.816634E-05, 0.00356501, -0.0002499081, 0.0002593961
 226835896, -0.0001582487, 0.003560027, -6.473456E-05, 0.0002593961
 226935856, -0.0001458299, 0.003614433, -6.402792E-05, 0.0002593961
 227035816, 7.853853E-05, 0.003542115, -7.630037E-05, 0.0002593961
 227135776, 0.000118251, 0.003872135, -4.337363E-05, 0.0002593961
 227235736, 5.723155E-06, 0.003547139, -0.0002335067, 0.0002593961
 227335696, 6.420209E-05, 0.003487899, -0.0001961841, 0.0002593961
 227435656, -4.593064E-05, 0.003725578, -2.679706E-05, 0.0002593961
 227536449, -8.429549E-05, 0.003771689, 5.618668E-05, 0.0002615578
 227636409, 1.505419E-05, 0.00370592, 0.0001014339, 0.0002593961
 227736369, 0.0002103978, 0.003862605, -0.0002673975, 0.0002593961
 227836329, 3.324252E-05, 0.003615151, -0.0002509019, 0.0002593961
 227936289, 7.452624E-06, 0.003341051, -7.35823E-05, 0.0002593961
 228036249, 0.0001012081, 0.00360768, -0.0001643096, 0.0002593961
 228136209, -6.993156E-05, 0.003568354, 5.319613E-05, 0.0002593961
 228236169, 5.879393E-05, 0.003729147, -0.000130669, 0.0002593961
 228336129, 3.68658E-05, 0.003626886, 0.0001747719, 0.0002593961
 228436089, 0.0003018178, 0.003461601, -0.000232663, 0.0002593961
 228536049, 1.18961E-05, 0.003727871, 9.345011E-05, 0.0002593961
 228636009, 0.000278301, 0.003456562, -7.260041E-05, 0.0002593961
 228735969, 4.766049E-05, 0.003713118, -3.548275E-05, 0.0002593961
 228835929, 0.0001000888, 0.003695298, 7.505036E-05, 0.0002593961
 228935889, 0.0001741394, 0.003757478, 6.232508E-05, 0.0002593961
 229035849, -0.0002338184, 0.003588396, -8.78936E-05, 0.0002593961
 229135809, -0.0001066265, 0.003563136, -7.675318E-05, 0.0002593961
 229235769, -8.780392E-05, 0.003608128, -0.0002131289, 0.0002593961
 229335729, 0.0001545972, 0.003700605, -0.0001936805, 0.0002593961
 229435689, 0.0001164989, 0.003677681, 7.137303E-05, 0.0002593961
 229536482, 0.0001304521, 0.003649745, 0.0001027463, 0.0002615578
 229636442, 0.0001206197, 0.003477958, -7.725239E-06, 0.0002593961
 229736402, -0.0001043566, 0.003826038, 7.11204E-05, 0.0002593961
 229836362, 0.0002313558, 0.003768326, -0.0001245441, 0.0002593961
 229936322, -0.0001436203, 0.003544383, -0.0002694494, 0.0002593961
 230036282, -0.0001409763, 0.003662138, -0.000249074, 0.0002593961
 230136242, -0.0001066188, 0.003475967, -0.0001308382, 0.0002593961
 230236202, 9.000054E-05, 0.003731387, -3.226778E-05, 0.0002593961
 230336162, 4.516066E-05, 0.003662592, -4.908386E-05, 0.0002593961
 230436122, -0.0001034791, 0.003485874, 3.867033E-05, 0.0002593961
 230536082, 3.047607E-05, 0.003632514, 3.638124E-05, 0.0002593961
 230636042, 7.009244E-05, 0.003540909, -8.681042E-05, 0.0002593961
 230736002, 2.303842E-05, 0.003774658, 6.307939E-05, 0.0002593961
 230835962, 6.751509E-05, 0.003767886, -0.0001070131, 0.0002593961
 230935922, -0.0001251677, 0.003647198, -0.0001044404, 0.0002593961
 231035882, 9.0405E-05, 0.003489979, -0.0001292284, 0.0002593961
 231135842, -0.0001397385, 0.003789063, -0.0001517999, 0.0002593961
 231235802, -7.821236E-05, 0.003646702, -0.0001893001, 0.0002593961
 231335762, -0.0002831789, 0.003576303, -0.0001804536, 0.0002593961
 231435722, -1.096014E-05, 0.003591451, -5.320803E-05, 0.0002593961
 231535682, 0.0001895495, 0.00358058, -0.0003072165, 0.0002593961
 231636475, -0.0001856399, 0.003589068, -0.0001698926, 0.0002615578
 231736435, -0.0001773253, 0.003482515, -0.0001124028, 0.0002593961
 231836395, 3.229021E-05, 0.00370861, 9.285309E-05, 0.0002593961
 231936355, -9.471133E-05, 0.003532565, 9.356577E-06, 0.0002593961
 232036315, -6.026691E-05, 0.003456045, -0.0001263554, 0.0002593961
 232136275, -0.0001902085, 0.003588809, -1.884184E-05, 0.0002593961
 232236235, -7.661033E-05, 0.003396929, -0.000108766, 0.0002593961
 232336195, 0.0001896038, 0.003567327, -0.0001366271, 0.0002593961
 232436155, -7.910847E-06, 0.003468659, -1.223312E-05, 0.0002593961
 232536115, -0.0002137993, 0.003398098, -0.0002807043, 0.0002593961
 232636075, 0.000169278, 0.003591916, 0.0001377639, 0.0002593961
 232736035, 9.858445E-05, 0.003715494, 0.00010552, 0.0002593961
 232835995, 3.149434E-05, 0.003529258, 1.294095E-05, 0.0002593961
 232935955, 7.743835E-06, 0.003706692, -0.0001602747, 0.0002593961
 233035915, 0.0001942452, 0.003848357, -3.311144E-05, 0.0002593961
 233135875, -0.0001385685, 0.003538392, -0.0002144349, 0.0002593961
 233235835, -0.0002314252, 0.003387418, -3.354996E-05, 0.0002593961
 233335795, -0.0001173433, 0.003490892, 1.096407E-05, 0.0002593961
 233435755, -0.0001678314, 0.003524831, -5.765276E-05, 0.0002593961
 233535715, -7.123272E-05, 0.003514342, -0.0001548767, 0.0002593961
 233635675, -0.0002417424, 0.003721565, 0.0001031904, 0.0002593961
 233736468, -0.0001549435, 0.003604839, -8.436484E-05, 0.0002615578
 233836428, -1.444076E-06, 0.003465453, -0.0002306444, 0.0002593961
 233936388, 0.000187992, 0.003716002, 6.646715E-05, 0.0002593961
 234036348, 1.582749E-05, 0.00360413, -0.0002247317, 0.0002593961
 234136308, 0.0001038826, 0.003558688, -0.0001008929, 0.0002593961
 234236268, 0.0001411325, 0.003672439, -0.0001514449, 0.0002593961
 234336228, 7.556915E-05, 0.003533488, 0.0001648577, 0.0002593961
 234436188, 7.69037E-05, 0.003552433, -0.000105296, 0.0002593961
 234536148, -0.0001860164, 0.003763526, -6.065086E-05, 0.0002593961
 234636108, 5.547688E-05, 0.003801779, -0.0002159911, 0.0002593961
 234736068, -5.964345E-05, 0.003813732, -5.128E-05, 0.0002593961
 234836028, 5.561841E-05, 0.003677044, -0.0001309598, 0.0002593961
 234935988, 0.0001041569, 0.003520117, -8.862407E-05, 0.0002593961
 235035948, -0.0001812772, 0.003599652, -0.0001196704, 0.0002593961
 235135908, -4.782959E-05, 0.003584086, -0.0003105364, 0.0002593961
 235235868, 0.0001477015, 0.003531253, -1.863568E-05, 0.0002593961
 235335828, 4.882386E-05, 0.003578295, -4.019438E-05, 0.0002593961
 235435788, -1.796517E-05, 0.003594363, -4.947947E-05, 0.0002593961
 235535748, 0.0001164287, 0.003564176, -0.0001188864, 0.0002593961
 235635708, -9.643554E-05, 0.00372289, -0.0001074003, 0.0002593961
 235735668, -5.591875E-05, 0.003527003, -0.00010432, 0.0002593961
 235836461, -0.0001625245, 0.003472764, 4.540216E-05, 0.0002615578
 235936421, -0.000182915, 0.003498584, -0.0001955061, 0.0002593961
 236036381, -0.0003713384, 0.003605272, 1.007988E-05, 0.0002593961
 236136341, -9.379606E-05, 0.003468363, 0.0001963247, 0.0002593961
 236236301, 2.61819E-05, 0.003576523, -0.0001874781, 0.0002593961
 236336261, 8.115201E-05, 0.003462202, -3.444725E-05, 0.0002593961
 236436221, 0.0001299318, 0.003600441, -0.0001931312, 0.0002593961
 236536181, -3.53338E-05, 0.003372765, -0.0001158668, 0.0002593961
 236636141, 4.071294E-06, 0.003478138, -0.0002537332, 0.0002593961
 236736101, -2.214489E-05, 0.003455582, 2.025986E-05, 0.0002593961
 236836061, -9.544984E-05, 0.003571272, 3.678042E-05, 0.0002593961
 236936021, 6.865358E-05, 0.003608566, -5.525404E-05, 0.0002593961
 237035981, 0.0001547421, 0.003802641, 8.211664E-05, 0.0002593961
 237135941, -0.0002202146, 0.003698607, 9.578212E-05, 0.0002593961
 237235901, 5.778084E-05, 0.003711188, -0.0001785494, 0.0002593961
 237335861, -0.0001528653, 0.003570554, -0.0002274056, 0.0002593961
 237435821, -0.0003049015, 0.003665223, 1.401102E-05, 0.0002593961
 237535781, 3.07567E-05, 0.003668243, -1.914331E-05, 0.0002593961
 237635741, -0.0001022949, 0.003295744, 3.027778E-05, 0.0002593961
 237735701, -4.010426E-05, 0.003377253, 9.111333E-05, 0.0002593961
 237835661, 2.410947E-06, 0.003698846, 5.730601E-05, 0.0002593961
 237936454, 5.978548E-05, 0.003718437, -0.0002700047, 0.0002615578
 238036414, -6.824372E-06, 0.003765812, -1.688281E-05, 0.0002593961
 238136374, -0.0001589247, 0.00360492, 5.52743E-05, 0.0002593961
 238236334, 7.843864E-06, 0.003530486, -0.0001122789, 0.0002593961
 238336294, -7.328081E-07, 0.003427573, -1.852724E-05, 0.0002593961
 238436254, 5.430296E-05, 0.003707495, -0.0001161861, 0.0002593961
 238536214, 1.319148E-05, 0.003705453, -3.385739E-05, 0.0002593961
 238636174, -5.026485E-05, 0.003627019, 5.02016E-05, 0.0002593961
 238736134, -0.0002941548, 0.003443867, -9.292579E-05, 0.0002593961
 238836094, 1.233186E-05, 0.003651828, -8.635761E-05, 0.0002593961
 238936054, 0.000178121, 0.003485289, -1.958183E-05, 0.0002593961
 239036014, -1.483355E-05, 0.00346134, -6.204269E-05, 0.0002593961
 239135974, -8.660616E-05, 0.003591432, -0.0001549506, 0.0002593961
 239235934, -7.371762E-05, 0.003561035, -0.0001276006, 0.0002593961
 239335894, 0.0001410997, 0.003532741, -0.0001974865, 0.0002593961
 239435854, 1.747223E-05, 0.003653071, 3.424824E-05, 0.0002593961
 239535814, -6.102187E-05, 0.003678648, 6.063064E-05, 0.0002593961
 239635774, -0.0001450116, 0.003623335, -0.0002270815, 0.0002593961
 239735734, 2.777199E-05, 0.003866422, -6.640758E-05, 0.0002593961
 239835694, 0.0001889635, 0.00356891, 9.885409E-05, 0.0002593961
 239935654, 0.0001162734, 0.003684314, 0.0001536458, 0.0002593961
 240036447, 5.318714E-05, 0.003621462, 9.057632E-05, 0.0002615578
 240136407, -0.0001840087, 0.003690222, -1.373218E-05, 0.0002593961
 240236367, -0.0001706285, 0.003695323, -0.0001695955, 0.0002593961
 240336327, 5.690921E-05, 0.003678004, 1.562565E-05, 0.0002593961
 240436287, -4.819381E-05, 0.003489005, 0.0001525435, 0.0002593961
 240536247, -0.0003262877, 0.00361608, -0.0001530523, 0.0002593961
 240636207, -4.689735E-05, 0.003624742, -9.926995E-05, 0.0002593961
 240736167, 0.0001173898, 0.003652651, -0.0001344524, 0.0002593961
 240836127, -0.0001872207, 0.003517563, -0.0001696218, 0.0002593961
 240936087, 0.0001135324, 0.003326396, 3.980474E-05, 0.0002593961
 241036047, 4.054108E-05, 0.003357274, -0.0001309455, 0.0002593961
 241136007, -0.0002563185, 0.003672819, -4.325208E-05, 0.0002593961
 241235967, -0.0001811468, 0.003615722, 4.524566E-05, 0.0002593961
 241335927, -5.871295E-06, 0.003622904, 7.224529E-05, 0.0002593961
 241435887, -0.0001466699, 0.003501614, -0.0001130093, 0.0002593961
 241535847, 0.0001038923, 0.003536332, -2.070909E-05, 0.0002593961
 241635807, -0.0001556658, 0.00356758, -0.0001086861, 0.0002593961
 241735767, 9.513703E-05, 0.003573583, -0.0001008346, 0.0002593961
 241835727, 1.208125E-05, 0.003410656, -0.0002554753, 0.0002593961
 241935687, -8.763847E-06, 0.003696967, -8.663406E-05, 0.0002593961
 242036480, 2.005965E-05, 0.00370636, 0.0001131626, 0.0002615578
 242136440, 1.638636E-05, 0.003415642, -0.0001088506, 0.0002593961
 242236400, -1.572055E-05, 0.003611082, 6.514209E-05, 0.0002593961
 242336360, -4.309706E-05, 0.003530697, -0.0003059439, 0.0002593961
 242436320, -0.0001075153, 0.0035192, -4.102256E-05, 0.0002593961
 242536280, -2.885376E-05, 0.003736932, -9.246941E-05, 0.0002593961
 242636240, 6.543801E-05, 0.003463537, -0.0002037115, 0.0002593961
 242736200, -0.00016658, 0.003509916, -0.000315211, 0.0002593961
 242836160, -0.0001005065, 0.003442009, -6.006698E-05, 0.0002593961
 242936120, -3.505356E-05, 0.003659243, -0.0001940153, 0.0002593961
 243036080, 5.408614E-05, 0.003712975, -1.807562E-05, 0.0002593961
 243136040, -0.0001476122, 0.003652714, 8.573082E-05, 0.0002593961
 243236000, -8.480327E-05, 0.003529605, -4.304117E-05, 0.0002593961
 243335960, -0.0001507764, 0.003594085, -0.0001418953, 0.0002593961
 243435920, 0.0002539654, 0.00349444, -8.327131E-05, 0.0002593961
 243535880, 0.0001955152, 0.003815089, -2.616789E-05, 0.0002593961
 243635840, -4.03874E-05, 0.003563658, 5.101903E-05, 0.0002593961
 243735800, -3.793679E-05, 0.003799052, -0.0001584528, 0.0002593961
 243835760, -8.091023E-05, 0.003656849, -4.948782E-05, 0.0002593961
 243935720, -0.0001042159, 0.003479603, 0.0001816595, 0.0002593961
 244035680, -3.703048E-05, 0.003605039, -0.0001821755, 0.0002593961
 244136473, -0.0003314965, 0.003723012, -0.0001002459, 0.0002615578
 244236433, -0.0001338721, 0.003619162, -0.0001934899, 0.0002593961
 244336393, -4.937055E-05, 0.003585464, -6.413873E-05, 0.0002593961
 244436353, 0.0001215574, 0.003680324, -8.909472E-05, 0.0002593961
 244536313, -0.0001836671, 0.003714216, -0.0001982551, 0.0002593961
 244636273, 9.168222E-05, 0.00361924, -0.0001123956, 0.0002593961
 244736233, -2.966442E-05, 0.003664029, -8.794366E-05, 0.0002593961
 244836193, -7.215653E-05, 0.00354651, -6.179247E-05, 0.0002593961
 244936153, 4.303098E-05, 0.003699432, -5.133123E-05, 0.0002593961
 245036113, 5.856683E-06, 0.003561533, -7.004081E-05, 0.0002593961
 245136073, 0.0001180188, 0.003732639, -0.0001605631, 0.0002593961
 245236033, 0.000144517, 0.003726752, 9.045793E-05, 0.0002593961
 245335993, -6.469087E-05, 0.003571818, -9.661624E-06, 0.0002593961
 245435953, -6.533961E-05, 0.003645814, -0.0001452222, 0.0002593961
 245535913, -0.0002164323, 0.003687083, -0.000126502, 0.0002593961
 245635873, -0.000190615, 0.003499613, 8.697963E-05, 0.0002593961
 245735833, -0.000143101, 0.003381482, -6.12288E-05, 0.0002593961
 245835793, 5.402025E-05, 0.003388373, -0.0001712853, 0.0002593961
 245935753, 0.0001562557, 0.003517876, -0.0001451865, 0.0002593961
 246035713, 0.0003079058, 0.003443143, 1.544215E-05, 0.0002593961
 246135673, 0.0001296956, 0.003452385, -0.000156769, 0.0002593961
 246236466, -8.886045E-05, 0.003581614, -1.912027E-05, 0.0002615578
 246336426, -0.0001257465, 0.003757564, -0.0004182359, 0.0002593961
 246436386, -8.310426E-05, 0.003649663, -0.000253782, 0.0002593961
 246536346, 8.618532E-05, 0.003646374, -5.086413E-05, 0.0002593961
 246636306, -3.749326E-05, 0.003713096, -0.000129798, 0.0002593961
 246736266, 0.0001216852, 0.003351712, -4.282787E-05, 0.0002593961
 246836226, -8.660145E-05, 0.00340067, -4.548396E-05, 0.0002593961
 246936186, -5.600585E-06, 0.003707447, -1.344977E-05, 0.0002593961
 247036146, -6.007138E-05, 0.003730283, -9.480496E-06, 0.0002593961
 247136106, -0.0001111291, 0.003651825, -4.915536E-05, 0.0002593961
 247236066, -4.329957E-05, 0.003632641, 7.961782E-05, 0.0002593961
 247336026, -6.852968E-05, 0.003703874, 9.466195E-06, 0.0002593961
 247435986, -8.317567E-06, 0.003589679, -6.867275E-06, 0.0002593961
 247535946, -8.55483E-05, 0.003467107, 6.796502E-05, 0.0002593961
 247635906, -0.0001397174, 0.003770332, -0.003816228, 0.0002593961
 247735866, 0.0003270807, 0.003864931, -0.1691559, 0.0002593961
 247835826, 0.0003238584, 0.003728309, -0.1293952, 0.0002593961
 247935786, -2.716838E-05, 0.003529928, -0.002431616, 0.0002593961
 248035746, -0.0001742437, 0.003448575, 0.053813, 0.0002593961
 248135706, -0.0002334378, 0.003447087, 0.05074658, 0.0002593961
 248235666, -5.091841E-05, 0.003565151, -0.09684485, 0.0002593961
 248336459, -0.0008842694, 0.002434845, -0.6660322, 0.0002615578
 248436419, -0.003756288, -0.0004086166, -0.6412853, 0.0002593961
 248536379, -0.006459046, -0.003393989, -0.3510271, 0.0002593961
 248636339, -0.007995225, -0.005105296, -0.1258303, 0.0002593961
 248736299, -0.008499443, -0.005448234, -0.05048614, 0.0002593961
 248836259, -0.008410725, -0.00518856, -0.06878909, 0.0002593961
 248936219, -0.007841649, -0.004657138, -0.1060289, 0.0002593961
 249036179, -0.007483702, -0.004061971, -0.1241176, 0.0002593961
 249136139, -0.007016496, -0.003208042, -0.1204917, 0.0002593961
 249236099, -0.006430801, -0.002675346, -0.1070886, 0.0002593961
 249336059, -0.005947189, -0.001816571, -0.09429371, 0.0002593961
 249436019, -0.005640636, -0.001303264, -0.08564523, 0.0002593961
 249535979, -0.005085338, -0.0006885297, -0.08050627, 0.0002593961
 249635939, -0.004636864, -0.0002424369, -0.0763558, 0.0002593961
 249735899, -0.004254718, 0.0001838374, -0.07227535, 0.0002593961
 249835859, -0.003668621, 0.0005447052, -0.06808145, 0.0002593961
 249935819, -0.003220394, 0.0009957417, -0.06361027, 0.0002593961
 250035779, -0.002964355, 0.001378702, -0.05936133, 0.0002593961
 250135739, -0.00241303, 0.001837206, -0.05566157, 0.0002593961
 250235699, -0.002150111, 0.001904201, -0.05196334, 0.0002593961
 250335659, -0.001802022, 0.002223981, -0.04871319, 0.0002593961
 250436452, -0.001458324, 0.002258503, -0.04615702, 0.0002615578
 250536412, -0.001005945, 0.002513053, -0.04277647, 0.0002593961
 250636372, -0.00112755, 0.002591716, -0.04014018, 0.0002593961
 250736332, -0.00128032, 0.002443816, -0.03762097, 0.0002593961
 250836292, -0.001375206, 0.002548071, -0.03510884, 0.0002593961
 250936252, -0.001426199, 0.002448496, -0.03256639, 0.0002593961
 251036212, -0.00154434, 0.002528962, -0.03038775, 0.0002593961
 251136172, -0.001569015, 0.002272537, -0.02865615, 0.0002593961
 251236132, -0.001553909, 0.002387747, -0.027203, 0.0002593961
 251336092, -0.001508499, 0.002493268, -0.02537817, 0.0002593961
 251436052, -0.001636057, 0.00243985, -0.02397931, 0.0002593961
 251536012, -0.001478297, 0.002377742, -0.02243733, 0.0002593961
 251635972, 0.0002482143, 0.003961302, 0.2592337, 0.0002593961
 251735932, 0.000565371, 0.004013121, 0.2751918, 0.0002593961
 251835892, 0.0005040455, 0.003511152, 0.2566889, 0.0002593961
 251935852, 0.0004348744, 0.003379085, 0.2401564, 0.0002593961
 252035812, 0.0003879352, 0.003139962, 0.2248714, 0.0002593961
 252135772, 0.0006147687, 0.003219206, 0.2104006, 0.0002593961
 252235732, 0.0007563083, 0.003167635, 0.1974465, 0.0002593961
 252335692, 0.0004965104, 0.003468477, 0.1852829, 0.0002593961
 252436485, 0.0006888672, 0.003470132, 0.1749282, 0.0002615578
 252536445, 0.000666968, 0.003660447, 0.1624797, 0.0002593961
 252636405, 0.0008345987, 0.003669268, 0.1519695, 0.0002593961
 252736365, 0.0008551336, 0.003733922, 0.1423013, 0.0002593961
 252836325, 0.0007741384, 0.003901697, 0.1332838, 0.0002593961
 252936285, 0.0006861683, 0.004102271, 0.1245925, 0.0002593961
 253036245, 0.0008734275, 0.004071182, 0.1170534, 0.0002593961
 253136205, 0.0008037338, 0.004018808, 0.109629, 0.0002593961
 253236165, 0.0006628896, 0.004032042, 0.09649962, 0.0002593961
 253336125, 0.0009376336, 0.00439472, 0.09094202, 0.0002593961
 253436085, 0.001805364, 0.005986453, 0.08242247, 0.0002593961
 253536045, 0.001285991, 0.008299136, 0.0733349, 0.0002593961
 253636005, -0.001543143, 0.01066818, 0.06465632, 0.0002593961
 253735965, -0.007021551, 0.01231134, 0.05697102, 0.0002593961
 253835925, -0.01466473, 0.01303866, 0.04894301, 0.0002593961
 253935885, -0.02328006, 0.01286192, 0.04285841, 0.0002593961
 254035845, -0.03197829, 0.01216747, 0.0366623, 0.0002593961
 254135805, -0.04010687, 0.01139016, 0.03143616, 0.0002593961
 254235765, -0.046891, 0.0106817, 0.02690884, 0.0002593961
 254335725, -0.05353291, 0.009936692, 0.02202456, 0.0002593961
 254435685, -0.05943153, 0.009371988, 0.01860177, 0.0002593961
 254536478, -0.06571367, 0.009022889, 0.01565415, 0.0002615578
 254636438, -0.0708053, 0.008430528, 0.01212044, 0.0002593961
 254736398, -0.07623647, 0.007428139, 0.01069522, 0.0002593961
 254836358, -0.08162155, 0.0064711, 0.008829594, 0.0002593961
 254936318, -0.08647878, 0.004896917, 0.007542911, 0.0002593961
 255036278, -0.09016635, 0.003104683, 0.006091857, 0.0002593961
 255136238, -0.09108205, 0.001262981, 0.006082385, 0.0002593961
 255236198, -0.08962988, -0.0003661608, 0.004134431, 0.0002593961
 255336158, -0.08653753, -0.001804514, 0.003162205, 0.0002593961
 255436118, -0.08294097, -0.003218963, 0.003340843, 0.0002593961
 255536078, -0.0801961, -0.004662368, 0.003693102, 0.0002593961
 255636038, -0.07863753, -0.006049276, 0.002438342, 0.0002593961
 255735998, -0.07790587, -0.007399355, 0.002248371, 0.0002593961
 255835958, -0.07770676, -0.008522433, 0.0009726722, 0.0002593961
 255935918, -0.07697685, -0.009536831, 0.001495703, 0.0002593961
 256035878, -0.07636258, -0.01056321, 0.00163756, 0.0002593961
 256135838, -0.0755735, -0.01177451, 0.001215804, 0.0002593961
 256235798, -0.07426654, -0.01331238, 0.0006294306, 0.0002593961
 256335758, -0.07276098, -0.01484624, -0.0005118838, 0.0002593961
 256435718, -0.07112335, -0.01638352, -0.0001516677, 0.0002593961
 256535678, -0.06949181, -0.0182122, 0.000703536, 0.0002593961
 256636471, -0.06858671, -0.01990247, 0.0008899667, 0.0002615578
 256736431, -0.06740631, -0.02126511, -9.563198E-05, 0.0002593961
 256836391, -0.06644856, -0.02287441, -8.452371E-05, 0.0002593961
 256936351, -0.06595141, -0.02436937, 0.000110756, 0.0002593961
 257036311, -0.06548013, -0.02591664, -0.0004223099, 0.0002593961
 257136271, -0.06436403, -0.02742262, -0.001256878, 0.0002593961
 257236231, -0.0618719, -0.0286953, -0.002090642, 0.0002593961
 257336191, -0.05834798, -0.02984342, -0.002728048, 0.0002593961
 257436151, -0.05435712, -0.03070779, -0.002597344, 0.0002593961
 257536111, -0.05043317, -0.03143441, -0.002793002, 0.0002593961
 257636071, -0.04694686, -0.03211069, -0.003058395, 0.0002593961
 257736031, -0.04386583, -0.03280668, -0.00255793, 0.0002593961
 257835991, -0.04162866, -0.03343464, -0.003042364, 0.0002593961
 257935951, -0.03924092, -0.03412332, -0.00269256, 0.0002593961
 258035911, -0.03688664, -0.0346205, -0.003329996, 0.0002593961
 258135871, -0.03422487, -0.03485201, -0.002970632, 0.0002593961
 258235831, -0.03132223, -0.03455, -0.003197898, 0.0002593961
 258335791, -0.02840333, -0.03393062, -0.003017977, 0.0002593961
 258435751, -0.02571606, -0.03325827, -0.002759901, 0.0002593961
 258535711, -0.02325104, -0.03274693, -0.002545267, 0.0002593961
 258635671, -0.02113782, -0.03263454, -0.002401324, 0.0002593961
 258736464, -0.01919636, -0.03316291, -0.001575608, 0.0002615578
 258836424, -0.01701888, -0.03300261, -0.001999706, 0.0002593961
 258936384, -0.01483129, -0.03337348, -0.001175478, 0.0002593961
 259036344, -0.01313698, -0.03408915, -0.001269336, 0.0002593961
 259136304, -0.01126784, -0.03469151, -0.001192924, 0.0002593961
 259236264, -0.009466304, -0.03554782, -0.001003909, 0.0002593961
 259336224, -0.007219858, -0.03631225, 1.922075E-05, 0.0002593961
 259436184, -0.005030162, -0.03720358, 0.001854797, 0.0002593961
 259536144, -0.002839361, -0.03795505, 0.00260659, 0.0002593961
 259636104, -0.001470783, -0.03858405, 0.003174783, 0.0002593961
 259736064, -8.598152E-05, -0.03917449, 0.002963345, 0.0002593961
 259836024, 0.0009302043, -0.039255, 0.00296263, 0.0002593961
 259935984, 0.001809297, -0.03944423, 0.002076806, 0.0002593961
 260035944, 0.002695853, -0.03912317, 0.002044368, 0.0002593961
 260135904, 0.003670563, -0.03895203, 0.001392273, 0.0002593961
 260235864, 0.004410724, -0.03868008, 0.0007467763, 0.0002593961
 260335824, 0.005676114, -0.03838781, 0.0002064654, 0.0002593961
 260435784, 0.00714914, -0.03835115, -0.0007460279, 0.0002593961
 260535744, 0.00874857, -0.03868684, -0.0005753944, 0.0002593961
 260635704, 0.009938402, -0.03876855, -0.0006867558, 0.0002593961
 260735664, 0.0108327, -0.03890494, -0.0005877778, 0.0002593961
 260836457, 0.01226679, -0.03940805, -0.0005473689, 0.0002615578
 260936417, 0.0131975, -0.03902859, -0.0004938486, 0.0002593961
 261036377, 0.0139949, -0.03875775, -0.001282009, 0.0002593961
 261136337, 0.01538734, -0.03820538, -0.001229208, 0.0002593961
 261236297, 0.01627305, -0.03778431, -0.001107474, 0.0002593961
 261336257, 0.01731515, -0.03722019, -0.001138672, 0.0002593961
 261436217, 0.01818757, -0.0365879, -0.00129562, 0.0002593961
 261536177, 0.01923509, -0.03627636, -0.0006731569, 0.0002593961
 261636137, 0.02000778, -0.03631625, -0.000923966, 0.0002593961
 261736097, 0.0211756, -0.03629437, -0.0008793567, 0.0002593961
 261836057, 0.0218981, -0.03581599, -0.001054723, 0.0002593961
 261936017, 0.02288585, -0.03476565, 0.0006696871, 0.0002593961
 262035977, 0.02367783, -0.03370796, 0.0021274, 0.0002593961
 262135937, 0.02406539, -0.03293409, 0.002012407, 0.0002593961
 262235897, 0.02450123, -0.03242993, 0.001768912, 0.0002593961
 262335857, 0.02479036, -0.03245142, 0.001551235, 0.0002593961
 262435817, 0.02551853, -0.03284035, 0.001111171, 0.0002593961
 262535777, 0.02664174, -0.03285433, 0.001574057, 0.0002593961
 262635737, 0.028064, -0.03228388, 0.003747504, 0.0002593961
 262735697, 0.02893411, -0.03182727, 0.004079087, 0.0002593961
 262835657, 0.02914223, -0.03142934, 0.004317491, 0.0002593961
 262936450, 0.0294671, -0.03205562, 0.004037414, 0.0002615578
 263036410, 0.02977229, -0.03216418, 0.003396545, 0.0002593961
 263136370, 0.03012586, -0.03239342, 0.003077947, 0.0002593961
 263236330, 0.03078786, -0.03127512, 0.004915918, 0.0002593961
 263336290, 0.03143303, -0.03051199, 0.004797847, 0.0002593961
 263436250, 0.03166305, -0.02985029, 0.004471012, 0.0002593961
 263536210, 0.03194511, -0.02912393, 0.003985567, 0.0002593961
 263636170, 0.03252034, -0.02837517, 0.003855862, 0.0002593961
 263736130, 0.0330235, -0.027746, 0.003069494, 0.0002593961
 263836090, 0.03314796, -0.02750765, 0.002755043, 0.0002593961
 263936050, 0.03377102, -0.02747452, 0.002178975, 0.0002593961
 264036010, 0.03435951, -0.02755886, 0.001360779, 0.0002593961
 264135970, 0.03548151, -0.02743787, 0.001156394, 0.0002593961
 264235930, 0.03613153, -0.02739865, 0.000383748, 0.0002593961
 264335890, 0.03660193, -0.02647737, 0.0005740468, 0.0002593961
 264435850, 0.03645363, -0.02582439, 0.0001330058, 0.0002593961
 264535810, 0.03646914, -0.02513496, -0.0004005987, 0.0002593961
 264635770, 0.0364724, -0.02402229, -0.0003422786, 0.0002593961
 264735730, 0.03670805, -0.02288934, -0.0004486805, 0.0002593961
 264835690, 0.03731773, -0.02201284, -0.0005534842, 0.0002593961
 264936483, 0.03813855, -0.02135898, 2.408335E-05, 0.0002615578
 265036443, 0.03848077, -0.02077224, 0.0001150779, 0.0002593961
 265136403, 0.03893401, -0.02041196, 0.0006056329, 0.0002593961
 265236363, 0.03920129, -0.0204898, -0.0003433605, 0.0002593961
 265336323, 0.03954144, -0.02023665, 0.0003072022, 0.0002593961
 265436283, 0.03988877, -0.02008511, -0.0002210305, 0.0002593961
 265536243, 0.04017966, -0.01956438, -0.000411098, 0.0002593961
 265636203, 0.04051634, -0.01907157, -0.0002496031, 0.0002593961
 265736163, 0.04087443, -0.01857054, -0.0004764725, 0.0002593961
 265836123, 0.04099829, -0.01759203, -0.0005043133, 0.0002593961
 265936083, 0.04169538, -0.01664954, -0.0005433043, 0.0002593961
 266036043, 0.04215112, -0.01574637, 0.0005362213, 0.0002593961
 266136003, 0.04301221, -0.01475421, 0.00216066, 0.0002593961
 266235963, 0.04342454, -0.01439821, 0.002057426, 0.0002593961
 266335923, 0.04379746, -0.01423001, 0.001900649, 0.0002593961
 266435883, 0.04431524, -0.01360289, 0.002700021, 0.0002593961
 266535843, 0.04456672, -0.01337359, 0.00295315, 0.0002593961
 266635803, 0.04465668, -0.01270069, 0.002916879, 0.0002593961
 266735763, 0.04485744, -0.0123043, 0.002319036, 0.0002593961
 266835723, 0.04467479, -0.01194363, 0.0006477172, 0.0002593961
 266935683, 0.04461338, -0.01124791, -0.001260877, 0.0002593961
 267036476, 0.04520554, -0.01048527, -0.001368791, 0.0002615578
 267136436, 0.04514989, -0.009432971, -0.00134735, 0.0002593961
 267236396, 0.04526833, -0.008606716, -0.001128867, 0.0002593961
 267336356, 0.04557076, -0.008090955, -0.001306431, 0.0002593961
 267436316, 0.04572798, -0.007583116, -0.0009799458, 0.0002593961
 267536276, 0.04580049, -0.007056721, -0.001053835, 0.0002593961
 267636236, 0.04571087, -0.006756115, -0.0009436122, 0.0002593961
 267736196, 0.04543692, -0.006072067, -0.00106853, 0.0002593961
 267836156, 0.04567278, -0.005405618, -0.0008333304, 0.0002593961
 267936116, 0.04586248, -0.004788553, -0.0006947384, 0.0002593961
 268036076, 0.04622699, -0.004351604, -0.0008872403, 0.0002593961
 268136036, 0.04655038, -0.003933979, -0.001172545, 0.0002593961
 268235996, 0.04681486, -0.003422922, -0.001068366, 0.0002593961
 268335956, 0.04761766, -0.003198127, -0.001955495, 0.0002593961
 268435916, 0.0477017, -0.002454268, -0.001621368, 0.0002593961
 268535876, 0.04759755, -0.001256293, -0.001003491, 0.0002593961
 268635836, 0.04722025, -0.0001580271, 0.0002616777, 0.0002593961
 268735796, 0.04707606, 0.001078147, 0.001890486, 0.0002593961
 268835756, 0.04712357, 0.001723937, 0.0004328497, 0.0002593961
 268935716, 0.04716834, 0.002390983, -0.0004597421, 0.0002593961
 269035676, 0.04683756, 0.002975374, -0.001266162, 0.0002593961
 269136469, 0.04730286, 0.004110884, -0.001022381, 0.0002615578
 269236429, 0.04706061, 0.005117062, -0.0002452227, 0.0002593961
 269336389, 0.04689983, 0.005983593, -0.0004383776, 0.0002593961
 269436349, 0.04713415, 0.006524774, -0.00055362, 0.0002593961
 269536309, 0.04689408, 0.007236074, -0.0003866843, 0.0002593961
 269636269, 0.04674968, 0.00796033, -0.0005220411, 0.0002593961
 269736229, 0.04660084, 0.008706941, 5.481434E-06, 0.0002593961
 269836189, 0.04640999, 0.009671812, 0.001573192, 0.0002593961
 269936149, 0.04642787, 0.009978072, 0.002242336, 0.0002593961
 270036109, 0.04651474, 0.01004355, 0.002406309, 0.0002593961
 270136069, 0.04674638, 0.009910914, 0.001818153, 0.0002593961
 270236029, 0.04660109, 0.01018078, 0.001528525, 0.0002593961
 270335989, 0.04646066, 0.01059035, 0.001374574, 0.0002593961
 270435949, 0.04648498, 0.01105799, 0.0008845032, 0.0002593961
 270535909, 0.0462079, 0.01199854, -0.000335024, 0.0002593961
 270635869, 0.04603773, 0.01337898, 0.0009313158, 0.0002593961
 270735829, 0.04599336, 0.01453355, 0.00101334, 0.0002593961
 270835789, 0.0456826, 0.01516332, 0.0007733445, 0.0002593961
 270935749, 0.04528438, 0.01622741, 0.001018223, 0.0002593961
 271035709, 0.04534688, 0.01672476, 0.001591825, 0.0002593961
 271135669, 0.04527507, 0.01730803, 0.002062228, 0.0002593961
 271236462, 0.04551525, 0.01768887, 0.002203068, 0.0002615578
 271336422, 0.04522152, 0.01771987, 0.001215651, 0.0002593961
 271436382, 0.04480914, 0.01773288, 0.0006563052, 0.0002593961
 271536342, 0.04487458, 0.01807966, 0.0004253665, 0.0002593961
 271636302, 0.04420777, 0.01844764, 0.0002393146, 0.0002593961
 271736262, 0.04371657, 0.01912096, 0.0002741396, 0.0002593961
 271836222, 0.04316003, 0.01957666, 5.159578E-05, 0.0002593961
 271936182, 0.04315638, 0.02008068, -0.0009707536, 0.0002593961
 272036142, 0.04312461, 0.02082975, -0.0009034178, 0.0002593961
 272136102, 0.04333287, 0.02097254, -0.002740802, 0.0002593961
 272236062, 0.04280855, 0.02157433, -0.003150661, 0.0002593961
 272336022, 0.04251982, 0.02231645, -0.002551726, 0.0002593961
 272435982, 0.04231552, 0.02318913, -0.001971476, 0.0002593961
 272535942, 0.04168867, 0.02451407, -9.199991E-05, 0.0002593961
 272635902, 0.04115095, 0.02504786, 0.0002024317, 0.0002593961
 272735862, 0.04069298, 0.02575954, 0.0003217899, 0.0002593961
 272835822, 0.04023445, 0.02582166, 0.0002706923, 0.0002593961
 272935782, 0.03993336, 0.02656435, 0.0007473483, 0.0002593961
 273035742, 0.03985057, 0.02703601, 0.0007819934, 0.0002593961
 273135702, 0.03966201, 0.02711554, 0.00104935, 0.0002593961
 273235662, 0.0394716, 0.02743959, 0.0008108016, 0.0002593961
 273336455, 0.03930582, 0.02817236, 0.0007625179, 0.0002615578
 273436415, 0.03881438, 0.02874064, 0.0003939936, 0.0002593961
 273536375, 0.0384603, 0.02952692, 0.0003692603, 0.0002593961
 273636335, 0.03805437, 0.0301959, 0.0003195962, 0.0002593961
 273736295, 0.03787923, 0.03039093, 0.000102361, 0.0002593961
 273836255, 0.03734014, 0.03043121, 0.0002714394, 0.0002593961
 273936215, 0.03665226, 0.03112065, 0.0003072605, 0.0002593961
 274036175, 0.03638681, 0.03184082, 0.0006553054, 0.0002593961
 274136135, 0.03608334, 0.03248355, 0.0005720115, 0.0002593961
 274236095, 0.03614961, 0.03264458, -0.0004114805, 0.0002593961
 274336055, 0.03591829, 0.03328469, -0.0001147038, 0.0002593961
 274436015, 0.03583172, 0.03401321, -0.0005809296, 0.0002593961
 274535975, 0.03515643, 0.03489748, -0.0008104658, 0.0002593961
 274635935, 0.03476594, 0.03582664, -0.0001500876, 0.0002593961
 274735895, 0.03397283, 0.03650763, 0.0002757162, 0.0002593961
 274835855, 0.03358803, 0.03688, 0.0002845651, 0.0002593961
 274935815, 0.03291278, 0.03709479, 0.0003364182, 0.0002593961
 275035775, 0.03242825, 0.0372498, 0.0006274466, 0.0002593961
 275135735, 0.03184476, 0.03701318, 5.778268E-05, 0.0002593961
 275235695, 0.03105477, 0.03697425, -0.0002733579, 0.0002593961
 275335655, 0.03013313, 0.03705973, -0.0002074234, 0.0002593961
 275436448, 0.02942794, 0.03747126, 4.702078E-05, 0.0002615578
 275536408, 0.0287674, 0.03758702, -0.0003595916, 0.0002593961
 275636368, 0.02884681, 0.03827347, -0.0006895238, 0.0002593961
 275736328, 0.02852099, 0.03888624, -0.001124517, 0.0002593961
 275836288, 0.02814165, 0.03971566, -0.00103797, 0.0002593961
 275936248, 0.02758558, 0.03995122, -0.0009806356, 0.0002593961
 276036208, 0.02666882, 0.04036979, -0.0003009439, 0.0002593961
 276136168, 0.025976, 0.04046637, -3.451755E-05, 0.0002593961
 276236128, 0.0256229, 0.04049522, -0.0001473803, 0.0002593961
 276336088, 0.0250254, 0.0406858, -0.0001593417, 0.0002593961
 276436048, 0.02457969, 0.04129282, 0.0005836621, 0.0002593961
 276536008, 0.02405049, 0.04174316, 0.000446974, 0.0002593961
 276635968, 0.02378406, 0.04218106, 0.0002856244, 0.0002593961
 276735928, 0.02298249, 0.04316036, 0.001076588, 0.0002593961
 276835888, 0.02226819, 0.04421898, 0.002541704, 0.0002593961
 276935848, 0.02173054, 0.04497554, 0.002290322, 0.0002593961
 277035808, 0.02131833, 0.04568225, 0.002263552, 0.0002593961
 277135768, 0.02114229, 0.04642441, 0.003143234, 0.0002593961
 277235728, 0.02078746, 0.04684803, 0.004385883, 0.0002593961
 277335688, 0.02024129, 0.04685306, 0.005243402, 0.0002593961
 277436481, 0.01996131, 0.04748619, 0.00525255, 0.0002615578
 277536441, 0.01940971, 0.0471867, 0.004485259, 0.0002593961
 277636401, 0.01894768, 0.04685847, 0.003979851, 0.0002593961
 277736361, 0.01827959, 0.04674058, 0.00413416, 0.0002593961
 277836321, 0.01758182, 0.04688002, 0.0041178, 0.0002593961
 277936281, 0.01678073, 0.04652074, 0.004141575, 0.0002593961
 278036241, 0.01621643, 0.04619103, 0.003696789, 0.0002593961
 278136201, 0.01530774, 0.04611621, 0.003262478, 0.0002593961
 278236161, 0.01494304, 0.04618274, 0.00257398, 0.0002593961
 278336121, 0.01409662, 0.04679584, 0.002680977, 0.0002593961
 278436081, 0.01328524, 0.04741437, 0.003258424, 0.0002593961
 278536041, 0.01253422, 0.04829877, 0.004642554, 0.0002593961
 278636001, 0.01261252, 0.04819312, 0.004093796, 0.0002593961
 278735961, 0.01205664, 0.04830579, 0.003984327, 0.0002593961
 278835921, 0.01147569, 0.04825068, 0.00387364, 0.0002593961
 278935881, 0.01100657, 0.04804333, 0.003477697, 0.0002593961
 279035841, 0.01071799, 0.04783519, 0.002915605, 0.0002593961
 279135801, 0.01001819, 0.04798233, 0.002144732, 0.0002593961
 279235761, 0.009496682, 0.04827391, 0.002490246, 0.0002593961
 279335721, 0.008617301, 0.04843938, 0.003332016, 0.0002593961
 279435681, 0.007798254, 0.04837283, 0.003512461, 0.0002593961
 279536474, 0.007157156, 0.04871614, 0.003578959, 0.0002615578
 279636434, 0.006460657, 0.04805838, 0.003434252, 0.0002593961
 279736394, 0.005963903, 0.04788427, 0.002748808, 0.0002593961
 279836354, 0.005527679, 0.04792339, 0.002593581, 0.0002593961
 279936314, 0.005001689, 0.0476027, 0.001915207, 0.0002593961
 280036274, 0.00427792, 0.04727655, 0.001795834, 0.0002593961
 280136234, 0.003857665, 0.0472044, 0.001385112, 0.0002593961
 280236194, 0.003266528, 0.047704, 0.001231911, 0.0002593961
 280336154, 0.00285552, 0.048863, 0.001107749, 0.0002593961
 280436114, 0.002522681, 0.049898, 0.001139532, 0.0002593961
 280536074, 0.001573059, 0.05101064, 0.0008148164, 0.0002593961
 280636034, 0.001114865, 0.05149943, 0.001076274, 0.0002593961
 280735994, 0.0003134308, 0.05181938, 0.001758896, 0.0002593961
 280835954, -0.0005036488, 0.05149308, 0.001377903, 0.0002593961
 280935914, -0.001228199, 0.05107852, 0.002555341, 0.0002593961
 281035874, -0.001663101, 0.05087598, 0.002253956, 0.0002593961
 281135834, -0.002228615, 0.05063868, 0.002688181, 0.0002593961
 281235794, -0.002611533, 0.05016687, 0.002284176, 0.0002593961
 281335754, -0.003210118, 0.04986643, 0.001696018, 0.0002593961
 281435714, -0.00410153, 0.04939381, 0.001952578, 0.0002593961
 281535674, -0.00479574, 0.04948625, 0.001804281, 0.0002593961
 281636467, -0.005288895, 0.04983138, 0.001004569, 0.0002615578
 281736427, -0.005933653, 0.04970953, 0.0005610413, 0.0002593961
 281836387, -0.006619011, 0.04971198, 0.0003461752, 0.0002593961
 281936347, -0.007185963, 0.04930487, 0.0002814788, 0.0002593961
 282036307, -0.007896991, 0.04911267, 0.000900453, 0.0002593961
 282136267, -0.008532884, 0.04888573, 0.0003489409, 0.0002593961
 282236227, -0.00922631, 0.04862225, 0.0001453688, 0.0002593961
 282336187, -0.009901919, 0.04834586, 0.0001793191, 0.0002593961
 282436147, -0.0104364, 0.04841584, 0.0001162839, 0.0002593961
 282536107, -0.01101839, 0.04855717, 0.0001244845, 0.0002593961
 282636067, -0.01174379, 0.04856561, 0.000151315, 0.0002593961
 282736027, -0.01211841, 0.04834175, 5.236796E-05, 0.0002593961
 282835987, -0.01253824, 0.04837381, -6.397428E-05, 0.0002593961
 282935947, -0.01361399, 0.0480587, -0.0002171863, 0.0002593961
 283035907, -0.01427648, 0.04794526, -0.001064699, 0.0002593961
 283135867, -0.01496161, 0.04781495, -0.0007141068, 0.0002593961
 283235827, -0.01552014, 0.04772202, -0.001149169, 0.0002593961
 283335787, -0.01607986, 0.04814227, -0.001844207, 0.0002593961
 283435747, -0.01677214, 0.0485497, -0.001749085, 0.0002593961
 283535707, -0.01756592, 0.04874886, -0.001488835, 0.0002593961
 283635667, -0.01816698, 0.04870177, -0.001541221, 0.0002593961
 283736460, -0.01896188, 0.04872421, -0.001423593, 0.0002615578
 283836420, -0.01935815, 0.04838954, -0.001575619, 0.0002593961
 283936380, -0.02024291, 0.04788452, -0.001241296, 0.0002593961
 284036340, -0.02089652, 0.04771358, -0.0002831268, 0.0002593961
 284136300, -0.02127184, 0.04765133, -0.000106148, 0.0002593961
 284236260, -0.02178384, 0.04742005, -0.0006328315, 0.0002593961
 284336220, -0.02258349, 0.04695604, -4.559191E-06, 0.0002593961
 284436180, -0.0231895, 0.04619746, -0.0003783798, 0.0002593961
 284536140, -0.02346675, 0.04509395, -0.001259955, 0.0002593961
 284636100, -0.02396626, 0.04430533, -0.001141425, 0.0002593961
 284736060, -0.02435403, 0.04368434, -0.001147474, 0.0002593961
 284836020, -0.02484407, 0.04312515, -0.001112865, 0.0002593961
 284935980, -0.0251265, 0.04305004, -0.001201219, 0.0002593961
 285035940, -0.02596588, 0.04275448, -0.00108352, 0.0002593961
 285135900, -0.02643655, 0.04247949, -0.001135225, 0.0002593961
 285235860, -0.02675265, 0.04207243, -0.001134755, 0.0002593961
 285335820, -0.02705621, 0.04157558, -0.000615565, 0.0002593961
 285435780, -0.02756699, 0.04122042, -0.00124787, 0.0002593961
 285535740, -0.02800657, 0.0405677, -0.001428456, 0.0002593961
 285635700, -0.02858949, 0.03999681, -0.0008273353, 0.0002593961
 285735660, -0.0293117, 0.03949853, -0.0005462213, 0.0002593961
 285836453, -0.03036724, 0.03960428, -0.0007135847, 0.0002615578
 285936413, -0.03093889, 0.03953534, -0.0004473327, 0.0002593961
 286036373, -0.03120623, 0.03951416, -0.0003994642, 0.0002593961
 286136333, -0.03170809, 0.03944688, 0.0001592166, 0.0002593961
 286236293, -0.03205031, 0.0394275, -0.0001317772, 0.0002593961
 286336253, -0.03245429, 0.03919892, -0.000401857, 0.0002593961
 286436213, -0.03272009, 0.03880315, -0.0006719286, 0.0002593961
 286536173, -0.03354604, 0.03803243, -0.001043596, 0.0002593961
 286636133, -0.03399315, 0.03706764, -0.001171574, 0.0002593961
 286736093, -0.03463759, 0.03604424, -0.0003979223, 0.0002593961
 286836053, -0.03519318, 0.03540383, -0.0004203152, 0.0002593961
 286936013, -0.0352116, 0.03465228, -0.0001852653, 0.0002593961
 287035973, -0.03555105, 0.03412287, -5.028613E-07, 0.0002593961
 287135933, -0.03607082, 0.03414291, 0.0001161194, 0.0002593961
 287235893, -0.0365884, 0.03422791, -0.0006149966, 0.0002593961
 287335853, -0.0365741, 0.03412092, -0.001326417, 0.0002593961
 287435813, -0.03667861, 0.03370981, -0.002129141, 0.0002593961
 287535773, -0.03697582, 0.03272131, -0.002819055, 0.0002593961
 287635733, -0.03740081, 0.03195336, -0.002893462, 0.0002593961
 287735693, -0.03787086, 0.03104802, -0.002360891, 0.0002593961
 287836486, -0.03810435, 0.03066378, -0.001682094, 0.0002593961
 287936446, -0.03884393, 0.03050895, -0.001612066, 0.0002615578
