TimeUS,CGpN,CGpE,CGpD,CGpe,PGpN,PGpE,PGpD,PGpe
 195658372, 0, 0, 0, 0.05, 0, 0, 0, 0
 195830803, 0, 0, 0, 0.05, 0, 0, 0, 0.05
 196030723, 0, 0, 0, 0.05, 0, 0, 0, 0.05
 196231476, 0, 0, 0, 0.05, 0, 0, 0, 0.05
 196431396, 0, 0, 0, 0.05, 0, 0, 0, 0.05
 196631316, 0, 0, 0, 0.05, 0, 0, 0, 0.05
 196831236, 0, 0, 0, 0.05, 0, 0, 0, 0.05
 197031156, 0, 0, 0, 0.05, 0, 0, 0, 0.05
 197231076, 0, 0, 0, 0.05, 0, 0, 0, 0.05
 197430996, 0, 0, 0, 0.05, 0, 0, 0, 0.05
 197630916, 0, 0, 0, 0.05, 0, 0, 0, 0.05
 197830836, 0, 0, 0, 0.05, 0, 0, 0, 0.05
 198030756, 0, 0, 0, 0.05, 0, 0, 0, 0.05
 198230676, 0, 0, 0, 0.05, 0, 0, 0, 0.05
 198431429, 0, 0, 0, 0.05, 0, 0, 0, 0.05
 198631349, 0, 0, 0, 0.05, 0, 0, 0, 0.05
 198831269, 0, 0, 0, 0.05, 0, 0, 0, 0.05
 199031189, 0, 0, 0, 0.05, 0, 0, 0, 0.05
 199231109, 0, 0, 0, 0.05, 0, 0, 0, 0.05
 199431029, 0, 0, 0, 0.05, 0, 0, 0, 0.05
 199630949, 0, 0, 0, 0.05, 0, 0, 0, 0.05
 199830869, 0, 0, 0, 0.05, 0, 0, 0, 0.05
 200030789, 0, 0, 0, 0.05, 0, 0, 0, 0.05
 200230709, 0, 0, 0, 0.05, 0, 0, 0, 0.05
 200431462, 0, 0, 0, 0.05, 0, 0, 0, 0.05
 200631382, 0, 0, 0, 0.05, 0, 0, 0, 0.05
 200831302, 0, 0, 0, 0.05, 0, 0, 0, 0.05
 201031222, 0, 0, 0, 0.05, 0, 0, 0, 0.05
 201231142, 0, 0, 0, 0.05, 0, 0, 0, 0.05
 201431062, 0, 0, 0, 0.05, 0, 0, 0, 0.05
 201630982, 0, 0, 0, 0.05, 0, 0, 0, 0.05
 201830902, 0, 0, 0, 0.05, 0, 0, 0, 0.05
 202030822, 0, 0, 0, 0.05, 0, 0, 0, 0.05
 202230742, 0, 0, 0, 0.05, 0, 0, 0, 0.05
 202430662, 0, 0, 0, 0.05, 0, 0, 0, 0.05
 202631415, 0, 0, 0, 0.05, 0, 0, 0, 0.05
 202831335, 0, 0, 0, 0.05, 0, 0, 0, 0.05
 203031255, 0, 0, 0, 0.05, 0, 0, 0, 0.05
 203231175, 0, 0, 0, 0.05, 0, 0, 0, 0.05
 203431095, 0, 0, 0, 0.05, 0, 0, 0, 0.05
 203631015, 0, 0, 0, 0.05, 0, 0, 0, 0.05
 203830935, 0, 0, 0, 0.05, 0, 0, 0, 0.05
 204030855, 0, 0, 0, 0.05, 0, 0, 0, 0.05
 204230775, 0, 0, 0, 0.05, 0, 0, 0, 0.05
 204430695, 0, 0, 0, 0.05, 0, 0, 0, 0.05
 204631448, 0, 0, 0, 0.05, 0, 0, 0, 0.05
 204831368, 0, 0, 0, 0.05, 0, 0, 0, 0.05
 205031288, 0, 0, 0, 0.05, 0, 0, 0, 0.05
 205231208, 0, 0, 0, 0.05, 0, 0, 0, 0.05
 205431128, 0, 0, 0, 0.05, 0, 0, 0, 0.05
 205631048, 0, 0, 0, 0.05, 0, 0, 0, 0.05
 205830968, 0, 0, 0, 0.05, 0, 0, 0, 0.05
 206030888, 0, 0, 0, 0.05, 0, 0, 0, 0.05
 206230808, 0, 0, 0, 0.05, 0, 0, 0, 0.05
 206430728, 0, 0, 0, 0.05, 0, 0, 0, 0.05
 206631481, 0, 0, 0, 0.05, 0, 0, 0, 0.05
 206831401, 0, 0, 0, 0.05, 0, 0, 0, 0.05
 207031321, 0, 0, 0, 0.05, 0, 0, 0, 0.05
 207231241, 0, 0, 0, 0.05, 0, 0, 0, 0.05
 207431161, 0, 0, 0, 0.05, 0, 0, 0, 0.05
 207631081, 0, 0, 0, 0.05, 0, 0, 0, 0.05
 207831001, 0, 0, 0, 0.05, 0, 0, 0, 0.05
 208030921, 0, 0, 0, 0.05, 0, 0, 0, 0.05
 208230841, 0, 0, 0, 0.05, 0, 0, 0, 0.05
 208430761, 0, 0, 0, 0.05, 0, 0, 0, 0.05
 208630681, 0, 0, 0, 0.05, 0, 0, 0, 0.05
 208831434, 0, 0, 0, 0.05, 0, 0, 0, 0.05
 209031354, 0, 0, 0, 0.05, 0, 0, 0, 0.05
 209231274, 0, 0, 0, 0.05, 0, 0, 0, 0.05
 209431194, 0, 0, 0, 0.05, 0, 0, 0, 0.05
 209631114, 0, 0, 0, 0.05, 0, 0, 0, 0.05
 209831034, 0, 0, 0, 0.05, 0, 0, 0, 0.05
 210030954, 0, 0, 0, 0.05, 0, 0, 0, 0.05
 210230874, 0, 0, 0, 0.05, 0, 0, 0, 0.05
 210430794, 0, 0, 0, 0.05, 0, 0, 0, 0.05
 210630714, 0, 0, 0, 0.05, 0, 0, 0, 0.05
 210831467, 0, 0, 0, 0.05, 0, 0, 0, 0.05
 211031387, 0, 0, 0, 0.05, 0, 0, 0, 0.05
 211231307, 0, 0, 0, 0.05, 0, 0, 0, 0.05
 211431227, 0, 0, 0, 0.05, 0, 0, 0, 0.05
 211631147, 0, 0, 0, 0.05, 0, 0, 0, 0.05
 211831067, 0, 0, 0, 0.05, 0, 0, 0, 0.05
 212030987, 0, 0, 0, 0.05, 0, 0, 0, 0.05
 212230907, 0, 0, 0, 0.05, 0, 0, 0, 0.05
 212430827, 0, 0, 0, 0.05, 0, 0, 0, 0.05
 212630747, 0, 0, 0, 0.05, 0, 0, 0, 0.05
 212830667, 0, 0, 0, 0.05, 0, 0, 0, 0.05
 213031420, 0, 0, 0, 0.05, 0, 0, 0, 0.05
 213231340, 0, 0, 0, 0.05, 0, 0, 0, 0.05
 213431260, 0, 0, 0, 0.05, 0, 0, 0, 0.05
 213631180, 0, 0, 0, 0.05, 0, 0, 0, 0.05
 213831100, 0, 0, 0, 0.05, 0, 0, 0, 0.05
 214031020, 0, 0, 0, 0.05, 0, 0, 0, 0.05
 214230940, 0, 0, 0, 0.05, 0, 0, 0, 0.05
 214430860, 0, 0, 0, 0.05, 0, 0, 0, 0.05
 214630780, 0, 0, 0, 0.05, 0, 0, 0, 0.05
 214830700, 0, 0, 0, 0.05, 0, 0, 0, 0.05
 215031453, 0, 0, 0, 0.05, 0, 0, 0, 0.05
 215231373, 0, 0, 0, 0.05, 0, 0, 0, 0.05
 215431293, 0, 0, 0, 0.05, 0, 0, 0, 0.05
 215631213, 0, 0, 0, 0.05, 0, 0, 0, 0.05
 215831133, 0, 0, 0, 0.05, 0, 0, 0, 0.05
 216031053, 0, 0, 0, 0.05, 0, 0, 0, 0.05
 216230973, 0, 0, 0, 0.05, 0, 0, 0, 0.05
 216430893, 0, 0, 0, 0.05, 0, 0, 0, 0.05
 216630813, 0, 0, 0, 0.05, 0, 0, 0, 0.05
 216830733, 0, 0, 0, 0.05, 0, 0, 0, 0.05
 217031486, 0, 0, 0, 0.05, 0, 0, 0, 0.05
 217231406, 0, 0, 0, 0.05, 0, 0, 0, 0.05
 217431326, 0, 0, 0, 0.05, 0, 0, 0, 0.05
 217631246, 0, 0, 0, 0.05, 0, 0, 0, 0.05
 217831166, 0, 0, 0, 0.05, 0, 0, 0, 0.05
 218031086, 0, 0, 0, 0.05, 0, 0, 0, 0.05
 218231006, 0, 0, 0, 0.05, 0, 0, 0, 0.05
 218430926, 0, 0, 0, 0.05, 0, 0, 0, 0.05
 218630846, 0, 0, 0, 0.05, 0, 0, 0, 0.05
 218830766, 0, 0, 0, 0.05, 0, 0, 0, 0.05
 219030686, 0, 0, 0, 0.05, 0, 0, 0, 0.05
 219231439, 0, 0, 0, 0.05, 0, 0, 0, 0.05
 219431359, 0, 0, 0, 0.05, 0, 0, 0, 0.05
 219631279, 0, 0, 0, 0.05, 0, 0, 0, 0.05
 219831199, 0, 0, 0, 0.05, 0, 0, 0, 0.05
 220031119, 0, 0, 0, 0.05, 0, 0, 0, 0.05
 220231039, 0, 0, 0, 0.05, 0, 0, 0, 0.05
 220430959, 0, 0, 0, 0.05, 0, 0, 0, 0.05
 220630879, 0, 0, 0, 0.05, 0, 0, 0, 0.05
 220830799, 0, 0, 0, 0.05, 0, 0, 0, 0.05
 221030719, 0, 0, 0, 0.05, 0, 0, 0, 0.05
 221231472, 0, 0, 0, 0.05, 0, 0, 0, 0.05
 221431392, 0, 0, 0, 0.05, 0, 0, 0, 0.05
 221631312, 0, 0, 0, 0.05, 0, 0, 0, 0.05
 221831232, 0, 0, 0, 0.05, 0, 0, 0, 0.05
 222031152, 0, 0, 0, 0.05, 0, 0, 0, 0.05
 222231072, 0, 0, 0, 0.05, 0, 0, 0, 0.05
 222430992, 0, 0, 0, 0.05, 0, 0, 0, 0.05
 222630912, 0, 0, 0, 0.05, 0, 0, 0, 0.05
 222830832, 0, 0, 0, 0.05, 0, 0, 0, 0.05
 223030752, 0, 0, 0, 0.05, 0, 0, 0, 0.05
 223230672, 0, 0, 0, 0.05, 0, 0, 0, 0.05
 223431425, 0, 0, 0, 0.05, 0, 0, 0, 0.05
 223631345, 0, 0, 0, 0.05, 0, 0, 0, 0.05
 223831265, 0, 0, 0, 0.05, 0, 0, 0, 0.05
 224031185, 0, 0, 0, 0.05, 0, 0, 0, 0.05
 224231105, 0, 0, 0, 0.05, 0, 0, 0, 0.05
 224431025, 0, 0, 0, 0.05, 0, 0, 0, 0.05
 224630945, 0, 0, 0, 0.05, 0, 0, 0, 0.05
 224830865, 0, 0, 0, 0.05, 0, 0, 0, 0.05
 225030785, 0, 0, 0, 0.05, 0, 0, 0, 0.05
 225230705, 0, 0, 0, 0.05, 0, 0, 0, 0.05
 225431458, 0, 0, 0, 0.05, 0, 0, 0, 0.05
 225631378, 0, 0, 0, 0.05, 0, 0, 0, 0.05
 225831298, 0, 0, 0, 0.05, 0, 0, 0, 0.05
 226031218, 0, 0, 0, 0.05, 0, 0, 0, 0.05
 226231138, 0, 0, 0, 0.05, 0, 0, 0, 0.05
 226431058, 0, 0, 0, 0.05, 0, 0, 0, 0.05
 226630978, 0, 0, 0, 0.05, 0, 0, 0, 0.05
 226830898, 0, 0, 0, 0.05, 0, 0, 0, 0.05
 227030818, 0, 0, 0, 0.05, 0, 0, 0, 0.05
 227230738, 0, 0, 0, 0.05, 0, 0, 0, 0.05
 227430658, 0, 0, 0, 0.05, 0, 0, 0, 0.05
 227631411, 0, 0, 0, 0.05, 0, 0, 0, 0.05
 227831331, 0, 0, 0, 0.05, 0, 0, 0, 0.05
 228031251, 0, 0, 0, 0.05, 0, 0, 0, 0.05
 228231171, 0, 0, 0, 0.05, 0, 0, 0, 0.05
 228431091, 0, 0, 0, 0.05, 0, 0, 0, 0.05
 228631011, 0, 0, 0, 0.05, 0, 0, 0, 0.05
 228830931, 0, 0, 0, 0.05, 0, 0, 0, 0.05
 229030851, 0, 0, 0, 0.05, 0, 0, 0, 0.05
 229230771, 0, 0, 0, 0.05, 0, 0, 0, 0.05
 229430691, 0, 0, 0, 0.05, 0, 0, 0, 0.05
 229631444, 0, 0, 0, 0.05, 0, 0, 0, 0.05
 229831364, 0, 0, 0, 0.05, 0, 0, 0, 0.05
 230031284, 0, 0, 0, 0.05, 0, 0, 0, 0.05
 230231204, 0, 0, 0, 0.05, 0, 0, 0, 0.05
 230431124, 0, 0, 0, 0.05, 0, 0, 0, 0.05
 230631044, 0, 0, 0, 0.05, 0, 0, 0, 0.05
 230830964, 0, 0, 0, 0.05, 0, 0, 0, 0.05
 231030884, 0, 0, 0, 0.05, 0, 0, 0, 0.05
 231230804, 0, 0, 0, 0.05, 0, 0, 0, 0.05
 231430724, 0, 0, 0, 0.05, 0, 0, 0, 0.05
 231631477, 0, 0, 0, 0.05, 0, 0, 0, 0.05
 231831397, 0, 0, 0, 0.05, 0, 0, 0, 0.05
 232031317, 0, 0, 0, 0.05, 0, 0, 0, 0.05
 232231237, 0, 0, 0, 0.05, 0, 0, 0, 0.05
 232431157, 0, 0, 0, 0.05, 0, 0, 0, 0.05
 232631077, 0, 0, 0, 0.05, 0, 0, 0, 0.05
 232830997, 0, 0, 0, 0.05, 0, 0, 0, 0.05
 233030917, 0, 0, 0, 0.05, 0, 0, 0, 0.05
 233230837, 0, 0, 0, 0.05, 0, 0, 0, 0.05
 233430757, 0, 0, 0, 0.05, 0, 0, 0, 0.05
 233630677, 0, 0, 0, 0.05, 0, 0, 0, 0.05
 233831430, 0, 0, 0, 0.05, 0, 0, 0, 0.05
 234031350, 0, 0, 0, 0.05, 0, 0, 0, 0.05
 234231270, 0, 0, 0, 0.05, 0, 0, 0, 0.05
 234431190, 0, 0, 0, 0.05, 0, 0, 0, 0.05
 234631110, 0, 0, 0, 0.05, 0, 0, 0, 0.05
 234831030, 0, 0, 0, 0.05, 0, 0, 0, 0.05
 235030950, 0, 0, 0, 0.05, 0, 0, 0, 0.05
 235230870, 0, 0, 0, 0.05, 0, 0, 0, 0.05
 235430790, 0, 0, 0, 0.05, 0, 0, 0, 0.05
 235630710, 0, 0, 0, 0.05, 0, 0, 0, 0.05
 235831463, 0, 0, 0, 0.05, 0, 0, 0, 0.05
 236031383, 0, 0, 0, 0.05, 0, 0, 0, 0.05
 236231303, 0, 0, 0, 0.05, 0, 0, 0, 0.05
 236431223, 0, 0, 0, 0.05, 0, 0, 0, 0.05
 236631143, 0, 0, 0, 0.05, 0, 0, 0, 0.05
 236831063, 0, 0, 0, 0.05, 0, 0, 0, 0.05
 237030983, 0, 0, 0, 0.05, 0, 0, 0, 0.05
 237230903, 0, 0, 0, 0.05, 0, 0, 0, 0.05
 237430823, 0, 0, 0, 0.05, 0, 0, 0, 0.05
 237630743, 0, 0, 0, 0.05, 0, 0, 0, 0.05
 237830663, 0, 0, 0, 0.05, 0, 0, 0, 0.05
 238031416, 0, 0, 0, 0.05, 0, 0, 0, 0.05
 238231336, 0, 0, 0, 0.05, 0, 0, 0, 0.05
 238431256, 0, 0, 0, 0.05, 0, 0, 0, 0.05
 238631176, 0, 0, 0, 0.05, 0, 0, 0, 0.05
 238831096, 0, 0, 0, 0.05, 0, 0, 0, 0.05
 239031016, 0, 0, 0, 0.05, 0, 0, 0, 0.05
 239230936, 0, 0, 0, 0.05, 0, 0, 0, 0.05
 239430856, 0, 0, 0, 0.05, 0, 0, 0, 0.05
 239630776, 0, 0, 0, 0.05, 0, 0, 0, 0.05
 239830696, 0, 0, 0, 0.05, 0, 0, 0, 0.05
 240031449, 0, 0, 0, 0.05, 0, 0, 0, 0.05
 240231369, 0, 0, 0, 0.05, 0, 0, 0, 0.05
 240431289, 0, 0, 0, 0.05, 0, 0, 0, 0.05
 240631209, 0, 0, 0, 0.05, 0, 0, 0, 0.05
 240831129, 0, 0, 0, 0.05, 0, 0, 0, 0.05
 241031049, 0, 0, 0, 0.05, 0, 0, 0, 0.05
 241230969, 0, 0, 0, 0.05, 0, 0, 0, 0.05
 241430889, 0, 0, 0, 0.05, 0, 0, 0, 0.05
 241630809, 0, 0, 0, 0.05, 0, 0, 0, 0.05
 241830729, 0, 0, 0, 0.05, 0, 0, 0, 0.05
 242031482, 0, 0, 0, 0.05, 0, 0, 0, 0.05
 242231402, 0, 0, 0, 0.05, 0, 0, 0, 0.05
 242431322, 0, 0, 0, 0.05, 0, 0, 0, 0.05
 242631242, 0, 0, 0, 0.05, 0, 0, 0, 0.05
 242831162, 0, 0, 0, 0.05, 0, 0, 0, 0.05
 243031082, 0, 0, 0, 0.05, 0, 0, 0, 0.05
 243231002, 0, 0, 0, 0.05, 0, 0, 0, 0.05
 243430922, 0, 0, 0, 0.05, 0, 0, 0, 0.05
 243630842, 0, 0, 0, 0.05, 0, 0, 0, 0.05
 243830762, 0, 0, 0, 0.05, 0, 0, 0, 0.05
 244030682, 0, 0, 0, 0.05, 0, 0, 0, 0.05
 244231435, 0, 0, 0, 0.05, 0, 0, 0, 0.05
 244431355, 0, 0, 0, 0.05, 0, 0, 0, 0.05
 244631275, 0, 0, 0, 0.05, 0, 0, 0, 0.05
 244831195, 0, 0, 0, 0.05, 0, 0, 0, 0.05
 245031115, 0, 0, 0, 0.05, 0, 0, 0, 0.05
 245231035, 0, 0, 0, 0.05, 0, 0, 0, 0.05
 245430955, 0, 0, 0, 0.05, 0, 0, 0, 0.05
 245630875, 0, 0, 0, 0.05, 0, 0, 0, 0.05
 245830795, 0, 0, 0, 0.05, 0, 0, 0, 0.05
 246030715, 0, 0, 0, 0.05, 0, 0, 0, 0.05
 246231468, 0, 0, 0, 0.05, 0, 0, 0, 0.05
 246431388, 0, 0, 0, 0.05, 0, 0, 0, 0.05
 246631308, 0, 0, 0, 0.05, 0, 0, 0, 0.05
 246831228, 0, 0, 0, 0.05, 0, 0, 0, 0.05
 247031148, 0, 0, -0.191, 0.05, 0, 0, 0, 0.05
 247231068, 0, 0, -0.303, 0.05, 0, 0, -0.191, 0.05
 247430988, 0, 0, -0.198, 0.05, 0, 0, -0.303, 0.05
 247630908, -0.001, -0.002, -1.036, 0.05, 0, 0, -0.198, 0.05
 247830828, -0.013, -0.014, -1.992, 0.05, -0.001, -0.002, -1.036, 0.05
 248030748, -0.029, -0.032, -2.158, 0.05, -0.013, -0.014, -1.992, 0.05
 248230668, -0.045, -0.05, -2.34, 0.05, -0.029, -0.032, -2.158, 0.05
 248431421, -0.06, -0.06500001, -2.587, 0.05, -0.045, -0.05, -2.34, 0.05
 248631341, -0.072, -0.07700001, -2.788, 0.05, -0.06, -0.06500001, -2.587, 0.05
 248831261, -0.082, -0.087, -2.955, 0.05, -0.072, -0.07700001, -2.788, 0.05
 249031181, -0.09100001, -0.094, -3.105, 0.05, -0.082, -0.087, -2.955, 0.05
 249231101, -0.098, -0.1, -3.237, 0.05, -0.09100001, -0.094, -3.105, 0.05
 249431021, -0.104, -0.105, -3.353, 0.05, -0.098, -0.1, -3.237, 0.05
 249630941, -0.108, -0.108, -3.454, 0.05, -0.104, -0.105, -3.353, 0.05
 249830861, -0.112, -0.111, -3.543, 0.05, -0.108, -0.108, -3.454, 0.05
 250030781, -0.115, -0.113, -3.621, 0.05, -0.112, -0.111, -3.543, 0.05
 250230701, -0.117, -0.115, -3.689, 0.05, -0.115, -0.113, -3.621, 0.05
 250431454, -0.12, -0.117, -3.748, 0.05, -0.117, -0.115, -3.689, 0.05
 250631374, -0.122, -0.119, -3.801, 0.05, -0.12, -0.117, -3.748, 0.05
 250831294, -0.125, -0.121, -3.848, 0.05, -0.122, -0.119, -3.801, 0.05
 251031214, -0.127, -0.125, -3.888, 0.05, -0.125, -0.121, -3.848, 0.05
 251231134, -0.129, -0.128, -3.924, 0.05, -0.127, -0.125, -3.888, 0.05
 251431054, -0.13, -0.132, -3.956, 0.05, -0.129, -0.128, -3.924, 0.05
 251630974, -0.131, -0.135, -3.983, 0.05, -0.13, -0.132, -3.956, 0.05
 251830894, -0.132, -0.139, -4.007, 0.05, -0.131, -0.135, -3.983, 0.05
 252030814, -0.133, -0.143, -4.028, 0.05, -0.132, -0.139, -4.007, 0.05
 252230734, -0.133, -0.147, -4.046, 0.05, -0.133, -0.143, -4.028, 0.05
 252430654, -0.134, -0.15, -4.062, 0.05, -0.133, -0.147, -4.046, 0.05
 252631407, -0.134, -0.151, -4.076, 0.05, -0.134, -0.15, -4.062, 0.05
 252831327, -0.135, -0.151, -4.089, 0.05, -0.134, -0.151, -4.076, 0.05
 253031247, -0.135, -0.149, -4.1, 0.05, -0.135, -0.151, -4.089, 0.05
 253231167, -0.136, -0.147, -4.11, 0.05, -0.135, -0.149, -4.1, 0.05
 253431087, -0.136, -0.144, -4.119, 0.05, -0.136, -0.147, -4.11, 0.05
 253631007, -0.136, -0.141, -4.126, 0.05, -0.136, -0.144, -4.119, 0.05
 253830927, -0.136, -0.137, -4.133, 0.05, -0.136, -0.141, -4.126, 0.05
 254030847, -0.136, -0.133, -4.139, 0.05, -0.136, -0.137, -4.133, 0.05
 254230767, -0.136, -0.129, -4.144, 0.05, -0.136, -0.133, -4.139, 0.05
 254430687, -0.135, -0.126, -4.091, 0.05, -0.136, -0.129, -4.144, 0.05
 254631440, -0.13, -0.122, -3.497, 0.05, -0.135, -0.126, -4.091, 0.05
 254831360, -0.125, -0.119, -2.919, 0.05, -0.13, -0.122, -3.497, 0.05
 255031280, -0.121, -0.117, -2.412, 0.05, -0.125, -0.119, -2.919, 0.05
 255231200, -0.117, -0.115, -1.966, 0.05, -0.121, -0.117, -2.412, 0.05
 255431120, -0.114, -0.114, -1.601, 0.05, -0.117, -0.115, -1.966, 0.05
 255631040, -0.108, -0.111, -1.349, 0.05, -0.114, -0.114, -1.601, 0.05
 255830960, -0.094, -0.101, -1.14, 0.05, -0.108, -0.111, -1.349, 0.05
 256030880, -0.07600001, -0.08800001, -0.9490001, 0.05, -0.094, -0.101, -1.14, 0.05
 256230800, -0.059, -0.07600001, -0.7640001, 0.05, -0.07600001, -0.08800001, -0.9490001, 0.05
 256430720, -0.046, -0.064, -0.596, 0.05, -0.059, -0.07600001, -0.7640001, 0.05
 256631473, -0.035, -0.047, -0.453, 0.05, -0.046, -0.064, -0.596, 0.05
 256831393, -0.026, -0.025, -0.337, 0.05, -0.035, -0.047, -0.453, 0.05
 257031313, -0.017, -0.003, -0.246, 0.05, -0.026, -0.025, -0.337, 0.05
 257231233, -0.011, 0.018, -0.177, 0.05, -0.017, -0.003, -0.246, 0.05
 257431153, -0.007, 0.036, -0.126, 0.05, -0.011, 0.018, -0.177, 0.05
 257631073, -0.004, 0.051, -0.08800001, 0.05, -0.007, 0.036, -0.126, 0.05
 257830993, -0.001, 0.062, -0.061, 0.05, -0.004, 0.051, -0.08800001, 0.05
 258030913, 0, 0.071, -0.04, 0.05, -0.001, 0.062, -0.061, 0.05
 258230833, 0.001, 0.07600001, -0.025, 0.05, 0, 0.071, -0.04, 0.05
 258430753, 0.001, 0.078, -0.014, 0.05, 0.001, 0.07600001, -0.025, 0.05
 258630673, 0, 0.07700001, -0.006, 0.05, 0.001, 0.078, -0.014, 0.05
 258831426, -0.001, 0.075, 0, 0.05, 0, 0.07700001, -0.006, 0.05
 259031346, -0.001, 0.072, 0.004, 0.05, -0.001, 0.075, 0, 0.05
 259231266, 0, 0.068, 0.008, 0.05, -0.001, 0.072, 0.004, 0.05
 259431186, 0, 0.063, 0.01, 0.05, 0, 0.068, 0.008, 0.05
 259631106, -0.001, 0.057, 0.012, 0.05, 0, 0.063, 0.01, 0.05
 259831026, -0.002, 0.051, 0.013, 0.05, -0.001, 0.057, 0.012, 0.05
 260030946, -0.003, 0.045, 0.014, 0.05, -0.002, 0.051, 0.013, 0.05
 260230866, -0.004, 0.039, 0.015, 0.05, -0.003, 0.045, 0.014, 0.05
 260430786, -0.006, 0.033, 0.015, 0.05, -0.004, 0.039, 0.015, 0.05
 260630706, -0.006, 0.029, 0.015, 0.05, -0.006, 0.033, 0.015, 0.05
 260831459, -0.005, 0.028, 0.015, 0.05, -0.006, 0.029, 0.015, 0.05
 261031379, -0.004, 0.026, 0.014, 0.05, -0.005, 0.028, 0.015, 0.05
 261231299, -0.004, 0.025, 0.012, 0.05, -0.004, 0.026, 0.014, 0.05
 261431219, -0.003, 0.023, 0.011, 0.05, -0.004, 0.025, 0.012, 0.05
 261631139, -0.002, 0.021, 0.01, 0.05, -0.003, 0.023, 0.011, 0.05
 261831059, -0.001, 0.02, 0.009000001, 0.05, -0.002, 0.021, 0.01, 0.05
 262030979, -0.001, 0.018, 0.008, 0.05, -0.001, 0.02, 0.009000001, 0.05
 262230899, 0, 5E-05, 0.007, 0.05, -0.001, 0.018, 0.008, 0.05
 262430819, 0, 5E-05, 0.006, 0.05, 0, 5E-05, 0.007, 0.05
 262630739, 0, 5E-05, 0.005, 0.05, 0, 5E-05, 0.006, 0.05
 262830659, 0, 5E-05, 0.004, 0.05, 0, 5E-05, 0.005, 0.05
 263031412, 0, 5E-05, 0.003, 0.05, 0, 5E-05, 0.004, 0.05
 263231332, 0, 5E-05, 0.003, 0.05, 0, 5E-05, 0.003, 0.05
 263431252, 0, 5E-05, 0.002, 0.05, 0, 5E-05, 0.003, 0.05
 263631172, 0, 5E-05, 0.002, 0.05, 0, 5E-05, 0.002, 0.05
 263831092, 0, 5E-05, 0.001, 0.05, 0, 5E-05, 0.002, 0.05
 264031012, 0, 5E-05, 0.001, 0.05, 0, 5E-05, 0.001, 0.05
 264230932, 0, 5E-05, 0.001, 0.05, 0, 5E-05, 0.001, 0.05
 264430852, 0, 5E-05, 0, 0.05, 0, 5E-05, 0.001, 0.05
 264630772, 0, 5E-05, 0, 0.05, 0, 5E-05, 0, 0.05
 264830692, 0, 5E-05, -0.001, 0.05, 0, 5E-05, 0, 0.05
 265031445, 0, 5E-05, -0.001, 0.05, 0, 5E-05, -0.001, 0.05
 265231365, 0, 5E-05, -0.002, 0.05, 0, 5E-05, -0.001, 0.05
 265431285, 0, 5E-05, -0.002, 0.05, 0, 5E-05, -0.002, 0.05
 265631205, 0, 5E-05, -0.003, 0.05, 0, 5E-05, -0.002, 0.05
 265831125, 0, 5E-05, -0.003, 0.05, 0, 5E-05, -0.003, 0.05
 266031045, 0, 5E-05, -0.003, 0.05, 0, 5E-05, -0.003, 0.05
 266230965, 0, 5E-05, -0.004, 0.05, 0, 5E-05, -0.003, 0.05
 266430885, 0, 5E-05, -0.004, 0.05, 0, 5E-05, -0.004, 0.05
 266630805, 0, 5E-05, -0.004, 0.05, 0, 5E-05, -0.004, 0.05
 266830725, 0, 5E-05, -0.004, 0.05, 0, 5E-05, -0.004, 0.05
 267031478, 0, 5E-05, -0.004, 0.05, 0, 5E-05, -0.004, 0.05
 267231398, 0, 5E-05, -0.004, 0.05, 0, 5E-05, -0.004, 0.05
 267431318, 0, 5E-05, -0.004, 0.05, 0, 5E-05, -0.004, 0.05
 267631238, 0, 5E-05, -0.004, 0.05, 0, 5E-05, -0.004, 0.05
 267831158, 0, 5E-05, -0.004, 0.05, 0, 5E-05, -0.004, 0.05
 268031078, 0, 5E-05, -0.004, 0.05, 0, 5E-05, -0.004, 0.05
 268230998, 0, 5E-05, -0.004, 0.05, 0, 5E-05, -0.004, 0.05
 268430918, 0, 5E-05, -0.004, 0.05, 0, 5E-05, -0.004, 0.05
 268630838, 0, 5E-05, -0.005, 0.05, 0, 5E-05, -0.004, 0.05
 268830758, 0, 5E-05, -0.004, 0.05, 0, 5E-05, -0.005, 0.05
 269030678, 0, 5E-05, -0.004, 0.05, 0, 5E-05, -0.004, 0.05
 269231431, 0, 5E-05, -0.004, 0.05, 0, 5E-05, -0.004, 0.05
 269431351, 0, 5E-05, -0.004, 0.05, 0, 5E-05, -0.004, 0.05
 269631271, 0, 5E-05, -0.004, 0.05, 0, 5E-05, -0.004, 0.05
 269831191, 0, 5E-05, -0.004, 0.05, 0, 5E-05, -0.004, 0.05
 270031111, 0, 5E-05, -0.004, 0.05, 0, 5E-05, -0.004, 0.05
 270231031, 0, 5E-05, -0.004, 0.05, 0, 5E-05, -0.004, 0.05
 270430951, 0, 5E-05, -0.004, 0.05, 0, 5E-05, -0.004, 0.05
 270630871, 0, 5E-05, -0.004, 0.05, 0, 5E-05, -0.004, 0.05
 270830791, 0, 5E-05, -0.004, 0.05, 0, 5E-05, -0.004, 0.05
 271030711, 0, 5E-05, -0.004, 0.05, 0, 5E-05, -0.004, 0.05
 271231464, 0, 5E-05, -0.003, 0.05, 0, 5E-05, -0.004, 0.05
 271431384, 0, 5E-05, -0.003, 0.05, 0, 5E-05, -0.003, 0.05
 271631304, 0, 5E-05, -0.003, 0.05, 0, 5E-05, -0.003, 0.05
 271831224, 0, 5E-05, -0.003, 0.05, 0, 5E-05, -0.003, 0.05
 272031144, 0, 5E-05, -0.002, 0.05, 0, 5E-05, -0.003, 0.05
 272231064, 0, 5E-05, -0.003, 0.05, 0, 5E-05, -0.002, 0.05
 272430984, 0, 5E-05, -0.003, 0.05, 0, 5E-05, -0.003, 0.05
 272630904, 0, 5E-05, -0.003, 0.05, 0, 5E-05, -0.003, 0.05
 272830824, 0, 0, -0.003, 0.05, 0, 5E-05, -0.003, 0.05
 273030744, 5E-05, 0, -0.003, 0.05, 0, 0, -0.003, 0.05
 273230664, 5E-05, 0, -0.003, 0.05, 5E-05, 0, -0.003, 0.05
 273431417, 5E-05, 0, -0.003, 0.05, 5E-05, 0, -0.003, 0.05
 273631337, 5E-05, 0, -0.003, 0.05, 5E-05, 0, -0.003, 0.05
 273831257, 5E-05, 0, -0.003, 0.05, 5E-05, 0, -0.003, 0.05
 274031177, 5E-05, 0, -0.002, 0.05, 5E-05, 0, -0.003, 0.05
 274231097, 5E-05, 0, -0.002, 0.05, 5E-05, 0, -0.002, 0.05
 274431017, 5E-05, 0, -0.002, 0.05, 5E-05, 0, -0.002, 0.05
 274630937, 5E-05, 0, -0.002, 0.05, 5E-05, 0, -0.002, 0.05
 274830857, 5E-05, 0, -0.002, 0.05, 5E-05, 0, -0.002, 0.05
 275030777, 5E-05, 0, -0.002, 0.05, 5E-05, 0, -0.002, 0.05
 275230697, 5E-05, 0, -0.002, 0.05, 5E-05, 0, -0.002, 0.05
 275431450, 5E-05, 0, -0.002, 0.05, 5E-05, 0, -0.002, 0.05
 275631370, 5E-05, 0, -0.002, 0.05, 5E-05, 0, -0.002, 0.05
 275831290, 5E-05, 0, -0.002, 0.05, 5E-05, 0, -0.002, 0.05
 276031210, 5E-05, 0, -0.001, 0.05, 5E-05, 0, -0.002, 0.05
 276231130, 5E-05, 0, -0.001, 0.05, 5E-05, 0, -0.001, 0.05
 276431050, 5E-05, 0, -0.001, 0.05, 5E-05, 0, -0.001, 0.05
 276630970, 5E-05, 0, 0, 0.05, 5E-05, 0, -0.001, 0.05
 276830890, 5E-05, 0, 0, 0.05, 5E-05, 0, 0, 0.05
 277030810, 5E-05, 0, 0, 0.05, 5E-05, 0, 0, 0.05
 277230730, 5E-05, 0, 0, 0.05, 5E-05, 0, 0, 0.05
 277431483, 5E-05, 0, 0, 0.05, 5E-05, 0, 0, 0.05
 277631403, 5E-05, 0, 0, 0.05, 5E-05, 0, 0, 0.05
 277831323, 5E-05, 0, 0, 0.05, 5E-05, 0, 0, 0.05
 278031243, 5E-05, 0, 0, 0.05, 5E-05, 0, 0, 0.05
 278231163, 5E-05, 0, 0, 0.05, 5E-05, 0, 0, 0.05
 278431083, 5E-05, 0, 0, 0.05, 5E-05, 0, 0, 0.05
 278631003, 5E-05, 0, 0, 0.05, 5E-05, 0, 0, 0.05
 278830923, 5E-05, 0, 0, 0.05, 5E-05, 0, 0, 0.05
 279030843, 5E-05, 0, 0, 0.05, 5E-05, 0, 0, 0.05
 279230763, 5E-05, 0, 0, 0.05, 5E-05, 0, 0, 0.05
 279430683, 5E-05, 0, 0, 0.05, 5E-05, 0, 0, 0.05
 279631436, 5E-05, 0, 0, 0.05, 5E-05, 0, 0, 0.05
 279831356, 5E-05, 0, 0, 0.05, 5E-05, 0, 0, 0.05
 280031276, 5E-05, 0, 0, 0.05, 5E-05, 0, 0, 0.05
 280231196, 5E-05, 0, 0, 0.05, 5E-05, 0, 0, 0.05
 280431116, 5E-05, 0, 0, 0.05, 5E-05, 0, 0, 0.05
 280631036, 5E-05, 0, 0, 0.05, 5E-05, 0, 0, 0.05
 280830956, 5E-05, 0, 0, 0.05, 5E-05, 0, 0, 0.05
 281030876, 5E-05, 0, 0, 0.05, 5E-05, 0, 0, 0.05
 281230796, 5E-05, 0, 0, 0.05, 5E-05, 0, 0, 0.05
 281430716, 5E-05, 0, 0, 0.05, 5E-05, 0, 0, 0.05
 281631469, 5E-05, 0, 0, 0.05, 5E-05, 0, 0, 0.05
 281831389, 5E-05, 0, 0, 0.05, 5E-05, 0, 0, 0.05
 282031309, 5E-05, 0, 0, 0.05, 5E-05, 0, 0, 0.05
 282231229, 5E-05, 0, 0, 0.05, 5E-05, 0, 0, 0.05
 282431149, 5E-05, 0, 0, 0.05, 5E-05, 0, 0, 0.05
 282631069, 5E-05, 0, -0.001, 0.05, 5E-05, 0, 0, 0.05
 282830989, 5E-05, 0, -0.001, 0.05, 5E-05, 0, -0.001, 0.05
 283030909, 5E-05, 0, -0.001, 0.05, 5E-05, 0, -0.001, 0.05
 283230829, 5E-05, 0, 0, 0.05, 5E-05, 0, -0.001, 0.05
 283430749, 5E-05, -5E-05, 0, 0.05, 5E-05, 0, 0, 0.05
 283630669, 0, -5E-05, 0, 0.05, 5E-05, -5E-05, 0, 0.05
 283831422, 0, -5E-05, 0, 0.05, 0, -5E-05, 0, 0.05
 284031342, 0, -5E-05, 0, 0.05, 0, -5E-05, 0, 0.05
 284231262, 0, -5E-05, 0, 0.05, 0, -5E-05, 0, 0.05
 284431182, 0, -5E-05, 0, 0.05, 0, -5E-05, 0, 0.05
 284631102, 0, -5E-05, 0, 0.05, 0, -5E-05, 0, 0.05
 284831022, 0, -5E-05, 0, 0.05, 0, -5E-05, 0, 0.05
 285030942, 0, -5E-05, 0, 0.05, 0, -5E-05, 0, 0.05
 285230862, 0, -5E-05, 0, 0.05, 0, -5E-05, 0, 0.05
 285430782, 0, -5E-05, 0, 0.05, 0, -5E-05, 0, 0.05
 285630702, 0, -5E-05, 0, 0.05, 0, -5E-05, 0, 0.05
 285831455, 0, -5E-05, 0, 0.05, 0, -5E-05, 0, 0.05
 286031375, 0, -5E-05, 0, 0.05, 0, -5E-05, 0, 0.05
 286231295, 0, -5E-05, 0, 0.05, 0, -5E-05, 0, 0.05
 286431215, 0, -5E-05, 0, 0.05, 0, -5E-05, 0, 0.05
 286631135, 0, -5E-05, 0, 0.05, 0, -5E-05, 0, 0.05
 286831055, 0, -5E-05, 0, 0.05, 0, -5E-05, 0, 0.05
 287030975, 0, -5E-05, 0, 0.05, 0, -5E-05, 0, 0.05
 287230895, 0, -5E-05, 0, 0.05, 0, -5E-05, 0, 0.05
 287430815, 0, -5E-05, 0, 0.05, 0, -5E-05, 0, 0.05
 287630735, 0, -5E-05, 0, 0.05, 0, -5E-05, 0, 0.05
 287830655, 0, -5E-05, 0, 0.05, 0, -5E-05, 0, 0.05
 288031408, 0, -5E-05, 0, 0.05, 0, -5E-05, 0, 0.05
 288231328, 0, -5E-05, 0, 0.05, 0, -5E-05, 0, 0.05
 288431248, 0, -5E-05, -0.001, 0.05, 0, -5E-05, 0, 0.05
 288631168, 0, -5E-05, -0.001, 0.05, 0, -5E-05, -0.001, 0.05
 288831088, 0, -5E-05, -0.001, 0.05, 0, -5E-05, -0.001, 0.05
 289031008, 0, -5E-05, -0.001, 0.05, 0, -5E-05, -0.001, 0.05
 289230928, 0, -5E-05, -0.001, 0.05, 0, -5E-05, -0.001, 0.05
 289430848, 0, -5E-05, 0, 0.05, 0, -5E-05, -0.001, 0.05
 289630768, 0, -5E-05, 0, 0.05, 0, -5E-05, 0, 0.05
 289830688, 0, -5E-05, 0, 0.05, 0, -5E-05, 0, 0.05
 290031441, 0, -5E-05, 0, 0.05, 0, -5E-05, 0, 0.05
 290231361, 0, -5E-05, 0, 0.05, 0, -5E-05, 0, 0.05
 290431281, 0, -5E-05, 0, 0.05, 0, -5E-05, 0, 0.05
 290631201, 0, -5E-05, -0.001, 0.05, 0, -5E-05, 0, 0.05
 290831121, 0, -5E-05, -0.002, 0.05, 0, -5E-05, -0.001, 0.05
 291031041, 0, -5E-05, -0.002, 0.05, 0, -5E-05, -0.002, 0.05
 291230961, 0, -5E-05, -0.002, 0.05, 0, -5E-05, -0.002, 0.05
 291430881, 0, -5E-05, -0.002, 0.05, 0, -5E-05, -0.002, 0.05
 291630801, 0, -5E-05, -0.002, 0.05, 0, -5E-05, -0.002, 0.05
 291830721, 0, -5E-05, -0.002, 0.05, 0, -5E-05, -0.002, 0.05
 292031474, 0, -5E-05, -0.002, 0.05, 0, -5E-05, -0.002, 0.05
 292231394, 0, -5E-05, -0.002, 0.05, 0, -5E-05, -0.002, 0.05
 292431314, 0, -5E-05, -0.001, 0.05, 0, -5E-05, -0.002, 0.05
 292631234, 0, -5E-05, -0.002, 0.05, 0, -5E-05, -0.001, 0.05
 292831154, 0, -5E-05, -0.002, 0.05, 0, -5E-05, -0.002, 0.05
 293031074, 0, -5E-05, -0.002, 0.05, 0, -5E-05, -0.002, 0.05
 293230994, 0, -5E-05, -0.003, 0.05, 0, -5E-05, -0.002, 0.05
 293430914, 0, -5E-05, -0.002, 0.05, 0, -5E-05, -0.003, 0.05
 293630834, 0, -5E-05, -0.002, 0.05, 0, -5E-05, -0.002, 0.05
 293830754, 0, -5E-05, -0.002, 0.05, 0, -5E-05, -0.002, 0.05
 294030674, 0, 0, -0.001, 0.05, 0, -5E-05, -0.002, 0.05
 294231427, -5E-05, 0, -0.001, 0.05, 0, 0, -0.001, 0.05
 294431347, -5E-05, 0, 0, 0.05, -5E-05, 0, -0.001, 0.05
 294631267, -5E-05, 0, 0, 0.05, -5E-05, 0, 0, 0.05
 294831187, -5E-05, 0, 0, 0.05, -5E-05, 0, 0, 0.05
 295031107, -5E-05, 0, 0, 0.05, -5E-05, 0, 0, 0.05
 295231027, -5E-05, 0, 0, 0.05, -5E-05, 0, 0, 0.05
 295430947, -5E-05, 0, 0, 0.05, -5E-05, 0, 0, 0.05
 295630867, -5E-05, 0, 0, 0.05, -5E-05, 0, 0, 0.05
 295830787, -5E-05, 0, 0, 0.05, -5E-05, 0, 0, 0.05
 296030707, -5E-05, 0, 0, 0.05, -5E-05, 0, 0, 0.05
 296231460, -5E-05, 0, 0, 0.05, -5E-05, 0, 0, 0.05
 296431380, -5E-05, 0, 0, 0.05, -5E-05, 0, 0, 0.05
 296631300, -5E-05, 0, 0, 0.05, -5E-05, 0, 0, 0.05
 296831220, -5E-05, 0, 0, 0.05, -5E-05, 0, 0, 0.05
 297031140, -5E-05, 0, 0, 0.05, -5E-05, 0, 0, 0.05
 297231060, -5E-05, 0, -0.001, 0.05, -5E-05, 0, 0, 0.05
 297430980, -5E-05, 0, -0.001, 0.05, -5E-05, 0, -0.001, 0.05
 297630900, -5E-05, 0, -0.001, 0.05, -5E-05, 0, -0.001, 0.05
 297830820, -5E-05, 0, -0.001, 0.05, -5E-05, 0, -0.001, 0.05
 298030740, -5E-05, 0, -0.001, 0.05, -5E-05, 0, -0.001, 0.05
 298230660, -5E-05, 0, 0, 0.05, -5E-05, 0, -0.001, 0.05
 298431413, -5E-05, 0, 0, 0.05, -5E-05, 0, 0, 0.05
 298631333, -5E-05, 0, 0, 0.05, -5E-05, 0, 0, 0.05
 298831253, -5E-05, 0, 0, 0.05, -5E-05, 0, 0, 0.05
 299031173, -5E-05, 0, -0.001, 0.05, -5E-05, 0, 0, 0.05
 299231093, -5E-05, 0, -0.001, 0.05, -5E-05, 0, -0.001, 0.05
 299431013, -5E-05, 0, -0.001, 0.05, -5E-05, 0, -0.001, 0.05
 299630933, -5E-05, 0, -0.002, 0.05, -5E-05, 0, -0.001, 0.05
 299830853, -5E-05, 0, -0.001, 0.05, -5E-05, 0, -0.002, 0.05
 300030773, -5E-05, 0, -0.001, 0.05, -5E-05, 0, -0.001, 0.05
 300230693, -5E-05, 0, -0.001, 0.05, -5E-05, 0, -0.001, 0.05
 300431446, -5E-05, 0, 0, 0.05, -5E-05, 0, -0.001, 0.05
 300631366, -5E-05, 0, 0, 0.05, -5E-05, 0, 0, 0.05
 300831286, -5E-05, 0, -0.001, 0.05, -5E-05, 0, 0, 0.05
 301031206, -5E-05, 0, -0.001, 0.05, -5E-05, 0, -0.001, 0.05
 301231126, -5E-05, 0, -0.001, 0.05, -5E-05, 0, -0.001, 0.05
 301431046, -5E-05, 0, -0.001, 0.05, -5E-05, 0, -0.001, 0.05
 301630966, -5E-05, 0, -0.001, 0.05, -5E-05, 0, -0.001, 0.05
 301830886, -5E-05, 0, -0.001, 0.05, -5E-05, 0, -0.001, 0.05
 302030806, -5E-05, 0, -0.001, 0.05, -5E-05, 0, -0.001, 0.05
 302230726, -5E-05, 0, 0, 0.05, -5E-05, 0, -0.001, 0.05
 302431479, -5E-05, 0, 0, 0.05, -5E-05, 0, 0, 0.05
 302631399, -5E-05, 0, 0, 0.05, -5E-05, 0, 0, 0.05
 302831319, -5E-05, 0, 0, 0.05, -5E-05, 0, 0, 0.05
 303031239, -5E-05, 0, 0, 0.05, -5E-05, 0, 0, 0.05
 303231159, -5E-05, 0, 0, 0.05, -5E-05, 0, 0, 0.05
 303431079, -5E-05, 0, 0, 0.05, -5E-05, 0, 0, 0.05
 303630999, -5E-05, 0, 0, 0.05, -5E-05, 0, 0, 0.05
 303830919, -5E-05, 0, 0, 0.05, -5E-05, 0, 0, 0.05
 304030839, -5E-05, 0, 0, 0.05, -5E-05, 0, 0, 0.05
 304230759, -5E-05, 0, 0.001, 0.05, -5E-05, 0, 0, 0.05
 304430679, -5E-05, 0, 0.001, 0.05, -5E-05, 0, 0.001, 0.05
 304631432, -0.143, 3.12, 0.001, 0.05, -5E-05, 0, 0.001, 0.05
 304831352, -0.148, 3.137, 0.001, 0.05, -0.143, 3.12, 0.001, 0.05
 305031272, -0.153, 3.153, 0.001, 0.05, -0.148, 3.137, 0.001, 0.05
 305231192, -0.162, 3.166, 0, 0.05, -0.153, 3.153, 0.001, 0.05
 305431112, -0.182, 3.172, 0, 0.05, -0.162, 3.166, 0, 0.05
 305631032, -0.214, 3.167, 0.005, 0.05, -0.182, 3.172, 0, 0.05
 305830952, -0.252, 3.15, 0.04, 0.05, -0.214, 3.167, 0.005, 0.05
 306030872, -0.284, 3.097, 0.112, 0.05, -0.252, 3.15, 0.04, 0.05
 306230792, -0.286, 2.84, 0.186, 0.05, -0.284, 3.097, 0.112, 0.05
 306430712, -0.274, 2.483, 0.238, 0.05, -0.286, 2.84, 0.186, 0.05
 306631465, -0.263, 2.152, 0.308, 0.05, -0.274, 2.483, 0.238, 0.05
 306831385, -0.256, 1.876, 0.407, 0.05, -0.263, 2.152, 0.308, 0.05
 307031305, -0.25, 1.645, 0.534, 0.05, -0.256, 1.876, 0.407, 0.05
 307231225, -0.246, 1.444, 0.687, 0.05, -0.25, 1.645, 0.534, 0.05
 307431145, -0.241, 1.264, 0.8650001, 0.05, -0.246, 1.444, 0.687, 0.05
 307631065, -0.235, 1.092, 1.059, 0.05, -0.241, 1.264, 0.8650001, 0.05
 307830985, -0.229, 0.9220001, 1.254, 0.05, -0.235, 1.092, 1.059, 0.05
 308030905, -0.221, 0.752, 1.435, 0.05, -0.229, 0.9220001, 1.254, 0.05
 308230825, -0.213, 0.59, 1.59, 0.05, -0.221, 0.752, 1.435, 0.05
 308430745, -0.205, 0.438, 1.714, 0.05, -0.213, 0.59, 1.59, 0.05
 308630665, -0.198, 0.299, 1.807, 0.05, -0.205, 0.438, 1.714, 0.05
 308831418, -0.191, 0.173, 1.871, 0.05, -0.198, 0.299, 1.807, 0.05
 309031338, -0.185, 0.061, 1.908, 0.05, -0.191, 0.173, 1.871, 0.05
 309231258, -0.18, -0.037, 1.922, 0.05, -0.185, 0.061, 1.908, 0.05
 309431178, -0.175, -0.124, 1.915, 0.05, -0.18, -0.037, 1.922, 0.05
 309631098, -0.171, -0.201, 1.893, 0.05, -0.175, -0.124, 1.915, 0.05
 309831018, -0.167, -0.268, 1.858, 0.05, -0.171, -0.201, 1.893, 0.05
 310030938, -0.163, -0.326, 1.814, 0.05, -0.167, -0.268, 1.858, 0.05
 310230858, -0.16, -0.375, 1.764, 0.05, -0.163, -0.326, 1.814, 0.05
 310430778, -0.156, -0.415, 1.711, 0.05, -0.16, -0.375, 1.764, 0.05
 310630698, -0.153, -0.448, 1.657, 0.05, -0.156, -0.415, 1.711, 0.05
 310831451, -0.149, -0.474, 1.604, 0.05, -0.153, -0.448, 1.657, 0.05
 311031371, -0.146, -0.494, 1.555, 0.05, -0.149, -0.474, 1.604, 0.05
 311231291, -0.142, -0.507, 1.509, 0.05, -0.146, -0.494, 1.555, 0.05
 311431211, -0.139, -0.516, 1.468, 0.05, -0.142, -0.507, 1.509, 0.05
 311631131, -0.136, -0.521, 1.432, 0.05, -0.139, -0.516, 1.468, 0.05
 311831051, -0.133, -0.521, 1.403, 0.05, -0.136, -0.521, 1.432, 0.05
 312030971, -0.129, -0.517, 1.378, 0.05, -0.133, -0.521, 1.403, 0.05
 312230891, -0.125, -0.509, 1.36, 0.05, -0.129, -0.517, 1.378, 0.05
 312430811, -0.122, -0.499, 1.348, 0.05, -0.125, -0.509, 1.36, 0.05
 312630731, -0.119, -0.486, 1.34, 0.05, -0.122, -0.499, 1.348, 0.05
 312831484, -0.116, -0.472, 1.337, 0.05, -0.119, -0.486, 1.34, 0.05
 313031404, -0.113, -0.457, 1.337, 0.05, -0.116, -0.472, 1.337, 0.05
 313231324, -0.111, -0.441, 1.341, 0.05, -0.113, -0.457, 1.337, 0.05
 313431244, -0.108, -0.425, 1.347, 0.05, -0.111, -0.441, 1.341, 0.05
 313631164, -0.106, -0.408, 1.354, 0.05, -0.108, -0.425, 1.347, 0.05
 313831084, -0.104, -0.391, 1.364, 0.05, -0.106, -0.408, 1.354, 0.05
 314031004, -0.103, -0.373, 1.373, 0.05, -0.104, -0.391, 1.364, 0.05
 314230924, -0.101, -0.356, 1.384, 0.05, -0.103, -0.373, 1.373, 0.05
 314430844, -0.1, -0.34, 1.393, 0.05, -0.101, -0.356, 1.384, 0.05
 314630764, -0.09900001, -0.323, 1.402, 0.05, -0.1, -0.34, 1.393, 0.05
 314830684, -0.098, -0.307, 1.411, 0.05, -0.09900001, -0.323, 1.402, 0.05
 315031437, -0.098, -0.291, 1.425, 0.05, -0.098, -0.307, 1.411, 0.05
 315231357, -0.096, -0.274, 1.621, 0.05, -0.098, -0.291, 1.425, 0.05
 315431277, -0.094, -0.256, 1.929, 0.05, -0.096, -0.274, 1.621, 0.05
 315631197, -0.09200001, -0.241, 2.168, 0.05, -0.094, -0.256, 1.929, 0.05
 315831117, -0.09200001, -0.229, 2.288, 0.05, -0.09200001, -0.241, 2.168, 0.05
 316031037, -0.093, -0.219, 2.317, 0.05, -0.09200001, -0.229, 2.288, 0.05
 316230957, -0.094, -0.212, 2.286, 0.05, -0.093, -0.219, 2.317, 0.05
 316430877, -0.096, -0.206, 2.218, 0.05, -0.094, -0.212, 2.286, 0.05
 316630797, -0.09900001, -0.202, 2.126, 0.05, -0.096, -0.206, 2.218, 0.05
 316830717, -0.102, -0.198, 2.02, 0.05, -0.09900001, -0.202, 2.126, 0.05
 317031470, -0.105, -0.195, 1.909, 0.05, -0.102, -0.198, 2.02, 0.05
 317231390, -0.107, -0.192, 1.798, 0.05, -0.105, -0.195, 1.909, 0.05
 317431310, -0.11, -0.189, 1.689, 0.05, -0.107, -0.192, 1.798, 0.05
 317631230, -0.113, -0.186, 1.587, 0.05, -0.11, -0.189, 1.689, 0.05
 317831150, -0.115, -0.184, 1.494, 0.05, -0.113, -0.186, 1.587, 0.05
 318031070, -0.116, -0.18, 1.411, 0.05, -0.115, -0.184, 1.494, 0.05
 318230990, -0.118, -0.177, 1.339, 0.05, -0.116, -0.18, 1.411, 0.05
 318430910, -0.119, -0.173, 1.279, 0.05, -0.118, -0.177, 1.339, 0.05
 318630830, -0.12, -0.169, 1.23, 0.05, -0.119, -0.173, 1.279, 0.05
 318830750, -0.12, -0.165, 1.186, 0.05, -0.12, -0.169, 1.23, 0.05
 319030670, -0.12, -0.16, 1.143, 0.05, -0.12, -0.165, 1.186, 0.05
 319231423, -0.12, -0.156, 1.091, 0.05, -0.12, -0.16, 1.143, 0.05
 319431343, -0.12, -0.151, 1.023, 0.05, -0.12, -0.156, 1.091, 0.05
 319631263, -0.12, -0.147, 0.934, 0.05, -0.12, -0.151, 1.023, 0.05
 319831183, -0.12, -0.143, 0.841, 0.05, -0.12, -0.147, 0.934, 0.05
 320031103, -0.12, -0.139, 0.751, 0.05, -0.12, -0.143, 0.841, 0.05
 320231023, -0.119, -0.134, 0.66, 0.05, -0.12, -0.139, 0.751, 0.05
 320430943, -0.119, -0.131, 0.572, 0.05, -0.119, -0.134, 0.66, 0.05
 320630863, -0.118, -0.127, 0.494, 0.05, -0.119, -0.131, 0.572, 0.05
 320830783, -0.118, -0.123, 0.426, 0.05, -0.118, -0.127, 0.494, 0.05
 321030703, -0.117, -0.119, 0.37, 0.05, -0.118, -0.123, 0.426, 0.05
 321231456, -0.116, -0.116, 0.326, 0.05, -0.117, -0.119, 0.37, 0.05
 321431376, -0.115, -0.113, 0.293, 0.05, -0.116, -0.116, 0.326, 0.05
 321631296, -0.114, -0.11, 0.271, 0.05, -0.115, -0.113, 0.293, 0.05
 321831216, -0.113, -0.106, 0.259, 0.05, -0.114, -0.11, 0.271, 0.05
 322031136, -0.112, -0.103, 0.271, 0.05, -0.113, -0.106, 0.259, 0.05
 322231056, -0.111, -0.1, 0.324, 0.05, -0.112, -0.103, 0.271, 0.05
 322430976, -0.109, -0.098, 0.366, 0.05, -0.111, -0.1, 0.324, 0.05
 322630896, -0.108, -0.09500001, 0.396, 0.05, -0.109, -0.098, 0.366, 0.05
 322830816, -0.107, -0.093, 0.415, 0.05, -0.108, -0.09500001, 0.396, 0.05
 323030736, -0.106, -0.09100001, 0.427, 0.05, -0.107, -0.093, 0.415, 0.05
 323230656, -0.106, -0.089, 0.434, 0.05, -0.106, -0.09100001, 0.427, 0.05
 323431409, -0.105, -0.087, 0.437, 0.05, -0.106, -0.089, 0.434, 0.05
 323631329, -0.105, -0.086, 0.438, 0.05, -0.105, -0.087, 0.437, 0.05
 323831249, -0.104, -0.08400001, 0.438, 0.05, -0.105, -0.086, 0.438, 0.05
 324031169, -0.104, -0.083, 0.438, 0.05, -0.104, -0.08400001, 0.438, 0.05
 324231089, -0.104, -0.082, 0.437, 0.05, -0.104, -0.083, 0.438, 0.05
 324431009, -0.104, -0.081, 0.437, 0.05, -0.104, -0.082, 0.437, 0.05
 324630929, -0.104, -0.081, 0.436, 0.05, -0.104, -0.081, 0.437, 0.05
 324830849, -0.103, -0.08000001, 0.436, 0.05, -0.104, -0.081, 0.436, 0.05
 325030769, -0.102, -0.079, 0.437, 0.05, -0.103, -0.08000001, 0.436, 0.05
 325230689, -0.102, -0.078, 0.436, 0.05, -0.102, -0.079, 0.437, 0.05
 325431442, -0.101, -0.07700001, 0.436, 0.05, -0.102, -0.078, 0.436, 0.05
 325631362, -0.101, -0.07600001, 0.436, 0.05, -0.101, -0.07700001, 0.436, 0.05
 325831282, -0.1, -0.07600001, 0.436, 0.05, -0.101, -0.07600001, 0.436, 0.05
 326031202, -0.1, -0.075, 0.436, 0.05, -0.1, -0.07600001, 0.436, 0.05
 326231122, -0.09900001, -0.074, 0.436, 0.05, -0.1, -0.075, 0.436, 0.05
 326431042, -0.09900001, -0.074, 0.435, 0.05, -0.09900001, -0.074, 0.436, 0.05
 326630962, -0.098, -0.07300001, 0.435, 0.05, -0.09900001, -0.074, 0.435, 0.05
 326830882, -0.098, -0.072, 0.435, 0.05, -0.098, -0.07300001, 0.435, 0.05
 327030802, -0.097, -0.072, 0.435, 0.05, -0.098, -0.072, 0.435, 0.05
 327230722, -0.097, -0.071, 0.435, 0.05, -0.097, -0.072, 0.435, 0.05
 327431475, -0.097, -0.07, 0.435, 0.05, -0.097, -0.071, 0.435, 0.05
 327631395, -0.097, -0.06900001, 0.434, 0.05, -0.097, -0.07, 0.435, 0.05
 327831315, -0.096, -0.068, 0.434, 0.05, -0.097, -0.06900001, 0.434, 0.05
 328031235, -0.096, -0.067, 0.434, 0.05, -0.096, -0.068, 0.434, 0.05
 328231155, -0.096, -0.067, 0.434, 0.05, -0.096, -0.067, 0.434, 0.05
 328431075, -0.09500001, -0.066, 0.434, 0.05, -0.096, -0.067, 0.434, 0.05
 328630995, -0.09500001, -0.066, 0.434, 0.05, -0.09500001, -0.066, 0.434, 0.05
 328830915, -0.094, -0.066, 0.434, 0.05, -0.09500001, -0.066, 0.434, 0.05
 329030835, -0.094, -0.066, 0.434, 0.05, -0.094, -0.066, 0.434, 0.05
 329230755, -0.094, -0.066, 0.434, 0.05, -0.094, -0.066, 0.434, 0.05
 329430675, -0.094, -0.066, 0.434, 0.05, -0.094, -0.066, 0.434, 0.05
 329631428, -0.094, -0.066, 0.434, 0.05, -0.094, -0.066, 0.434, 0.05
 329831348, -0.093, -0.06500001, 0.433, 0.05, -0.094, -0.066, 0.434, 0.05
 330031268, -0.093, -0.06500001, 0.433, 0.05, -0.093, -0.06500001, 0.433, 0.05
 330231188, -0.093, -0.06500001, 0.433, 0.05, -0.093, -0.06500001, 0.433, 0.05
 330431108, -0.09200001, -0.064, 0.432, 0.05, -0.093, -0.06500001, 0.433, 0.05
 330631028, -0.09200001, -0.064, 0.432, 0.05, -0.09200001, -0.064, 0.432, 0.05
 330830948, -0.09100001, -0.064, 0.432, 0.05, -0.09200001, -0.064, 0.432, 0.05
 331030868, -0.09100001, -0.063, 0.432, 0.05, -0.09100001, -0.064, 0.432, 0.05
 331230788, -0.09100001, -0.063, 0.432, 0.05, -0.09100001, -0.063, 0.432, 0.05
 331430708, -0.09100001, -0.062, 0.432, 0.05, -0.09100001, -0.063, 0.432, 0.05
 331631461, -0.09100001, -0.062, 0.432, 0.05, -0.09100001, -0.062, 0.432, 0.05
 331831381, -0.09100001, -0.061, 0.432, 0.05, -0.09100001, -0.062, 0.432, 0.05
 332031301, -0.09100001, -0.06, 0.432, 0.05, -0.09100001, -0.061, 0.432, 0.05
 332231221, -0.09100001, -0.059, 0.432, 0.05, -0.09100001, -0.06, 0.432, 0.05
 332431141, -0.09100001, -0.058, 0.431, 0.05, -0.09100001, -0.059, 0.432, 0.05
 332631061, -0.09100001, -0.058, 0.431, 0.05, -0.09100001, -0.058, 0.431, 0.05
 332830981, -0.09100001, -0.058, 0.431, 0.05, -0.09100001, -0.058, 0.431, 0.05
 333030901, -0.09100001, -0.058, 0.431, 0.05, -0.09100001, -0.058, 0.431, 0.05
 333230821, -0.09100001, -0.059, 0.431, 0.05, -0.09100001, -0.058, 0.431, 0.05
 333430741, -0.09100001, -0.06, 0.431, 0.05, -0.09100001, -0.059, 0.431, 0.05
 333630661, -0.09, -0.06, 0.432, 0.05, -0.09100001, -0.06, 0.431, 0.05
 333831414, -0.089, -0.059, 0.432, 0.05, -0.09, -0.06, 0.432, 0.05
 334031334, -0.08800001, -0.058, 0.432, 0.05, -0.089, -0.059, 0.432, 0.05
 334231254, -0.087, -0.057, 0.432, 0.05, -0.08800001, -0.058, 0.432, 0.05
 334431174, -0.086, -0.056, 0.432, 0.05, -0.087, -0.057, 0.432, 0.05
 334631094, -0.085, -0.055, 0.432, 0.05, -0.086, -0.056, 0.432, 0.05
 334831014, -0.085, -0.055, 0.431, 0.05, -0.085, -0.055, 0.432, 0.05
 335030934, -0.08400001, -0.055, 0.43, 0.05, -0.085, -0.055, 0.431, 0.05
 335230854, -0.08400001, -0.055, 0.429, 0.05, -0.08400001, -0.055, 0.43, 0.05
 335430774, -0.08400001, -0.054, 0.429, 0.05, -0.08400001, -0.055, 0.429, 0.05
 335630694, -0.08400001, -0.054, 0.429, 0.05, -0.08400001, -0.054, 0.429, 0.05
 335831447, -0.08400001, -0.054, 0.429, 0.05, -0.08400001, -0.054, 0.429, 0.05
 336031367, -0.083, -0.054, 0.427, 0.05, -0.08400001, -0.054, 0.429, 0.05
 336231287, -0.083, -0.054, 0.425, 0.05, -0.083, -0.054, 0.427, 0.05
 336431207, -0.083, -0.054, 0.422, 0.05, -0.083, -0.054, 0.425, 0.05
 336631127, -0.082, -0.054, 0.419, 0.05, -0.083, -0.054, 0.422, 0.05
 336831047, -0.081, -0.053, 0.416, 0.05, -0.082, -0.054, 0.419, 0.05
 337030967, -0.08000001, -0.053, 0.416, 0.05, -0.081, -0.053, 0.416, 0.05
 337230887, -0.08000001, -0.052, 0.417, 0.05, -0.08000001, -0.053, 0.416, 0.05
 337430807, -0.079, -0.052, 0.42, 0.05, -0.08000001, -0.052, 0.417, 0.05
 337630727, -0.078, -0.052, 0.423, 0.05, -0.079, -0.052, 0.42, 0.05
 337831480, -0.07700001, -0.052, 0.426, 0.05, -0.078, -0.052, 0.423, 0.05
 338031400, -0.07700001, -0.052, 0.431, 0.05, -0.07700001, -0.052, 0.426, 0.05
 338231320, -0.07700001, -0.053, 0.434, 0.05, -0.07700001, -0.052, 0.431, 0.05
 338431240, -0.07600001, -0.053, 0.438, 0.05, -0.07700001, -0.053, 0.434, 0.05
 338631160, -0.07600001, -0.052, 0.441, 0.05, -0.07600001, -0.053, 0.438, 0.05
 338831080, -0.07600001, -0.052, 0.44, 0.05, -0.07600001, -0.052, 0.441, 0.05
 339031000, -0.07600001, -0.052, 0.439, 0.05, -0.07600001, -0.052, 0.44, 0.05
 339230920, -0.07600001, -0.052, 0.437, 0.05, -0.07600001, -0.052, 0.439, 0.05
 339430840, -0.07600001, -0.051, 0.434, 0.05, -0.07600001, -0.052, 0.437, 0.05
 339630760, -0.07600001, -0.051, 0.431, 0.05, -0.07600001, -0.051, 0.434, 0.05
 339830680, 0.019, 0.012, -0.104, 0.05, -0.07600001, -0.051, 0.431, 0.05
 340031433, 0.008, 0.006, -0.05, 0.05, 0.019, 0.012, -0.104, 0.05
 340231353, -0.003, -0.002, 0.02, 0.05, 0.008, 0.006, -0.05, 0.05
 340431273, 0, -0.001, 0.004, 0.05, -0.003, -0.002, 0.02, 0.05
 340631193, 0, 0, -0.003, 0.05, 0, -0.001, 0.004, 0.05
 340831113, 0, 0, 0, 0.05, 0, 0, -0.003, 0.05
 341031033, 0, 0, 0, 0.05, 0, 0, 0, 0.05
 341230953, 0, 0, 0, 0.05, 0, 0, 0, 0.05
 341430873, 0, 0, 0, 0.05, 0, 0, 0, 0.05
 341630793, 0, 0, 0, 0.05, 0, 0, 0, 0.05
 341830713, 0, 0, 0, 0.05, 0, 0, 0, 0.05
 342031466, 0, 0, 0, 0.05, 0, 0, 0, 0.05
 342231386, 0, 0, 0, 0.05, 0, 0, 0, 0.05
 342431306, 0, 0, 0, 0.05, 0, 0, 0, 0.05
 342631226, 0, 0, 0, 0.05, 0, 0, 0, 0.05
 342831146, 0, 0, 0, 0.05, 0, 0, 0, 0.05
