TimeUS,COFN,COFE,COFD,CNe,CEe,CDe,POFN,POFE,POFD,PNe,PEe,PDe
 170558416, -0.001404112, -0.005250544, 0.002979397, 0.02631734, -0.02654436, 6.259244E-05, 0, 0, 0, 0, 0, 0
 170635885, -0.01908528, 0.01705987, -6.519813E-06, 0.02577881, -0.02624073, 0.1000037, -0.001404112, -0.005250544, 0.002979397, 0.02631734, -0.02654436, 6.259244E-05
 170735845, -0.008758702, 0.01632675, 1.096263E-05, 0.02597837, -0.0262542, 0.1000044, -0.01908528, 0.01705987, -6.519813E-06, 0.02577881, -0.02624073, 0.1000037
 170835805, -0.01714588, 0.02003845, 1.530967E-06, 0.02581313, -0.02618501, 0.1000045, -0.008758702, 0.01632675, 1.096263E-05, 0.02597837, -0.0262542, 0.1000044
 170935765, -0.01152526, -0.002566232, -2.546917E-05, 0.02592151, -0.02664755, 0.100004, -0.01714588, 0.02003845, 1.530967E-06, 0.02581313, -0.02618501, 0.1000045
 171035725, 0.02468484, -0.01950994, 1.329683E-05, 0.02677521, -0.02706228, 0.1000049, -0.01152526, -0.002566232, -2.546917E-05, 0.02592151, -0.02664755, 0.100004
 171135685, 0.00335505, -0.003230861, 8.554562E-07, 0.02623977, -0.02666268, 0.1000046, 0.02468484, -0.01950994, 1.329683E-05, 0.02677521, -0.02706228, 0.1000049
 171236478, -0.004329273, -0.02052639, -4.194854E-05, 0.0260693, -0.02708921, 0.1000036, 0.00335505, -0.003230861, 8.554562E-07, 0.02623977, -0.02666268, 0.1000046
 171336438, 0.01261543, 0.02307966, 6.152524E-05, 0.02646021, -0.02613095, 0.1000059, -0.004329273, -0.02052639, -4.194854E-05, 0.0260693, -0.02708921, 0.1000036
 171436398, -0.006309947, 0.01641848, 1.550149E-05, 0.02602725, -0.02625235, 0.100005, 0.01261543, 0.02307966, 6.152524E-05, 0.02646021, -0.02613095, 0.1000059
 171536358, 0.01036559, 0.006274784, 2.964058E-05, 0.02640461, -0.0264547, 0.1000054, -0.006309947, 0.01641848, 1.550149E-05, 0.02602725, -0.02625235, 0.100005
 171636318, 0.006943675, 0.02190677, 4.926819E-05, 0.0263221, -0.02615197, 0.1000058, 0.01036559, 0.006274784, 2.964058E-05, 0.02640461, -0.0264547, 0.1000054
 171736278, -0.01208286, -0.005347245, -3.142181E-05, 0.02590849, -0.02671184, 0.1000043, 0.006943675, 0.02190677, 4.926819E-05, 0.0263221, -0.02615197, 0.1000058
 171836238, -0.007344974, 0.002364223, -9.841679E-06, 0.02600398, -0.02653769, 0.100005, -0.01208286, -0.005347245, -3.142181E-05, 0.02590849, -0.02671184, 0.1000043
 171936198, -0.009510558, 0.006913643, -6.399702E-06, 0.02595929, -0.0264407, 0.1000052, -0.007344974, 0.002364223, -9.841679E-06, 0.02600398, -0.02653769, 0.100005
 172036158, -0.01467977, -0.0116527, -4.685586E-05, 0.02585686, -0.0268624, 0.1000043, -0.009510558, 0.006913643, -6.399702E-06, 0.02595929, -0.0264407, 0.1000052
 172136118, 0.009937458, -0.003183836, 1.342029E-05, 0.02639224, -0.02666129, 0.1000057, -0.01467977, -0.0116527, -4.685586E-05, 0.02585686, -0.0268624, 0.1000043
 172236078, 0.02271223, -0.00365201, 3.673866E-05, 0.02671861, -0.02667204, 0.1000064, 0.009937458, -0.003183836, 1.342029E-05, 0.02639224, -0.02666129, 0.1000057
 172336038, 0.01729855, 0.01124145, 5.126615E-05, 0.02657613, -0.02635275, 0.1000065, 0.02271223, -0.00365201, 3.673866E-05, 0.02671861, -0.02667204, 0.1000064
 172435998, 0.008385025, 0.01875405, 4.70376E-05, 0.0263547, -0.02620894, 0.1000062, 0.01729855, 0.01124145, 5.126615E-05, 0.02657613, -0.02635275, 0.1000065
 172535958, 0.008709343, -0.006054788, 6.284135E-06, 0.02636301, -0.02672849, 0.1000053, 0.008385025, 0.01875405, 4.70376E-05, 0.0263547, -0.02620894, 0.1000062
 172635918, 0.005058144, -0.02364368, -2.981322E-05, 0.02627716, -0.02717259, 0.1000043, 0.008709343, -0.006054788, 6.284135E-06, 0.02636301, -0.02672849, 0.1000053
 172735878, -0.01929644, -0.01089408, -5.402962E-05, 0.02577145, -0.02684385, 0.1000039, 0.005058144, -0.02364368, -2.981322E-05, 0.02627716, -0.02717259, 0.1000043
 172835838, 0.02492991, -0.005553382, 3.717856E-05, 0.02678098, -0.02671567, 0.1000059, -0.01929644, -0.01089408, -5.402962E-05, 0.02577145, -0.02684385, 0.1000039
 172935798, 0.01839069, -0.0230048, -4.019996E-06, 0.02660754, -0.02715477, 0.1000045, 0.02492991, -0.005553382, 3.717856E-05, 0.02678098, -0.02671567, 0.1000059
 173035758, -0.02356355, -0.01658069, -7.083396E-05, 0.02569726, -0.02698665, 0.1000028, 0.01839069, -0.0230048, -4.019996E-06, 0.02660754, -0.02715477, 0.1000045
 173135718, 0.01981006, 0.003620027, 4.247081E-05, 0.02664519, -0.0265106, 0.1000054, -0.02356355, -0.01658069, -7.083396E-05, 0.02569726, -0.02698665, 0.1000028
 173235678, -0.0145736, -0.0128567, -4.810588E-05, 0.02586207, -0.02689237, 0.1000034, 0.01981006, 0.003620027, 4.247081E-05, 0.02664519, -0.0265106, 0.1000054
 173336471, 0.01569874, 0.004119079, 3.572882E-05, 0.02653868, -0.02649968, 0.1000054, -0.0145736, -0.0128567, -4.810588E-05, 0.02586207, -0.02689237, 0.1000034
 173436431, 0.006837105, -0.01304869, -8.912401E-06, 0.02632141, -0.02689666, 0.1000044, 0.01569874, 0.004119079, 3.572882E-05, 0.02653868, -0.02649968, 0.1000054
 173536391, -0.004515438, -0.02514407, -4.991094E-05, 0.0260661, -0.02721349, 0.1000032, 0.006837105, -0.01304869, -8.912401E-06, 0.02632141, -0.02689666, 0.1000044
 173636351, 0.008861668, -0.01580305, -9.934312E-06, 0.02636953, -0.02696744, 0.100004, -0.004515438, -0.02514407, -4.991094E-05, 0.0260661, -0.02721349, 0.1000032
 173736311, 0.004681356, -0.02168669, -2.743037E-05, 0.02627079, -0.02712092, 0.1000035, 0.008861668, -0.01580305, -9.934312E-06, 0.02636953, -0.02696744, 0.100004
 173836271, -0.02345919, -0.0123369, -6.370072E-05, 0.02569868, -0.026881, 0.1000028, 0.004681356, -0.02168669, -2.743037E-05, 0.02627079, -0.02712092, 0.1000035
 173936231, -0.007317555, -0.008859671, -2.815869E-05, 0.02600752, -0.02679585, 0.1000035, -0.02345919, -0.0123369, -6.370072E-05, 0.02569868, -0.026881, 0.1000028
 174036191, 0.009609648, 0.01773475, 4.704153E-05, 0.02638807, -0.02622838, 0.1000051, -0.007317555, -0.008859671, -2.815869E-05, 0.02600752, -0.02679585, 0.1000035
 174136151, 0.005834629, -0.01632347, -1.634486E-05, 0.02629847, -0.02698043, 0.1000037, 0.009609648, 0.01773475, 4.704153E-05, 0.02638807, -0.02622838, 0.1000051
 174236111, -0.0246293, 0.0212029, -9.999927E-06, 0.02567952, -0.02616427, 0.1000039, 0.005834629, -0.01632347, -1.634486E-05, 0.02629847, -0.02698043, 0.1000037
 174336071, 0.01952805, 0.02439625, 7.602228E-05, 0.02663818, -0.0261082, 0.1000058, -0.0246293, 0.0212029, -9.999927E-06, 0.02567952, -0.02616427, 0.1000039
 174436031, -0.0127164, -0.01051653, -4.063542E-05, 0.02589893, -0.02683508, 0.1000033, 0.01952805, 0.02439625, 7.602228E-05, 0.02663818, -0.0261082, 0.1000058
 174535991, -0.003086757, 0.02512184, 3.575549E-05, 0.02609741, -0.0260952, 0.100005, -0.0127164, -0.01051653, -4.063542E-05, 0.02589893, -0.02683508, 0.1000033
 174635951, -0.01068489, -0.01389894, -4.244731E-05, 0.02593912, -0.02691826, 0.1000034, -0.003086757, 0.02512184, 3.575549E-05, 0.02609741, -0.0260952, 0.100005
 174735911, 0.004640201, -0.003646369, 2.507071E-06, 0.02627046, -0.0266717, 0.1000045, -0.01068489, -0.01389894, -4.244731E-05, 0.02593912, -0.02691826, 0.1000034
 174835871, 0.003863642, 0.01506267, 3.179754E-05, 0.02625242, -0.02627717, 0.1000052, 0.004640201, -0.003646369, 2.507071E-06, 0.02627046, -0.0266717, 0.1000045
 174935831, -0.006862063, -0.01280635, -3.355524E-05, 0.02601735, -0.02689028, 0.1000038, 0.003863642, 0.01506267, 3.179754E-05, 0.02625242, -0.02627717, 0.1000052
 175035791, 0.01401344, -0.01676249, -1.815148E-06, 0.02649695, -0.02698994, 0.1000045, -0.006862063, -0.01280635, -3.355524E-05, 0.02601735, -0.02689028, 0.1000038
 175135751, -0.01642654, -0.02118585, -6.471706E-05, 0.02582735, -0.02710548, 0.1000031, 0.01401344, -0.01676249, -1.815148E-06, 0.02649695, -0.02698994, 0.1000045
 175235711, -0.02368922, -0.003677964, -4.93764E-05, 0.02569546, -0.02667173, 0.1000036, -0.01642654, -0.02118585, -6.471706E-05, 0.02582735, -0.02710548, 0.1000031
 175335671, 0.02506424, -0.004389474, 3.875057E-05, 0.02678641, -0.02668797, 0.1000057, -0.02368922, -0.003677964, -4.93764E-05, 0.02569546, -0.02667173, 0.1000036
 175436464, 0.01795609, 0.01809699, 6.249789E-05, 0.02659686, -0.02621928, 0.1000061, 0.02506424, -0.004389474, 3.875057E-05, 0.02678641, -0.02668797, 0.1000057
 175536424, -0.001209109, 0.02461973, 3.798042E-05, 0.0261381, -0.02610222, 0.1000055, 0.01795609, 0.01809699, 6.249789E-05, 0.02659686, -0.02621928, 0.1000061
 175636384, -0.0148474, -0.01892387, -5.812916E-05, 0.02585701, -0.02704528, 0.1000035, -0.001209109, 0.02461973, 3.798042E-05, 0.0261381, -0.02610222, 0.1000055
 175736344, 0.02489269, 0.02360654, 8.408604E-05, 0.02678136, -0.02611941, 0.1000068, -0.0148474, -0.01892387, -5.812916E-05, 0.02585701, -0.02704528, 0.1000035
 175836304, 0.02528062, -0.005056301, 3.816588E-05, 0.02679234, -0.02670215, 0.100006, 0.02489269, 0.02360654, 8.408604E-05, 0.02678136, -0.02611941, 0.1000068
 175936264, 0.01836224, 0.01524298, 5.843372E-05, 0.0266077, -0.02627186, 0.1000063, 0.02528062, -0.005056301, 3.816588E-05, 0.02679234, -0.02670215, 0.100006
 176036224, 0.005147048, -0.01040084, -7.465081E-06, 0.02628256, -0.02682924, 0.1000048, 0.01836224, 0.01524298, 5.843372E-05, 0.0266077, -0.02627186, 0.1000063
 176136184, 0.002926277, -0.01400199, -1.741753E-05, 0.02623066, -0.02691859, 0.1000046, 0.005147048, -0.01040084, -7.465081E-06, 0.02628256, -0.02682924, 0.1000048
 176236144, -0.01979544, -0.00336091, -4.205775E-05, 0.02576368, -0.02666363, 0.1000043, 0.002926277, -0.01400199, -1.741753E-05, 0.02623066, -0.02691859, 0.1000046
 176336104, -0.0117596, -0.01291935, -4.286071E-05, 0.02591628, -0.02689198, 0.1000043, -0.01979544, -0.00336091, -4.205775E-05, 0.02576368, -0.02666363, 0.1000043
 176436064, -0.01429, 0.01718424, 1.582441E-06, 0.0258665, -0.02623561, 0.1000053, -0.0117596, -0.01291935, -4.286071E-05, 0.02591628, -0.02689198, 0.1000043
 176536024, 0.0004235386, 0.01574152, 2.656163E-05, 0.02617282, -0.02626315, 0.1000058, -0.01429, 0.01718424, 1.582441E-06, 0.0258665, -0.02623561, 0.1000053
 176635984, -0.01102619, -0.006611708, -3.131755E-05, 0.02593057, -0.0267397, 0.1000045, 0.0004235386, 0.01574152, 2.656163E-05, 0.02617282, -0.02626315, 0.1000058
 176735944, 0.003596088, 0.006736206, 1.771372E-05, 0.02624475, -0.0264428, 0.1000056, -0.01102619, -0.006611708, -3.131755E-05, 0.02593057, -0.0267397, 0.1000045
 176835904, -2.879162E-05, 0.01994378, 3.259401E-05, 0.02616283, -0.02618468, 0.1000059, 0.003596088, 0.006736206, 1.771372E-05, 0.02624475, -0.0264428, 0.1000056
 176935864, 0.01907466, -0.0213736, 3.60109E-07, 0.0266248, -0.02710966, 0.1000052, -2.879162E-05, 0.01994378, 3.259401E-05, 0.02616283, -0.02618468, 0.1000059
 177035824, -0.004315215, -0.01320746, -2.971723E-05, 0.02606951, -0.02689965, 0.1000044, 0.01907466, -0.0213736, 3.60109E-07, 0.0266248, -0.02710966, 0.1000052
 177135784, -0.02405782, 0.01765206, -1.6042E-05, 0.02568665, -0.02622647, 0.1000053, -0.004315215, -0.01320746, -2.971723E-05, 0.02606951, -0.02689965, 0.1000044
 177235744, -0.01651018, -0.0004363446, -3.168902E-05, 0.02582246, -0.02659626, 0.1000054, -0.02405782, 0.01765206, -1.6042E-05, 0.02568665, -0.02622647, 0.1000053
 177335704, -0.02342717, -0.01573192, -6.973518E-05, 0.02569605, -0.02696177, 0.1000046, -0.01651018, -0.0004363446, -3.168902E-05, 0.02582246, -0.02659626, 0.1000054
 177435664, -0.003998321, 0.003618907, -1.645797E-06, 0.02607359, -0.02650752, 0.1000062, -0.02342717, -0.01573192, -6.973518E-05, 0.02569605, -0.02696177, 0.1000046
 177536457, 0.003786071, 0.01251104, 2.756815E-05, 0.02624676, -0.02632445, 0.1000067, -0.003998321, 0.003618907, -1.645797E-06, 0.02607359, -0.02650752, 0.1000062
 177636417, 0.01880798, -0.01755082, 6.798869E-06, 0.02661554, -0.02700824, 0.1000063, 0.003786071, 0.01251104, 2.756815E-05, 0.02624676, -0.02632445, 0.1000067
 177736377, 0.01382435, -0.002934902, 2.120601E-05, 0.02648862, -0.0266526, 0.1000066, 0.01880798, -0.01755082, 6.798869E-06, 0.02661554, -0.02700824, 0.1000063
 177836337, -0.01024269, -0.01788736, -4.831704E-05, 0.02594508, -0.02701662, 0.1000049, 0.01382435, -0.002934902, 2.120601E-05, 0.02648862, -0.0266526, 0.1000066
 177936297, 0.00498199, -0.005308343, 6.882492E-07, 0.02627628, -0.02670666, 0.1000059, -0.01024269, -0.01788736, -4.831704E-05, 0.02594508, -0.02701662, 0.1000049
 178036257, -0.007553109, 0.02523877, 2.677047E-05, 0.02600156, -0.02608874, 0.1000064, 0.00498199, -0.005308343, 6.882492E-07, 0.02627628, -0.02670666, 0.1000059
 178136217, 0.02202844, -0.008757675, 2.671059E-05, 0.02670318, -0.0267881, 0.1000064, -0.007553109, 0.02523877, 2.677047E-05, 0.02600156, -0.02608874, 0.1000064
 178236177, -0.02544836, 0.00956541, -3.16744E-05, 0.02566402, -0.02638252, 0.100005, 0.02202844, -0.008757675, 2.671059E-05, 0.02670318, -0.0267881, 0.1000064
 178336137, 0.00854391, 0.02432848, 5.516492E-05, 0.02636166, -0.0261048, 0.1000067, -0.02544836, 0.00956541, -3.16744E-05, 0.02566402, -0.02638252, 0.100005
 178436097, 0.0114706, 0.02182628, 5.640721E-05, 0.0264331, -0.02614849, 0.1000068, 0.00854391, 0.02432848, 5.516492E-05, 0.02636166, -0.0261048, 0.1000067
 178536057, 0.02051354, -0.001748078, 3.499701E-05, 0.02666393, -0.02662418, 0.1000065, 0.0114706, 0.02182628, 5.640721E-05, 0.0264331, -0.02614849, 0.1000068
 178636017, -0.01172826, -0.02022147, -5.40689E-05, 0.02591818, -0.02707587, 0.1000045, 0.02051354, -0.001748078, 3.499701E-05, 0.02666393, -0.02662418, 0.1000065
 178735977, -0.01814208, -0.0172891, -6.108421E-05, 0.02579512, -0.02699919, 0.1000044, -0.01172826, -0.02022147, -5.40689E-05, 0.02591818, -0.02707587, 0.1000045
 178835937, -0.002492073, 0.008020327, 8.235365E-06, 0.02611059, -0.02641202, 0.100006, -0.01814208, -0.0172891, -6.108421E-05, 0.02579512, -0.02699919, 0.1000044
 178935897, -0.02041937, -0.01060148, -5.439814E-05, 0.02575387, -0.0268309, 0.1000047, -0.002492073, 0.008020327, 8.235365E-06, 0.02611059, -0.02641202, 0.100006
 179035857, -0.01134297, 0.003255118, -1.559483E-05, 0.02592682, -0.02651213, 0.1000055, -0.02041937, -0.01060148, -5.439814E-05, 0.02575387, -0.0268309, 0.1000047
 179135817, 0.01784166, 0.008079561, 4.552562E-05, 0.02659527, -0.02641069, 0.1000067, -0.01134297, 0.003255118, -1.559483E-05, 0.02592682, -0.02651213, 0.1000055
 179235777, -0.0009723136, -0.02400832, -4.013323E-05, 0.0261448, -0.0271764, 0.1000046, 0.01784166, 0.008079561, 4.552562E-05, 0.02659527, -0.02641069, 0.1000067
 179335737, 0.01045272, 0.0075405, 3.115219E-05, 0.02641005, -0.02642233, 0.1000061, -0.0009723136, -0.02400832, -4.013323E-05, 0.0261448, -0.0271764, 0.1000046
 179435697, 0.02107088, 0.0253951, 7.917249E-05, 0.02668016, -0.02608549, 0.100007, 0.01045272, 0.0075405, 3.115219E-05, 0.02641005, -0.02642233, 0.1000061
 179535657, 0.02269745, 0.0140113, 6.392396E-05, 0.02672359, -0.02629315, 0.1000068, 0.02107088, 0.0253951, 7.917249E-05, 0.02668016, -0.02608549, 0.100007
 179636450, -0.003511769, -0.02313928, -4.355432E-05, 0.02608966, -0.0271537, 0.1000042, 0.02269745, 0.0140113, 6.392396E-05, 0.02672359, -0.02629315, 0.1000068
 179736410, 0.01598609, 0.01202995, 4.846518E-05, 0.02654834, -0.02633232, 0.1000062, -0.003511769, -0.02313928, -4.355432E-05, 0.02608966, -0.0271537, 0.1000042
 179836370, 0.005328543, -0.02109363, -2.431327E-05, 0.02628866, -0.0270996, 0.1000043, 0.01598609, 0.01202995, 4.846518E-05, 0.02654834, -0.02633232, 0.1000062
 179936330, -0.007519418, 0.02424382, 2.565323E-05, 0.02600578, -0.02610691, 0.1000051, 0.005328543, -0.02109363, -2.431327E-05, 0.02628866, -0.0270996, 0.1000043
 180036290, 0.01155222, 0.01597849, 4.712513E-05, 0.02643745, -0.02625817, 0.1000054, -0.007519418, 0.02424382, 2.565323E-05, 0.02600578, -0.02610691, 0.1000051
 180136250, 0.008596705, -0.01194246, -3.824602E-06, 0.02636543, -0.02686739, 0.1000044, 0.01155222, 0.01597849, 4.712513E-05, 0.02643745, -0.02625817, 0.1000054
 180236210, -0.01490125, 0.02365527, 1.139418E-05, 0.02585776, -0.02611807, 0.1000048, 0.008596705, -0.01194246, -3.824602E-06, 0.02636543, -0.02686739, 0.1000044
 180336170, -0.0252053, -0.0240261, -8.514938E-05, 0.02567038, -0.02718028, 0.1000028, -0.01490125, 0.02365527, 1.139418E-05, 0.02585776, -0.02611807, 0.1000048
 180436130, 0.01093017, -0.0164614, -6.828104E-06, 0.02642193, -0.02698022, 0.1000045, -0.0252053, -0.0240261, -8.514938E-05, 0.02567038, -0.02718028, 0.1000028
 180536090, -0.0238372, -0.008263854, -5.690597E-05, 0.02569434, -0.0267773, 0.1000036, 0.01093017, -0.0164614, -6.828104E-06, 0.02642193, -0.02698022, 0.1000045
 180636050, 0.01938394, -0.01923705, 4.140329E-06, 0.02663603, -0.02705171, 0.1000049, -0.0238372, -0.008263854, -5.690597E-05, 0.02569434, -0.0267773, 0.1000036
 180736010, -0.01870027, -0.007591437, -4.639362E-05, 0.02578686, -0.02676141, 0.1000036, 0.01938394, -0.01923705, 4.140329E-06, 0.02663603, -0.02705171, 0.1000049
 180835970, 0.005773655, -0.006580608, -2.405695E-07, 0.02629939, -0.02673766, 0.1000044, -0.01870027, -0.007591437, -4.639362E-05, 0.02578686, -0.02676141, 0.1000036
 180935930, -0.01831342, 0.01183497, -1.394243E-05, 0.02579452, -0.02633834, 0.1000041, 0.005773655, -0.006580608, -2.405695E-07, 0.02629939, -0.02673766, 0.1000044
 181035890, 0.0222382, 0.00585152, 5.001182E-05, 0.02671228, -0.02646109, 0.1000055, -0.01831342, 0.01183497, -1.394243E-05, 0.02579452, -0.02633834, 0.1000041
 181135850, 0.02134213, -0.007380984, 2.673556E-05, 0.02668833, -0.02675746, 0.1000049, 0.0222382, 0.00585152, 5.001182E-05, 0.02671228, -0.02646109, 0.1000055
 181235810, -0.01784839, 0.01308698, -1.101911E-05, 0.02580281, -0.02631441, 0.100004, 0.02134213, -0.007380984, 2.673556E-05, 0.02668833, -0.02675746, 0.1000049
 181335770, 0.003692244, 0.01250148, 2.725525E-05, 0.02625058, -0.02632593, 0.1000048, -0.01784839, 0.01308698, -1.101911E-05, 0.02580281, -0.02631441, 0.100004
 181435730, -0.002237304, 0.0004013883, -3.422892E-06, 0.02611773, -0.02657912, 0.1000042, 0.003692244, 0.01250148, 2.725525E-05, 0.02625058, -0.02632593, 0.1000048
 181535690, -0.02000303, -0.001901439, -3.968862E-05, 0.02576257, -0.02663114, 0.1000034, -0.002237304, 0.0004013883, -3.422892E-06, 0.02611773, -0.02657912, 0.1000042
 181636483, -0.008573649, 0.0005470509, -1.479864E-05, 0.02598323, -0.02657665, 0.1000039, -0.02000303, -0.001901439, -3.968862E-05, 0.02576257, -0.02663114, 0.1000034
 181736443, -0.02077282, 0.00302976, -3.309204E-05, 0.0257481, -0.02652246, 0.1000036, -0.008573649, 0.0005470509, -1.479864E-05, 0.02598323, -0.02657665, 0.1000039
 181836403, -0.01197171, -0.01164729, -4.127056E-05, 0.02591415, -0.0268619, 0.1000034, -0.02077282, 0.00302976, -3.309204E-05, 0.0257481, -0.02652246, 0.1000036
 181936363, 0.02051961, 0.02462107, 7.858747E-05, 0.02666485, -0.02610398, 0.1000058, -0.01197171, -0.01164729, -4.127056E-05, 0.02591415, -0.0268619, 0.1000034
 182036323, -0.02438856, -0.006789991, -5.613571E-05, 0.02568397, -0.02674603, 0.1000028, 0.02051961, 0.02462107, 7.858747E-05, 0.02666485, -0.02610398, 0.1000058
 182136283, -0.004357125, -0.0102869, -2.520686E-05, 0.02607069, -0.02683, 0.1000034, -0.02438856, -0.006789991, -5.613571E-05, 0.02568397, -0.02674603, 0.1000028
 182236243, -0.01988059, 0.001967619, -3.335315E-05, 0.0257636, -0.02654743, 0.1000033, -0.004357125, -0.0102869, -2.520686E-05, 0.02607069, -0.02683, 0.1000034
 182336203, -0.01266384, -0.01356304, -4.606788E-05, 0.02590003, -0.02691109, 0.100003, -0.01988059, 0.001967619, -3.335315E-05, 0.0257636, -0.02654743, 0.1000033
 182436163, 0.0057438, 0.006015897, 2.067496E-05, 0.02629635, -0.02646063, 0.1000045, -0.01266384, -0.01356304, -4.606788E-05, 0.02590003, -0.02691109, 0.100003
 182536123, 0.02526908, -0.009944225, 3.013564E-05, 0.0267917, -0.02682211, 0.1000049, 0.0057438, 0.006015897, 2.067496E-05, 0.02629635, -0.02646063, 0.1000045
 182636083, -0.012582, -0.00136192, -2.567602E-05, 0.02590048, -0.02662165, 0.1000036, 0.02526908, -0.009944225, 3.013564E-05, 0.0267917, -0.02682211, 0.1000049
 182736043, -0.004869378, -0.01014069, -2.618239E-05, 0.02605872, -0.02682815, 0.1000032, -0.012582, -0.00136192, -2.567602E-05, 0.02590048, -0.02662165, 0.1000036
 182836003, 0.0106326, -0.01965801, -1.376126E-05, 0.02641287, -0.02706962, 0.1000031, -0.004869378, -0.01014069, -2.618239E-05, 0.02605872, -0.02682815, 0.1000032
 182935963, -0.01816734, -0.002830727, -3.844963E-05, 0.02579429, -0.02665619, 0.1000029, 0.0106326, -0.01965801, -1.376126E-05, 0.02641287, -0.02706962, 0.1000031
 183035923, -0.02450104, -0.01382181, -6.866567E-05, 0.02568058, -0.02691855, 0.1000025, -0.01816734, -0.002830727, -3.844963E-05, 0.02579429, -0.02665619, 0.1000029
 183135883, 0.007357793, -0.02348815, -2.595176E-05, 0.02633431, -0.02717016, 0.1000031, -0.02450104, -0.01382181, -6.866567E-05, 0.02568058, -0.02691855, 0.1000025
 183235843, 0.02153207, -0.004819703, 3.143712E-05, 0.02669197, -0.02670141, 0.1000043, 0.007357793, -0.02348815, -2.595176E-05, 0.02633431, -0.02717016, 0.1000031
 183335803, 0.01604983, 0.01683202, 5.769146E-05, 0.0265494, -0.0262465, 0.1000047, 0.02153207, -0.004819703, 3.143712E-05, 0.02669197, -0.02670141, 0.1000043
 183435763, 0.02219053, -0.02209588, 3.36592E-06, 0.02671048, -0.02713286, 0.1000034, 0.01604983, 0.01683202, 5.769146E-05, 0.0265494, -0.0262465, 0.1000047
 183535723, 0.008768342, 0.00843448, 3.015614E-05, 0.02636952, -0.0264114, 0.100004, 0.02219053, -0.02209588, 3.36592E-06, 0.02671048, -0.02713286, 0.1000034
 183635683, -0.02209058, -0.008344126, -5.42954E-05, 0.02572501, -0.02678425, 0.1000023, 0.008768342, 0.00843448, 3.015614E-05, 0.02636952, -0.0264114, 0.100004
 183736476, -0.01308968, -0.01281847, -4.523763E-05, 0.02589331, -0.02689287, 0.1000025, -0.02209058, -0.008344126, -5.42954E-05, 0.02572501, -0.02678425, 0.1000023
 183836436, -0.003807611, -0.002907234, -1.175219E-05, 0.0260842, -0.02665613, 0.1000032, -0.01308968, -0.01281847, -4.523763E-05, 0.02589331, -0.02689287, 0.1000025
 183936396, -0.01863849, -0.01329896, -5.600598E-05, 0.02578813, -0.02690481, 0.1000022, -0.003807611, -0.002907234, -1.175219E-05, 0.0260842, -0.02665613, 0.1000032
 184036356, -0.004620291, 0.01485977, 1.643729E-05, 0.02606678, -0.02628344, 0.1000036, -0.01863849, -0.01329896, -5.600598E-05, 0.02578813, -0.02690481, 0.1000022
 184136316, -0.02237403, -0.023418, -7.962253E-05, 0.02572062, -0.02716804, 0.1000015, -0.004620291, 0.01485977, 1.643729E-05, 0.02606678, -0.02628344, 0.1000036
 184236276, -0.01432705, 0.01046691, -8.511654E-06, 0.02586986, -0.0263696, 0.1000031, -0.02237403, -0.023418, -7.962253E-05, 0.02572062, -0.02716804, 0.1000015
 184336236, 0.005918439, 0.02213812, 4.777007E-05, 0.02630245, -0.02614938, 0.1000042, -0.01432705, 0.01046691, -8.511654E-06, 0.02586986, -0.0263696, 0.1000031
 184436196, -0.01307109, 0.006488002, -1.281713E-05, 0.02589407, -0.02645238, 0.1000028, 0.005918439, 0.02213812, 4.777007E-05, 0.02630245, -0.02614938, 0.1000042
 184536156, 0.0001461267, -0.02476751, -4.133054E-05, 0.02617073, -0.02720575, 0.1000019, -0.01307109, 0.006488002, -1.281713E-05, 0.02589407, -0.02645238, 0.1000028
 184636116, -0.01746314, -0.02119941, -6.720515E-05, 0.02581032, -0.02711008, 0.1000013, 0.0001461267, -0.02476751, -4.133054E-05, 0.02617073, -0.02720575, 0.1000019
 184736076, -0.005459667, -0.02110847, -4.529285E-05, 0.02604932, -0.02710731, 0.1000018, -0.01746314, -0.02119941, -6.720515E-05, 0.02581032, -0.02711008, 0.1000013
 184836036, -0.0002747212, 0.006097969, 9.719157E-06, 0.02616164, -0.0264605, 0.1000032, -0.005459667, -0.02110847, -4.529285E-05, 0.02604932, -0.02710731, 0.1000018
 184935996, -0.003674946, -0.01242918, -2.744802E-05, 0.02608684, -0.02688416, 0.1000025, -0.0002747212, 0.006097969, 9.719157E-06, 0.02616164, -0.0264605, 0.1000032
 185035956, -0.007381295, -0.02221888, -5.052728E-05, 0.026008, -0.02713628, 0.1000021, -0.003674946, -0.01242918, -2.744802E-05, 0.02608684, -0.02688416, 0.1000025
 185135916, -0.002503593, -0.00345557, -1.032322E-05, 0.02611188, -0.02667023, 0.100003, -0.007381295, -0.02221888, -5.052728E-05, 0.026008, -0.02713628, 0.1000021
 185235876, -0.01702493, 0.01608589, -3.904914E-06, 0.025818, -0.02626105, 0.100003, -0.002503593, -0.00345557, -1.032322E-05, 0.02611188, -0.02667023, 0.100003
 185335836, 0.01539119, -0.01331528, 5.640944E-06, 0.02653292, -0.02690667, 0.1000033, -0.01702493, 0.01608589, -3.904914E-06, 0.025818, -0.02626105, 0.100003
 185435796, 0.01843218, 0.009513178, 4.953927E-05, 0.02661042, -0.02639051, 0.1000044, 0.01539119, -0.01331528, 5.640944E-06, 0.02653292, -0.02690667, 0.1000033
 185535756, 0.01519144, -0.005185854, 1.895689E-05, 0.02652736, -0.02671108, 0.1000036, 0.01843218, 0.009513178, 4.953927E-05, 0.02661042, -0.02639051, 0.1000044
 185635716, -0.01801657, 0.01831003, -1.989752E-06, 0.02579853, -0.02622021, 0.1000031, 0.01519144, -0.005185854, 1.895689E-05, 0.02652736, -0.02671108, 0.1000036
 185735676, 0.0004844291, -0.01775136, -2.89974E-05, 0.02617691, -0.02702005, 0.1000024, -0.01801657, 0.01831003, -1.989752E-06, 0.02579853, -0.02622021, 0.1000031
 185836469, -0.02448348, 0.01666586, -1.651519E-05, 0.02568275, -0.02625093, 0.1000028, 0.0004844291, -0.01775136, -2.89974E-05, 0.02617691, -0.02702005, 0.1000024
 185936429, -0.01617299, 0.01801068, 8.77475E-07, 0.02583338, -0.02622561, 0.1000031, -0.02448348, 0.01666586, -1.651519E-05, 0.02568275, -0.02625093, 0.1000028
 186036389, 0.02290794, 0.006503894, 5.257496E-05, 0.02672919, -0.0264529, 0.1000043, -0.01617299, 0.01801068, 8.77475E-07, 0.02583338, -0.02622561, 0.1000031
 186136349, 0.0131225, -0.02019296, -1.010745E-05, 0.02647557, -0.02708374, 0.1000028, 0.02290794, 0.006503894, 5.257496E-05, 0.02672919, -0.0264529, 0.1000043
 186236309, -0.003999472, -0.009673461, -2.358692E-05, 0.02607881, -0.02681811, 0.1000025, 0.0131225, -0.02019296, -1.010745E-05, 0.02647557, -0.02708374, 0.1000028
 186336269, -0.01734921, -0.006422054, -4.253215E-05, 0.02581056, -0.02674122, 0.1000021, -0.003999472, -0.009673461, -2.358692E-05, 0.02607881, -0.02681811, 0.1000025
 186436229, 0.002380356, -0.01052375, -1.352083E-05, 0.026219, -0.02683997, 0.1000026, -0.01734921, -0.006422054, -4.253215E-05, 0.02581056, -0.02674122, 0.1000021
 186536189, -0.02384116, 0.01277458, -2.195344E-05, 0.02569314, -0.02632683, 0.1000026, 0.002380356, -0.01052375, -1.352083E-05, 0.026219, -0.02683997, 0.1000026
 186636149, 0.01278897, -0.0001724122, 2.311178E-05, 0.02646632, -0.02659777, 0.1000037, -0.02384116, 0.01277458, -2.195344E-05, 0.02569314, -0.02632683, 0.1000026
 186736109, -0.004388215, 0.01217177, 1.251259E-05, 0.02606969, -0.02633807, 0.1000035, 0.01278897, -0.0001724122, 2.311178E-05, 0.02646632, -0.02659777, 0.1000037
 186836069, -0.01088633, 0.02408015, 2.06716E-05, 0.02593535, -0.02611681, 0.1000037, -0.004388215, 0.01217177, 1.251259E-05, 0.02606969, -0.02633807, 0.1000035
 186936029, -0.005864386, 0.001927048, -7.490609E-06, 0.02603858, -0.02655035, 0.1000032, -0.01088633, 0.02408015, 2.06716E-05, 0.02593535, -0.02611681, 0.1000037
 187035989, 0.01481944, 0.006029839, 3.719321E-05, 0.02651745, -0.02646192, 0.1000044, -0.005864386, 0.001927048, -7.490609E-06, 0.02603858, -0.02655035, 0.1000032
 187135949, -0.0129325, -0.0005519526, -2.47131E-05, 0.025894, -0.02660408, 0.1000034, 0.01481944, 0.006029839, 3.719321E-05, 0.02651745, -0.02646192, 0.1000044
 187235909, 0.0203401, 0.01408326, 6.112277E-05, 0.02665775, -0.02629847, 0.1000057, -0.0129325, -0.0005519526, -2.47131E-05, 0.025894, -0.02660408, 0.1000034
 187335869, -0.01613264, 0.007777857, -1.689146E-05, 0.02583131, -0.02642451, 0.100004, 0.0203401, 0.01408326, 6.112277E-05, 0.02665775, -0.02629847, 0.1000057
 187435829, 0.01723406, -0.0127945, 1.05647E-05, 0.02657703, -0.0268924, 0.1000046, -0.01613264, 0.007777857, -1.689146E-05, 0.02583131, -0.02642451, 0.100004
 187535789, 0.01356568, 0.0151782, 5.054635E-05, 0.02648317, -0.02627741, 0.1000056, 0.01723406, -0.0127945, 1.05647E-05, 0.02657703, -0.0268924, 0.1000046
 187635749, -0.00753786, -1.581873E-05, -1.409026E-05, 0.02600042, -0.02659193, 0.1000043, 0.01356568, 0.0151782, 5.054635E-05, 0.02648317, -0.02627741, 0.1000056
 187735709, -0.01071975, -0.000352219, -2.060476E-05, 0.02593552, -0.02659992, 0.100004, -0.00753786, -1.581873E-05, -1.409026E-05, 0.02600042, -0.02659193, 0.1000043
 187835669, 0.02232282, 0.007662127, 5.460636E-05, 0.02670915, -0.0264283, 0.1000056, -0.01071975, -0.000352219, -2.060476E-05, 0.02593552, -0.02659992, 0.100004
 187936462, -0.007319467, -0.01944337, -4.637832E-05, 0.02600466, -0.02706323, 0.1000033, 0.02232282, 0.007662127, 5.460636E-05, 0.02670915, -0.0264283, 0.1000056
 188036422, 0.0004939177, -0.01329375, -2.142399E-05, 0.0261729, -0.02690581, 0.100004, -0.007319467, -0.01944337, -4.637832E-05, 0.02600466, -0.02706323, 0.1000033
 188136382, 0.01305593, 0.006592788, 3.547552E-05, 0.0264698, -0.0264505, 0.1000051, 0.0004939177, -0.01329375, -2.142399E-05, 0.0261729, -0.02690581, 0.100004
 188236342, -0.00429534, 0.01891736, 2.389463E-05, 0.02606885, -0.02620872, 0.1000046, 0.01305593, 0.006592788, 3.547552E-05, 0.0264698, -0.0264505, 0.1000051
 188336302, -0.01371754, 0.01727788, 3.57273E-06, 0.02587687, -0.02623896, 0.1000042, -0.00429534, 0.01891736, 2.389463E-05, 0.02606885, -0.02620872, 0.1000046
 188436262, -0.006985096, -0.007167915, -2.502265E-05, 0.02601248, -0.0267573, 0.1000036, -0.01371754, 0.01727788, 3.57273E-06, 0.02587687, -0.02623896, 0.1000042
 188536222, 0.011769, 0.01062116, 3.958793E-05, 0.02643902, -0.02636765, 0.100005, -0.006985096, -0.007167915, -2.502265E-05, 0.02601248, -0.0267573, 0.1000036
 188636182, 0.02170469, -0.002220275, 3.635628E-05, 0.02669438, -0.02664177, 0.100005, 0.011769, 0.01062116, 3.958793E-05, 0.02643902, -0.02636765, 0.100005
 188736142, 0.002759983, -0.01925951, -2.70074E-05, 0.02622614, -0.02705753, 0.1000034, 0.02170469, -0.002220275, 3.635628E-05, 0.02669438, -0.02664177, 0.100005
 188836102, -0.007710181, -0.02270265, -5.191228E-05, 0.02599875, -0.02714856, 0.1000029, 0.002759983, -0.01925951, -2.70074E-05, 0.02622614, -0.02705753, 0.1000034
 188936062, 0.02324424, -0.009722589, 2.654849E-05, 0.02673652, -0.02681655, 0.1000049, -0.007710181, -0.02270265, -5.191228E-05, 0.02599875, -0.02714856, 0.1000029
 189036022, -0.01248084, -0.02385277, -6.225126E-05, 0.02590305, -0.02717877, 0.1000028, 0.02324424, -0.009722589, 2.654849E-05, 0.02673652, -0.02681655, 0.1000049
 189135982, 0.02515892, -0.004891764, 3.799463E-05, 0.02678884, -0.02670126, 0.1000052, -0.01248084, -0.02385277, -6.225126E-05, 0.02590305, -0.02717877, 0.1000028
 189235942, 0.008815697, -0.02301603, -2.17043E-05, 0.02636878, -0.02715537, 0.1000038, 0.02515892, -0.004891764, 3.799463E-05, 0.02678884, -0.02670126, 0.1000052
 189335902, 0.01368832, 0.01133304, 4.360788E-05, 0.0264886, -0.02635071, 0.1000053, 0.008815697, -0.02301603, -2.17043E-05, 0.02636878, -0.02715537, 0.1000038
 189435862, -0.006040609, 0.008257072, 2.533229E-06, 0.02603496, -0.02641273, 0.1000043, 0.01368832, 0.01133304, 4.360788E-05, 0.0264886, -0.02635071, 0.1000053
 189535822, 0.003841944, -0.02485697, -3.370756E-05, 0.0262518, -0.0272049, 0.1000036, -0.006040609, 0.008257072, 2.533229E-06, 0.02603496, -0.02641273, 0.1000043
 189635782, 0.01481514, 0.007386082, 3.92638E-05, 0.02651608, -0.02643062, 0.1000055, 0.003841944, -0.02485697, -3.370756E-05, 0.0262518, -0.0272049, 0.1000036
 189735742, 0.002440845, 0.02298789, 4.206218E-05, 0.02621885, -0.0261315, 0.1000056, 0.01481514, 0.007386082, 3.92638E-05, 0.02651608, -0.02643062, 0.1000055
 189835702, -0.006242048, 0.0235829, 2.702086E-05, 0.02602897, -0.0261208, 0.1000054, 0.002440845, 0.02298789, 4.206218E-05, 0.02621885, -0.0261315, 0.1000056
 189935662, -0.01032464, -0.01265136, -3.958819E-05, 0.02594498, -0.02688595, 0.1000041, -0.006242048, 0.0235829, 2.702086E-05, 0.02602897, -0.0261208, 0.1000054
 190036455, 0.004088853, -0.006522134, -3.064182E-06, 0.02625657, -0.02673703, 0.1000051, -0.01032464, -0.01265136, -3.958819E-05, 0.02594498, -0.02688595, 0.1000041
 190136415, -0.02483172, -0.002405246, -4.946994E-05, 0.02567456, -0.02664186, 0.1000041, 0.004088853, -0.006522134, -3.064182E-06, 0.02625657, -0.02673703, 0.1000051
 190236375, -0.02142656, 0.008290295, -2.586305E-05, 0.02573443, -0.02641046, 0.1000046, -0.02483172, -0.002405246, -4.946994E-05, 0.02567456, -0.02664186, 0.1000041
 190336335, 0.003322532, -0.01727386, -2.194206E-05, 0.02623929, -0.02700226, 0.1000045, -0.02142656, 0.008290295, -2.586305E-05, 0.02573443, -0.02641046, 0.1000046
 190436295, -0.008424945, 0.01179357, 3.711766E-06, 0.02598423, -0.02633987, 0.1000051, 0.003322532, -0.01727386, -2.194206E-05, 0.02623929, -0.02700226, 0.1000045
 190536255, -0.0228146, 0.009089037, -2.70824E-05, 0.02570983, -0.02639446, 0.1000045, -0.008424945, 0.01179357, 3.711766E-06, 0.02598423, -0.02633987, 0.1000051
 190636215, 4.264942E-05, -0.0009954824, -1.542681E-06, 0.02616496, -0.02661056, 0.1000049, -0.0228146, 0.009089037, -2.70824E-05, 0.02570983, -0.02639446, 0.1000045
 190736175, -0.01506626, -0.001124368, -2.949683E-05, 0.02585215, -0.02661316, 0.1000044, 4.264942E-05, -0.0009954824, -1.542681E-06, 0.02616496, -0.02661056, 0.1000049
 190836135, -0.000224463, 0.001240169, 1.600248E-06, 0.02615915, -0.0265603, 0.1000051, -0.01506626, -0.001124368, -2.949683E-05, 0.02585215, -0.02661316, 0.1000044
 190936095, 0.01045095, 0.01073853, 3.66914E-05, 0.02640723, -0.0263611, 0.1000059, -0.000224463, 0.001240169, 1.600248E-06, 0.02615915, -0.0265603, 0.1000051
 191036055, -0.005970371, 0.002801124, -6.441077E-06, 0.02603431, -0.0265269, 0.100005, 0.01045095, 0.01073853, 3.66914E-05, 0.02640723, -0.0263611, 0.1000059
 191136015, 0.008742124, 0.007757506, 2.87965E-05, 0.02636568, -0.02642268, 0.1000056, -0.005970371, 0.002801124, -6.441077E-06, 0.02603431, -0.0265269, 0.100005
 191235975, -0.02327176, -0.01379308, -6.549252E-05, 0.02570112, -0.02691578, 0.1000033, 0.008742124, 0.007757506, 2.87965E-05, 0.02636568, -0.02642268, 0.1000056
 191335935, 0.01414456, -0.01079252, 8.306264E-06, 0.02649874, -0.02684131, 0.1000049, -0.02327176, -0.01379308, -6.549252E-05, 0.02570112, -0.02691578, 0.1000033
 191435895, 0.0008993633, -0.01079874, -1.606816E-05, 0.02618405, -0.0268414, 0.1000043, 0.01414456, -0.01079252, 8.306264E-06, 0.02649874, -0.02684131, 0.1000049
 191535855, 0.02000616, 0.01971428, 6.923763E-05, 0.02664882, -0.02619057, 0.1000064, 0.0008993633, -0.01079874, -1.606816E-05, 0.02618405, -0.0268414, 0.1000043
 191635815, 0.009630063, 0.02161808, 5.325273E-05, 0.02638625, -0.02615597, 0.1000062, 0.02000616, 0.01971428, 6.923763E-05, 0.02664882, -0.02619057, 0.1000064
 191735775, 0.01976479, -0.01368016, 1.420535E-05, 0.026642, -0.02691226, 0.1000055, 0.009630063, 0.02161808, 5.325273E-05, 0.02638625, -0.02615597, 0.1000062
 191835735, 0.008723211, -0.01770073, -1.283438E-05, 0.02636431, -0.02701447, 0.1000048, 0.01976479, -0.01368016, 1.420535E-05, 0.026642, -0.02691226, 0.1000055
 191935695, -0.01733297, -0.007372314, -4.423691E-05, 0.02580782, -0.02675887, 0.1000041, 0.008723211, -0.01770073, -1.283438E-05, 0.02636431, -0.02701447, 0.1000048
 192035655, 0.01793141, -0.02275652, -4.217032E-06, 0.02659432, -0.02714826, 0.1000048, -0.01733297, -0.007372314, -4.423691E-05, 0.02580782, -0.02675887, 0.1000041
 192136448, 0.01743955, -0.02263361, -4.88622E-06, 0.02658178, -0.02714466, 0.1000048, 0.01793141, -0.02275652, -4.217032E-06, 0.02659432, -0.02714826, 0.1000048
 192236408, 0.01049987, -0.02021059, -1.373977E-05, 0.02640765, -0.02708015, 0.1000047, 0.01743955, -0.02263361, -4.88622E-06, 0.02658178, -0.02714466, 0.1000048
 192336368, 0.01639812, -0.01947998, -1.59955E-06, 0.0265548, -0.027061, 0.100005, 0.01049987, -0.02021059, -1.373977E-05, 0.02640765, -0.02708015, 0.1000047
 192436328, 0.004125799, 0.0240457, 4.71991E-05, 0.02625592, -0.02611339, 0.100006, 0.01639812, -0.01947998, -1.59955E-06, 0.0265548, -0.027061, 0.100005
 192536288, -0.01797342, -0.02360472, -7.221309E-05, 0.02579558, -0.02717103, 0.1000035, 0.004125799, 0.0240457, 4.71991E-05, 0.02625592, -0.02611339, 0.100006
 192636248, 0.01545652, -0.01709397, 6.175123E-07, 0.0265306, -0.02699897, 0.1000051, -0.01797342, -0.02360472, -7.221309E-05, 0.02579558, -0.02717103, 0.1000035
 192736208, -0.002765702, -0.01555599, -3.069837E-05, 0.02610182, -0.02695941, 0.1000045, 0.01545652, -0.01709397, 6.175123E-07, 0.0265306, -0.02699897, 0.1000051
 192836168, -0.004804169, -0.007869515, -2.186127E-05, 0.02605805, -0.02677001, 0.1000048, -0.002765702, -0.01555599, -3.069837E-05, 0.02610182, -0.02695941, 0.1000045
 192936128, 0.01014378, -0.0176496, -1.005068E-05, 0.02639804, -0.02701283, 0.1000051, -0.004804169, -0.007869515, -2.186127E-05, 0.02605805, -0.02677001, 0.1000048
 193036088, 0.003242566, -0.01749599, -2.26845E-05, 0.02623464, -0.02700892, 0.100005, 0.01014378, -0.0176496, -1.005068E-05, 0.02639804, -0.02701283, 0.1000051
 193136048, -0.003800348, 0.0213832, 2.804685E-05, 0.02607845, -0.02615973, 0.1000061, 0.003242566, -0.01749599, -2.26845E-05, 0.02623464, -0.02700892, 0.100005
 193236008, 0.0030817, -0.02277114, -3.168853E-05, 0.02623098, -0.02714786, 0.1000047, -0.003800348, 0.0213832, 2.804685E-05, 0.02607845, -0.02615973, 0.1000061
 193335968, -0.01218714, 0.01864863, 7.803323E-06, 0.02590591, -0.02620909, 0.1000057, 0.0030817, -0.02277114, -3.168853E-05, 0.02623098, -0.02714786, 0.1000047
 193435928, -0.02433391, -0.001164458, -4.734438E-05, 0.02568111, -0.02661431, 0.1000046, -0.01218714, 0.01864863, 7.803323E-06, 0.02590591, -0.02620909, 0.1000057
 193535888, 0.01173046, -0.004195801, 1.496285E-05, 0.02643752, -0.02668298, 0.1000058, -0.02433391, -0.001164458, -4.734438E-05, 0.02568111, -0.02661431, 0.1000046
 193635848, 0.001859488, 0.02004478, 3.612204E-05, 0.02620482, -0.02618275, 0.1000061, 0.01173046, -0.004195801, 1.496285E-05, 0.02643752, -0.02668298, 0.1000058
 193735808, 0.005166716, 0.01630681, 3.612221E-05, 0.02628089, -0.02625199, 0.1000061, 0.001859488, 0.02004478, 3.612204E-05, 0.02620482, -0.02618275, 0.1000061
 193835768, 0.0001691847, 0.005945096, 9.983865E-06, 0.02616724, -0.02645884, 0.1000056, 0.005166716, 0.01630681, 3.612221E-05, 0.02628089, -0.02625199, 0.1000061
 193935728, -0.01448376, 0.01070753, -9.389731E-06, 0.02586293, -0.02636061, 0.1000052, 0.0001691847, 0.005945096, 9.983865E-06, 0.02616724, -0.02645884, 0.1000056
 194035688, 0.02341013, -0.0008341903, 4.187454E-05, 0.02674003, -0.02660531, 0.1000066, -0.01448376, 0.01070753, -9.389731E-06, 0.02586293, -0.02636061, 0.1000052
 194136481, 0.001139225, 0.02051528, 3.517028E-05, 0.02618948, -0.02617278, 0.1000062, 0.02341013, -0.0008341903, 4.187454E-05, 0.02674003, -0.02660531, 0.1000066
 194236441, -0.01917702, -0.006370629, -4.546232E-05, 0.02577542, -0.02673167, 0.1000046, 0.001139225, 0.02051528, 3.517028E-05, 0.02618948, -0.02617278, 0.1000062
 194336401, -0.001213391, -0.01487497, -2.610675E-05, 0.0261379, -0.0269389, 0.1000049, -0.01917702, -0.006370629, -4.546232E-05, 0.02577542, -0.02673167, 0.1000046
 194436361, -0.007486138, -0.0132556, -3.495474E-05, 0.02600421, -0.02689809, 0.1000047, -0.001213391, -0.01487497, -2.610675E-05, 0.0261379, -0.0269389, 0.1000049
 194536321, -0.01817663, -0.02488314, -7.301923E-05, 0.02579398, -0.02720129, 0.1000041, -0.007486138, -0.0132556, -3.495474E-05, 0.02600421, -0.02689809, 0.1000047
 194636281, -0.004759468, -0.01734629, -3.632414E-05, 0.02606088, -0.02700052, 0.1000051, -0.01817663, -0.02488314, -7.301923E-05, 0.02579398, -0.02720129, 0.1000041
 194736241, -0.02276927, 0.02471656, -2.630528E-06, 0.02571063, -0.02609625, 0.1000061, -0.004759468, -0.01734629, -3.632414E-05, 0.02606088, -0.02700052, 0.1000051
 194836201, -0.001422142, -0.00236087, -6.361106E-06, 0.02613244, -0.0266367, 0.1000061, -0.02276927, 0.02471656, -2.630528E-06, 0.02571063, -0.02609625, 0.1000061
 194936161, 0.01399134, -0.01837083, -3.216939E-06, 0.02649405, -0.02702636, 0.1000064, -0.001422142, -0.00236087, -6.361106E-06, 0.02613244, -0.0266367, 0.1000061
 195036121, 0.01355053, 0.01403325, 4.745703E-05, 0.02648196, -0.02629174, 0.1000078, 0.01399134, -0.01837083, -3.216939E-06, 0.02649405, -0.02702636, 0.1000064
 195136081, 0.02306284, 0.02275198, 7.887589E-05, 0.02672903, -0.02613033, 0.1000085, 0.01355053, 0.01403325, 4.745703E-05, 0.02648196, -0.02629174, 0.1000078
 195236041, 0.02138365, 0.008290327, 5.28167E-05, 0.02668441, -0.02640603, 0.100008, 0.02306284, 0.02275198, 7.887589E-05, 0.02672903, -0.02613033, 0.1000085
 195336001, 0.02264708, 0.01347205, 6.337189E-05, 0.026718, -0.02630221, 0.1000083, 0.02138365, 0.008290327, 5.28167E-05, 0.02668441, -0.02640603, 0.100008
 195435961, -0.0215308, -0.01110965, -5.759539E-05, 0.02573042, -0.02684276, 0.1000057, 0.02264708, 0.01347205, 6.337189E-05, 0.026718, -0.02630221, 0.1000083
 195535921, -0.005712274, -0.02458272, -4.932229E-05, 0.02603782, -0.02719054, 0.100006, -0.0215308, -0.01110965, -5.759539E-05, 0.02573042, -0.02684276, 0.1000057
 195635881, 0.01157441, 0.02453307, 6.008054E-05, 0.02643184, -0.0260973, 0.1000088, -0.005712274, -0.02458272, -4.932229E-05, 0.02603782, -0.02719054, 0.100006
 195735841, 0.005154308, -0.01094684, -7.452738E-06, 0.02627834, -0.02683675, 0.1000075, 0.01157441, 0.02453307, 6.008054E-05, 0.02643184, -0.0260973, 0.1000088
 195835801, 0.0005530545, 0.01649891, 2.676222E-05, 0.02617337, -0.02624166, 0.1000083, 0.005154308, -0.01094684, -7.452738E-06, 0.02627834, -0.02683675, 0.1000075
 195935761, 0.01303201, -0.01030706, 8.252662E-06, 0.02646863, -0.0268209, 0.1000078, 0.0005530545, 0.01649891, 2.676222E-05, 0.02617337, -0.02624166, 0.1000083
 196035721, -0.006486828, -0.001740696, -1.480991E-05, 0.02602205, -0.02662006, 0.1000071, 0.01303201, -0.01030706, 8.252662E-06, 0.02646863, -0.0268209, 0.1000078
 196135681, -0.005030674, -0.01208979, -2.826127E-05, 0.02605307, -0.02686482, 0.1000067, -0.006486828, -0.001740696, -1.480991E-05, 0.02602205, -0.02662006, 0.1000071
 196236474, 0.007115088, -0.0140973, -8.844861E-06, 0.02632621, -0.0269148, 0.100007, -0.005030674, -0.01208979, -2.826127E-05, 0.02605307, -0.02686482, 0.1000067
 196336434, -0.0007870514, 0.01771595, 2.625894E-05, 0.02614516, -0.02621916, 0.1000078, 0.007115088, -0.0140973, -8.844861E-06, 0.02632621, -0.0269148, 0.100007
 196436394, -0.01689952, 0.008477898, -1.819349E-05, 0.02581562, -0.0264001, 0.1000069, -0.0007870514, 0.01771595, 2.625894E-05, 0.02614516, -0.02621916, 0.1000078
 196536354, 0.01382098, -0.009368198, 1.116175E-05, 0.02648831, -0.02679865, 0.1000077, -0.01689952, 0.008477898, -1.819349E-05, 0.02581562, -0.0264001, 0.1000069
 196636314, 0.00811283, -0.00397821, 8.999614E-06, 0.02634786, -0.0266716, 0.1000078, 0.01382098, -0.009368198, 1.116175E-05, 0.02648831, -0.02679865, 0.1000077
 196736274, 0.02261154, -0.00806545, 2.984636E-05, 0.02671562, -0.02676764, 0.1000084, 0.00811283, -0.00397821, 8.999614E-06, 0.02634786, -0.0266716, 0.1000078
 196836234, 0.01257039, 0.01819866, 5.232766E-05, 0.02645611, -0.0262109, 0.1000087, 0.02261154, -0.00806545, 2.984636E-05, 0.02671562, -0.02676764, 0.1000084
 196936194, -0.01047011, -0.01144526, -3.77999E-05, 0.025939, -0.0268501, 0.1000066, 0.01257039, 0.01819866, 5.232766E-05, 0.02645611, -0.0262109, 0.1000087
 197036154, -0.00746101, -0.02464069, -5.312983E-05, 0.02600036, -0.02719254, 0.100006, -0.01047011, -0.01144526, -3.77999E-05, 0.025939, -0.0268501, 0.1000066
 197136114, -0.02214549, 0.01611476, -1.617453E-05, 0.02571803, -0.02625089, 0.100007, -0.00746101, -0.02464069, -5.312983E-05, 0.02600036, -0.02719254, 0.100006
 197236074, 0.02486857, 0.01684708, 7.374157E-05, 0.02677624, -0.0262375, 0.100009, -0.02214549, 0.01611476, -1.617453E-05, 0.02571803, -0.02625089, 0.100007
 197336034, 0.004536418, -0.01086836, -8.814621E-06, 0.02626408, -0.0268372, 0.1000068, 0.02486857, 0.01684708, 7.374157E-05, 0.02677624, -0.0262375, 0.100009
 197435994, -0.02313381, -0.02068001, -7.658605E-05, 0.02570143, -0.02708775, 0.100005, 0.004536418, -0.01086836, -8.814621E-06, 0.02626408, -0.0268372, 0.1000068
 197535954, -0.006783534, -0.009343766, -2.774318E-05, 0.02601545, -0.02680099, 0.100006, -0.02313381, -0.02068001, -7.658605E-05, 0.02570143, -0.02708775, 0.100005
 197635914, -0.01337414, -0.004307829, -3.205827E-05, 0.0258824, -0.02668216, 0.100006, -0.006783534, -0.009343766, -2.774318E-05, 0.02601545, -0.02680099, 0.100006
 197735874, -0.01414913, -0.006630367, -3.731195E-05, 0.02586714, -0.02673667, 0.1000058, -0.01337414, -0.004307829, -3.205827E-05, 0.0258824, -0.02668216, 0.100006
 197835834, -0.01873022, -0.008295685, -4.869611E-05, 0.02578036, -0.02677652, 0.1000056, -0.01414913, -0.006630367, -3.731195E-05, 0.02586714, -0.02673667, 0.1000058
 197935794, -0.01404767, 0.007768593, -1.400697E-05, 0.02586862, -0.02641812, 0.1000065, -0.01873022, -0.008295685, -4.869611E-05, 0.02578036, -0.02677652, 0.1000056
 198035754, -0.002640904, -0.02518791, -4.561056E-05, 0.02610247, -0.02720928, 0.1000058, -0.01404767, 0.007768593, -1.400697E-05, 0.02586862, -0.02641812, 0.1000065
 198135714, 0.006963532, -0.01598729, -1.271915E-05, 0.02632084, -0.02696653, 0.1000063, -0.002640904, -0.02518791, -4.561056E-05, 0.02610247, -0.02720928, 0.1000058
 198235674, -0.02104901, 0.01951163, -7.977938E-06, 0.02573854, -0.02619046, 0.1000062, 0.006963532, -0.01598729, -1.271915E-05, 0.02632084, -0.02696653, 0.1000063
 198336467, 0.02235784, 0.002317953, 4.580469E-05, 0.0267102, -0.02653549, 0.1000071, -0.02104901, 0.01951163, -7.977938E-06, 0.02573854, -0.02619046, 0.1000062
 198436427, 0.02100493, -0.02271394, 2.111174E-06, 0.02667488, -0.0271445, 0.1000057, 0.02235784, 0.002317953, 4.580469E-05, 0.0267102, -0.02653549, 0.1000071
 198536387, 0.008138929, 0.00698557, 2.662835E-05, 0.02635077, -0.02643616, 0.1000063, 0.02100493, -0.02271394, 2.111174E-06, 0.02667488, -0.0271445, 0.1000057
 198636347, -0.007101696, 0.005190012, -4.806801E-06, 0.02601059, -0.02647332, 0.1000057, 0.008138929, 0.00698557, 2.662835E-05, 0.02635077, -0.02643616, 0.1000063
 198736307, -0.01709114, 0.0220686, 3.978857E-06, 0.02581339, -0.02614425, 0.1000059, -0.007101696, 0.005190012, -4.806801E-06, 0.02601059, -0.02647332, 0.1000057
 198836267, 0.00337957, -0.0003072675, 5.787726E-06, 0.02624018, -0.02659217, 0.1000059, -0.01709114, 0.0220686, 3.978857E-06, 0.02581339, -0.02614425, 0.1000059
 198936227, -0.02299241, 0.01516455, -1.828055E-05, 0.02570644, -0.02627085, 0.1000056, 0.00337957, -0.0003072675, 5.787726E-06, 0.02624018, -0.02659217, 0.1000059
 199036187, -0.02044013, -0.02142447, -7.236825E-05, 0.0257517, -0.02710732, 0.1000045, -0.02299241, 0.01516455, -1.828055E-05, 0.02570644, -0.02627085, 0.1000056
 199136147, -0.005174753, 0.0114972, 8.796751E-06, 0.02605137, -0.02634155, 0.1000065, -0.02044013, -0.02142447, -7.236825E-05, 0.0257517, -0.02710732, 0.1000045
 199236107, 0.01904198, -0.004272745, 2.859425E-05, 0.02662389, -0.02668043, 0.1000071, -0.005174753, 0.0114972, 8.796751E-06, 0.02605137, -0.02634155, 0.1000065
 199336067, 0.0207851, -0.009656413, 2.322401E-05, 0.02666971, -0.0268078, 0.1000069, 0.01904198, -0.004272745, 2.859425E-05, 0.02662389, -0.02668043, 0.1000071
 199436027, -0.00160652, -0.01395404, -2.530674E-05, 0.02612796, -0.02691367, 0.1000058, 0.0207851, -0.009656413, 2.322401E-05, 0.02666971, -0.0268078, 0.1000069
 199535987, -0.01522065, -0.003129303, -3.341178E-05, 0.02584791, -0.0266539, 0.1000059, -0.00160652, -0.01395404, -2.530674E-05, 0.02612796, -0.02691367, 0.1000058
 199635947, 0.02233824, 0.01966314, 7.316945E-05, 0.02670946, -0.02618524, 0.1000085, -0.01522065, -0.003129303, -3.341178E-05, 0.02584791, -0.0266539, 0.1000059
 199735907, -0.0215705, 0.01333244, -1.910737E-05, 0.02573018, -0.02630455, 0.1000064, 0.02233824, 0.01966314, 7.316945E-05, 0.02670946, -0.02618524, 0.1000085
 199835867, -0.02333405, 0.0237432, -5.761725E-06, 0.0256993, -0.02611219, 0.1000066, -0.0215705, 0.01333244, -1.910737E-05, 0.02573018, -0.02630455, 0.1000064
 199935827, -0.01722711, 0.01821385, -3.290555E-06, 0.02580984, -0.02621101, 0.1000068, -0.02333405, 0.0237432, -5.761725E-06, 0.0256993, -0.02611219, 0.1000066
 200035787, 0.01537252, 0.006310529, 3.869307E-05, 0.02652844, -0.02644554, 0.100008, -0.01722711, 0.01821385, -3.290555E-06, 0.02580984, -0.02621101, 0.1000068
 200135747, -0.024557, 0.007548512, -3.390482E-05, 0.02567801, -0.02641994, 0.1000063, 0.01537252, 0.006310529, 3.869307E-05, 0.02652844, -0.02644554, 0.100008
 200235707, 0.0230478, 0.01609212, 6.847358E-05, 0.02672938, -0.0262508, 0.1000085, -0.024557, 0.007548512, -3.390482E-05, 0.02567801, -0.02641994, 0.1000063
 200335667, 0.00750185, -0.01375913, -7.855615E-06, 0.02633599, -0.0269074, 0.1000065, 0.0230478, 0.01609212, 6.847358E-05, 0.02672938, -0.0262508, 0.1000085
 200436460, -0.01435289, -0.005372555, -3.511849E-05, 0.02586583, -0.02670459, 0.1000059, 0.00750185, -0.01375913, -7.855615E-06, 0.02633599, -0.0269074, 0.1000065
 200536420, -0.02457494, -0.002228803, -4.92353E-05, 0.02567827, -0.02663167, 0.100006, -0.01435289, -0.005372555, -3.511849E-05, 0.02586583, -0.02670459, 0.1000059
 200636380, -0.01235253, 0.004987153, -1.522487E-05, 0.02590363, -0.02647255, 0.100007, -0.02457494, -0.002228803, -4.92353E-05, 0.02567827, -0.02663167, 0.100006
 200736340, -0.01915337, 0.003695327, -2.996283E-05, 0.02577421, -0.02649978, 0.1000068, -0.01235253, 0.004987153, -1.522487E-05, 0.02590363, -0.02647255, 0.100007
 200836300, 0.01151174, -0.02299223, -1.447597E-05, 0.02643227, -0.02714514, 0.1000071, -0.01915337, 0.003695327, -2.996283E-05, 0.02577421, -0.02649978, 0.1000068
 200936260, -0.005117025, 0.02446864, 2.855818E-05, 0.02605101, -0.02609621, 0.1000083, 0.01151174, -0.02299223, -1.447597E-05, 0.02643227, -0.02714514, 0.1000071
 201036220, -0.004117732, -0.0171013, -3.429588E-05, 0.02607164, -0.02698885, 0.1000073, -0.005117025, 0.02446864, 2.855818E-05, 0.02605101, -0.02609621, 0.1000083
 201136180, 0.02157428, 0.02111195, 7.343449E-05, 0.02668812, -0.02615476, 0.1000099, -0.004117732, -0.0171013, -3.429588E-05, 0.02607164, -0.02698885, 0.1000073
 201236140, -0.0215125, -0.01397544, -6.230935E-05, 0.02572948, -0.02690934, 0.100007, 0.02157428, 0.02111195, 7.343449E-05, 0.02668812, -0.02615476, 0.1000099
 201336100, -0.0189506, -0.01954699, -6.617712E-05, 0.02577592, -0.02705248, 0.1000068, -0.0215125, -0.01397544, -6.230935E-05, 0.02572948, -0.02690934, 0.100007
 201436060, 0.004683281, 0.01879744, 3.813199E-05, 0.02626717, -0.02619704, 0.1000091, -0.0189506, -0.01954699, -6.617712E-05, 0.02577592, -0.02705248, 0.1000068
 201536020, -0.01361102, -0.0227309, -6.11834E-05, 0.02587675, -0.02713723, 0.1000069, 0.004683281, 0.01879744, 3.813199E-05, 0.02626717, -0.02619704, 0.1000091
 201635980, -0.02520641, -0.01304901, -6.812662E-05, 0.02566439, -0.02688669, 0.100007, -0.01361102, -0.0227309, -6.11834E-05, 0.02587675, -0.02713723, 0.1000069
 201735940, -0.01694254, -0.02314051, -6.823946E-05, 0.02581251, -0.02714816, 0.1000069, -0.02520641, -0.01304901, -6.812662E-05, 0.02566439, -0.02688669, 0.100007
 201835900, 0.01355353, 0.02243806, 6.074507E-05, 0.02647991, -0.02613117, 0.1000098, -0.01694254, -0.02314051, -6.823946E-05, 0.02581251, -0.02714816, 0.1000069
 201935860, -0.02545991, 0.02285239, -1.270974E-05, 0.02565994, -0.02612398, 0.1000082, 0.01355353, 0.02243806, 6.074507E-05, 0.02647991, -0.02613117, 0.1000098
 202035820, 0.02462573, 0.02370496, 8.395231E-05, 0.02676937, -0.02610974, 0.1000102, -0.02545991, 0.02285239, -1.270974E-05, 0.02565994, -0.02612398, 0.1000082
 202135780, 0.01462277, 0.01022974, 4.393252E-05, 0.02650703, -0.02636348, 0.1000091, 0.02462573, 0.02370496, 8.395231E-05, 0.02676937, -0.02610974, 0.1000102
 202235740, -0.00846323, 0.008905718, -2.029135E-06, 0.02597908, -0.02639103, 0.1000079, 0.01462277, 0.01022974, 4.393252E-05, 0.02650703, -0.02636348, 0.1000091
 202335700, 0.01396081, -0.007428417, 1.48645E-05, 0.02649009, -0.02675187, 0.1000083, -0.00846323, 0.008905718, -2.029135E-06, 0.02597908, -0.02639103, 0.1000079
 202435660, -0.007437942, 0.01036716, 2.246304E-06, 0.02599995, -0.0263616, 0.100008, 0.01396081, -0.007428417, 1.48645E-05, 0.02649009, -0.02675187, 0.1000083
 202536453, 0.01279258, 0.02126711, 5.814754E-05, 0.0264609, -0.02615421, 0.1000092, -0.007437942, 0.01036716, 2.246304E-06, 0.02599995, -0.0263616, 0.100008
 202636413, 0.02056731, 0.009055033, 5.3629E-05, 0.02666034, -0.02638823, 0.1000092, 0.01279258, 0.02126711, 5.814754E-05, 0.0264609, -0.02615421, 0.1000092
 202736373, -0.0176532, -0.01184829, -5.249833E-05, 0.02579938, -0.02685912, 0.1000067, 0.02056731, 0.009055033, 5.3629E-05, 0.02666034, -0.02638823, 0.1000092
 202836333, -0.01075166, -0.006795368, -3.131352E-05, 0.02593319, -0.02673735, 0.100007, -0.0176532, -0.01184829, -5.249833E-05, 0.02579938, -0.02685912, 0.1000067
 202936293, -0.02084349, 0.01434272, -1.669938E-05, 0.02574152, -0.02628425, 0.1000071, -0.01075166, -0.006795368, -3.131352E-05, 0.02593319, -0.02673735, 0.100007
 203036253, -0.01989864, 0.01935477, -6.677285E-06, 0.02575893, -0.02619061, 0.100007, -0.02084349, 0.01434272, -1.669938E-05, 0.02574152, -0.02628425, 0.1000071
 203136213, 0.01525582, 0.02545181, 7.001047E-05, 0.02652368, -0.02608283, 0.1000087, -0.01989864, 0.01935477, -6.677285E-06, 0.02575893, -0.02619061, 0.100007
 203236173, 0.01635173, 0.00929633, 4.612398E-05, 0.02655159, -0.02638489, 0.1000084, 0.01525582, 0.02545181, 7.001047E-05, 0.02652368, -0.02608283, 0.1000087
 203336133, -0.005919766, 0.02398226, 2.733679E-05, 0.02603261, -0.02610789, 0.1000078, 0.01635173, 0.00929633, 4.612398E-05, 0.02655159, -0.02638489, 0.1000084
 203436093, 0.01583302, 0.02527288, 7.101436E-05, 0.0265379, -0.0260859, 0.1000089, -0.005919766, 0.02398226, 2.733679E-05, 0.02603261, -0.02610789, 0.1000078
 203536053, -0.0197524, 0.0244506, 1.863758E-06, 0.02576111, -0.02610045, 0.1000072, 0.01583302, 0.02527288, 7.101436E-05, 0.0265379, -0.0260859, 0.1000089
 203636013, -0.007966609, -0.007819874, -2.795642E-05, 0.02598988, -0.0267642, 0.1000064, -0.0197524, 0.0244506, 1.863758E-06, 0.02576111, -0.02610045, 0.1000072
 203735973, -0.02295566, -0.01509292, -6.843769E-05, 0.0257035, -0.0269431, 0.1000055, -0.007966609, -0.007819874, -2.795642E-05, 0.02598988, -0.0267642, 0.1000064
 203835933, 0.02095151, -0.01530944, 1.515287E-05, 0.02667106, -0.02694846, 0.1000074, -0.02295566, -0.01509292, -6.843769E-05, 0.0257035, -0.0269431, 0.1000055
 203935893, 0.005156211, 0.00246995, 1.383769E-05, 0.02627811, -0.02652938, 0.1000074, 0.02095151, -0.01530944, 1.515287E-05, 0.02667106, -0.02694846, 0.1000074
 204035853, -0.02147775, 0.01995555, -8.684852E-06, 0.02573045, -0.02617981, 0.100007, 0.005156211, 0.00246995, 1.383769E-05, 0.02627811, -0.02652938, 0.1000074
 204135813, 0.0001695132, 0.0209238, 3.401859E-05, 0.02616537, -0.0261621, 0.1000077, -0.02147775, 0.01995555, -8.684852E-06, 0.02573045, -0.02617981, 0.100007
 204235773, -0.0006209483, -0.02311668, -3.833051E-05, 0.02614829, -0.02715106, 0.100006, 0.0001695132, 0.0209238, 3.401859E-05, 0.02616537, -0.0261621, 0.1000077
 204335733, 0.01225947, 0.009804106, 3.88527E-05, 0.02645037, -0.02637414, 0.1000078, -0.0006209483, -0.02311668, -3.833051E-05, 0.02614829, -0.02715106, 0.100006
 204435693, -0.02413652, -0.01130415, -6.352417E-05, 0.0256853, -0.02684642, 0.1000056, 0.01225947, 0.009804106, 3.88527E-05, 0.02645037, -0.02637414, 0.1000078
 204536486, -0.01009648, -0.00602963, -2.860263E-05, 0.02594909, -0.02671945, 0.1000063, -0.02413652, -0.01130415, -6.352417E-05, 0.0256853, -0.02684642, 0.1000056
 204636446, 0.0009862565, -0.00821753, -1.122941E-05, 0.02618593, -0.02677082, 0.1000066, -0.01009648, -0.00602963, -2.860263E-05, 0.02594909, -0.02671945, 0.1000063
 204736406, -0.01600964, -0.005271762, -3.834186E-05, 0.02583419, -0.02670193, 0.1000059, 0.0009862565, -0.00821753, -1.122941E-05, 0.02618593, -0.02677082, 0.1000066
 204836366, -0.006917791, -0.006693828, -2.363313E-05, 0.02601545, -0.02673577, 0.1000059, -0.01600964, -0.005271762, -3.834186E-05, 0.02583419, -0.02670193, 0.1000059
 204936326, -0.01035637, 0.002301249, -1.558771E-05, 0.02594551, -0.02653188, 0.100006, -0.006917791, -0.006693828, -2.363313E-05, 0.02601545, -0.02673577, 0.1000059
 205036286, -0.003189465, 0.01766537, 2.242432E-05, 0.02609524, -0.02622161, 0.1000066, -0.01035637, 0.002301249, -1.558771E-05, 0.02594551, -0.02653188, 0.100006
 205136246, 0.02518388, -0.02397074, 8.37231E-06, 0.02678999, -0.0271738, 0.1000064, -0.003189465, 0.01766537, 2.242432E-05, 0.02609524, -0.02622161, 0.1000066
 205236206, -0.02200164, 0.01179959, -2.196706E-05, 0.02572547, -0.02633377, 0.1000059, 0.02518388, -0.02397074, 8.37231E-06, 0.02678999, -0.0271738, 0.1000064
 205336166, -0.02405318, 0.01326137, -2.341687E-05, 0.02568963, -0.0263048, 0.1000058, -0.02200164, 0.01179959, -2.196706E-05, 0.02572547, -0.02633377, 0.1000059
 205436126, 0.02548902, 0.02254303, 8.313562E-05, 0.02679846, -0.02613228, 0.1000082, -0.02405318, 0.01326137, -2.341687E-05, 0.02568963, -0.0263048, 0.1000058
 205536086, -0.01938155, 0.0002974221, -3.540659E-05, 0.02577302, -0.02657496, 0.1000056, 0.02548902, 0.02254303, 8.313562E-05, 0.02679846, -0.02613228, 0.1000082
 205636046, 0.009291233, -0.006445364, 6.941998E-06, 0.0263812, -0.02672893, 0.1000065, -0.01938155, 0.0002974221, -3.540659E-05, 0.02577302, -0.02657496, 0.1000056
 205736006, -0.0148962, 0.005183795, -1.929184E-05, 0.02585732, -0.02646916, 0.1000058, 0.009291233, -0.006445364, 6.941998E-06, 0.0263812, -0.02672893, 0.1000065
 205835966, 0.01000303, 0.02366162, 5.627656E-05, 0.02639846, -0.02611272, 0.1000073, -0.0148962, 0.005183795, -1.929184E-05, 0.02585732, -0.02646916, 0.1000058
 205935926, 0.02203608, -0.01092454, 2.334619E-05, 0.02670551, -0.0268366, 0.1000068, 0.01000303, 0.02366162, 5.627656E-05, 0.02639846, -0.02611272, 0.1000073
 206035886, 0.003368504, -0.02309843, -3.051304E-05, 0.02624197, -0.0271492, 0.1000056, 0.02203608, -0.01092454, 2.334619E-05, 0.02670551, -0.0268366, 0.1000068
 206135846, 0.0105142, 0.01026919, 3.581111E-05, 0.02641115, -0.02636409, 0.100007, 0.003368504, -0.02309843, -3.051304E-05, 0.02624197, -0.0271492, 0.1000056
 206235806, 0.008054192, 0.006567227, 2.538119E-05, 0.02635195, -0.02644045, 0.1000066, 0.0105142, 0.01026919, 3.581111E-05, 0.02641115, -0.02636409, 0.100007
 206335766, -0.01497908, -0.01601725, -5.326082E-05, 0.02585627, -0.02696451, 0.1000047, 0.008054192, 0.006567227, 2.538119E-05, 0.02635195, -0.02644045, 0.1000066
 206435726, 0.003997717, 0.008273178, 2.061372E-05, 0.02625738, -0.02640529, 0.1000063, -0.01497908, -0.01601725, -5.326082E-05, 0.02585627, -0.02696451, 0.1000047
 206535686, 0.004918768, -0.0002864843, 8.639679E-06, 0.02627795, -0.02658879, 0.1000062, 0.003997717, 0.008273178, 2.061372E-05, 0.02625738, -0.02640529, 0.1000063
 206636479, 0.0007731045, -0.003636355, -4.402636E-06, 0.0261826, -0.0266648, 0.1000061, 0.004918768, -0.0002864843, 8.639679E-06, 0.02627795, -0.02658879, 0.1000062
 206736439, 0.01782282, 0.006706048, 4.384213E-05, 0.02659414, -0.02643798, 0.1000072, 0.0007731045, -0.003636355, -4.402636E-06, 0.0261826, -0.0266648, 0.1000061
 206836399, -0.006384432, 0.006115703, -2.041033E-06, 0.02602789, -0.02645013, 0.1000061, 0.01782282, 0.006706048, 4.384213E-05, 0.02659414, -0.02643798, 0.1000072
 206936359, -0.006123149, -0.003909586, -1.763101E-05, 0.02603323, -0.02667057, 0.1000059, -0.006384432, 0.006115703, -2.041033E-06, 0.02602789, -0.02645013, 0.1000061
 207036319, -0.003342098, 0.01370832, 1.571012E-05, 0.02609242, -0.02629611, 0.1000066, -0.006123149, -0.003909586, -1.763101E-05, 0.02603323, -0.02667057, 0.1000059
 207136279, 0.0206129, 0.01816908, 6.739239E-05, 0.02666698, -0.02621172, 0.1000078, -0.003342098, 0.01370832, 1.571012E-05, 0.02609242, -0.02629611, 0.1000066
 207236239, 0.02272354, 0.01267706, 6.256561E-05, 0.02672326, -0.0263168, 0.1000077, 0.0206129, 0.01816908, 6.739239E-05, 0.02666698, -0.02621172, 0.1000078
 207336199, -0.0008397132, -0.001895247, -4.60598E-06, 0.02614685, -0.02662489, 0.1000061, 0.02272354, 0.01267706, 6.256561E-05, 0.02672326, -0.0263168, 0.1000077
