TimeUS,CAN,CAE,CAD,CAe,NAN,NAE,NAD,NAe,m10,m00
 196458885, 3.767106E-06, 4.344612E-05, 2.619172E-06, 6.484905E-06, 0, 0, 0, 0, -0.9999978, -0.00143704
 196631316, 0.2707882, 3.497247, 0.2041427, 0.5102589, -0.3833901, 3.376418, -0.06508736, 0.5102519, -0.9999978, -0.00143287
 196831236, -0.3834239, 3.3833, -0.06524517, 0.510778, 0.0001925928, 0.004111512, -7.113828E-05, 0.0005187925, -0.9999978, -0.001425967
 197031156, -0.0002787653, 0.01119072, -3.132519E-05, 0.00104407, -0.0005186528, 0.003932946, -0.0002450618, 0.0005187925, -0.9999978, -0.001420143
 197231076, -0.000240157, 0.01145898, -0.0004443882, 0.00104407, 0.0001169148, 0.004261546, -0.0001656978, 0.0005187925, -0.9999978, -0.001414099
 197430996, 0.0001397256, 0.01157434, -0.0004741881, 0.00104407, -7.732462E-06, 0.003887702, -0.0004954668, 0.0005187925, -0.9999978, -0.001408981
 197630916, -5.674788E-05, 0.01100894, -0.0008881888, 0.00104407, 5.174597E-05, 0.003996457, -0.0001994694, 0.0005187925, -0.9999978, -0.001403784
 197830836, 0.0004335058, 0.01157276, -0.0004691357, 0.00104407, 0.0001661968, 0.004325749, -0.0003334809, 0.0005187925, -0.9999978, -0.001396895
 198030756, 0.0004157259, 0.01175782, -0.0008630578, 0.00104407, -1.652654E-05, 0.004381953, -0.0003587396, 0.0005187925, -0.9999978, -0.001390379
 198230676, 0.0001041893, 0.01192172, -0.0003485798, 0.00104407, 0.0003569318, 0.004040944, -0.0003248369, 0.0005187925, -0.9999978, -0.001383547
 198431429, 0.0002757219, 0.0113846, -0.0004976896, 0.001046232, 0.0001035922, 0.004129831, -0.000132667, 0.0005209541, -0.9999978, -0.001379105
 198631349, -2.059266E-05, 0.01145372, -0.0002051613, 0.001046232, -0.0002274125, 0.004209571, -0.0001438281, 0.0005187925, -0.9999978, -0.001384923
 198831269, 2.914513E-05, 0.01142986, -0.0001112672, 0.00104407, 0.0001897916, 0.004127259, -0.0005067978, 0.0005187925, -0.9999978, -0.001389582
 199031189, 0.000299246, 0.01192296, -0.0006681341, 0.00104407, 0.0002374561, 0.004751091, -0.0002953873, 0.0005187925, -0.9999978, -0.001395147
 199231109, 0.000128391, 0.01191733, -0.0004192117, 0.00104407, -0.0001382937, 0.004264584, -2.610235E-05, 0.0005187925, -0.9999978, -0.001398999
 199431029, -0.0001948075, 0.01145424, -3.880261E-05, 0.00104407, 7.186874E-05, 0.00413475, 3.055663E-05, 0.0005187925, -0.9999978, -0.00140176
 199630949, 3.063418E-05, 0.011253, 0.0001386994, 0.00104407, 0.0001548659, 0.003791053, 5.098806E-05, 0.0005187925, -0.9999978, -0.001403779
 199830869, -7.11618E-05, 0.01144411, 1.810301E-05, 0.00104407, -0.0003766044, 0.004604634, -0.0001595205, 0.0005187925, -0.9999978, -0.00140527
 200030789, -0.0003030378, 0.01184751, -0.000317157, 0.00104407, 0.0005360265, 0.003850401, -0.0002681398, 0.0005187925, -0.9999978, -0.001405813
 200230709, 0.0007602085, 0.01102598, -5.013611E-05, 0.00104407, 0.0003072443, 0.004246646, 4.347016E-05, 0.0005187925, -0.9999978, -0.00140578
 200431462, 0.0003247713, 0.01140794, -0.0004672144, 0.001046232, 0.0001498094, 0.003897415, -0.000404902, 0.0005209541, -0.9999978, -0.001407013
 200631382, -2.956193E-05, 0.01145341, -0.0006656133, 0.001046232, -0.0001101064, 0.004231875, -0.0002718744, 0.0005187925, -0.9999978, -0.00140613
 200831302, 2.339189E-05, 0.01129952, -0.0002860724, 0.00104407, -2.744049E-05, 0.004239212, -3.791485E-05, 0.0005187925, -0.9999978, -0.001403764
 201031222, 4.787151E-05, 0.01151521, 4.428643E-05, 0.00104407, 0.0003804483, 0.003988042, -0.0002473318, 0.0005187925, -0.9999979, -0.001398232
 201231142, 0.0002801414, 0.01096618, -0.0003737123, 0.00104407, -0.0001014415, 0.003901539, 0.0001437971, 0.0005187925, -0.9999979, -0.00139331
 201431062, -0.0004242809, 0.01112869, 0.0001566641, 0.00104407, -0.0002311116, 0.003976319, 6.58249E-06, 0.0005187925, -0.9999979, -0.001388299
 201630982, -4.677661E-05, 0.0109428, 4.346659E-05, 0.00104407, 0.000103528, 0.003769977, 0.0003801386, 0.0005187925, -0.9999979, -0.001382786
 201830902, -0.0001377122, 0.01096072, 0.0002053904, 0.00104407, -0.0007016246, 0.004353487, 1.953059E-06, 0.0005187925, -0.9999979, -0.001376563
 202030822, -0.0005993884, 0.01172401, -0.0002160376, 0.00104407, 0.0002166686, 0.003957053, -0.0001751234, 0.0005187925, -0.9999979, -0.001370503
 202230742, 0.0003084766, 0.01131834, -0.0003545534, 0.00104407, 0.0002780475, 0.004249781, 0.0002765693, 0.0005187925, -0.9999979, -0.001363581
 202430662, 0.0005217837, 0.01146048, -3.371675E-05, 0.00104407, 0.0002104297, 0.004098265, -0.0003642103, 0.0005187925, -0.9999979, -0.001357379
 202631415, 0.0004205398, 0.011319, -0.0005600171, 0.001046232, 0.000305228, 0.003833144, -0.0002019222, 0.0005209541, -0.9999979, -0.001352824
 202831335, 0.0004958264, 0.01108957, -0.000395673, 0.001046232, -0.0001080797, 0.003813016, 3.617389E-05, 0.0005187925, -0.9999979, -0.001346439
 203031255, -9.493293E-05, 0.01128456, -2.725699E-05, 0.00104407, 0.0004501411, 0.004693598, 0.0002098495, 0.0005187925, -0.9999978, -0.001338956
 203231175, 0.0003415783, 0.01199252, -0.00015351, 0.00104407, 5.179775E-05, 0.004318689, -0.0005483961, 0.0005187925, -0.9999978, -0.001331763
 203431095, 0.0001564345, 0.01141006, -0.0005781531, 0.00104407, 0.0002686385, 0.004123859, 0.0001696623, 0.0005187925, -0.9999978, -0.001322836
 203631015, 0.0004303468, 0.01162107, 0.0003200847, 0.00104407, 0.0004305172, 0.004210549, 2.561379E-05, 0.0005187925, -0.9999978, -0.001315597
 203830935, 0.0004616735, 0.01177534, -1.65742E-05, 0.00104407, -0.0002121887, 0.004331297, -5.168039E-05, 0.0005187925, -0.9999978, -0.001322496
 204030855, 9.389073E-05, 0.01174488, -0.0003033449, 0.00104407, 0.0001585579, 0.004288862, -0.0003156638, 0.0005187925, -0.9999978, -0.001329283
 204230775, 0.0002667398, 0.0116106, -0.0005106277, 0.00104407, 0.0004298908, 0.004101602, -0.0002573223, 0.0005187925, -0.9999978, -0.001334533
 204430695, 0.0005910139, 0.01134223, -0.0005941781, 0.00104407, -0.0001395818, 0.004243896, -0.0002170362, 0.0005187925, -0.9999978, -0.001338868
 204631448, -0.0001134102, 0.01153857, -3.844191E-05, 0.001046232, -1.015939E-05, 0.004492376, -0.0003148929, 0.0005209541, -0.9999979, -0.001344857
 204831368, 0.0001454994, 0.01143024, -0.0001707217, 0.001046232, -9.967092E-05, 0.003904133, 0.0001323039, 0.0005187925, -0.9999978, -0.001346593
 205031288, -0.0002061059, 0.01129028, -0.0003141314, 0.00104407, 1.539463E-05, 0.004400531, -0.0002650249, 0.0005187925, -0.9999978, -0.001347742
 205231208, -7.112166E-05, 0.01165712, -0.0003875374, 0.00104407, 0.0002181764, 0.004176996, -0.0002516097, 0.0005187925, -0.9999978, -0.001348836
 205431128, 0.0002996259, 0.01131022, -0.0002050307, 0.00104407, -0.0001752659, 0.003596672, 0.0002992827, 0.0005187925, -0.9999978, -0.001350239
 205631048, 7.857273E-05, 0.01106423, -2.449371E-05, 0.00104407, 1.913332E-05, 0.00389372, 0.0002990575, 0.0005187925, -0.9999978, -0.001350295
 205830968, -6.685394E-05, 0.01122606, 0.0001730406, 0.00104407, -0.000152927, 0.004426036, 0.0001697135, 0.0005187925, -0.9999978, -0.001348388
 206030888, 6.48386E-06, 0.01160021, -0.0001446646, 0.00104407, -0.0001842697, 0.003977406, -0.0002030776, 0.0005187925, -0.9999978, -0.001346634
 206230808, 6.760348E-05, 0.01111661, -0.0002149794, 0.00104407, 5.669926E-05, 0.004211195, 6.193781E-05, 0.0005187925, -0.9999978, -0.001344863
 206430728, 0.0002157385, 0.01135264, 0.0001564401, 0.00104407, 0.0003191665, 0.0041101, -0.0001420049, 0.0005187925, -0.9999979, -0.00134299
 206631481, 0.0004907052, 0.01138232, -0.0001245226, 0.001046232, -6.529663E-07, 0.00437266, 7.455947E-06, 0.0005209541, -0.9999978, -0.001342186
 206831401, -8.552512E-05, 0.01188066, 8.831664E-05, 0.001046232, -5.797717E-05, 0.004160238, -1.239638E-05, 0.0005187925, -0.9999979, -0.001340664
 207031321, -0.0001844388, 0.0112078, -0.00033697, 0.00104407, -0.0001201376, 0.004477202, -0.0004660304, 0.0005187925, -0.9999979, -0.001338081
 207231241, 4.123988E-05, 0.01174583, -0.0004956493, 0.00104407, -9.242488E-05, 0.00384242, -3.733321E-06, 0.0005187925, -0.9999979, -0.001333343
 207431161, -0.0001819715, 0.01090142, 3.126205E-05, 0.00104407, -0.0002810762, 0.004179652, 0.0001034764, 0.0005187925, -0.9999979, -0.001328447
 207631081, -0.0001142651, 0.01139282, -7.65053E-05, 0.00104407, 0.0002362249, 0.004462563, 0.0001337494, 0.0005187925, -0.9999979, -0.001323577
 207831001, 0.000131521, 0.01151879, 0.0001772803, 0.00104407, -1.413742E-05, 0.003712189, 0.0006057413, 0.0005187925, -0.9999979, -0.001318768
 208030921, -0.000185147, 0.01136621, 0.0004715977, 0.00104407, -0.0001748734, 0.004353684, 0.0004413353, 0.0005187925, -0.9999979, -0.001313385
 208230841, -1.050274E-05, 0.01164584, 0.0003338956, 0.00104407, 0.0002126285, 0.004018109, -0.0002657923, 0.0005187925, -0.9999979, -0.001307436
 208430761, -3.175423E-05, 0.0112955, -0.0003115075, 0.00104407, -0.0002268022, 0.004471406, -0.0002248258, 0.0005187925, -0.9999979, -0.001302493
 208630681, -0.000161119, 0.01190871, -0.0004493645, 0.00104407, -3.760045E-05, 0.004208446, -0.0001123956, 0.0005187925, -0.9999978, -0.001296298
 208831434, 4.691078E-05, 0.01201019, -0.0001148622, 0.001046232, 0.0002325129, 0.004457328, -4.445045E-05, 0.0005209541, -0.9999979, -0.001292282
 209031354, 0.0005226361, 0.01184555, 7.555127E-05, 0.001046232, 0.0005782829, 0.004158032, 0.0007087816, 0.0005187925, -0.9999979, -0.001300963
 209231274, 0.0006549148, 0.01145905, 0.0007659661, 0.00104407, 0.0001214478, 0.003986858, 0.0005094934, 0.0005187925, -0.9999979, -0.00130736
 209431194, 6.638982E-05, 0.01140178, 0.0003324074, 0.00104407, -0.0003778666, 0.003722957, -0.000303476, 0.0005187925, -0.9999979, -0.001313012
 209631114, -0.0006298709, 0.01103405, -0.0002310638, 0.00104407, 1.503589E-05, 0.004257195, 2.612499E-05, 0.0005187925, -0.9999979, -0.001317868
 209831034, -0.0001121486, 0.01159954, 1.138232E-05, 0.00104407, 0.0001331955, 0.004796493, 2.001439E-05, 0.0005187925, -0.9999979, -0.001321343
 210030954, 0.0002533183, 0.01213335, 0.0001516176, 0.00104407, 2.808951E-05, 0.004246698, -0.0002202655, 0.0005187925, -0.9999979, -0.00132509
 210230874, -0.0001616238, 0.01159794, -8.67592E-05, 0.00104407, -0.0003043831, 0.004164228, 0.0002420613, 0.0005187925, -0.9999979, -0.001327733
 210430794, -0.0002119999, 0.01150343, 0.0001257763, 0.00104407, 0.0001878316, 0.004380622, -4.94187E-05, 0.0005187925, -0.9999979, -0.001328918
 210630714, 0.0001081528, 0.01115356, -6.913636E-05, 0.00104407, 0.0004010914, 0.003875213, -0.0001463614, 0.0005187925, -0.9999979, -0.001327298
 210831467, 0.000284963, 0.01135885, -2.45509E-05, 0.001046232, 0.0001127503, 0.003764944, 7.394017E-05, 0.0005209541, -0.9999979, -0.001327837
 211031387, 0.0001503828, 0.01118107, 8.91988E-05, 0.001046232, 3.886606E-06, 0.004263822, -0.0003975719, 0.0005187925, -0.9999979, -0.001327742
 211231307, 5.898182E-05, 0.01126306, -0.0007132549, 0.00104407, -6.723308E-05, 0.003742499, -1.346528E-06, 0.0005187925, -0.9999979, -0.001326744
 211431227, -0.0002901498, 0.01109424, -0.0003101359, 0.00104407, 0.0003255769, 0.004329458, 0.0001802319, 0.0005187925, -0.9999979, -0.001324061
 211631147, 0.0002378704, 0.01149147, -0.0001335456, 0.00104407, -0.0004243274, 0.0040577, -0.0001964188, 0.0005187925, -0.9999979, -0.001322356
 211831067, -0.0008231308, 0.01129525, -0.0002097232, 0.00104407, -0.000101265, 0.004310945, -0.0004224184, 0.0005187925, -0.9999979, -0.001319979
 212030987, 1.559062E-05, 0.01175991, -0.0004121515, 0.00104407, 0.0002302712, 0.004444322, 5.811273E-05, 0.0005187925, -0.9999979, -0.00131637
 212230907, 0.0002382582, 0.011531, 0.0001753832, 0.00104407, 6.074424E-05, 0.004018348, 0.0002920031, 0.0005187925, -0.9999979, -0.001313097
 212430827, 0.0001969717, 0.01110798, 0.0001499959, 0.00104407, 0.0003190881, 0.004050394, -0.0003114074, 0.0005187925, -0.9999979, -0.001308454
 212630747, 0.0003776552, 0.01118164, -0.0002503026, 0.00104407, 0.0001147148, 0.003733013, 0.0001252114, 0.0005187925, -0.9999979, -0.001303985
 212830667, -0.0001980695, 0.01071616, -6.651006E-05, 0.00104407, -0.0003139434, 0.004182183, -0.000163914, 0.0005187925, -0.9999979, -0.001299126
 213031420, -0.0002851948, 0.0113916, -0.0006205468, 0.001046232, -0.0005166411, 0.003702658, -0.0001847394, 0.0005209541, -0.9999979, -0.001295708
 213231340, -0.0004598525, 0.01124914, 3.984562E-05, 0.001046232, 0.0002286676, 0.004088079, 0.0004835578, 0.0005187925, -0.9999979, -0.001290823
 213431260, 0.0002528933, 0.01138551, 0.0005230551, 0.00104407, -0.0001843499, 0.004322127, -0.0001592619, 0.0005187925, -0.9999979, -0.001283487
 213631180, -0.0001539842, 0.01145262, -0.0003649634, 0.00104407, -4.248962E-05, 0.003948062, -0.0005170791, 0.0005187925, -0.9999979, -0.00127802
 213831100, -0.0001243558, 0.01119389, -0.0007286911, 0.00104407, -8.711925E-05, 0.003805488, -0.0003285417, 0.0005187925, -0.9999979, -0.001272241
 214031020, 0.0002398063, 0.01140811, -0.0004023323, 0.00104407, 3.310417E-05, 0.004447519, 7.26993E-05, 0.0005187925, -0.9999979, -0.00126628
 214230940, 0.0002050106, 0.01195514, 7.468571E-05, 0.00104407, -7.130118E-05, 0.003903743, 2.907545E-06, 0.0005187925, -0.9999979, -0.001275765
 214430860, 0.0003922253, 0.01115383, -3.982413E-06, 0.00104407, -6.729802E-05, 0.004140456, 6.325102E-06, 0.0005187925, -0.9999979, -0.00128439
 214630780, 0.0001781391, 0.01169887, -0.0003113979, 0.00104407, -8.348525E-05, 0.004248855, -0.0003350562, 0.0005187925, -0.9999979, -0.001291763
 214830700, 4.173561E-05, 0.01191023, -0.0003923729, 0.00104407, 7.868042E-05, 0.004641948, -6.991927E-05, 0.0005187925, -0.9999979, -0.001298574
 215031453, 0.0001159482, 0.0120458, -0.0006385742, 0.001046232, 0.0001922404, 0.004573137, -0.0003640228, 0.0005209541, -0.9999979, -0.001303929
 215231373, 6.290392E-05, 0.01221874, -0.0005562639, 0.001046232, -5.199343E-06, 0.004388936, 8.819156E-06, 0.0005187925, -0.9999979, -0.001307997
 215431293, 0.0001459696, 0.01150527, 5.903385E-05, 0.00104407, 6.778722E-05, 0.003892733, 0.0003562431, 0.0005187925, -0.9999979, -0.001310147
 215631213, 9.047964E-05, 0.01117643, 0.0002702465, 0.00104407, -0.0001521027, 0.003718026, -0.0002388082, 0.0005187925, -0.9999979, -0.001311777
 215831133, 0.0002319062, 0.0106926, -0.0001957824, 0.00104407, 0.0003307209, 0.004202756, -1.139661E-05, 0.0005187925, -0.9999979, -0.001313105
 216031053, 0.0005039921, 0.01131071, -8.614075E-05, 0.00104407, 0.0001619488, 0.004340516, -9.673421E-05, 0.0005187925, -0.9999979, -0.001313379
 216230973, 0.0003390696, 0.01159768, -0.0002307278, 0.00104407, 0.0002443334, 0.003626735, 2.176129E-05, 0.0005187925, -0.9999979, -0.001313599
 216430893, 0.0007153292, 0.01083498, -0.0003015969, 0.00104407, 0.0003048901, 0.004294931, -0.0002478061, 0.0005187925, -0.9999979, -0.001312963
 216630813, 9.823438E-05, 0.0114483, -0.0002903027, 0.00104407, 0.0002385263, 0.004286882, 0.0004953083, 0.0005187925, -0.9999979, -0.001312383
 216830733, -4.863581E-05, 0.01149462, 4.415531E-05, 0.00104407, -0.0003325694, 0.003685311, -0.00030773, 0.0005187925, -0.9999979, -0.001310057
 217031486, -0.0001948232, 0.01079009, -0.0009242313, 0.001046232, -0.0001124908, 0.003815742, -0.0002809497, 0.0005187925, -0.9999979, -0.001306277
 217231406, 0.0001218527, 0.01101967, -0.0001301475, 0.001046232, -6.57802E-05, 0.004166398, 0.0001127694, 0.0005209541, -0.9999979, -0.001304731
 217431326, -1.227601E-05, 0.01130537, 1.470053E-05, 0.001046232, 0.0003247179, 0.004174174, -0.0001005581, 0.0005187925, -0.9999979, -0.001301434
 217631246, -0.0001260647, 0.01124651, -0.0003085725, 0.00104407, -0.000346734, 0.004237555, -0.0003445987, 0.0005187925, -0.9999979, -0.001296027
 217831166, -0.0006868036, 0.01179693, -0.0003805224, 0.00104407, -0.0001950515, 0.004252614, 1.794335E-05, 0.0005187925, -0.9999979, -0.001293669
 218031086, -0.0001129747, 0.01155185, -0.0003105507, 0.00104407, -0.0001169821, 0.004105642, -0.0001580321, 0.0005187925, -0.9999979, -0.001290754
 218231006, -0.0001689325, 0.01123422, -0.0003718545, 0.00104407, -0.0001475941, 0.003996837, -0.0001042878, 0.0005187925, -0.9999979, -0.001287271
 218430926, 0.0001004847, 0.01142244, -0.000158044, 0.00104407, -5.363957E-05, 0.004405155, -0.0001310337, 0.0005187925, -0.9999979, -0.001284023
 218630846, -9.137689E-05, 0.01162151, -0.0005191037, 0.00104407, 0.0001033686, 0.004278852, 0.0004018201, 0.0005187925, -0.9999978, -0.001280204
 218830766, 0.0001711815, 0.01174986, 6.826888E-05, 0.00104407, -0.0002440857, 0.004369495, -0.0003917044, 0.0005187925, -0.9999978, -0.001276379
 219030686, -0.0004046847, 0.01181111, -0.000373294, 0.00104407, -5.155686E-05, 0.004251729, -0.0002352822, 0.0005187925, -0.9999978, -0.001273209
 219231439, 0.0002385315, 0.01198771, -0.000551393, 0.001046232, 0.0001599935, 0.004230273, -0.0002926081, 0.0005209541, -0.9999978, -0.001269673
 219431359, 0.0004277895, 0.01146327, -0.00028923, 0.001046232, 0.0004932331, 0.00449559, -0.0001003746, 0.0005187925, -0.9999978, -0.00127954
 219631279, 0.0005677768, 0.01160749, -0.0004472171, 0.00104407, 3.71762E-05, 0.004072689, -0.0001995218, 0.0005187925, -0.9999978, -0.001287651
 219831199, 0.0001230645, 0.01147932, -0.0004170525, 0.00104407, 0.0001239642, 0.004237304, 5.286365E-05, 0.0005187925, -0.9999978, -0.001295848
 220031119, 0.0001584144, 0.01161622, -0.0001792155, 0.00104407, -1.025023E-05, 0.004500284, 9.418416E-05, 0.0005187925, -0.9999978, -0.001303726
 220231039, 7.386952E-05, 0.01153119, -0.0002241298, 0.00104407, -0.0001169805, 0.003857425, 5.07974E-05, 0.0005187925, -0.9999978, -0.001311888
 220430959, -0.0002460968, 0.01115752, 0.0001217569, 0.00104407, -0.0001158597, 0.004249854, 3.85893E-05, 0.0005187925, -0.9999978, -0.00131933
 220630879, -0.0003308992, 0.01176682, -5.823667E-05, 0.00104407, -0.0002723878, 0.004212569, -8.501108E-05, 0.0005187925, -0.9999978, -0.001324652
 220830799, -0.0003901584, 0.01170095, 0.0001295894, 0.00104407, -0.0004769833, 0.004971168, 0.0001539723, 0.0005187925, -0.9999978, -0.001329562
 221030719, -0.0004099868, 0.01240489, -0.0001289495, 0.00104407, 0.000445976, 0.004026928, 0.0002108636, 0.0005187925, -0.9999978, -0.001333399
 221231472, 0.0006540471, 0.01115698, -9.269816E-05, 0.001046232, 0.0002812774, 0.003801476, -6.891711E-05, 0.0005209541, -0.9999978, -0.001334458
 221431392, 0.0001813596, 0.01128871, -0.0003688886, 0.001046232, 0.0001657123, 0.004456481, 0.0004574733, 0.0005187925, -0.9999978, -0.001338174
 221631312, 0.000534166, 0.01166346, 0.0004727963, 0.00104407, 0.0004467356, 0.00411613, -0.000167907, 0.0005187925, -0.9999978, -0.001341112
 221831232, 0.000266166, 0.01138039, -0.0006017445, 0.00104407, -0.0004909026, 0.004324502, -0.0001576889, 0.0005187925, -0.9999978, -0.001341328
 222031152, -0.0003658257, 0.01183775, -0.0003012298, 0.00104407, -0.0001189284, 0.004106191, 0.0001813115, 0.0005187925, -0.9999978, -0.001341526
 222231072, -0.0001017617, 0.0115328, -3.661952E-05, 0.00104407, 0.0002316767, 0.004177837, 0.000238446, 0.0005187925, -0.9999978, -0.001341384
 222430992, 0.0001963068, 0.01161363, -0.0001798065, 0.00104407, 0.0001064242, 0.004287723, -0.0004018153, 0.0005187925, -0.9999978, -0.001341628
 222630912, -0.0002520808, 0.01133422, -0.0007147397, 0.00104407, -0.0002163996, 0.004144546, -0.0007034324, 0.0005187925, -0.9999978, -0.001343242
 222830832, 6.444188E-05, 0.01155004, -0.0007191536, 0.00104407, -0.0002392334, 0.004872104, -0.0001450078, 0.0005187925, -0.9999978, -0.001343805
 223030752, -0.0002769111, 0.01195891, -0.0005157255, 0.00104407, -0.0002870364, 0.003945984, -0.0002512618, 0.0005187925, -0.9999978, -0.001342979
 223230672, -0.0006363165, 0.01106554, -0.0003303933, 0.00104407, -1.836708E-05, 0.00424507, -0.0001749519, 0.0005187925, -0.9999978, -0.001341401
 223431425, 8.766716E-06, 0.01149403, -0.0003749396, 0.001046232, -6.34873E-07, 0.004094245, -0.0005222579, 0.0005209541, -0.9999978, -0.001339354
 223631345, -5.892247E-05, 0.01148508, -0.0008506064, 0.001046232, -0.0003526994, 0.004371303, -0.0001855036, 0.0005187925, -0.9999978, -0.001336851
 223831265, -0.0005844939, 0.01168563, -0.0002850894, 0.00104407, -0.0001729177, 0.00440225, 6.444737E-05, 0.0005187925, -0.9999978, -0.001333122
 224031185, -0.0005552433, 0.01199017, 5.386339E-05, 0.00104407, -0.0005563692, 0.004589227, -0.0001842108, 0.0005187925, -0.9999978, -0.001330275
 224231105, -0.000549685, 0.01201324, -0.0004304737, 0.00104407, -9.704463E-05, 0.004082154, -0.0003406163, 0.0005187925, -0.9999978, -0.001327267
 224431025, 4.688568E-05, 0.0113179, -0.0005397545, 0.00104407, -0.0003089371, 0.00449151, 0.0001007225, 0.0005187925, -0.9999978, -0.001323938
 224630945, -0.0005121556, 0.01173995, -0.0002015715, 0.00104407, -0.0002835236, 0.004284317, -8.745747E-05, 0.0005187925, -0.9999977, -0.001336416
 224830865, -2.30275E-05, 0.01171994, -7.297578E-05, 0.00104407, -1.193061E-05, 0.003887581, -0.0001054127, 0.0005187925, -0.9999977, -0.001347814
 225030785, -0.0001354671, 0.01123995, -2.330565E-05, 0.00104407, -0.0004814402, 0.004212356, 0.0001670753, 0.0005187925, -0.9999977, -0.001360224
 225230705, -0.0001135709, 0.01138828, 0.0001096537, 0.00104407, 0.0002762221, 0.004647952, -8.242528E-05, 0.0005187925, -0.9999977, -0.001369747
 225431458, 0.0002127786, 0.01197548, -0.0004122404, 0.001046232, 0.0001511007, 0.004384568, 4.038393E-06, 0.0005209541, -0.9999977, -0.001378862
 225631378, -0.0001706081, 0.01171248, -0.0004189223, 0.001046232, -0.0001368727, 0.003929405, -0.0003513409, 0.0005187925, -0.9999977, -0.001386656
 225831298, 0.0001387548, 0.01176383, -0.0004343643, 0.00104407, 0.0001224602, 0.004355661, -0.0001222002, 0.0005187925, -0.9999977, -0.001392376
 226031218, 0.0002291618, 0.0116294, -0.0001678213, 0.00104407, -0.0002029606, 0.004173376, 6.540063E-05, 0.0005187925, -0.9999977, -0.001396942
 226231138, -8.559671E-05, 0.01136584, -0.0001734493, 0.00104407, -0.0001354993, 0.004224623, 9.267197E-06, 0.0005187925, -0.9999977, -0.001402247
 226431058, -0.0002219806, 0.01157149, -0.0005103072, 0.00104407, 3.661471E-05, 0.004192882, -0.0003471082, 0.0005187925, -0.9999977, -0.00140743
 226630978, -2.145881E-05, 0.01176776, -0.0004523113, 0.00104407, 0.0001235933, 0.004447694, -0.0002797104, 0.0005187925, -0.9999977, -0.001411174
 226830898, -0.0001230871, 0.01177816, -0.0006858669, 0.00104407, -0.0002245231, 0.004072392, -0.0002011734, 0.0005187925, -0.9999977, -0.001414768
 227030818, -0.0002745637, 0.01145952, -0.0003498167, 0.00104407, 0.0002627593, 0.004099865, -0.0002341514, 0.0005187925, -0.9999977, -0.001417887
 227230738, 0.0003727332, 0.01173661, -0.0004259288, 0.00104407, 0.0002506287, 0.004070411, -0.0003996072, 0.0005187925, -0.9999977, -0.00141954
 227430658, 0.000315758, 0.01152293, -0.0006051956, 0.00104407, -0.0003769927, 0.004428428, -7.745861E-05, 0.0005187925, -0.9999977, -0.001423127
 227631411, -0.0004752337, 0.0120517, 8.19542E-05, 0.001046232, -1.903128E-05, 0.004353752, 0.0001086841, 0.0005209541, -0.9999977, -0.00142442
 227831331, 0.0001757073, 0.01214776, -0.0004257104, 0.001046232, 0.0001864475, 0.004393836, -0.000352486, 0.0005187925, -0.9999977, -0.001424753
 228031251, 0.0003592301, 0.01149258, -0.0006424548, 0.00104407, -0.0001630423, 0.00444838, -3.032425E-05, 0.0005187925, -0.9999977, -0.001423832
 228231171, -0.0001476999, 0.01199851, -0.0001065865, 0.00104407, 0.0003413939, 0.00450365, -0.0005751788, 0.0005187925, -0.9999977, -0.00142296
 228431091, 0.0006506155, 0.01181171, -0.0006180267, 0.00104407, 0.0005436896, 0.004383083, -0.0003168507, 0.0005187925, -0.9999977, -0.001421258
 228631011, 0.0007936519, 0.0117396, -0.0002791813, 0.00104407, 0.0001190663, 0.003966582, -2.900751E-05, 0.0005187925, -0.9999977, -0.001420702
 228830931, 0.0003421058, 0.01154344, -4.713914E-05, 0.00104407, 0.0001851178, 0.004742335, 0.0002549355, 0.0005187925, -0.9999976, -0.001418866
 229030851, 0.0001523176, 0.0122127, 0.0002378727, 0.00104407, -0.0002216923, 0.004365748, -0.0003485417, 0.0005187925, -0.9999976, -0.001416828
 229230771, -0.0004817094, 0.0117153, -0.0006315518, 0.00104407, -7.46311E-05, 0.004014537, -0.0001996159, 0.0005187925, -0.9999976, -0.001414639
 229430691, 0.0002495218, 0.0115559, -0.0004095037, 0.00104407, -0.0001344953, 0.004344335, 0.0003421463, 0.0005187925, -0.9999976, -0.001412929
 229631444, 9.565285E-05, 0.01161434, 0.0003778607, 0.001046232, -3.978219E-05, 0.00437131, 8.045592E-05, 0.0005209541, -0.9999976, -0.001413095
 229831364, 0.0001031935, 0.01208174, -1.86663E-05, 0.001046232, 0.0001560087, 0.004814153, -0.0001224981, 0.0005187925, -0.9999976, -0.001425641
 230031284, -0.0001415622, 0.01217013, -0.000726284, 0.00104407, -3.340006E-05, 0.004231673, -0.0003464337, 0.0005187925, -0.9999976, -0.001436096
 230231204, -8.953986E-05, 0.01150233, -0.0005690966, 0.00104407, -0.000158367, 0.004498275, 6.912207E-05, 0.0005187925, -0.9999976, -0.001447175
 230431124, -0.0001984997, 0.01188248, 9.416985E-05, 0.00104407, -0.0001832571, 0.003971788, 0.0002685057, 0.0005187925, -0.9999976, -0.001455971
 230631044, 2.908251E-06, 0.01141915, 0.0001965415, 0.00104407, 0.0001092478, 0.004724619, -0.0001028627, 0.0005187925, -0.9999976, -0.001464005
 230830964, 0.0001695882, 0.01232864, -0.0001859076, 0.00104407, -0.0003001779, 0.004615849, -0.0001979155, 0.0005187925, -0.9999976, -0.00147051
 231030884, -0.0004129961, 0.01187524, -0.0003838505, 0.00104407, 9.740604E-05, 0.004312253, 0.0001111682, 0.0005187925, -0.9999976, -0.001476398
 231230804, -0.0001255693, 0.01186962, -0.0002793565, 0.00104407, -0.0004273488, 0.004314928, -0.0001273409, 0.0005187925, -0.9999976, -0.001481498
 231430724, -0.0007085194, 0.01159244, -0.0004234122, 0.00104407, 3.634904E-05, 0.004220858, -6.364425E-06, 0.0005187925, -0.9999976, -0.001483998
 231631477, -1.923178E-05, 0.01159107, -0.0005100864, 0.001046232, -8.166915E-05, 0.003978821, -0.0001658948, 0.0005209541, -0.9999976, -0.001487122
 231831397, -0.0002501845, 0.01123946, -0.0001369303, 0.001046232, -0.000166195, 0.004403957, 0.0001405046, 0.0005187925, -0.9999976, -0.001491181
 232031317, -0.0003459998, 0.01157479, 9.643506E-05, 0.00104407, -0.0001274418, 0.004075113, 5.344517E-05, 0.0005187925, -0.9999976, -0.001492861
 232231237, -0.0003436447, 0.01127307, -1.932445E-05, 0.00104407, -0.0002352355, 0.004028743, -0.0002052701, 0.0005187925, -0.9999976, -0.001491833
 232431157, -2.52467E-06, 0.01125556, -0.0003221903, 0.00104407, 0.0001082229, 0.004036568, -0.0002248424, 0.0005187925, -0.9999976, -0.001491404
 232631077, 3.120549E-05, 0.01111186, -0.0004176947, 0.00104407, -0.0001741898, 0.004323175, 0.0001751604, 0.0005187925, -0.9999976, -0.001491333
 232830997, -6.582994E-05, 0.01189133, 0.0003071986, 0.00104407, -3.046003E-05, 0.004366052, -0.0001021394, 0.0005187925, -0.9999976, -0.001491123
 233030917, 0.0001241744, 0.01215848, -0.0003209594, 0.00104407, -0.0001106286, 0.004575536, 2.902181E-05, 0.0005187925, -0.9999976, -0.001490014
 233230837, -0.0003889019, 0.01172823, -0.0003222082, 0.00104407, -0.0005604453, 0.004196349, 0.0003680711, 0.0005187925, -0.9999976, -0.001488005
 233430757, -0.0008386771, 0.01140709, 0.0004326734, 0.00104407, -0.0003026052, 0.004072908, 0.0001815677, 0.0005187925, -0.9999976, -0.001485976
 233630677, -0.0005514509, 0.01145907, 6.921739E-05, 0.00104407, -0.0001282351, 0.004211803, 0.0002481159, 0.0005187925, -0.9999976, -0.001482677
 233831430, -0.0003256488, 0.01152696, -0.0001191171, 0.001046232, -0.0001059501, 0.004150855, -3.290687E-05, 0.0005209541, -0.9999976, -0.001482356
 234031350, 0.0001265124, 0.01164729, -0.0001759973, 0.001046232, -0.0003493182, 0.003993553, -0.0001710434, 0.0005187925, -0.9999976, -0.001478845
 234231270, -0.0001164853, 0.01139635, -0.0004460457, 0.00104407, 0.000430906, 0.004075232, -0.0004481358, 0.0005187925, -0.9999976, -0.001474599
 234431190, 0.0006305884, 0.01134186, -0.0003291506, 0.00104407, -0.0001609648, 0.004002195, -0.0003319664, 0.0005187925, -0.9999976, -0.001471024
 234631110, -0.0001695642, 0.01165787, -0.0006445858, 0.00104407, 8.720929E-05, 0.004388264, 0.0001009239, 0.0005187925, -0.9999976, -0.001468301
 234831030, 4.818166E-05, 0.01214007, -0.0001067736, 0.00104407, 0.0001554623, 0.004381729, -0.0002429538, 0.0005187925, -0.9999976, -0.001464291
 235030950, 7.254689E-05, 0.01160567, -0.0005341264, 0.00104407, -9.7262E-05, 0.004071217, -0.000528384, 0.0005187925, -0.9999976, -0.001474975
 235230870, -9.407736E-05, 0.01131891, -0.000887146, 0.00104407, 0.0001110559, 0.004153913, -7.004795E-05, 0.0005187925, -0.9999976, -0.001485215
 235430790, 0.000207094, 0.01147031, -0.0001581608, 0.00104407, 0.0002932984, 0.004601312, -0.0001175613, 0.0005187925, -0.9999976, -0.001493614
 235630710, 0.0003565542, 0.01197374, -0.0003279721, 0.00104407, 0.0001546425, 0.004478442, 0.0002100247, 0.0005187925, -0.9999976, -0.001502539
 235831463, -7.296864E-05, 0.01167758, 0.0002491244, 0.001046232, -0.0002157718, 0.003765952, -2.456001E-05, 0.0005209541, -0.9999976, -0.001511247
 236031383, -0.0007494256, 0.01112932, -0.0001948443, 0.001046232, -0.0007407289, 0.004499206, -5.991088E-05, 0.0005187925, -0.9999974, -0.001517607
 236231303, -0.0008025675, 0.01168537, -9.972515E-05, 0.00104407, -6.9537E-05, 0.004217977, 0.0001157762, 0.0005187925, -0.9999974, -0.001522992
 236431223, 0.000259035, 0.0113933, -0.0001798268, 0.00104407, 0.0003468686, 0.004518816, -0.0005036996, 0.0005187925, -0.9999974, -0.00152623
 236631143, 0.0003493385, 0.01139545, -0.0007817046, 0.00104407, -0.0001898095, 0.00415572, -0.0004187816, 0.0005187925, -0.9999974, -0.00153093
 236831063, -0.0002856855, 0.01132647, -0.0003029565, 0.00104407, -0.0005245088, 0.00415761, 0.0002060674, 0.0005187925, -0.9999974, -0.001534293
 237030983, -0.0003068229, 0.0116234, 0.0001758682, 0.00104407, 0.0002391038, 0.004503883, -0.0002676214, 0.0005187925, -0.9999974, -0.001537756
 237230903, 6.102792E-05, 0.01216632, -0.0004119988, 0.00104407, 0.0005181552, 0.004151786, -0.0002994055, 0.0005187925, -0.9999974, -0.001540082
 237430823, 2.749938E-05, 0.01160034, -0.000520436, 0.00104407, -0.0002242523, 0.004438764, -0.0001655977, 0.0005187925, -0.9999974, -0.001542217
 237630743, -0.0002313743, 0.01159214, -6.377294E-05, 0.00104407, -0.0001743574, 0.003665381, -0.0001534706, 0.0005187925, -0.9999974, -0.001543229
 237830663, -0.000221501, 0.01086066, -9.619318E-05, 0.00104407, 0.0003275223, 0.004359011, -0.0001197657, 0.0005187925, -0.9999974, -0.001544295
 238031416, 0.0004729756, 0.01206009, -0.0004427425, 0.001046232, 4.169034E-05, 0.004449865, -0.0002260174, 0.0005209541, -0.9999974, -0.001546444
 238231336, -8.953991E-05, 0.01175557, -0.000397989, 0.001046232, -4.974724E-05, 0.004116085, -0.000196787, 0.0005187925, -0.9999974, -0.001547259
 238431256, 8.241584E-05, 0.0115293, -0.0002830565, 0.00104407, 0.0001536801, 0.00434016, -0.0001737328, 0.0005187925, -0.9999974, -0.001544931
 238631176, 0.0001204251, 0.01179557, -6.817001E-05, 0.00104407, -1.185868E-05, 0.004238986, -0.000108026, 0.0005187925, -0.9999974, -0.001544237
 238831096, -0.0002506045, 0.01138881, -0.0002477311, 0.00104407, -0.0002007811, 0.004280894, -0.0001339043, 0.0005187925, -0.9999974, -0.001541967
 239031016, -0.0001727179, 0.01131703, -0.0001707991, 0.00104407, -0.0004806395, 0.003838606, -0.0001910161, 0.0005187925, -0.9999974, -0.001539948
 239230936, -0.00048167, 0.01115697, -0.0005036545, 0.00104407, -0.00049319, 0.00424959, -0.0003617663, 0.0005187925, -0.9999974, -0.001537677
 239430856, -0.0003222867, 0.01157389, -0.0005021231, 0.00104407, 5.521296E-05, 0.004134399, 0.0002818363, 0.0005187925, -0.9999974, -0.001535115
 239630776, -5.661194E-05, 0.01165742, 0.0001205438, 0.00104407, -4.431435E-05, 0.004283193, -1.036945E-05, 0.0005187925, -0.9999974, -0.001532516
 239830696, 0.000210297, 0.0118063, -1.62489E-05, 0.00104407, 0.0002971237, 0.004187821, 0.0001265151, 0.0005187925, -0.9999974, -0.001530154
 240031449, 0.0004101103, 0.01162507, 0.0003974937, 0.001046232, -1.702155E-05, 0.004197638, -1.974906E-06, 0.0005209541, -0.9999974, -0.001530259
 240231369, -0.0004451, 0.01175881, -0.0001209232, 0.001046232, -0.0002397637, 0.004482652, -0.0001215949, 0.0005187925, -0.9999974, -0.001539739
 240431289, -0.0001997944, 0.01187465, 0.0001068427, 0.00104407, -6.379638E-05, 0.003978999, -1.86333E-05, 0.0005187925, -0.9999974, -0.001547011
 240631209, -0.000523637, 0.01138669, -0.0002538428, 0.00104407, -0.0001426205, 0.004381709, -0.0003792866, 0.0005187925, -0.9999974, -0.001554267
 240831129, -0.0003173998, 0.01184883, -0.0007170038, 0.00104407, -0.0004113205, 0.004247516, -0.0003288038, 0.0005187925, -0.9999974, -0.001561789
 241031049, -0.0002264443, 0.01115889, -0.0004477152, 0.00104407, -9.207687E-05, 0.003696102, -9.552232E-05, 0.0005187925, -0.9999974, -0.001567652
 241230969, -0.0005442378, 0.01115472, -0.0001255534, 0.00104407, -0.0002829306, 0.004352241, 0.0001143487, 0.0005187925, -0.9999974, -0.001572746
 241430889, -0.0003503896, 0.01171251, 0.0001035359, 0.00104407, -0.0001551169, 0.004260487, -0.0003602482, 0.0005187925, -0.9999974, -0.001577594
 241630809, -0.0002443558, 0.01156423, -0.0005140323, 0.00104407, -0.0002509581, 0.004240498, 3.355233E-05, 0.0005187925, -0.9999973, -0.00158174
 241830729, -9.271205E-05, 0.0114502, -0.0003003325, 0.00104407, 0.0003345851, 0.003646775, -0.0001587936, 0.0005187925, -0.9999974, -0.001584686
 242031482, 0.0003474917, 0.01133188, -0.0001039077, 0.001046232, -1.656664E-05, 0.004282294, -3.422598E-05, 0.0005209541, -0.9999973, -0.001589129
 242231402, -3.08415E-05, 0.01153077, -5.996133E-05, 0.001046232, -0.0001886315, 0.004749654, 7.602749E-05, 0.0005187925, -0.9999973, -0.001592679
 242431322, -0.0002915275, 0.01206249, -0.0003476969, 0.00104407, 7.984736E-06, 0.004462239, -0.0002487272, 0.0005187925, -0.9999973, -0.001594796
 242631242, 8.733805E-06, 0.01185844, -0.0005065798, 0.00104407, 0.0001923814, 0.003770034, 2.65504E-05, 0.0005187925, -0.9999973, -0.001593177
 242831162, 1.712751E-05, 0.01094035, -0.0003395128, 0.00104407, -0.0002412491, 0.004186659, 4.15731E-05, 0.0005187925, -0.9999973, -0.001593693
 243031082, -0.0002897631, 0.0117688, -0.0001506369, 0.00104407, 0.0003249979, 0.004109136, 0.0004304117, 0.0005187925, -0.9999973, -0.001593244
 243231002, 5.876065E-05, 0.01147013, 0.0004458837, 0.00104407, -0.0002298007, 0.004370382, -7.540666E-05, 0.0005187925, -0.9999973, -0.001593751
 243430922, -0.0001177769, 0.01162686, -0.000263029, 0.00104407, 0.0004883107, 0.004030606, -3.96403E-05, 0.0005187925, -0.9999973, -0.001593043
 243630842, 0.0006102354, 0.01171409, -2.67768E-05, 0.00104407, -0.0001367628, 0.004442564, -0.0001247527, 0.0005187925, -0.9999973, -0.001591872
 243830762, -0.0003087129, 0.01209396, -0.0003079338, 0.00104407, -0.0003449461, 0.004486046, 8.041859E-05, 0.0005187925, -0.9999973, -0.001590122
 244030682, -0.0005270441, 0.0116773, 0.0001129474, 0.00104407, 8.058139E-05, 0.004526122, -0.0001800556, 0.0005187925, -0.9999973, -0.001587299
 244231435, -0.0004615333, 0.01205786, -0.0004207144, 0.001046232, -0.0001420089, 0.004509466, 0.0001381453, 0.0005209541, -0.9999973, -0.001587942
 244431355, -6.938206E-05, 0.01197457, -0.0001540926, 0.001046232, 0.0001882659, 0.004459377, -0.0001754142, 0.0005187925, -0.9999973, -0.00158478
 244631275, 9.133574E-05, 0.01197932, -0.0004948151, 0.00104407, 0.0002915997, 0.004351518, 7.377056E-05, 0.0005187925, -0.9999973, -0.00157847
 244831195, 0.0002143159, 0.01167661, -0.0002248448, 0.00104407, -0.0002583593, 0.004245045, 7.945701E-06, 0.0005187925, -0.9999973, -0.001574001
 245031115, -0.0003591403, 0.01174471, -0.0002021028, 0.00104407, 0.0002550068, 0.004473924, -8.860498E-05, 0.0005187925, -0.9999973, -0.001567394
 245231035, 0.000535142, 0.01206746, -0.0001383657, 0.00104407, -0.0003296165, 0.004429453, -3.245485E-05, 0.0005187925, -0.9999973, -0.001562544
 245430955, -0.000443054, 0.01183614, -0.0001523946, 0.00104407, -0.000301481, 0.004432111, -0.000560019, 0.0005187925, -0.9999973, -0.001572022
 245630875, -0.0007318677, 0.01187229, -0.0006302395, 0.00104407, -0.0002490288, 0.00414913, 0.0002460938, 0.0005187925, -0.9999974, -0.001579734
 245830795, -0.0003656791, 0.01097142, 0.0001327806, 0.00104407, 0.0001940414, 0.003996488, -0.0004913045, 0.0005187925, -0.9999974, -0.00158671
 246030715, 0.0006571891, 0.01115324, -0.0006342508, 0.00104407, 0.0004618384, 0.003922162, -0.0003673693, 0.0005187925, -0.9999974, -0.001591508
 246231468, 0.0005624533, 0.01115528, -0.0005527795, 0.001046232, -0.0004976217, 0.004042528, -0.0002401615, 0.0005209541, -0.9999974, -0.001597185
 246431388, -0.0005669926, 0.01163605, -0.0009920008, 0.001046232, -1.814607E-05, 0.004038601, -0.0001159931, 0.0005187925, -0.9999973, -0.001602447
 246631308, 0.0001145369, 0.01154643, -0.0002825964, 0.00104407, 7.166057E-05, 0.004675324, -0.0001714306, 0.0005187925, -0.9999974, -0.001605879
 246831228, 8.665457E-05, 0.01154009, -0.0003154303, 0.00104407, -0.0001870318, 0.003820714, -0.0006603162, 0.0005187925, -0.9999974, -0.001606586
 247031148, -0.000251465, 0.01133621, -0.0006086167, 0.00104407, -4.78482E-05, 0.004393251, 0.0004400638, 0.0005187925, -0.9999974, -0.001608144
 247231068, -0.000287996, 0.01186824, 0.0005018157, 0.00104407, 3.332122E-05, 0.004313141, 3.971181E-05, 0.0005187925, -0.9999974, -0.001609294
 247430988, -8.39556E-05, 0.01173313, 2.415405E-05, 0.00104407, -4.178898E-05, 0.004246907, 0.0002638214, 0.0005187925, -0.9999974, -0.001608627
 247630908, -0.0001574485, 0.01162535, -0.006860316, 0.00104407, -2.69541E-06, 0.004331278, -0.001747181, 0.0005187925, -0.9999974, -0.001608586
 247830828, 0.0007040726, 0.01217431, -0.3038755, 0.00104407, 0.0004264363, 0.004651617, -0.1229725, 0.0005187925, -0.9999974, -0.0016072
 248030748, 0.00022132, 0.01189409, -0.07669432, 0.00104407, -0.0003955064, 0.00401909, 0.06873174, 0.0005187925, -0.9999974, -0.001605066
 248230668, -0.0007855764, 0.01112596, 0.04185652, 0.00104407, -2.22635E-05, 0.004471137, -0.1684114, 0.0005187925, -0.9999982, -0.001611558
 248431421, -0.004552615, 0.006728566, -1.498743, 0.001046232, -0.005257574, -0.00115484, -0.716998, 0.0005209541, -0.9999915, -0.001732454
 248631341, -0.01985208, -0.009692061, -1.22792, 0.001046232, -0.009674454, -0.006425411, -0.1155788, 0.0005187925, -0.9999745, -0.001903999
 248831261, -0.02698688, -0.01740513, -0.2375649, 0.00104407, -0.01005258, -0.00607464, -0.0879776, 0.0005187925, -0.9999697, -0.002061708
 249031181, -0.02581125, -0.01505361, -0.3219864, 0.00104407, -0.008646256, -0.004665452, -0.1473486, 0.0005187925, -0.9999708, -0.00221646
 249231101, -0.02250256, -0.01063846, -0.3817451, 0.00104407, -0.007400626, -0.002961272, -0.123075, 0.0005187925, -0.9999733, -0.00236742
 249431021, -0.01927933, -0.006239219, -0.3083537, 0.00104407, -0.006498944, -0.001453142, -0.0996254, 0.0005187925, -0.9999754, -0.002515904
 249630941, -0.01650126, -0.002366217, -0.2608211, 0.00104407, -0.005430649, -0.0003193614, -0.08929796, 0.0005187925, -0.9999773, -0.002658573
 249830861, -0.01358745, 0.0003894055, -0.2336204, 0.00104407, -0.004063727, 0.0006444409, -0.07934564, 0.0005187925, -0.9999791, -0.002805638
 250030781, -0.01044552, 0.002991979, -0.2058402, 0.00104407, -0.003351755, 0.001648203, -0.06883174, 0.0005187925, -0.9999805, -0.002948769
 250230701, -0.008091936, 0.005460956, -0.1794994, 0.00104407, -0.002631636, 0.002413456, -0.06045206, 0.0005187925, -0.9999815, -0.003078768
 250431454, -0.006028886, 0.006955289, -0.158015, 0.001046232, -0.001590434, 0.002645816, -0.05326301, 0.0005209541, -0.9999816, -0.003190154
 250631374, -0.003777044, 0.007850594, -0.1385097, 0.001046232, -0.001389894, 0.002790327, -0.04695319, 0.0005187925, -0.9999808, -0.003314673
 250831294, -0.00406901, 0.007950528, -0.1217747, 0.00104407, -0.001802182, 0.002970621, -0.04099556, 0.0005187925, -0.9999797, -0.003451595
 251031214, -0.004882302, 0.00806194, -0.1057597, 0.00104407, -0.001688561, 0.002922648, -0.03531782, 0.0005187925, -0.9999779, -0.003762167
 251231134, -0.004878745, 0.007810663, -0.09269869, 0.00104407, -0.001893589, 0.002714241, -0.03189398, 0.0005187925, -0.9999749, -0.004310279
 251431054, -0.005090679, 0.007805779, -0.08267982, 0.00104407, -0.001630017, 0.002958615, -0.02816977, 0.0005187925, -0.9999717, -0.004863748
 251630974, -0.003014835, 0.009376286, 0.199863, 0.00104407, 0.0003722858, 0.004943994, 0.3426865, 0.0005187925, -0.9999665, -0.005419653
 251830894, 0.001451276, 0.01273704, 0.889672, 0.00104407, 0.0007081522, 0.004115892, 0.2985626, 0.0005187925, -0.9999588, -0.006064078
 252030814, 0.001606853, 0.01084552, 0.7767087, 0.00104407, 0.0004648095, 0.003760537, 0.2619832, 0.0005187925, -0.9999528, -0.006683656
 252230734, 0.001838471, 0.01026908, 0.681401, 0.00104407, 0.0007837283, 0.003930084, 0.2300355, 0.0005187925, -0.99995, -0.007128432
 252430654, 0.001993859, 0.01097385, 0.5989166, 0.00104407, 0.0008442315, 0.004137473, 0.2018174, 0.0005187925, -0.9999496, -0.007459343
 252631407, 0.002385697, 0.01167362, 0.526568, 0.001046232, 0.001125143, 0.004375272, 0.1775828, 0.0005209541, -0.9999491, -0.007780046
 252831327, 0.002762231, 0.01224148, 0.4610714, 0.001046232, 0.0005728143, 0.004631595, 0.1554057, 0.0005187925, -0.9999486, -0.008082593
 253031247, 0.00211131, 0.01302623, 0.403848, 0.00104407, 0.0008724423, 0.004754078, 0.1361969, 0.0005187925, -0.9999457, -0.008539258
 253231167, 0.002376749, 0.01310246, 0.3484214, 0.00104407, 0.0009083411, 0.004855389, 0.1083972, 0.0005187925, -0.9999415, -0.009064202
 253431087, 0.003671928, 0.01530094, 0.2867909, 0.00104407, 0.002477299, 0.007482179, 0.09502048, 0.0005187925, -0.9999498, -0.009693698
 253631007, 0.002444886, 0.02670602, 0.2373075, 0.00104407, -0.00244507, 0.01296784, 0.07471028, 0.0005187925, -0.9999435, -0.01019278
 253830927, -0.02404539, 0.03887226, 0.1839013, 0.00104407, -0.01918102, 0.01570268, 0.05568523, 0.0005187925, -0.9999321, -0.01022883
 254030847, -0.075073, 0.04147523, 0.1378281, 0.00104407, -0.03940499, 0.01385862, 0.04226494, 0.0005187925, -0.9999385, -0.009698587
 254230767, -0.1279678, 0.0365126, 0.1025508, 0.00104407, -0.0565269, 0.01254174, 0.03064597, 0.0005187925, -0.9999506, -0.008768737
 254430687, -0.171811, 0.03246291, 0.07262818, 0.00104407, -0.0712297, 0.01076159, 0.02174353, 0.0005187925, -0.999962, -0.007543104
 254631440, -0.2106631, 0.0286997, 0.05048567, 0.001046232, -0.08467721, 0.009964901, 0.01374499, 0.0005209541, -0.9999757, -0.005858061
 254831360, -0.2460152, 0.02428806, 0.03371975, 0.001046232, -0.09722478, 0.007589099, 0.009779674, 0.0005187925, -0.9999918, -0.003468049
 255031280, -0.2779266, 0.01586242, 0.02400833, 0.00104407, -0.1068164, 0.003114477, 0.006641672, 0.0005187925, -0.9999996, -0.0001771792
 255231200, -0.2922119, 0.004175142, 0.01720616, 0.00104407, -0.105523, -0.0006078829, 0.004062044, 0.0005187925, -0.9999841, 0.004010445
 255431120, -0.2796082, -0.005591393, 0.01072058, 0.00104407, -0.09714257, -0.004079101, 0.004305002, 0.0005187925, -0.9999313, 0.009494225
 255631040, -0.2601305, -0.01491554, 0.01069136, 0.00104407, -0.09237674, -0.007134628, 0.002685751, 0.0005187925, -0.9998198, 0.01634527
 255830960, -0.2519855, -0.02337963, 0.005983151, 0.00104407, -0.09147864, -0.01001065, 0.001079026, 0.0005187925, -0.9996276, 0.02446479
 256030880, -0.2488419, -0.03054364, 0.004195883, 0.00104407, -0.0896593, -0.01272942, 0.001873469, 0.0005187925, -0.9993298, 0.03379009
 256230800, -0.2433943, -0.03829794, 0.003672457, 0.00104407, -0.08713514, -0.01584795, 0.0005919817, 0.0005187925, -0.9988823, 0.04424817
 256430720, -0.2348182, -0.04767836, -0.0001120024, 0.00104407, -0.0833567, -0.01941171, -0.000185114, 0.0005187925, -0.9982423, 0.05574923
 256631473, -0.2250488, -0.05838351, 0.001376081, 0.001046232, -0.08027965, -0.02361606, 0.001123328, 0.0005209541, -0.9974108, 0.06798558
 256831393, -0.2176527, -0.06864834, 0.0008969375, 0.001046232, -0.07813539, -0.02735798, -0.000287046, 0.0005187925, -0.9963661, 0.08090967
 257031313, -0.2129875, -0.07875991, -0.0006073953, 0.00104407, -0.07728983, -0.03070387, -0.000753851, 0.0005187925, -0.9950553, 0.09473798
 257231233, -0.2068694, -0.08806296, -0.00412742, 0.00104407, -0.07248089, -0.03366404, -0.003350862, 0.0005187925, -0.9934334, 0.1095927
 257431153, -0.1883698, -0.09571479, -0.008737342, 0.00104407, -0.0633501, -0.03630284, -0.002709327, 0.0005187925, -0.9914643, 0.1254318
 257631073, -0.1634818, -0.1014294, -0.008694257, 0.00104407, -0.0545944, -0.03786953, -0.004017832, 0.0005187925, -0.989085, 0.1424428
 257830993, -0.1424665, -0.1057185, -0.009833745, 0.00104407, -0.04847733, -0.03957421, -0.003573303, 0.0005187925, -0.9862577, 0.1604424
 258030913, -0.1268255, -0.1100304, -0.009782855, 0.00104407, -0.04297095, -0.0410501, -0.004522234, 0.0005187925, -0.9829684, 0.1791479
 258230833, -0.1104695, -0.112285, -0.01087437, 0.00104407, -0.03629727, -0.04052404, -0.003910252, 0.0005187925, -0.979323, 0.1980879
 258430753, -0.09206665, -0.1095103, -0.009816301, 0.00104407, -0.0299527, -0.03905617, -0.003554569, 0.0005187925, -0.9752192, 0.2175281
 258630673, -0.07561734, -0.1061604, -0.008642361, 0.00104407, -0.02474682, -0.03853593, -0.002996304, 0.0005187925, -0.9704963, 0.2377215
 258831426, -0.06198497, -0.1063478, -0.006600898, 0.001046232, -0.01968714, -0.03873932, -0.00234849, 0.0005209541, -0.9651749, 0.2583896
 259031346, -0.04853929, -0.1078558, -0.004845813, 0.001046232, -0.01519863, -0.04006829, -0.001449454, 0.0005187925, -0.9592872, 0.2792719
 259231266, -0.03663538, -0.1120572, -0.003726788, 0.00104407, -0.01059198, -0.0420223, -0.0008785392, 0.0005187925, -0.9528032, 0.3003819
 259431186, -0.02330177, -0.1173268, 0.0009498824, 0.00104407, -0.005650688, -0.04385361, 0.002394841, 0.0005187925, -0.9456949, 0.3216938
 259631106, -0.01022749, -0.1222145, 0.00827076, 0.00104407, -0.001542345, -0.04547878, 0.003812365, 0.0005187925, -0.9380156, 0.343137
 259831026, -0.0006963618, -0.1258095, 0.009881781, 0.00104407, 0.001214053, -0.04620494, 0.003330518, 0.0005187925, -0.9299415, 0.3642958
 260030946, 0.00575977, -0.126777, 0.00755248, 0.00104407, 0.003544359, -0.04619665, 0.002129884, 0.0005187925, -0.9213279, 0.3855274
 260230866, 0.01172211, -0.1257596, 0.00437839, 0.00104407, 0.005136188, -0.04520095, 0.0007097694, 0.0005187925, -0.9121267, 0.4068368
 260430786, 0.01811309, -0.1239647, 0.0001963222, 0.00104407, 0.008469407, -0.0453836, -0.001488594, 0.0005187925, -0.9022226, 0.4282317
 260630706, 0.02746851, -0.124876, -0.002778477, 0.00104407, 0.01163889, -0.04558318, -0.0009416747, 0.0005187925, -0.8917304, 0.4495169
 260831459, 0.03519236, -0.1258896, -0.002114331, 0.001046232, 0.01461651, -0.04588827, -0.0006193579, 0.0005209541, -0.8807254, 0.470594
 261031379, 0.04239357, -0.125679, -0.002448275, 0.001046232, 0.01660076, -0.04561627, -0.001532256, 0.0005187925, -0.8693114, 0.4912844
 261231299, 0.04902029, -0.1235502, -0.003941886, 0.00104407, 0.01948357, -0.0442921, -0.001427092, 0.0005187925, -0.857244, 0.5120226
 261431219, 0.05585406, -0.1200188, -0.003800771, 0.00104407, 0.02147582, -0.04278876, -0.001508537, 0.0005187925, -0.8444266, 0.5329084
 261631139, 0.06169144, -0.1172286, -0.002958425, 0.00104407, 0.02375648, -0.04294308, -0.001393596, 0.0005187925, -0.8308452, 0.5537662
 261831059, 0.06778088, -0.1169124, -0.00328177, 0.00104407, 0.02569427, -0.04201537, -0.001432538, 0.0005187925, -0.8168228, 0.5742301
 262030979, 0.07330881, -0.1122869, 0.001295795, 0.00104407, 0.02779343, -0.0395979, 0.002622914, 0.0005187925, -0.8023888, 0.5942976
 262230899, 0.07755063, -0.1066406, 0.006429417, 0.00104407, 0.02896978, -0.03796509, 0.002184461, 0.0005187925, -0.7874718, 0.6139699
 262430819, 0.08055576, -0.1048603, 0.004952555, 0.00104407, 0.02999602, -0.03860154, 0.001163133, 0.0005187925, -0.7718427, 0.6334093
 262630739, 0.08604731, -0.1054046, 0.00649823, 0.00104407, 0.03319615, -0.03793904, 0.004342505, 0.0005187925, -0.7556339, 0.6525722
 262830659, 0.09275458, -0.102828, 0.01295003, 0.00104407, 0.03435495, -0.0369622, 0.005217656, 0.0005187925, -0.7390576, 0.6712618
 263031412, 0.09501874, -0.1028082, 0.01283006, 0.001046232, 0.03514195, -0.03793551, 0.004093672, 0.0005209541, -0.7217618, 0.6897512
 263231332, 0.09757429, -0.1031589, 0.01216829, 0.001046232, 0.0362084, -0.03678108, 0.006037813, 0.0005187925, -0.7043158, 0.7075418
 263431252, 0.1008518, -0.09868336, 0.01557842, 0.00104407, 0.03716986, -0.03514146, 0.005356041, 0.0005187925, -0.6866012, 0.7247756
 263631172, 0.103258, -0.09419897, 0.01332002, 0.00104407, 0.03850658, -0.03314452, 0.004420644, 0.0005187925, -0.6685459, 0.7414889
 263831092, 0.1062763, -0.08982849, 0.01040236, 0.00104407, 0.03898406, -0.03241066, 0.003334233, 0.0005187925, -0.6498211, 0.7579342
 264031012, 0.1088332, -0.0888443, 0.007026243, 0.00104407, 0.04084744, -0.03226909, 0.001416316, 0.0005187925, -0.6302111, 0.7742357
 264230932, 0.1141689, -0.08855946, 0.003010307, 0.00104407, 0.0425836, -0.03236185, 0.0006888876, 0.0005187925, -0.6102915, 0.7899724
 264430852, 0.1175355, -0.08611266, 0.001402469, 0.00104407, 0.04250812, -0.03048083, -0.000403623, 0.0005187925, -0.5901756, 0.8051597
 264630772, 0.1173016, -0.0808779, -0.001131706, 0.00104407, 0.04293356, -0.02796089, -5.96523E-05, 0.0005187925, -0.5697279, 0.819841
 264830692, 0.1188093, -0.07404194, -0.001068957, 0.00104407, 0.04400667, -0.02592967, -0.0007729155, 0.0005187925, -0.5487284, 0.8340722
 265031445, 0.1224842, -0.06920055, -0.0005976877, 0.001046232, 0.04575923, -0.02436664, -1.608046E-05, 0.0005209541, -0.5270843, 0.8478942
 265231365, 0.1258022, -0.06634145, 0.0002633166, 0.001046232, 0.04615318, -0.02418793, -0.00101503, 0.0005187925, -0.5054439, 0.8609427
 265431285, 0.1275657, -0.06565258, -0.001031325, 0.00104407, 0.047092, -0.02379769, -0.0001512244, 0.0005187925, -0.483588, 0.8733809
 265631205, 0.1297391, -0.06346431, -0.0008955543, 0.00104407, 0.04759706, -0.02254362, -0.0003146438, 0.0005187925, -0.4616658, 0.8851601
 265831125, 0.1315366, -0.0597227, -0.001284314, 0.00104407, 0.04808311, -0.02092679, -0.0009554629, 0.0005187925, -0.4395167, 0.8963645
 266031045, 0.1339761, -0.05426665, -0.0009160626, 0.00104407, 0.04973571, -0.0183058, 0.0003834144, 0.0005187925, -0.4169019, 0.9070757
 266230965, 0.1383092, -0.04823795, 0.004727883, 0.00104407, 0.05120071, -0.01676045, 0.00237187, 0.0005187925, -0.3936696, 0.9173444
 266430885, 0.1414678, -0.04530084, 0.006983039, 0.00104407, 0.05245049, -0.01584444, 0.00334202, 0.0005187925, -0.3700412, 0.927095
 266630805, 0.1439099, -0.04265671, 0.009394078, 0.00104407, 0.05279827, -0.01507041, 0.003455964, 0.0005187925, -0.3463025, 0.9362127
 266830725, 0.1445457, -0.03993939, 0.006600105, 0.00104407, 0.05247231, -0.013745, 0.001081154, 0.0005187925, -0.3224708, 0.9447145
 267031478, 0.1445056, -0.03612716, -0.001621108, 0.001046232, 0.05341816, -0.01195324, -0.001562565, 0.0005209541, -0.2982038, 0.952658
 267231398, 0.1461821, -0.03047626, -0.004093263, 0.001046232, 0.05327899, -0.01016936, -0.001303724, 0.0005187925, -0.2740343, 0.9598838
 267431318, 0.1468659, -0.02629307, -0.003718056, 0.00104407, 0.05390264, -0.008835861, -0.001199788, 0.0005187925, -0.2497767, 0.9664764
 267631238, 0.1477187, -0.02307094, -0.003185478, 0.00104407, 0.05363463, -0.008017778, -0.001119942, 0.0005187925, -0.2254573, 0.9724444
 267831158, 0.1470598, -0.0198391, -0.003090107, 0.00104407, 0.05385179, -0.006192537, -0.0007388078, 0.0005187925, -0.2010541, 0.9777784
 268031078, 0.1483033, -0.01566578, -0.002331337, 0.00104407, 0.05448695, -0.004896708, -0.001145089, 0.0005187925, -0.1763728, 0.9824942
 268230998, 0.1502348, -0.0124816, -0.003470259, 0.00104407, 0.05517076, -0.003901696, -0.001542169, 0.0005187925, -0.1513428, 0.9866127
 268430918, 0.1529205, -0.009803427, -0.005308154, 0.00104407, 0.05616741, -0.00296344, -0.00193122, 0.0005187925, -0.1261612, 0.9901225
 268630838, 0.1534551, -0.00453705, -0.002800799, 0.00104407, 0.05547843, 0.0003079632, 0.0003188598, 0.0005187925, -0.1010136, 0.9930282
 268830758, 0.1521032, 0.003085641, 0.002797188, 0.00104407, 0.05544736, 0.001875038, -0.0003360333, 0.0005187925, -0.07577834, 0.9952832
 269030678, 0.1518269, 0.007360218, -0.002023031, 0.00104407, 0.05515798, 0.003662981, -0.00144672, 0.0005187925, -0.05056418, 0.9968815
 269231431, 0.151861, 0.01302253, -0.002743932, 0.001046232, 0.05559625, 0.006221901, -6.840552E-05, 0.0005209541, -0.02495545, 0.9978467
 269431351, 0.1519457, 0.0189303, -0.001073553, 0.001046232, 0.05567149, 0.007713028, -0.0007422589, 0.0005187925, 0.0005141727, 0.9981493
 269631271, 0.1516853, 0.02323637, -0.001666561, 0.00104407, 0.05501201, 0.009453216, -0.0006671823, 0.0005187925, 0.02582798, 0.9978253
 269831191, 0.1503502, 0.0282242, 0.0008113605, 0.00104407, 0.05461202, 0.01151819, 0.002139967, 0.0005187925, 0.05111055, 0.9968394
 270031111, 0.1499461, 0.03198866, 0.006884124, 0.00104407, 0.05499967, 0.01169067, 0.00251753, 0.0005187925, 0.07653649, 0.9951808
 270231031, 0.1507164, 0.03228897, 0.006137936, 0.00104407, 0.0546667, 0.01193417, 0.001967567, 0.0005187925, 0.1019345, 0.9928885
 270430951, 0.1499881, 0.03408805, 0.004264499, 0.00104407, 0.05502536, 0.01317338, 0.0005747712, 0.0005187925, 0.1271018, 0.9899781
 270630871, 0.1495863, 0.03909443, 0.001166341, 0.00104407, 0.05415127, 0.01583412, 0.001210974, 0.0005187925, 0.1522278, 0.9864115
 270830791, 0.1480869, 0.04625455, 0.00308443, 0.00104407, 0.05394682, 0.01812079, 0.0008794497, 0.0005187925, 0.1770934, 0.9822467
 271030711, 0.1468698, 0.05186212, 0.00351042, 0.00104407, 0.05339435, 0.01971626, 0.001841798, 0.0005187925, 0.2019035, 0.9774191
 271231464, 0.1465539, 0.05556719, 0.006108478, 0.001046232, 0.0532982, 0.02078236, 0.002622875, 0.0005209541, 0.2268255, 0.9719122
 271431384, 0.1456725, 0.0571382, 0.004672584, 0.001046232, 0.05259562, 0.02091898, 0.0003687634, 0.0005187925, 0.2515052, 0.965834
 271631304, 0.1439592, 0.05835087, 0.001076987, 0.00104407, 0.05223949, 0.02180022, 0.0003740887, 0.0005187925, 0.2759183, 0.9591734
 271831224, 0.1413587, 0.06142995, 0.0006379709, 0.00104407, 0.05073446, 0.02292917, 5.74359E-06, 0.0005187925, 0.3001551, 0.9518945
 272031144, 0.1392246, 0.06485858, -0.001741742, 0.00104407, 0.05087019, 0.02443219, -0.001503482, 0.0005187925, 0.3241074, 0.9439765
 272231064, 0.139181, 0.06802264, -0.007507183, 0.00104407, 0.05030179, 0.0255555, -0.003726938, 0.0005187925, 0.3476246, 0.9355636
 272430984, 0.1373146, 0.0721603, -0.008490128, 0.00104407, 0.04981954, 0.02767125, -0.001750775, 0.0005187925, 0.3710153, 0.9265097
 272630904, 0.1347786, 0.0784745, -0.001697397, 0.00104407, 0.04845316, 0.02919496, 0.0001043748, 0.0005187925, 0.3942895, 0.9168536
 272830824, 0.1314559, 0.08212728, 0.0009243294, 0.00104407, 0.04711285, 0.03042346, 9.290553E-05, 0.0005187925, 0.417549, 0.9065192
 273030744, 0.1289461, 0.08535022, 0.001674985, 0.00104407, 0.04676463, 0.03209938, 0.0008188214, 0.0005187925, 0.4406523, 0.8955048
 273230664, 0.127902, 0.0880466, 0.002733747, 0.00104407, 0.04631423, 0.0324174, 0.000773547, 0.0005187925, 0.4633359, 0.8839799
 273431417, 0.1264202, 0.09075776, 0.002008887, 0.001046232, 0.04563076, 0.03427989, 0.0003481255, 0.0005209541, 0.4857067, 0.8718647
 273631337, 0.1240589, 0.095456, 0.00117293, 0.001046232, 0.04491536, 0.03552767, 0.0001326507, 0.0005187925, 0.5075284, 0.8593305
 273831257, 0.1221336, 0.09792394, 0.0004758337, 0.00104407, 0.04368059, 0.0359011, 0.0005386188, 0.0005187925, 0.5291166, 0.8462393
 274031177, 0.1185866, 0.1003408, 0.001511962, 0.00104407, 0.04268526, 0.03774454, 0.0008289549, 0.0005187925, 0.5504219, 0.8325137
 274231097, 0.1167346, 0.1044779, 0.001019714, 0.00104407, 0.0427116, 0.03847263, -0.001151116, 0.0005187925, 0.5712835, 0.8183041
 274431017, 0.1162673, 0.1073889, -0.001810121, 0.00104407, 0.04217428, 0.03997371, -0.001159593, 0.0005187925, 0.5918173, 0.8035204
 274630937, 0.1138804, 0.1124912, -0.00216473, 0.00104407, 0.04064998, 0.04228521, -0.0003220533, 0.0005187925, 0.6119638, 0.7882516
 274830857, 0.1099767, 0.1175678, 0.0004271634, 0.00104407, 0.0392825, 0.04348652, 0.000522706, 0.0005187925, 0.6318148, 0.7724212
 275030777, 0.106336, 0.1196719, 0.001472053, 0.00104407, 0.03814056, 0.04405372, 0.0007114426, 0.0005187925, 0.6511354, 0.7562588
 275230697, 0.1027199, 0.119983, 0.0005987763, 0.00104407, 0.03630869, 0.04343737, -0.0002523151, 0.0005187925, 0.6700786, 0.7396113
 275431450, 0.09746724, 0.1198043, -0.0005540972, 0.001046232, 0.03437341, 0.04407493, 0.0003172046, 0.0005209541, 0.6888263, 0.7222653
 275631370, 0.09335551, 0.1217774, -0.0008036033, 0.001046232, 0.03386208, 0.04532278, -0.0007816251, 0.0005187925, 0.7071817, 0.7042606
 275831290, 0.0919895, 0.1258672, -0.003011497, 0.00104407, 0.03303658, 0.04680246, -0.001677395, 0.0005187925, 0.7249113, 0.685954
 276031210, 0.08872487, 0.1291067, -0.002965602, 0.00104407, 0.03107293, 0.04763233, -0.0004229331, 0.0005187925, 0.7419987, 0.6674725
 276231130, 0.08401221, 0.1306228, -0.0006589756, 0.00104407, 0.030042, 0.04749444, -0.0001147812, 0.0005187925, 0.7588081, 0.6483607
 276431050, 0.08097741, 0.1314528, 0.0002013987, 0.00104407, 0.02891629, 0.04877905, 0.001022045, 0.0005187925, 0.7751598, 0.6286972
 276630970, 0.07796819, 0.1347857, 0.001919222, 0.00104407, 0.0281279, 0.04962816, 0.0006061964, 0.0005187925, 0.790924, 0.6087059
 276830890, 0.07459249, 0.1392087, 0.004191954, 0.00104407, 0.02620564, 0.05215699, 0.002940562, 0.0005187925, 0.8061853, 0.5882259
 277030810, 0.07039919, 0.1450988, 0.007685594, 0.00104407, 0.02497078, 0.05391351, 0.002370362, 0.0005187925, 0.8208496, 0.5674574
 277230730, 0.06805792, 0.149542, 0.009894828, 0.00104407, 0.02458976, 0.05513561, 0.005309307, 0.0005187925, 0.834991, 0.5463331
 277431483, 0.06584718, 0.1518578, 0.01612695, 0.001046232, 0.02353583, 0.05561179, 0.005843946, 0.0005209541, 0.8486491, 0.5248406
 277631403, 0.06288141, 0.1520656, 0.01463374, 0.001046232, 0.02214024, 0.05526356, 0.004774972, 0.0005187925, 0.8617449, 0.5030767
 277831323, 0.05892065, 0.1512243, 0.01315956, 0.00104407, 0.0203299, 0.05537525, 0.00526002, 0.0005187925, 0.8743948, 0.4808429
 278031243, 0.05418785, 0.1505166, 0.01331056, 0.00104407, 0.01909208, 0.05428389, 0.004228212, 0.0005187925, 0.8864489, 0.4583815
 278231163, 0.05018204, 0.1488765, 0.01030778, 0.00104407, 0.01728805, 0.05462537, 0.00274609, 0.0005187925, 0.8978664, 0.4356375
 278431083, 0.04543048, 0.1511914, 0.00887931, 0.00104407, 0.01588795, 0.05606074, 0.003325201, 0.0005187925, 0.908726, 0.4123762
 278631003, 0.0416538, 0.1549469, 0.01236222, 0.00104407, 0.01466916, 0.05669511, 0.004804967, 0.0005187925, 0.9189484, 0.3889904
 278830923, 0.03885005, 0.1556645, 0.01295835, 0.00104407, 0.01320298, 0.05675827, 0.004214576, 0.0005187925, 0.9285722, 0.3654751
 279030843, 0.0355087, 0.1550505, 0.01079453, 0.00104407, 0.01277702, 0.05645042, 0.003401961, 0.0005187925, 0.9376149, 0.3417011
 279230763, 0.03289283, 0.155095, 0.007968206, 0.00104407, 0.01101956, 0.05692885, 0.003121297, 0.0005187925, 0.9460851, 0.3174583
 279430683, 0.0279621, 0.1561409, 0.01015368, 0.00104407, 0.008633259, 0.05669888, 0.004432003, 0.0005187925, 0.9538867, 0.2932615
 279631436, 0.02268966, 0.1558878, 0.01154042, 0.001046232, 0.007501819, 0.05676057, 0.004209093, 0.0005209541, 0.9611169, 0.2687555
 279831356, 0.0193748, 0.1550348, 0.009689642, 0.001046232, 0.006500533, 0.05638206, 0.002582124, 0.0005187925, 0.967716, 0.2440864
 280031276, 0.01605686, 0.1537064, 0.006507094, 0.00104407, 0.004733532, 0.0555383, 0.002161027, 0.0005187925, 0.9736655, 0.2194094
 280231196, 0.01210717, 0.1528184, 0.00478169, 0.00104407, 0.003768396, 0.0561557, 0.001405076, 0.0005187925, 0.9789141, 0.1944529
 280431116, 0.009280111, 0.1573226, 0.003663272, 0.00104407, 0.002833633, 0.05890483, 0.001501403, 0.0005187925, 0.9834364, 0.1692104
 280631036, 0.005595225, 0.1639395, 0.003552135, 0.00104407, 0.0009719176, 0.0607493, 0.001556394, 0.0005187925, 0.9873357, 0.144075
