TimeUS,CGpN,CGpE,CGpD,CGpe,PGpN,PGpE,PGpD,PGpe
 196256466, 0, 0, 0, 0.05, 0, 0, 0, 0
 196431396, 0, 0, 0, 0.05, 0, 0, 0, 0.05
 196631316, 0, 0, 0, 0.05, 0, 0, 0, 0.05
 196831236, 0, 0, 0, 0.05, 0, 0, 0, 0.05
 197031156, 0, 0, 0, 0.05, 0, 0, 0, 0.05
 197231076, 0, 0, 0, 0.05, 0, 0, 0, 0.05
 197430996, 0, 0, 0, 0.05, 0, 0, 0, 0.05
 197630916, 0, 0, 0, 0.05, 0, 0, 0, 0.05
 197830836, 0, 0, 0, 0.05, 0, 0, 0, 0.05
 198030756, 0, 0, 0, 0.05, 0, 0, 0, 0.05
 198230676, 0, 0, 0, 0.05, 0, 0, 0, 0.05
 198431429, 0, 0, 0, 0.05, 0, 0, 0, 0.05
 198631349, 0, 0, 0, 0.05, 0, 0, 0, 0.05
 198831269, 0, 0, 0, 0.05, 0, 0, 0, 0.05
 199031189, 0, 0, 0, 0.05, 0, 0, 0, 0.05
 199231109, 0, 0, 0, 0.05, 0, 0, 0, 0.05
 199431029, 0, 0, 0, 0.05, 0, 0, 0, 0.05
 199630949, 0, 0, 0, 0.05, 0, 0, 0, 0.05
 199830869, 0, 0, 0, 0.05, 0, 0, 0, 0.05
 200030789, 0, 0, 0, 0.05, 0, 0, 0, 0.05
 200230709, 0, 0, 0, 0.05, 0, 0, 0, 0.05
 200431462, 0, 0, 0, 0.05, 0, 0, 0, 0.05
 200631382, 0, 0, 0, 0.05, 0, 0, 0, 0.05
 200831302, 0, 0, 0, 0.05, 0, 0, 0, 0.05
 201031222, 0, 0, 0, 0.05, 0, 0, 0, 0.05
 201231142, 0, 0, 0, 0.05, 0, 0, 0, 0.05
 201431062, 0, 0, 0, 0.05, 0, 0, 0, 0.05
 201630982, 0, 0, 0, 0.05, 0, 0, 0, 0.05
 201830902, 0, 0, 0, 0.05, 0, 0, 0, 0.05
 202030822, 0, 0, 0, 0.05, 0, 0, 0, 0.05
 202230742, 0, 0, 0, 0.05, 0, 0, 0, 0.05
 202430662, 0, 0, 0, 0.05, 0, 0, 0, 0.05
 202631415, 0, 0, 0, 0.05, 0, 0, 0, 0.05
 202831335, 0, 0, 0, 0.05, 0, 0, 0, 0.05
 203031255, 0, 0, 0, 0.05, 0, 0, 0, 0.05
 203231175, 0, 0, 0, 0.05, 0, 0, 0, 0.05
 203431095, 0, 0, 0, 0.05, 0, 0, 0, 0.05
 203631015, 0, 0, 0, 0.05, 0, 0, 0, 0.05
 203830935, 0, 0, 0, 0.05, 0, 0, 0, 0.05
 204030855, 0, 0, 0, 0.05, 0, 0, 0, 0.05
 204230775, 0, 0, 0, 0.05, 0, 0, 0, 0.05
 204430695, 0, 0, 0, 0.05, 0, 0, 0, 0.05
 204631448, 0, 0, 0, 0.05, 0, 0, 0, 0.05
 204831368, 0, 0, 0, 0.05, 0, 0, 0, 0.05
 205031288, 0, 0, 0, 0.05, 0, 0, 0, 0.05
 205231208, 0, 0, 0, 0.05, 0, 0, 0, 0.05
 205431128, 0, 0, 0, 0.05, 0, 0, 0, 0.05
 205631048, 0, 0, 0, 0.05, 0, 0, 0, 0.05
 205830968, 0, 0, 0, 0.05, 0, 0, 0, 0.05
 206030888, 0, 0, 0, 0.05, 0, 0, 0, 0.05
 206230808, 0, 0, 0, 0.05, 0, 0, 0, 0.05
 206430728, 0, 0, 0, 0.05, 0, 0, 0, 0.05
 206631481, 0, 0, 0, 0.05, 0, 0, 0, 0.05
 206831401, 0, 0, 0, 0.05, 0, 0, 0, 0.05
 207031321, 0, 0, 0, 0.05, 0, 0, 0, 0.05
 207231241, 0, 0, 0, 0.05, 0, 0, 0, 0.05
 207431161, 0, 0, 0, 0.05, 0, 0, 0, 0.05
 207631081, 0, 0, 0, 0.05, 0, 0, 0, 0.05
 207831001, 0, 0, 0, 0.05, 0, 0, 0, 0.05
 208030921, 0, 0, 0, 0.05, 0, 0, 0, 0.05
 208230841, 0, 0, 0, 0.05, 0, 0, 0, 0.05
 208430761, 0, 0, 0, 0.05, 0, 0, 0, 0.05
 208630681, 0, 0, 0, 0.05, 0, 0, 0, 0.05
 208831434, 0, 0, 0, 0.05, 0, 0, 0, 0.05
 209031354, 0, 0, 0, 0.05, 0, 0, 0, 0.05
 209231274, 0, 0, 0, 0.05, 0, 0, 0, 0.05
 209431194, 0, 0, 0, 0.05, 0, 0, 0, 0.05
 209631114, 0, 0, 0, 0.05, 0, 0, 0, 0.05
 209831034, 0, 0, 0, 0.05, 0, 0, 0, 0.05
 210030954, 0, 0, 0, 0.05, 0, 0, 0, 0.05
 210230874, 0, 0, 0, 0.05, 0, 0, 0, 0.05
 210430794, 0, 0, 0, 0.05, 0, 0, 0, 0.05
 210630714, 0, 0, 0, 0.05, 0, 0, 0, 0.05
 210831467, 0, 0, 0, 0.05, 0, 0, 0, 0.05
 211031387, 0, 0, 0, 0.05, 0, 0, 0, 0.05
 211231307, 0, 0, 0, 0.05, 0, 0, 0, 0.05
 211431227, 0, 0, 0, 0.05, 0, 0, 0, 0.05
 211631147, 0, 0, 0, 0.05, 0, 0, 0, 0.05
 211831067, 0, 0, 0, 0.05, 0, 0, 0, 0.05
 212030987, 0, 0, 0, 0.05, 0, 0, 0, 0.05
 212230907, 0, 0, 0, 0.05, 0, 0, 0, 0.05
 212430827, 0, 0, 0, 0.05, 0, 0, 0, 0.05
 212630747, 0, 0, 0, 0.05, 0, 0, 0, 0.05
 212830667, 0, 0, 0, 0.05, 0, 0, 0, 0.05
 213031420, 0, 0, 0, 0.05, 0, 0, 0, 0.05
 213231340, 0, 0, 0, 0.05, 0, 0, 0, 0.05
 213431260, 0, 0, 0, 0.05, 0, 0, 0, 0.05
 213631180, 0, 0, 0, 0.05, 0, 0, 0, 0.05
 213831100, 0, 0, 0, 0.05, 0, 0, 0, 0.05
 214031020, 0, 0, 0, 0.05, 0, 0, 0, 0.05
 214230940, 0, 0, 0, 0.05, 0, 0, 0, 0.05
 214430860, 0, 0, 0, 0.05, 0, 0, 0, 0.05
 214630780, 0, 0, 0, 0.05, 0, 0, 0, 0.05
 214830700, 0, 0, 0, 0.05, 0, 0, 0, 0.05
 215031453, 0, 0, 0, 0.05, 0, 0, 0, 0.05
 215231373, 0, 0, 0, 0.05, 0, 0, 0, 0.05
 215431293, 0, 0, 0, 0.05, 0, 0, 0, 0.05
 215631213, 0, 0, 0, 0.05, 0, 0, 0, 0.05
 215831133, 0, 0, 0, 0.05, 0, 0, 0, 0.05
 216031053, 0, 0, 0, 0.05, 0, 0, 0, 0.05
 216230973, 0, 0, 0, 0.05, 0, 0, 0, 0.05
 216430893, 0, 0, 0, 0.05, 0, 0, 0, 0.05
 216630813, 0, 0, 0, 0.05, 0, 0, 0, 0.05
 216830733, 0, 0, 0, 0.05, 0, 0, 0, 0.05
 217031486, 0, 0, 0, 0.05, 0, 0, 0, 0.05
 217231406, 0, 0, 0, 0.05, 0, 0, 0, 0.05
 217431326, 0, 0, 0, 0.05, 0, 0, 0, 0.05
 217631246, 0, 0, 0, 0.05, 0, 0, 0, 0.05
 217831166, 0, 0, 0, 0.05, 0, 0, 0, 0.05
 218031086, 0, 0, 0, 0.05, 0, 0, 0, 0.05
 218231006, 0, 0, 0, 0.05, 0, 0, 0, 0.05
 218430926, 0, 0, 0, 0.05, 0, 0, 0, 0.05
 218630846, 0, 0, 0, 0.05, 0, 0, 0, 0.05
 218830766, 0, 0, 0, 0.05, 0, 0, 0, 0.05
 219030686, 0, 0, 0, 0.05, 0, 0, 0, 0.05
 219231439, 0, 0, 0, 0.05, 0, 0, 0, 0.05
 219431359, 0, 0, 0, 0.05, 0, 0, 0, 0.05
 219631279, 0, 0, 0, 0.05, 0, 0, 0, 0.05
 219831199, 0, 0, 0, 0.05, 0, 0, 0, 0.05
 220031119, 0, 0, 0, 0.05, 0, 0, 0, 0.05
 220231039, 0, 0, 0, 0.05, 0, 0, 0, 0.05
 220430959, 0, 0, 0, 0.05, 0, 0, 0, 0.05
 220630879, 0, 0, 0, 0.05, 0, 0, 0, 0.05
 220830799, 0, 0, 0, 0.05, 0, 0, 0, 0.05
 221030719, 0, 0, 0, 0.05, 0, 0, 0, 0.05
 221231472, 0, 0, 0, 0.05, 0, 0, 0, 0.05
 221431392, 0, 0, 0, 0.05, 0, 0, 0, 0.05
 221631312, 0, 0, 0, 0.05, 0, 0, 0, 0.05
 221831232, 0, 0, 0, 0.05, 0, 0, 0, 0.05
 222031152, 0, 0, 0, 0.05, 0, 0, 0, 0.05
 222231072, 0, 0, 0, 0.05, 0, 0, 0, 0.05
 222430992, 0, 0, 0, 0.05, 0, 0, 0, 0.05
 222630912, 0, 0, 0, 0.05, 0, 0, 0, 0.05
 222830832, 0, 0, 0, 0.05, 0, 0, 0, 0.05
 223030752, 0, 0, 0, 0.05, 0, 0, 0, 0.05
 223230672, 0, 0, 0, 0.05, 0, 0, 0, 0.05
 223431425, 0, 0, 0, 0.05, 0, 0, 0, 0.05
 223631345, 0, 0, 0, 0.05, 0, 0, 0, 0.05
 223831265, 0, 0, 0, 0.05, 0, 0, 0, 0.05
 224031185, 0, 0, 0, 0.05, 0, 0, 0, 0.05
 224231105, 0, 0, 0, 0.05, 0, 0, 0, 0.05
 224431025, 0, 0, 0, 0.05, 0, 0, 0, 0.05
 224630945, 0, 0, 0, 0.05, 0, 0, 0, 0.05
 224830865, 0, 0, 0, 0.05, 0, 0, 0, 0.05
 225030785, 0, 0, 0, 0.05, 0, 0, 0, 0.05
 225230705, 0, 0, 0, 0.05, 0, 0, 0, 0.05
 225431458, 0, 0, 0, 0.05, 0, 0, 0, 0.05
 225631378, 0, 0, 0, 0.05, 0, 0, 0, 0.05
 225831298, 0, 0, 0, 0.05, 0, 0, 0, 0.05
 226031218, 0, 0, 0, 0.05, 0, 0, 0, 0.05
 226231138, 0, 0, 0, 0.05, 0, 0, 0, 0.05
 226431058, 0, 0, 0, 0.05, 0, 0, 0, 0.05
 226630978, 0, 0, 0, 0.05, 0, 0, 0, 0.05
 226830898, 0, 0, 0, 0.05, 0, 0, 0, 0.05
 227030818, 0, 0, 0, 0.05, 0, 0, 0, 0.05
 227230738, 0, 0, 0, 0.05, 0, 0, 0, 0.05
 227430658, 0, 0, 0, 0.05, 0, 0, 0, 0.05
 227631411, 0, 0, 0, 0.05, 0, 0, 0, 0.05
 227831331, 0, 0, 0, 0.05, 0, 0, 0, 0.05
 228031251, 0, 0, 0, 0.05, 0, 0, 0, 0.05
 228231171, 0, 0, 0, 0.05, 0, 0, 0, 0.05
 228431091, 0, 0, 0, 0.05, 0, 0, 0, 0.05
 228631011, 0, 0, 0, 0.05, 0, 0, 0, 0.05
 228830931, 0, 0, 0, 0.05, 0, 0, 0, 0.05
 229030851, 0, 0, 0, 0.05, 0, 0, 0, 0.05
 229230771, 0, 0, 0, 0.05, 0, 0, 0, 0.05
 229430691, 0, 0, 0, 0.05, 0, 0, 0, 0.05
 229631444, 0, 0, 0, 0.05, 0, 0, 0, 0.05
 229831364, 0, 0, 0, 0.05, 0, 0, 0, 0.05
 230031284, 0, 0, 0, 0.05, 0, 0, 0, 0.05
 230231204, 0, 0, 0, 0.05, 0, 0, 0, 0.05
 230431124, 0, 0, 0, 0.05, 0, 0, 0, 0.05
 230631044, 0, 0, 0, 0.05, 0, 0, 0, 0.05
 230830964, 0, 0, 0, 0.05, 0, 0, 0, 0.05
 231030884, 0, 0, 0, 0.05, 0, 0, 0, 0.05
 231230804, 0, 0, 0, 0.05, 0, 0, 0, 0.05
 231430724, 0, 0, 0, 0.05, 0, 0, 0, 0.05
 231631477, 0, 0, 0, 0.05, 0, 0, 0, 0.05
 231831397, 0, 0, 0, 0.05, 0, 0, 0, 0.05
 232031317, 0, 0, 0, 0.05, 0, 0, 0, 0.05
 232231237, 0, 0, 0, 0.05, 0, 0, 0, 0.05
 232431157, 0, 0, 0, 0.05, 0, 0, 0, 0.05
 232631077, 0, 0, 0, 0.05, 0, 0, 0, 0.05
 232830997, 0, 0, 0, 0.05, 0, 0, 0, 0.05
 233030917, 0, 0, 0, 0.05, 0, 0, 0, 0.05
 233230837, 0, 0, 0, 0.05, 0, 0, 0, 0.05
 233430757, 0, 0, 0, 0.05, 0, 0, 0, 0.05
 233630677, 0, 0, 0, 0.05, 0, 0, 0, 0.05
 233831430, 0, 0, 0, 0.05, 0, 0, 0, 0.05
 234031350, 0, 0, 0, 0.05, 0, 0, 0, 0.05
 234231270, 0, 0, 0, 0.05, 0, 0, 0, 0.05
 234431190, 0, 0, 0, 0.05, 0, 0, 0, 0.05
 234631110, 0, 0, 0, 0.05, 0, 0, 0, 0.05
 234831030, 0, 0, 0, 0.05, 0, 0, 0, 0.05
 235030950, 0, 0, 0, 0.05, 0, 0, 0, 0.05
 235230870, 0, 0, 0, 0.05, 0, 0, 0, 0.05
 235430790, 0, 0, 0, 0.05, 0, 0, 0, 0.05
 235630710, 0, 0, 0, 0.05, 0, 0, 0, 0.05
 235831463, 0, 0, 0, 0.05, 0, 0, 0, 0.05
 236031383, 0, 0, 0, 0.05, 0, 0, 0, 0.05
 236231303, 0, 0, 0, 0.05, 0, 0, 0, 0.05
 236431223, 0, 0, 0, 0.05, 0, 0, 0, 0.05
 236631143, 0, 0, 0, 0.05, 0, 0, 0, 0.05
 236831063, 0, 0, 0, 0.05, 0, 0, 0, 0.05
 237030983, 0, 0, 0, 0.05, 0, 0, 0, 0.05
 237230903, 0, 0, 0, 0.05, 0, 0, 0, 0.05
 237430823, 0, 0, 0, 0.05, 0, 0, 0, 0.05
 237630743, 0, 0, 0, 0.05, 0, 0, 0, 0.05
 237830663, 0, 0, 0, 0.05, 0, 0, 0, 0.05
 238031416, 0, 0, 0, 0.05, 0, 0, 0, 0.05
 238231336, 0, 0, 0, 0.05, 0, 0, 0, 0.05
 238431256, 0, 0, 0, 0.05, 0, 0, 0, 0.05
 238631176, 0, 0, 0, 0.05, 0, 0, 0, 0.05
 238831096, 0, 0, 0, 0.05, 0, 0, 0, 0.05
 239031016, 0, 0, 0, 0.05, 0, 0, 0, 0.05
 239230936, 0, 0, 0, 0.05, 0, 0, 0, 0.05
 239430856, 0, 0, 0, 0.05, 0, 0, 0, 0.05
 239630776, 0, 0, 0, 0.05, 0, 0, 0, 0.05
 239830696, 0, 0, 0, 0.05, 0, 0, 0, 0.05
 240031449, 0, 0, 0, 0.05, 0, 0, 0, 0.05
 240231369, 0, 0, 0, 0.05, 0, 0, 0, 0.05
 240431289, 0, 0, 0, 0.05, 0, 0, 0, 0.05
 240631209, 0, 0, 0, 0.05, 0, 0, 0, 0.05
 240831129, 0, 0, 0, 0.05, 0, 0, 0, 0.05
 241031049, 0, 0, 0, 0.05, 0, 0, 0, 0.05
 241230969, 0, 0, 0, 0.05, 0, 0, 0, 0.05
 241430889, 0, 0, 0, 0.05, 0, 0, 0, 0.05
 241630809, 0, 0, 0, 0.05, 0, 0, 0, 0.05
 241830729, 0, 0, 0, 0.05, 0, 0, 0, 0.05
 242031482, 0, 0, 0, 0.05, 0, 0, 0, 0.05
 242231402, 0, 0, 0, 0.05, 0, 0, 0, 0.05
 242431322, 0, 0, 0, 0.05, 0, 0, 0, 0.05
 242631242, 0, 0, 0, 0.05, 0, 0, 0, 0.05
 242831162, 0, 0, 0, 0.05, 0, 0, 0, 0.05
 243031082, 0, 0, 0, 0.05, 0, 0, 0, 0.05
 243231002, 0, 0, 0, 0.05, 0, 0, 0, 0.05
 243430922, 0, 0, 0, 0.05, 0, 0, 0, 0.05
 243630842, 0, 0, 0, 0.05, 0, 0, 0, 0.05
 243830762, 0, 0, 0, 0.05, 0, 0, 0, 0.05
 244030682, 0, 0, 0, 0.05, 0, 0, 0, 0.05
 244231435, 0, 0, 0, 0.05, 0, 0, 0, 0.05
 244431355, 0, 0, 0, 0.05, 0, 0, 0, 0.05
 244631275, 0, 0, 0, 0.05, 0, 0, 0, 0.05
 244831195, 0, 0, 0, 0.05, 0, 0, 0, 0.05
 245031115, 0, 0, 0, 0.05, 0, 0, 0, 0.05
 245231035, 0, 0, 0, 0.05, 0, 0, 0, 0.05
 245430955, 0, 0, 0, 0.05, 0, 0, 0, 0.05
 245630875, 0, 0, 0, 0.05, 0, 0, 0, 0.05
 245830795, 0, 0, 0, 0.05, 0, 0, 0, 0.05
 246030715, 0, 0, 0, 0.05, 0, 0, 0, 0.05
 246231468, 0, 0, 0, 0.05, 0, 0, 0, 0.05
 246431388, 0, 0, 0, 0.05, 0, 0, 0, 0.05
 246631308, 0, 0, 0, 0.05, 0, 0, 0, 0.05
 246831228, 0, 0, 0, 0.05, 0, 0, 0, 0.05
 247031148, 0, 0, 0, 0.05, 0, 0, 0, 0.05
 247231068, 0, 0, 0, 0.05, 0, 0, 0, 0.05
 247430988, 0, 0, 0, 0.05, 0, 0, 0, 0.05
 247630908, 0, 0, 0, 0.05, 0, 0, 0, 0.05
 247830828, 0, 0, 0, 0.05, 0, 0, 0, 0.05
 248030748, 0, 0, -0.193, 0.05, 0, 0, 0, 0.05
 248230668, 0, 0, -0.303, 0.05, 0, 0, -0.193, 0.05
 248431421, 0, 0, -0.197, 0.05, 0, 0, -0.303, 0.05
 248631341, -0.002, -0.002, -1.037, 0.05, 0, 0, -0.197, 0.05
 248831261, -0.014, -0.014, -1.993, 0.05, -0.002, -0.002, -1.037, 0.05
 249031181, -0.031, -0.032, -2.158, 0.05, -0.014, -0.014, -1.993, 0.05
 249231101, -0.048, -0.048, -2.341, 0.05, -0.031, -0.032, -2.158, 0.05
 249431021, -0.064, -0.063, -2.587, 0.05, -0.048, -0.048, -2.341, 0.05
 249630941, -0.07700001, -0.075, -2.789, 0.05, -0.064, -0.063, -2.587, 0.05
 249830861, -0.08800001, -0.085, -2.956, 0.05, -0.07700001, -0.075, -2.789, 0.05
 250030781, -0.097, -0.093, -3.106, 0.05, -0.08800001, -0.085, -2.956, 0.05
 250230701, -0.104, -0.09900001, -3.237, 0.05, -0.097, -0.093, -3.106, 0.05
 250431454, -0.11, -0.104, -3.352, 0.05, -0.104, -0.09900001, -3.237, 0.05
 250631374, -0.115, -0.108, -3.454, 0.05, -0.11, -0.104, -3.352, 0.05
 250831294, -0.119, -0.111, -3.543, 0.05, -0.115, -0.108, -3.454, 0.05
 251031214, -0.122, -0.113, -3.619, 0.05, -0.119, -0.111, -3.543, 0.05
 251231134, -0.124, -0.115, -3.687, 0.05, -0.122, -0.113, -3.619, 0.05
 251431054, -0.127, -0.117, -3.747, 0.05, -0.124, -0.115, -3.687, 0.05
 251630974, -0.129, -0.119, -3.8, 0.05, -0.127, -0.117, -3.747, 0.05
 251830894, -0.132, -0.121, -3.847, 0.05, -0.129, -0.119, -3.8, 0.05
 252030814, -0.134, -0.123, -3.828, 0.05, -0.132, -0.121, -3.847, 0.05
 252230734, -0.131, -0.121, -3.258, 0.05, -0.134, -0.123, -3.828, 0.05
 252430654, -0.128, -0.12, -2.762, 0.05, -0.131, -0.121, -3.258, 0.05
 252631407, -0.126, -0.12, -2.325, 0.05, -0.128, -0.12, -2.762, 0.05
 252831327, -0.123, -0.119, -1.942, 0.05, -0.126, -0.12, -2.325, 0.05
 253031247, -0.121, -0.119, -1.606, 0.05, -0.123, -0.119, -1.942, 0.05
 253231167, -0.119, -0.118, -1.311, 0.05, -0.121, -0.119, -1.606, 0.05
 253431087, -0.117, -0.117, -1.055, 0.05, -0.119, -0.118, -1.311, 0.05
 253631007, -0.122, -0.128, -0.817, 0.05, -0.117, -0.117, -1.055, 0.05
 253830927, -0.148, -0.152, -0.625, 0.05, -0.122, -0.128, -0.817, 0.05
 254030847, -0.195, -0.15, -0.475, 0.05, -0.148, -0.152, -0.625, 0.05
 254230767, -0.264, -0.117, -0.366, 0.05, -0.195, -0.15, -0.475, 0.05
 254430687, -0.358, -0.064, -0.287, 0.05, -0.264, -0.117, -0.366, 0.05
 254631440, -0.472, -0.01, -0.23, 0.05, -0.358, -0.064, -0.287, 0.05
 254831360, -0.591, 0.027, -0.19, 0.05, -0.472, -0.01, -0.23, 0.05
 255031280, -0.7040001, 0.047, -0.16, 0.05, -0.591, 0.027, -0.19, 0.05
 255231200, -0.832, 0.054, -0.137, 0.05, -0.7040001, 0.047, -0.16, 0.05
 255431120, -0.98, 0.064, -0.12, 0.05, -0.832, 0.054, -0.137, 0.05
 255631040, -1.139, 0.07600001, -0.104, 0.05, -0.98, 0.064, -0.12, 0.05
 255830960, -1.322, 0.053, -0.089, 0.05, -1.139, 0.07600001, -0.104, 0.05
 256030880, -1.502, -0.009000001, -0.079, 0.05, -1.322, 0.053, -0.089, 0.05
 256230800, -1.648, -0.068, -0.072, 0.05, -1.502, -0.009000001, -0.079, 0.05
 256430720, -1.775, -0.109, -0.066, 0.05, -1.648, -0.068, -0.072, 0.05
 256631473, -1.901, -0.158, -0.06, 0.05, -1.775, -0.109, -0.066, 0.05
 256831393, -2.024, -0.241, -0.058, 0.05, -1.901, -0.158, -0.06, 0.05
 257031313, -2.144, -0.318, -0.057, 0.05, -2.024, -0.241, -0.058, 0.05
 257231233, -2.269, -0.358, -0.058, 0.05, -2.144, -0.318, -0.057, 0.05
 257431153, -2.393, -0.385, -0.059, 0.05, -2.269, -0.358, -0.058, 0.05
 257631073, -2.494, -0.427, -0.061, 0.05, -2.393, -0.385, -0.059, 0.05
 257830993, -2.563, -0.485, -0.06500001, 0.05, -2.494, -0.427, -0.061, 0.05
 258030913, -2.618, -0.5420001, -0.066, 0.05, -2.563, -0.485, -0.06500001, 0.05
 258230833, -2.682, -0.625, -0.064, 0.05, -2.618, -0.5420001, -0.066, 0.05
 258430753, -2.762, -0.729, -0.061, 0.05, -2.682, -0.625, -0.064, 0.05
 258630673, -2.849, -0.832, -0.062, 0.05, -2.762, -0.729, -0.061, 0.05
 258831426, -2.924, -0.92, -0.064, 0.05, -2.849, -0.832, -0.062, 0.05
 259031346, -2.976, -1.001, -0.06900001, 0.05, -2.924, -0.92, -0.064, 0.05
 259231266, -3.006, -1.086, -0.071, 0.05, -2.976, -1.001, -0.06900001, 0.05
 259431186, -3.038, -1.172, -0.072, 0.05, -3.006, -1.086, -0.071, 0.05
 259631106, -3.08, -1.256, -0.07300001, 0.05, -3.038, -1.172, -0.072, 0.05
 259831026, -3.103, -1.35, -0.072, 0.05, -3.08, -1.256, -0.07300001, 0.05
 260030946, -3.105, -1.461, -0.072, 0.05, -3.103, -1.35, -0.072, 0.05
 260230866, -3.102, -1.567, -0.071, 0.05, -3.105, -1.461, -0.072, 0.05
 260430786, -3.099, -1.656, -0.07300001, 0.05, -3.102, -1.567, -0.071, 0.05
 260630706, -3.09, -1.735, -0.07700001, 0.05, -3.099, -1.656, -0.07300001, 0.05
 260831459, -3.079, -1.812, -0.081, 0.05, -3.09, -1.735, -0.07700001, 0.05
 261031379, -3.077, -1.876, -0.085, 0.05, -3.079, -1.812, -0.081, 0.05
 261231299, -3.068, -1.94, -0.089, 0.05, -3.077, -1.876, -0.085, 0.05
 261431219, -3.036, -2.023, -0.093, 0.05, -3.068, -1.94, -0.089, 0.05
 261631139, -2.991, -2.117, -0.09500001, 0.05, -3.036, -2.023, -0.093, 0.05
 261831059, -2.952, -2.208, -0.093, 0.05, -2.991, -2.117, -0.09500001, 0.05
 262030979, -2.915, -2.305, -0.089, 0.05, -2.952, -2.208, -0.093, 0.05
 262230899, -2.88, -2.406, -0.085, 0.05, -2.915, -2.305, -0.089, 0.05
 262430819, -2.861, -2.488, -0.08000001, 0.05, -2.88, -2.406, -0.085, 0.05
 262630739, -2.846, -2.554, -0.07600001, 0.05, -2.861, -2.488, -0.08000001, 0.05
 262830659, -2.801, -2.617, -0.072, 0.05, -2.846, -2.554, -0.07600001, 0.05
 263031412, -2.725, -2.684, -0.063, 0.05, -2.801, -2.617, -0.072, 0.05
 263231332, -2.637, -2.76, -0.054, 0.05, -2.725, -2.684, -0.063, 0.05
 263431252, -2.554, -2.837, -0.048, 0.05, -2.637, -2.76, -0.054, 0.05
 263631172, -2.483, -2.902, -0.044, 0.05, -2.554, -2.837, -0.048, 0.05
 263831092, -2.414, -2.969, -0.036, 0.05, -2.483, -2.902, -0.044, 0.05
 264031012, -2.333, -3.038, -0.031, 0.05, -2.414, -2.969, -0.036, 0.05
 264230932, -2.242, -3.102, -0.026, 0.05, -2.333, -3.038, -0.031, 0.05
 264430852, -2.155, -3.158, -0.022, 0.05, -2.242, -3.102, -0.026, 0.05
 264630772, -2.08, -3.206, -0.018, 0.05, -2.155, -3.158, -0.022, 0.05
 264830692, -2, -3.256, -0.016, 0.05, -2.08, -3.206, -0.018, 0.05
 265031445, -1.916, -3.309, -0.015, 0.05, -2, -3.256, -0.016, 0.05
 265231365, -1.838, -3.36, -0.015, 0.05, -1.916, -3.309, -0.015, 0.05
 265431285, -1.758, -3.41, -0.016, 0.05, -1.838, -3.36, -0.015, 0.05
 265631205, -1.662, -3.458, -0.017, 0.05, -1.758, -3.41, -0.016, 0.05
 265831125, -1.567, -3.502, -0.017, 0.05, -1.662, -3.458, -0.017, 0.05
 266031045, -1.495, -3.544, -0.018, 0.05, -1.567, -3.502, -0.017, 0.05
 266230965, -1.445, -3.577, -0.018, 0.05, -1.495, -3.544, -0.018, 0.05
 266430885, -1.397, -3.609, -0.015, 0.05, -1.445, -3.577, -0.018, 0.05
 266630805, -1.329, -3.639, -0.011, 0.05, -1.397, -3.609, -0.015, 0.05
 266830725, -1.243, -3.665, -0.011, 0.05, -1.329, -3.639, -0.011, 0.05
 267031478, -1.148, -3.689, -0.011, 0.05, -1.243, -3.665, -0.011, 0.05
 267231398, -1.046, -3.715, -0.01, 0.05, -1.148, -3.689, -0.011, 0.05
 267431318, -0.9390001, -3.737, -0.009000001, 0.05, -1.046, -3.715, -0.01, 0.05
 267631238, -0.832, -3.753, -0.009000001, 0.05, -0.9390001, -3.737, -0.009000001, 0.05
 267831158, -0.737, -3.771, -0.008, 0.05, -0.832, -3.753, -0.009000001, 0.05
 268031078, -0.66, -3.799, -0.004, 0.05, -0.737, -3.771, -0.008, 0.05
 268230998, -0.587, -3.839, -0.003, 0.05, -0.66, -3.799, -0.004, 0.05
 268430918, -0.497, -3.878, -0.001, 0.05, -0.587, -3.839, -0.003, 0.05
 268630838, -0.391, -3.904, -0.004, 0.05, -0.497, -3.878, -0.001, 0.05
 268830758, -0.299, -3.91, -0.006, 0.05, -0.391, -3.904, -0.004, 0.05
 269030678, -0.212, -3.897, -0.008, 0.05, -0.299, -3.91, -0.006, 0.05
 269231431, -0.116, -3.878, -0.009000001, 0.05, -0.212, -3.897, -0.008, 0.05
 269431351, -0.015, -3.859, -0.009000001, 0.05, -0.116, -3.878, -0.009000001, 0.05
 269631271, 0.07, -3.836, -0.009000001, 0.05, -0.015, -3.859, -0.009000001, 0.05
 269831191, 0.147, -3.814, -0.011, 0.05, 0.07, -3.836, -0.009000001, 0.05
 270031111, 0.257, -3.793, -0.009000001, 0.05, 0.147, -3.814, -0.011, 0.05
 270231031, 0.402, -3.768, -0.009000001, 0.05, 0.257, -3.793, -0.009000001, 0.05
 270430951, 0.544, -3.731, -0.011, 0.05, 0.402, -3.768, -0.009000001, 0.05
 270630871, 0.673, -3.683, -0.014, 0.05, 0.544, -3.731, -0.011, 0.05
 270830791, 0.8, -3.643, -0.015, 0.05, 0.673, -3.683, -0.014, 0.05
 271030711, 0.927, -3.623, -0.015, 0.05, 0.8, -3.643, -0.015, 0.05
 271231464, 1.041, -3.606, -0.012, 0.05, 0.927, -3.623, -0.015, 0.05
 271431384, 1.13, -3.581, -0.011, 0.05, 1.041, -3.606, -0.012, 0.05
 271631304, 1.212, -3.552, -0.008, 0.05, 1.13, -3.581, -0.011, 0.05
 271831224, 1.31, -3.53, -0.007, 0.05, 1.212, -3.552, -0.008, 0.05
 272031144, 1.408, -3.508, -0.004, 0.05, 1.31, -3.53, -0.007, 0.05
 272231064, 1.495, -3.482, -0.005, 0.05, 1.408, -3.508, -0.004, 0.05
 272430984, 1.584, -3.45, -0.007, 0.05, 1.495, -3.482, -0.005, 0.05
 272630904, 1.684, -3.408, -0.004, 0.05, 1.584, -3.45, -0.007, 0.05
 272830824, 1.778, -3.362, -0.002, 0.05, 1.684, -3.408, -0.004, 0.05
 273030744, 1.856, -3.315, -0.005, 0.05, 1.778, -3.362, -0.002, 0.05
 273230664, 1.931, -3.265, -0.007, 0.05, 1.856, -3.315, -0.005, 0.05
 273431417, 2.016, -3.208, -0.008, 0.05, 1.931, -3.265, -0.007, 0.05
 273631337, 2.107, -3.146, -0.009000001, 0.05, 2.016, -3.208, -0.008, 0.05
 273831257, 2.201, -3.067, -0.01, 0.05, 2.107, -3.146, -0.009000001, 0.05
 274031177, 2.298, -2.982, -0.009000001, 0.05, 2.201, -3.067, -0.01, 0.05
 274231097, 2.391, -2.91, -0.003, 0.05, 2.298, -2.982, -0.009000001, 0.05
 274431017, 2.484, -2.84, 0, 0.05, 2.391, -2.91, -0.003, 0.05
 274630937, 2.583, -2.775, 0.003, 0.05, 2.484, -2.84, 0, 0.05
 274830857, 2.679, -2.714, 0.006, 0.05, 2.583, -2.775, 0.003, 0.05
 275030777, 2.749, -2.659, 0.007, 0.05, 2.679, -2.714, 0.006, 0.05
 275230697, 2.806, -2.609, 0.008, 0.05, 2.749, -2.659, 0.007, 0.05
 275431450, 2.858, -2.564, 0.007, 0.05, 2.806, -2.609, 0.008, 0.05
 275631370, 2.897, -2.517, 0.006, 0.05, 2.858, -2.564, 0.007, 0.05
 275831290, 2.938, -2.461, 0.007, 0.05, 2.897, -2.517, 0.006, 0.05
 276031210, 2.99, -2.4, 0.006, 0.05, 2.938, -2.461, 0.007, 0.05
 276231130, 3.042, -2.345, 0.004, 0.05, 2.99, -2.4, 0.006, 0.05
 276431050, 3.084, -2.284, 0.002, 0.05, 3.042, -2.345, 0.004, 0.05
 276630970, 3.126, -2.205, 0.003, 0.05, 3.084, -2.284, 0.002, 0.05
 276830890, 3.17, -2.118, 0.006, 0.05, 3.126, -2.205, 0.003, 0.05
 277030810, 3.213, -2.026, 0.009000001, 0.05, 3.17, -2.118, 0.006, 0.05
 277230730, 3.267, -1.919, 0.015, 0.05, 3.213, -2.026, 0.009000001, 0.05
 277431483, 3.331, -1.799, 0.023, 0.05, 3.267, -1.919, 0.015, 0.05
 277631403, 3.398, -1.686, 0.031, 0.05, 3.331, -1.799, 0.023, 0.05
 277831323, 3.473, -1.595, 0.041, 0.05, 3.398, -1.686, 0.031, 0.05
 278031243, 3.546, -1.516, 0.05, 0.05, 3.473, -1.595, 0.041, 0.05
 278231163, 3.607, -1.42, 0.057, 0.05, 3.546, -1.516, 0.05, 0.05
 278431083, 3.649, -1.314, 0.066, 0.05, 3.607, -1.42, 0.057, 0.05
 278631003, 3.68, -1.205, 0.07600001, 0.05, 3.649, -1.314, 0.066, 0.05
 278830923, 3.711, -1.1, 0.08400001, 0.05, 3.68, -1.205, 0.07600001, 0.05
 279030843, 3.74, -1.004, 0.09, 0.05, 3.711, -1.1, 0.08400001, 0.05
 279230763, 3.766, -0.9080001, 0.094, 0.05, 3.74, -1.004, 0.09, 0.05
 279430683, 3.787, -0.816, 0.098, 0.05, 3.766, -0.9080001, 0.094, 0.05
 279631436, 3.804, -0.743, 0.104, 0.05, 3.787, -0.816, 0.098, 0.05
 279831356, 3.806, -0.678, 0.106, 0.05, 3.804, -0.743, 0.104, 0.05
 280031276, 3.796, -0.582, 0.11, 0.05, 3.806, -0.678, 0.106, 0.05
 280231196, 3.788, -0.459, 0.114, 0.05, 3.796, -0.582, 0.11, 0.05
 280431116, 3.785, -0.333, 0.117, 0.05, 3.788, -0.459, 0.114, 0.05
 280631036, 3.793, -0.213, 0.122, 0.05, 3.785, -0.333, 0.117, 0.05
 280830956, 3.812, -0.09, 0.127, 0.05, 3.793, -0.213, 0.122, 0.05
 281030876, 3.833, 0.026, 0.132, 0.05, 3.812, -0.09, 0.127, 0.05
 281230796, 3.844, 0.117, 0.135, 0.05, 3.833, 0.026, 0.132, 0.05
 281430716, 3.846, 0.181, 0.135, 0.05, 3.844, 0.117, 0.135, 0.05
 281631469, 3.838, 0.244, 0.134, 0.05, 3.846, 0.181, 0.135, 0.05
 281831389, 3.819, 0.324, 0.135, 0.05, 3.838, 0.244, 0.134, 0.05
 282031309, 3.805, 0.406, 0.136, 0.05, 3.819, 0.324, 0.135, 0.05
 282231229, 3.804, 0.478, 0.137, 0.05, 3.805, 0.406, 0.136, 0.05
 282431149, 3.803, 0.541, 0.14, 0.05, 3.804, 0.478, 0.137, 0.05
 282631069, 3.79, 0.623, 0.141, 0.05, 3.803, 0.541, 0.14, 0.05
 282830989, 3.784, 0.717, 0.142, 0.05, 3.79, 0.623, 0.141, 0.05
 283030909, 3.799, 0.7960001, 0.142, 0.05, 3.784, 0.717, 0.142, 0.05
 283230829, 3.816, 0.8650001, 0.142, 0.05, 3.799, 0.7960001, 0.142, 0.05
 283430749, 3.814, 0.9450001, 0.14, 0.05, 3.816, 0.8650001, 0.142, 0.05
 283630669, 3.784, 1.04, 0.139, 0.05, 3.814, 0.9450001, 0.14, 0.05
 283831422, 3.743, 1.153, 0.14, 0.05, 3.784, 1.04, 0.139, 0.05
 284031342, 3.71, 1.271, 0.14, 0.05, 3.743, 1.153, 0.14, 0.05
 284231262, 3.682, 1.38, 0.139, 0.05, 3.71, 1.271, 0.14, 0.05
 284431182, 3.647, 1.484, 0.137, 0.05, 3.682, 1.38, 0.139, 0.05
 284631102, 3.6, 1.586, 0.137, 0.05, 3.647, 1.484, 0.137, 0.05
 284831022, 3.55, 1.685, 0.139, 0.05, 3.6, 1.586, 0.137, 0.05
 285030942, 3.503, 1.782, 0.141, 0.05, 3.55, 1.685, 0.139, 0.05
 285230862, 3.453, 1.865, 0.141, 0.05, 3.503, 1.782, 0.141, 0.05
 285430782, 3.386, 1.938, 0.14, 0.05, 3.453, 1.865, 0.141, 0.05
 285630702, 3.315, 2.012, 0.139, 0.05, 3.386, 1.938, 0.14, 0.05
 285831455, 3.248, 2.089, 0.138, 0.05, 3.315, 2.012, 0.139, 0.05
 286031375, 3.179, 2.164, 0.135, 0.05, 3.248, 2.089, 0.138, 0.05
 286231295, 3.114, 2.233, 0.13, 0.05, 3.179, 2.164, 0.135, 0.05
 286431215, 3.061, 2.292, 0.126, 0.05, 3.114, 2.233, 0.13, 0.05
 286631135, 3.006, 2.353, 0.121, 0.05, 3.061, 2.292, 0.126, 0.05
 286831055, 2.937, 2.429, 0.117, 0.05, 3.006, 2.353, 0.121, 0.05
 287030975, 2.863, 2.516, 0.113, 0.05, 2.937, 2.429, 0.117, 0.05
 287230895, 2.785, 2.602, 0.109, 0.05, 2.863, 2.516, 0.113, 0.05
 287430815, 2.699, 2.681, 0.108, 0.05, 2.785, 2.602, 0.109, 0.05
 287630735, 2.624, 2.747, 0.108, 0.05, 2.699, 2.681, 0.108, 0.05
 287830655, 2.558, 2.81, 0.109, 0.05, 2.624, 2.747, 0.108, 0.05
 288031408, 2.494, 2.875, 0.108, 0.05, 2.558, 2.81, 0.109, 0.05
 288231328, 2.434, 2.936, 0.107, 0.05, 2.494, 2.875, 0.108, 0.05
 288431248, 2.37, 2.994, 0.104, 0.05, 2.434, 2.936, 0.107, 0.05
 288631168, 2.287, 3.051, 0.098, 0.05, 2.37, 2.994, 0.104, 0.05
 288831088, 2.185, 3.108, 0.094, 0.05, 2.287, 3.051, 0.098, 0.05
 289031008, 2.081, 3.158, 0.089, 0.05, 2.185, 3.108, 0.094, 0.05
 289230928, 2.004, 3.202, 0.083, 0.05, 2.081, 3.158, 0.089, 0.05
 289430848, 1.946, 3.241, 0.08000001, 0.05, 2.004, 3.202, 0.083, 0.05
 289630768, 1.877, 3.277, 0.074, 0.05, 1.946, 3.241, 0.08000001, 0.05
 289830688, 1.787, 3.317, 0.07, 0.05, 1.877, 3.277, 0.074, 0.05
 290031441, 1.689, 3.359, 0.068, 0.05, 1.787, 3.317, 0.07, 0.05
 290231361, 1.598, 3.406, 0.067, 0.05, 1.689, 3.359, 0.068, 0.05
 290431281, 1.5, 3.471, 0.067, 0.05, 1.598, 3.406, 0.067, 0.05
 290631201, 1.39, 3.534, 0.066, 0.05, 1.5, 3.471, 0.067, 0.05
 290831121, 1.301, 3.569, 0.061, 0.05, 1.39, 3.534, 0.066, 0.05
 291031041, 1.23, 3.589, 0.056, 0.05, 1.301, 3.569, 0.061, 0.05
 291230961, 1.158, 3.615, 0.051, 0.05, 1.23, 3.589, 0.056, 0.05
 291430881, 1.089, 3.645, 0.045, 0.05, 1.158, 3.615, 0.051, 0.05
 291630801, 1.017, 3.671, 0.038, 0.05, 1.089, 3.645, 0.045, 0.05
 291830721, 0.9400001, 3.686, 0.033, 0.05, 1.017, 3.671, 0.038, 0.05
 292031474, 0.864, 3.691, 0.027, 0.05, 0.9400001, 3.686, 0.033, 0.05
 292231394, 0.771, 3.703, 0.024, 0.05, 0.864, 3.691, 0.027, 0.05
 292431314, 0.655, 3.716, 0.02, 0.05, 0.771, 3.703, 0.024, 0.05
 292631234, 0.536, 3.738, 0.018, 0.05, 0.655, 3.716, 0.02, 0.05
 292831154, 0.427, 3.77, 0.019, 0.05, 0.536, 3.738, 0.018, 0.05
 293031074, 0.318, 3.808, 0.018, 0.05, 0.427, 3.77, 0.019, 0.05
 293230994, 0.209, 3.829, 0.017, 0.05, 0.318, 3.808, 0.018, 0.05
 293430914, 0.115, 3.831, 0.015, 0.05, 0.209, 3.829, 0.017, 0.05
 293630834, 0.031, 3.828, 0.012, 0.05, 0.115, 3.831, 0.015, 0.05
 293830754, -0.06500001, 3.819, 0.007, 0.05, 0.031, 3.828, 0.012, 0.05
 294030674, -0.181, 3.807, 0.001, 0.05, -0.06500001, 3.819, 0.007, 0.05
 294231427, -0.302, 3.794, -0.004, 0.05, -0.181, 3.807, 0.001, 0.05
 294431347, -0.411, 3.787, -0.008, 0.05, -0.302, 3.794, -0.004, 0.05
 294631267, -0.501, 3.781, -0.013, 0.05, -0.411, 3.787, -0.008, 0.05
 294831187, -0.5840001, 3.772, -0.015, 0.05, -0.501, 3.781, -0.013, 0.05
 295031107, -0.683, 3.749, -0.02, 0.05, -0.5840001, 3.772, -0.015, 0.05
 295231027, -0.8, 3.714, -0.023, 0.05, -0.683, 3.749, -0.02, 0.05
 295430947, -0.9210001, 3.674, -0.027, 0.05, -0.8, 3.714, -0.023, 0.05
 295630867, -1.038, 3.628, -0.029, 0.05, -0.9210001, 3.674, -0.027, 0.05
 295830787, -1.15, 3.586, -0.029, 0.05, -1.038, 3.628, -0.029, 0.05
 296030707, -1.267, 3.553, -0.029, 0.05, -1.15, 3.586, -0.029, 0.05
 296231460, -1.397, 3.523, -0.032, 0.05, -1.267, 3.553, -0.029, 0.05
 296431380, -1.518, 3.496, -0.035, 0.05, -1.397, 3.523, -0.032, 0.05
 296631300, -1.617, 3.473, -0.04, 0.05, -1.518, 3.496, -0.035, 0.05
 296831220, -1.7, 3.45, -0.044, 0.05, -1.617, 3.473, -0.04, 0.05
 297031140, -1.769, 3.419, -0.049, 0.05, -1.7, 3.45, -0.044, 0.05
 297231060, -1.843, 3.365, -0.053, 0.05, -1.769, 3.419, -0.049, 0.05
 297430980, -1.929, 3.297, -0.056, 0.05, -1.843, 3.365, -0.053, 0.05
 297630900, -2.008, 3.24, -0.057, 0.05, -1.929, 3.297, -0.056, 0.05
 297830820, -2.072, 3.204, -0.058, 0.05, -2.008, 3.24, -0.057, 0.05
 298030740, -2.152, 3.151, -0.06, 0.05, -2.072, 3.204, -0.058, 0.05
 298230660, -2.231, 3.069, -0.066, 0.05, -2.152, 3.151, -0.06, 0.05
 298431413, -2.273, 2.999, -0.072, 0.05, -2.231, 3.069, -0.066, 0.05
 298631333, -2.287, 2.966, -0.07600001, 0.05, -2.273, 2.999, -0.072, 0.05
 298831253, -2.324, 2.94, -0.07600001, 0.05, -2.287, 2.966, -0.07600001, 0.05
 299031173, -2.405, 2.889, -0.07700001, 0.05, -2.324, 2.94, -0.07600001, 0.05
 299231093, -2.5, 2.819, -0.079, 0.05, -2.405, 2.889, -0.07700001, 0.05
 299431013, -2.587, 2.746, -0.082, 0.05, -2.5, 2.819, -0.079, 0.05
 299630933, -2.677, 2.68, -0.083, 0.05, -2.587, 2.746, -0.082, 0.05
 299830853, -2.778, 2.62, -0.082, 0.05, -2.677, 2.68, -0.083, 0.05
 300030773, -2.872, 2.562, -0.086, 0.05, -2.778, 2.62, -0.082, 0.05
 300230693, -2.943, 2.498, -0.08800001, 0.05, -2.872, 2.562, -0.086, 0.05
 300431446, -2.999, 2.435, -0.089, 0.05, -2.943, 2.498, -0.08800001, 0.05
 300631366, -3.058, 2.374, -0.09, 0.05, -2.999, 2.435, -0.089, 0.05
 300831286, -3.125, 2.307, -0.09100001, 0.05, -3.058, 2.374, -0.09, 0.05
 301031206, -3.192, 2.242, -0.09, 0.05, -3.125, 2.307, -0.09100001, 0.05
 301231126, -3.248, 2.178, -0.089, 0.05, -3.192, 2.242, -0.09, 0.05
 301431046, -3.298, 2.101, -0.09200001, 0.05, -3.248, 2.178, -0.089, 0.05
 301630966, -3.344, 1.999, -0.094, 0.05, -3.298, 2.101, -0.09200001, 0.05
 301830886, -3.386, 1.889, -0.094, 0.05, -3.344, 1.999, -0.094, 0.05
 302030806, -3.423, 1.788, -0.096, 0.05, -3.386, 1.889, -0.094, 0.05
 302230726, -3.455, 1.683, -0.09900001, 0.05, -3.423, 1.788, -0.096, 0.05
 302431479, -3.474, 1.556, -0.09900001, 0.05, -3.455, 1.683, -0.09900001, 0.05
 302631399, -3.484, 1.418, -0.098, 0.05, -3.474, 1.556, -0.09900001, 0.05
 302831319, -3.5, 1.297, -0.096, 0.05, -3.484, 1.418, -0.098, 0.05
 303031239, -3.518, 1.202, -0.09200001, 0.05, -3.5, 1.297, -0.096, 0.05
 303231159, -3.524, 1.114, -0.09100001, 0.05, -3.518, 1.202, -0.09200001, 0.05
 303431079, -3.519, 1.029, -0.093, 0.05, -3.524, 1.114, -0.09100001, 0.05
 303630999, -3.533, 0.9450001, -0.094, 0.05, -3.519, 1.029, -0.093, 0.05
 303830919, -3.567, 0.854, -0.093, 0.05, -3.533, 0.9450001, -0.094, 0.05
 304030839, -3.596, 0.7410001, -0.09500001, 0.05, -3.567, 0.854, -0.093, 0.05
 304230759, -3.615, 0.603, -0.096, 0.05, -3.596, 0.7410001, -0.09500001, 0.05
 304430679, -3.644, 0.473, -0.096, 0.05, -3.615, 0.603, -0.096, 0.05
 304631432, -3.69, 0.372, -0.096, 0.05, -3.644, 0.473, -0.096, 0.05
 304831352, -3.729, 0.291, -0.098, 0.05, -3.69, 0.372, -0.096, 0.05
 305031272, -3.741, 0.202, -0.101, 0.05, -3.729, 0.291, -0.098, 0.05
 305231192, -3.73, 0.09, -0.103, 0.05, -3.741, 0.202, -0.101, 0.05
 305431112, -3.719, -0.015, -0.102, 0.05, -3.73, 0.09, -0.103, 0.05
 305631032, -3.719, -0.108, -0.101, 0.05, -3.719, -0.015, -0.102, 0.05
 305830952, -3.722, -0.21, -0.103, 0.05, -3.719, -0.108, -0.101, 0.05
 306030872, -3.731, -0.323, -0.103, 0.05, -3.722, -0.21, -0.103, 0.05
 306230792, -3.744, -0.426, -0.102, 0.05, -3.731, -0.323, -0.103, 0.05
 306430712, -3.748, -0.514, -0.101, 0.05, -3.744, -0.426, -0.102, 0.05
 306631465, -3.737, -0.599, -0.09900001, 0.05, -3.748, -0.514, -0.101, 0.05
 306831385, -3.71, -0.6900001, -0.09900001, 0.05, -3.737, -0.599, -0.09900001, 0.05
 307031305, -3.684, -0.793, -0.098, 0.05, -3.71, -0.6900001, -0.09900001, 0.05
 307231225, -3.667, -0.895, -0.096, 0.05, -3.684, -0.793, -0.098, 0.05
 307431145, -3.652, -0.97, -0.096, 0.05, -3.667, -0.895, -0.096, 0.05
 307631065, -3.631, -1.029, -0.1, 0.05, -3.652, -0.97, -0.096, 0.05
 307830985, -3.611, -1.087, -0.102, 0.05, -3.631, -1.029, -0.1, 0.05
 308030905, -3.597, -1.142, -0.105, 0.05, -3.611, -1.087, -0.102, 0.05
 308230825, -3.588, -1.179, -0.108, 0.05, -3.597, -1.142, -0.105, 0.05
 308430745, -3.588, -1.209, -0.108, 0.05, -3.588, -1.179, -0.108, 0.05
 308630665, -3.593, -1.239, -0.106, 0.05, -3.588, -1.209, -0.108, 0.05
 308831418, -3.585, -1.292, -0.104, 0.05, -3.593, -1.239, -0.106, 0.05
 309031338, -3.553, -1.376, -0.102, 0.05, -3.585, -1.292, -0.104, 0.05
 309231258, -3.509, -1.475, -0.1, 0.05, -3.553, -1.376, -0.102, 0.05
 309431178, -3.464, -1.575, -0.098, 0.05, -3.509, -1.475, -0.1, 0.05
 309631098, -3.418, -1.672, -0.096, 0.05, -3.464, -1.575, -0.098, 0.05
 309831018, -3.356, -1.772, -0.093, 0.05, -3.418, -1.672, -0.096, 0.05
 310030938, -3.275, -1.876, -0.093, 0.05, -3.356, -1.772, -0.093, 0.05
 310230858, -3.193, -1.983, -0.09500001, 0.05, -3.275, -1.876, -0.093, 0.05
 310430778, -3.13, -2.074, -0.097, 0.05, -3.193, -1.983, -0.09500001, 0.05
 310630698, -3.086, -2.135, -0.09900001, 0.05, -3.13, -2.074, -0.097, 0.05
 310831451, -3.04, -2.19, -0.09900001, 0.05, -3.086, -2.135, -0.09900001, 0.05
 311031371, -2.982, -2.264, -0.093, 0.05, -3.04, -2.19, -0.09900001, 0.05
 311231291, -2.916, -2.354, -0.086, 0.05, -2.982, -2.264, -0.093, 0.05
 311431211, -2.866, -2.428, -0.079, 0.05, -2.916, -2.354, -0.086, 0.05
 311631131, -2.823, -2.479, -0.072, 0.05, -2.866, -2.428, -0.079, 0.05
 311831051, -2.757, -2.531, -0.064, 0.05, -2.823, -2.479, -0.072, 0.05
 312030971, -2.667, -2.593, -0.055, 0.05, -2.757, -2.531, -0.064, 0.05
 312230891, -2.57, -2.656, -0.047, 0.05, -2.667, -2.593, -0.055, 0.05
 312430811, -2.469, -2.727, -0.039, 0.05, -2.57, -2.656, -0.047, 0.05
 312630731, -2.377, -2.8, -0.033, 0.05, -2.469, -2.727, -0.039, 0.05
 312831484, -2.317, -2.854, -0.03, 0.05, -2.377, -2.8, -0.033, 0.05
 313031404, -2.279, -2.899, -0.029, 0.05, -2.317, -2.854, -0.03, 0.05
 313231324, -2.244, -2.956, -0.025, 0.05, -2.279, -2.899, -0.029, 0.05
 313431244, -2.185, -3.024, -0.025, 0.05, -2.244, -2.956, -0.025, 0.05
 313631164, -2.104, -3.084, -0.025, 0.05, -2.185, -3.024, -0.025, 0.05
 313831084, -2.02, -3.146, -0.02, 0.05, -2.104, -3.084, -0.025, 0.05
 314031004, -1.942, -3.228, -0.016, 0.05, -2.02, -3.146, -0.02, 0.05
 314230924, -1.866, -3.307, -0.014, 0.05, -1.942, -3.228, -0.016, 0.05
 314430844, -1.774, -3.37, -0.013, 0.05, -1.866, -3.307, -0.014, 0.05
 314630764, -1.662, -3.425, -0.012, 0.05, -1.774, -3.37, -0.013, 0.05
 314830684, -1.544, -3.482, -0.013, 0.05, -1.662, -3.425, -0.012, 0.05
 315031437, -1.424, -3.535, -0.012, 0.05, -1.544, -3.482, -0.013, 0.05
 315231357, -1.305, -3.58, -0.008, 0.05, -1.424, -3.535, -0.012, 0.05
 315431277, -1.195, -3.62, -0.007, 0.05, -1.305, -3.58, -0.008, 0.05
 315631197, -1.097, -3.658, -0.004, 0.05, -1.195, -3.62, -0.007, 0.05
 315831117, -0.994, -3.693, -0.001, 0.05, -1.097, -3.658, -0.004, 0.05
 316031037, -0.881, -3.725, 0, 0.05, -0.994, -3.693, -0.001, 0.05
 316230957, -0.779, -3.752, -0.004, 0.05, -0.881, -3.725, 0, 0.05
 316430877, -0.68, -3.777, -0.008, 0.05, -0.779, -3.752, -0.004, 0.05
 316630797, -0.566, -3.797, -0.012, 0.05, -0.68, -3.777, -0.008, 0.05
 316830717, -0.454, -3.806, -0.016, 0.05, -0.566, -3.797, -0.012, 0.05
 317031470, -0.366, -3.814, -0.019, 0.05, -0.454, -3.806, -0.016, 0.05
 317231390, -0.305, -3.822, -0.021, 0.05, -0.366, -3.814, -0.019, 0.05
 317431310, -0.242, -3.827, -0.021, 0.05, -0.305, -3.822, -0.021, 0.05
 317631230, -0.163, -3.835, -0.022, 0.05, -0.242, -3.827, -0.021, 0.05
 317831150, -0.08000001, -3.85, -0.02, 0.05, -0.163, -3.835, -0.022, 0.05
 318031070, -0.011, -3.872, -0.019, 0.05, -0.08000001, -3.85, -0.02, 0.05
 318230990, 0.048, -3.885, -0.017, 0.05, -0.011, -3.872, -0.019, 0.05
 318430910, 0.12, -3.88, -0.014, 0.05, 0.048, -3.885, -0.017, 0.05
 318630830, 0.228, -3.87, -0.01, 0.05, 0.12, -3.88, -0.014, 0.05
 318830750, 0.354, -3.87, -0.006, 0.05, 0.228, -3.87, -0.01, 0.05
 319030670, 0.472, -3.861, -0.006, 0.05, 0.354, -3.87, -0.006, 0.05
 319231423, 0.587, -3.837, -0.005, 0.05, 0.472, -3.861, -0.006, 0.05
 319431343, 0.711, -3.809, -0.002, 0.05, 0.587, -3.837, -0.005, 0.05
 319631263, 0.836, -3.789, 0, 0.05, 0.711, -3.809, -0.002, 0.05
 319831183, 0.955, -3.782, 0, 0.05, 0.836, -3.789, 0, 0.05
 320031103, 1.061, -3.779, 0, 0.05, 0.955, -3.782, 0, 0.05
 320231023, 1.157, -3.769, 0, 0.05, 1.061, -3.779, 0, 0.05
 320430943, 1.25, -3.746, -0.003, 0.05, 1.157, -3.769, 0, 0.05
 320630863, 1.341, -3.712, -0.006, 0.05, 1.25, -3.746, -0.003, 0.05
 320830783, 1.429, -3.663, -0.007, 0.05, 1.341, -3.712, -0.006, 0.05
 321030703, 1.513, -3.618, -0.011, 0.05, 1.429, -3.663, -0.007, 0.05
 321231456, 1.58, -3.59, -0.012, 0.05, 1.513, -3.618, -0.011, 0.05
 321431376, 1.628, -3.564, -0.013, 0.05, 1.58, -3.59, -0.012, 0.05
 321631296, 1.679, -3.52, -0.015, 0.05, 1.628, -3.564, -0.013, 0.05
 321831216, 1.733, -3.461, -0.015, 0.05, 1.679, -3.52, -0.015, 0.05
 322031136, 1.783, -3.409, -0.013, 0.05, 1.733, -3.461, -0.015, 0.05
 322231056, 1.85, -3.361, -0.01, 0.05, 1.783, -3.409, -0.013, 0.05
 322430976, 1.945, -3.284, -0.006, 0.05, 1.85, -3.361, -0.01, 0.05
 322630896, 2.049, -3.18, -0.004, 0.05, 1.945, -3.284, -0.006, 0.05
 322830816, 2.143, -3.087, 0, 0.05, 2.049, -3.18, -0.004, 0.05
 323030736, 2.237, -3.015, 0.003, 0.05, 2.143, -3.087, 0, 0.05
 323230656, 2.35, -2.95, 0.006, 0.05, 2.237, -3.015, 0.003, 0.05
 323431409, 2.472, -2.884, 0.009000001, 0.05, 2.35, -2.95, 0.006, 0.05
 323631329, 2.572, -2.829, 0.01, 0.05, 2.472, -2.884, 0.009000001, 0.05
 323831249, 2.645, -2.773, 0.01, 0.05, 2.572, -2.829, 0.01, 0.05
 324031169, 2.711, -2.691, 0.009000001, 0.05, 2.645, -2.773, 0.01, 0.05
 324231089, 2.782, -2.577, 0.008, 0.05, 2.711, -2.691, 0.009000001, 0.05
 324431009, 2.851, -2.46, 0.005, 0.05, 2.782, -2.577, 0.008, 0.05
 324630929, 2.9, -2.379, 0.002, 0.05, 2.851, -2.46, 0.005, 0.05
 324830849, 2.943, -2.312, 0.004, 0.05, 2.9, -2.379, 0.002, 0.05
 325030769, 2.989, -2.23, 0.007, 0.05, 2.943, -2.312, 0.004, 0.05
 325230689, 3.038, -2.138, 0.007, 0.05, 2.989, -2.23, 0.007, 0.05
 325431442, 3.089, -2.055, 0.008, 0.05, 3.038, -2.138, 0.007, 0.05
 325631362, 3.14, -1.992, 0.009000001, 0.05, 3.089, -2.055, 0.008, 0.05
 325831282, 3.185, -1.93, 0.013, 0.05, 3.14, -1.992, 0.009000001, 0.05
 326031202, 3.222, -1.863, 0.018, 0.05, 3.185, -1.93, 0.013, 0.05
 326231122, 3.249, -1.801, 0.025, 0.05, 3.222, -1.863, 0.018, 0.05
 326431042, 3.269, -1.739, 0.032, 0.05, 3.249, -1.801, 0.025, 0.05
 326630962, 3.29, -1.668, 0.039, 0.05, 3.269, -1.739, 0.032, 0.05
 326830882, 3.325, -1.574, 0.049, 0.05, 3.29, -1.668, 0.039, 0.05
 327030802, 3.373, -1.457, 0.061, 0.05, 3.325, -1.574, 0.049, 0.05
 327230722, 3.429, -1.336, 0.071, 0.05, 3.373, -1.457, 0.061, 0.05
 327431475, 3.488, -1.24, 0.079, 0.05, 3.429, -1.336, 0.071, 0.05
 327631395, 3.542, -1.18, 0.08400001, 0.05, 3.488, -1.24, 0.079, 0.05
 327831315, 3.587, -1.137, 0.087, 0.05, 3.542, -1.18, 0.08400001, 0.05
 328031235, 3.622, -1.094, 0.09100001, 0.05, 3.587, -1.137, 0.087, 0.05
 328231155, 3.641, -1.04, 0.094, 0.05, 3.622, -1.094, 0.09100001, 0.05
 328431075, 3.657, -0.955, 0.09900001, 0.05, 3.641, -1.04, 0.094, 0.05
 328630995, 3.666, -0.848, 0.104, 0.05, 3.657, -0.955, 0.09900001, 0.05
 328830915, 3.672, -0.752, 0.11, 0.05, 3.666, -0.848, 0.104, 0.05
 329030835, 3.69, -0.679, 0.116, 0.05, 3.672, -0.752, 0.11, 0.05
 329230755, 3.709, -0.603, 0.122, 0.05, 3.69, -0.679, 0.116, 0.05
 329430675, 3.718, -0.5, 0.128, 0.05, 3.709, -0.603, 0.122, 0.05
 329631428, 3.724, -0.377, 0.133, 0.05, 3.718, -0.5, 0.128, 0.05
 329831348, 3.732, -0.256, 0.136, 0.05, 3.724, -0.377, 0.133, 0.05
 330031268, 3.733, -0.156, 0.137, 0.05, 3.732, -0.256, 0.136, 0.05
 330231188, 3.74, -0.067, 0.138, 0.05, 3.733, -0.156, 0.137, 0.05
 330431108, 3.765, 0.018, 0.139, 0.05, 3.74, -0.067, 0.138, 0.05
 330631028, 3.79, 0.123, 0.139, 0.05, 3.765, 0.018, 0.139, 0.05
 330830948, 3.8, 0.246, 0.138, 0.05, 3.79, 0.123, 0.139, 0.05
 331030868, 3.795, 0.366, 0.139, 0.05, 3.8, 0.246, 0.138, 0.05
 331230788, 3.784, 0.483, 0.14, 0.05, 3.795, 0.366, 0.139, 0.05
 331430708, 3.772, 0.61, 0.143, 0.05, 3.784, 0.483, 0.14, 0.05
 331631461, 3.76, 0.747, 0.144, 0.05, 3.772, 0.61, 0.143, 0.05
 331831381, 3.75, 0.89, 0.143, 0.05, 3.76, 0.747, 0.144, 0.05
 332031301, 3.738, 1.019, 0.141, 0.05, 3.75, 0.89, 0.143, 0.05
 332231221, 3.717, 1.123, 0.138, 0.05, 3.738, 1.019, 0.141, 0.05
 332431141, 3.689, 1.218, 0.139, 0.05, 3.717, 1.123, 0.138, 0.05
 332631061, 3.66, 1.325, 0.14, 0.05, 3.689, 1.218, 0.139, 0.05
 332830981, 3.624, 1.431, 0.14, 0.05, 3.66, 1.325, 0.14, 0.05
 333030901, 3.586, 1.512, 0.135, 0.05, 3.624, 1.431, 0.14, 0.05
 333230821, 3.556, 1.575, 0.13, 0.05, 3.586, 1.512, 0.135, 0.05
 333430741, 3.535, 1.627, 0.128, 0.05, 3.556, 1.575, 0.13, 0.05
 333630661, 3.518, 1.674, 0.126, 0.05, 3.535, 1.627, 0.128, 0.05
 333831414, 3.488, 1.73, 0.123, 0.05, 3.518, 1.674, 0.126, 0.05
 334031334, 3.442, 1.792, 0.122, 0.05, 3.488, 1.73, 0.123, 0.05
 334231254, 3.392, 1.845, 0.123, 0.05, 3.442, 1.792, 0.122, 0.05
 334431174, 3.341, 1.9, 0.122, 0.05, 3.392, 1.845, 0.123, 0.05
 334631094, 3.283, 1.98, 0.124, 0.05, 3.341, 1.9, 0.122, 0.05
 334831014, 3.22, 2.091, 0.125, 0.05, 3.283, 1.98, 0.124, 0.05
 335030934, 3.156, 2.206, 0.127, 0.05, 3.22, 2.091, 0.125, 0.05
 335230854, 3.094, 2.307, 0.127, 0.05, 3.156, 2.206, 0.127, 0.05
 335430774, 3.033, 2.394, 0.125, 0.05, 3.094, 2.307, 0.127, 0.05
 335630694, 2.971, 2.473, 0.122, 0.05, 3.033, 2.394, 0.125, 0.05
 335831447, 2.928, 2.536, 0.119, 0.05, 2.971, 2.473, 0.122, 0.05
 336031367, 2.902, 2.593, 0.115, 0.05, 2.928, 2.536, 0.119, 0.05
 336231287, 2.864, 2.663, 0.11, 0.05, 2.902, 2.593, 0.115, 0.05
 336431207, 2.804, 2.742, 0.105, 0.05, 2.864, 2.663, 0.11, 0.05
 336631127, 2.738, 2.824, 0.1, 0.05, 2.804, 2.742, 0.105, 0.05
 336831047, 2.664, 2.907, 0.097, 0.05, 2.738, 2.824, 0.1, 0.05
 337030967, 2.58, 2.993, 0.096, 0.05, 2.664, 2.907, 0.097, 0.05
 337230887, 2.49, 3.072, 0.096, 0.05, 2.58, 2.993, 0.096, 0.05
 337430807, 2.405, 3.139, 0.094, 0.05, 2.49, 3.072, 0.096, 0.05
 337630727, 2.331, 3.197, 0.09100001, 0.05, 2.405, 3.139, 0.094, 0.05
 337831480, 2.263, 3.243, 0.08800001, 0.05, 2.331, 3.197, 0.09100001, 0.05
 338031400, 2.18, 3.28, 0.08800001, 0.05, 2.263, 3.243, 0.08800001, 0.05
 338231320, 2.07, 3.327, 0.087, 0.05, 2.18, 3.28, 0.08800001, 0.05
 338431240, 1.945, 3.396, 0.087, 0.05, 2.07, 3.327, 0.087, 0.05
 338631160, 1.822, 3.475, 0.086, 0.05, 1.945, 3.396, 0.087, 0.05
 338831080, 1.722, 3.537, 0.081, 0.05, 1.822, 3.475, 0.086, 0.05
 339031000, 1.646, 3.579, 0.075, 0.05, 1.722, 3.537, 0.081, 0.05
 339230920, 1.563, 3.623, 0.071, 0.05, 1.646, 3.579, 0.075, 0.05
 339430840, 1.462, 3.666, 0.067, 0.05, 1.563, 3.623, 0.071, 0.05
 339630760, 1.353, 3.696, 0.063, 0.05, 1.462, 3.666, 0.067, 0.05
 339830680, 1.244, 3.717, 0.059, 0.05, 1.353, 3.696, 0.063, 0.05
 340031433, 1.124, 3.732, 0.055, 0.05, 1.244, 3.717, 0.059, 0.05
 340231353, 1.001, 3.741, 0.048, 0.05, 1.124, 3.732, 0.055, 0.05
 340431273, 0.883, 3.754, 0.042, 0.05, 1.001, 3.741, 0.048, 0.05
 340631193, 0.7690001, 3.786, 0.038, 0.05, 0.883, 3.754, 0.042, 0.05
 340831113, 0.663, 3.822, 0.034, 0.05, 0.7690001, 3.786, 0.038, 0.05
 341031033, 0.577, 3.841, 0.028, 0.05, 0.663, 3.822, 0.034, 0.05
 341230953, 0.515, 3.835, 0.022, 0.05, 0.577, 3.841, 0.028, 0.05
 341430873, 0.456, 3.819, 0.017, 0.05, 0.515, 3.835, 0.022, 0.05
 341630793, 0.39, 3.805, 0.011, 0.05, 0.456, 3.819, 0.017, 0.05
 341830713, 0.325, 3.798, 0.005, 0.05, 0.39, 3.805, 0.011, 0.05
 342031466, 0.253, 3.809, 0.004, 0.05, 0.325, 3.798, 0.005, 0.05
 342231386, 0.169, 3.832, 0.003, 0.05, 0.253, 3.809, 0.004, 0.05
 342431306, 0.07300001, 3.855, 0.002, 0.05, 0.169, 3.832, 0.003, 0.05
 342631226, -0.033, 3.879, 0.002, 0.05, 0.07300001, 3.855, 0.002, 0.05
 342831146, -0.161, 3.908, 0, 0.05, -0.033, 3.879, 0.002, 0.05
 343031066, -0.295, 3.938, -0.002, 0.05, -0.161, 3.908, 0, 0.05
 343230986, -0.422, 3.959, -0.006, 0.05, -0.295, 3.938, -0.002, 0.05
 343430906, -0.56, 3.96, -0.01, 0.05, -0.422, 3.959, -0.006, 0.05
 343630826, -0.707, 3.942, -0.014, 0.05, -0.56, 3.96, -0.01, 0.05
 343830746, -0.827, 3.919, -0.018, 0.05, -0.707, 3.942, -0.014, 0.05
 344030666, -0.92, 3.896, -0.023, 0.05, -0.827, 3.919, -0.018, 0.05
 344231419, -1.016, 3.864, -0.029, 0.05, -0.92, 3.896, -0.023, 0.05
 344431339, -1.131, 3.818, -0.032, 0.05, -1.016, 3.864, -0.029, 0.05
 344631259, -1.249, 3.782, -0.034, 0.05, -1.131, 3.818, -0.032, 0.05
 344831179, -1.357, 3.763, -0.037, 0.05, -1.249, 3.782, -0.034, 0.05
 345031099, -1.453, 3.738, -0.044, 0.05, -1.357, 3.763, -0.037, 0.05
 345231019, -1.535, 3.703, -0.05, 0.05, -1.453, 3.738, -0.044, 0.05
 345430939, -1.604, 3.672, -0.054, 0.05, -1.535, 3.703, -0.05, 0.05
 345630859, -1.675, 3.649, -0.057, 0.05, -1.604, 3.672, -0.054, 0.05
 345830779, -1.752, 3.614, -0.059, 0.05, -1.675, 3.649, -0.057, 0.05
 346030699, -1.825, 3.559, -0.062, 0.05, -1.752, 3.614, -0.059, 0.05
 346231452, -1.887, 3.5, -0.06500001, 0.05, -1.825, 3.559, -0.062, 0.05
 346431372, -1.947, 3.448, -0.06500001, 0.05, -1.887, 3.5, -0.06500001, 0.05
 346631292, -2.042, 3.387, -0.063, 0.05, -1.947, 3.448, -0.06500001, 0.05
 346831212, -2.165, 3.317, -0.063, 0.05, -2.042, 3.387, -0.063, 0.05
 347031132, -2.284, 3.241, -0.067, 0.05, -2.165, 3.317, -0.063, 0.05
 347231052, -2.387, 3.165, -0.068, 0.05, -2.284, 3.241, -0.067, 0.05
 347430972, -2.488, 3.089, -0.068, 0.05, -2.387, 3.165, -0.068, 0.05
 347630892, -2.599, 3.007, -0.06900001, 0.05, -2.488, 3.089, -0.068, 0.05
 347830812, -2.701, 2.92, -0.07300001, 0.05, -2.599, 3.007, -0.06900001, 0.05
 348030732, -2.775, 2.835, -0.08000001, 0.05, -2.701, 2.92, -0.07300001, 0.05
 348231485, -2.835, 2.756, -0.083, 0.05, -2.775, 2.835, -0.08000001, 0.05
 348431405, -2.904, 2.669, -0.085, 0.05, -2.835, 2.756, -0.083, 0.05
 348631325, -2.995, 2.564, -0.08800001, 0.05, -2.904, 2.669, -0.085, 0.05
 348831245, -3.088, 2.464, -0.09, 0.05, -2.995, 2.564, -0.08800001, 0.05
 349031165, -3.153, 2.37, -0.09200001, 0.05, -3.088, 2.464, -0.09, 0.05
 349231085, -3.204, 2.256, -0.094, 0.05, -3.153, 2.37, -0.09200001, 0.05
 349431005, -3.263, 2.124, -0.094, 0.05, -3.204, 2.256, -0.094, 0.05
 349630925, -3.318, 2.013, -0.096, 0.05, -3.263, 2.124, -0.094, 0.05
 349830845, -3.35, 1.943, -0.098, 0.05, -3.318, 2.013, -0.096, 0.05
 350030765, -3.371, 1.877, -0.098, 0.05, -3.35, 1.943, -0.098, 0.05
 350230685, -3.393, 1.795, -0.096, 0.05, -3.371, 1.877, -0.098, 0.05
 350431438, -3.421, 1.696, -0.09500001, 0.05, -3.393, 1.795, -0.096, 0.05
 350631358, -3.47, 1.592, -0.094, 0.05, -3.421, 1.696, -0.09500001, 0.05
 350831278, -3.535, 1.504, -0.096, 0.05, -3.47, 1.592, -0.094, 0.05
 351031198, -3.591, 1.423, -0.098, 0.05, -3.535, 1.504, -0.096, 0.05
 351231118, -3.629, 1.339, -0.1, 0.05, -3.591, 1.423, -0.098, 0.05
 351431038, -3.649, 1.25, -0.102, 0.05, -3.629, 1.339, -0.1, 0.05
 351630958, -3.664, 1.145, -0.104, 0.05, -3.649, 1.25, -0.102, 0.05
 351830878, -3.693, 1.03, -0.103, 0.05, -3.664, 1.145, -0.104, 0.05
 352030798, -3.735, 0.936, -0.102, 0.05, -3.693, 1.03, -0.103, 0.05
 352230718, -3.767, 0.867, -0.101, 0.05, -3.735, 0.936, -0.102, 0.05
 352431471, -3.788, 0.807, -0.102, 0.05, -3.767, 0.867, -0.101, 0.05
 352631391, -3.799, 0.7410001, -0.103, 0.05, -3.788, 0.807, -0.102, 0.05
 352831311, -3.798, 0.67, -0.102, 0.05, -3.799, 0.7410001, -0.103, 0.05
 353031231, -3.791, 0.587, -0.102, 0.05, -3.798, 0.67, -0.102, 0.05
 353231151, -3.787, 0.494, -0.103, 0.05, -3.791, 0.587, -0.102, 0.05
 353431071, -3.781, 0.406, -0.106, 0.05, -3.787, 0.494, -0.103, 0.05
 353630991, -3.772, 0.317, -0.106, 0.05, -3.781, 0.406, -0.106, 0.05
 353830911, -3.768, 0.223, -0.107, 0.05, -3.772, 0.317, -0.106, 0.05
 354030831, -3.768, 0.13, -0.106, 0.05, -3.768, 0.223, -0.107, 0.05
 354230751, -3.772, 0.035, -0.103, 0.05, -3.768, 0.13, -0.106, 0.05
 354430671, -3.784, -0.064, -0.103, 0.05, -3.772, 0.035, -0.103, 0.05
 354631424, -3.793, -0.159, -0.104, 0.05, -3.784, -0.064, -0.103, 0.05
 354831344, -3.783, -0.246, -0.106, 0.05, -3.793, -0.159, -0.104, 0.05
 355031264, -3.757, -0.318, -0.107, 0.05, -3.783, -0.246, -0.106, 0.05
 355231184, -3.729, -0.385, -0.105, 0.05, -3.757, -0.318, -0.107, 0.05
 355431104, -3.706, -0.448, -0.103, 0.05, -3.729, -0.385, -0.105, 0.05
 355631024, -3.704, -0.497, -0.102, 0.05, -3.706, -0.448, -0.103, 0.05
 355830944, -3.713, -0.5470001, -0.101, 0.05, -3.704, -0.497, -0.102, 0.05
 356030864, -3.713, -0.614, -0.102, 0.05, -3.713, -0.5470001, -0.101, 0.05
 356230784, -3.695, -0.703, -0.101, 0.05, -3.713, -0.614, -0.102, 0.05
 356430704, -3.667, -0.789, -0.097, 0.05, -3.695, -0.703, -0.101, 0.05
 356631457, -3.654, -0.854, -0.094, 0.05, -3.667, -0.789, -0.097, 0.05
 356831377, -3.652, -0.9250001, -0.093, 0.05, -3.654, -0.854, -0.094, 0.05
 357031297, -3.632, -1.028, -0.093, 0.05, -3.652, -0.9250001, -0.093, 0.05
 357231217, -3.592, -1.157, -0.093, 0.05, -3.632, -1.028, -0.093, 0.05
 357431137, -3.559, -1.291, -0.09200001, 0.05, -3.592, -1.157, -0.093, 0.05
 357631057, -3.539, -1.408, -0.09100001, 0.05, -3.559, -1.291, -0.09200001, 0.05
 357830977, -3.512, -1.508, -0.094, 0.05, -3.539, -1.408, -0.09100001, 0.05
 358030897, -3.466, -1.599, -0.098, 0.05, -3.512, -1.508, -0.094, 0.05
 358230817, -3.411, -1.687, -0.097, 0.05, -3.466, -1.599, -0.098, 0.05
 358430737, -3.361, -1.783, -0.096, 0.05, -3.411, -1.687, -0.097, 0.05
 358630657, -3.31, -1.891, -0.09500001, 0.05, -3.361, -1.783, -0.096, 0.05
 358831410, -3.248, -2.004, -0.09200001, 0.05, -3.31, -1.891, -0.09500001, 0.05
 359031330, -3.167, -2.129, -0.09, 0.05, -3.248, -2.004, -0.09200001, 0.05
 359231250, -3.074, -2.263, -0.085, 0.05, -3.167, -2.129, -0.09, 0.05
 359431170, -2.988, -2.386, -0.083, 0.05, -3.074, -2.263, -0.085, 0.05
 359631090, -2.901, -2.499, -0.081, 0.05, -2.988, -2.386, -0.083, 0.05
 359831010, -2.817, -2.602, -0.07600001, 0.05, -2.901, -2.499, -0.081, 0.05
 360030930, -2.737, -2.696, -0.071, 0.05, -2.817, -2.602, -0.07600001, 0.05
 360230850, -2.66, -2.778, -0.067, 0.05, -2.737, -2.696, -0.071, 0.05
 360430770, -2.579, -2.851, -0.062, 0.05, -2.66, -2.778, -0.067, 0.05
 360630690, -2.497, -2.907, -0.057, 0.05, -2.579, -2.851, -0.062, 0.05
 360831443, -2.434, -2.936, -0.052, 0.05, -2.497, -2.907, -0.057, 0.05
 361031363, -2.392, -2.96, -0.046, 0.05, -2.434, -2.936, -0.052, 0.05
 361231283, -2.357, -3.001, -0.04, 0.05, -2.392, -2.96, -0.046, 0.05
 361431203, -2.301, -3.066, -0.037, 0.05, -2.357, -3.001, -0.04, 0.05
 361631123, -2.224, -3.133, -0.034, 0.05, -2.301, -3.066, -0.037, 0.05
 361831043, -2.145, -3.188, -0.034, 0.05, -2.224, -3.133, -0.034, 0.05
 362030963, -2.068, -3.239, -0.033, 0.05, -2.145, -3.188, -0.034, 0.05
 362230883, -1.986, -3.293, -0.028, 0.05, -2.068, -3.239, -0.033, 0.05
 362430803, -1.919, -3.343, -0.022, 0.05, -1.986, -3.293, -0.028, 0.05
 362630723, -1.853, -3.388, -0.017, 0.05, -1.919, -3.343, -0.022, 0.05
 362831476, -1.761, -3.437, -0.013, 0.05, -1.853, -3.388, -0.017, 0.05
 363031396, -1.651, -3.487, -0.012, 0.05, -1.761, -3.437, -0.013, 0.05
 363231316, -1.553, -3.528, -0.011, 0.05, -1.651, -3.487, -0.012, 0.05
 363431236, -1.477, -3.56, -0.01, 0.05, -1.553, -3.528, -0.011, 0.05
 363631156, -1.39, -3.597, -0.01, 0.05, -1.477, -3.56, -0.01, 0.05
 363831076, -1.293, -3.629, -0.011, 0.05, -1.39, -3.597, -0.01, 0.05
 364030996, -1.203, -3.64, -0.012, 0.05, -1.293, -3.629, -0.011, 0.05
 364230916, -1.11, -3.645, -0.011, 0.05, -1.203, -3.64, -0.012, 0.05
 364430836, -1.002, -3.663, -0.009000001, 0.05, -1.11, -3.645, -0.011, 0.05
 364630756, -0.905, -3.694, -0.008, 0.05, -1.002, -3.663, -0.009000001, 0.05
 364830676, -0.825, -3.725, -0.008, 0.05, -0.905, -3.694, -0.008, 0.05
 365031429, -0.758, -3.749, -0.009000001, 0.05, -0.825, -3.725, -0.008, 0.05
 365231349, -0.7, -3.777, -0.011, 0.05, -0.758, -3.749, -0.009000001, 0.05
 365431269, -0.627, -3.803, -0.013, 0.05, -0.7, -3.777, -0.011, 0.05
 365631189, -0.534, -3.822, -0.017, 0.05, -0.627, -3.803, -0.013, 0.05
 365831109, -0.448, -3.832, -0.019, 0.05, -0.534, -3.822, -0.017, 0.05
 366031029, -0.372, -3.839, -0.018, 0.05, -0.448, -3.832, -0.019, 0.05
 366230949, -0.288, -3.838, -0.015, 0.05, -0.372, -3.839, -0.018, 0.05
 366430869, -0.186, -3.822, -0.012, 0.05, -0.288, -3.838, -0.015, 0.05
 366630789, -0.07600001, -3.805, -0.011, 0.05, -0.186, -3.822, -0.012, 0.05
 366830709, 0.03, -3.794, -0.012, 0.05, -0.07600001, -3.805, -0.011, 0.05
 367031462, 0.126, -3.788, -0.01, 0.05, 0.03, -3.794, -0.012, 0.05
 367231382, 0.212, -3.778, -0.006, 0.05, 0.126, -3.788, -0.01, 0.05
 367431302, 0.307, -3.763, -0.003, 0.05, 0.212, -3.778, -0.006, 0.05
 367631222, 0.42, -3.749, 0.001, 0.05, 0.307, -3.763, -0.003, 0.05
 367831142, 0.539, -3.735, 0.002, 0.05, 0.42, -3.749, 0.001, 0.05
 368031062, 0.6390001, -3.72, 0.001, 0.05, 0.539, -3.735, 0.002, 0.05
 368230982, 0.726, -3.704, 0, 0.05, 0.6390001, -3.72, 0.001, 0.05
 368430902, 0.816, -3.686, 0.001, 0.05, 0.726, -3.704, 0, 0.05
 368630822, 0.9110001, -3.664, 0.002, 0.05, 0.816, -3.686, 0.001, 0.05
 368830742, 1.01, -3.634, 0.001, 0.05, 0.9110001, -3.664, 0.002, 0.05
 369030662, 1.112, -3.602, -0.002, 0.05, 1.01, -3.634, 0.001, 0.05
 369231415, 1.212, -3.574, -0.003, 0.05, 1.112, -3.602, -0.002, 0.05
 369431335, 1.31, -3.547, -0.005, 0.05, 1.212, -3.574, -0.003, 0.05
 369631255, 1.407, -3.525, -0.006, 0.05, 1.31, -3.547, -0.005, 0.05
 369831175, 1.507, -3.498, -0.008, 0.05, 1.407, -3.525, -0.006, 0.05
 370031095, 1.61, -3.45, -0.009000001, 0.05, 1.507, -3.498, -0.008, 0.05
 370231015, 1.715, -3.387, -0.011, 0.05, 1.61, -3.45, -0.009000001, 0.05
 370430935, 1.813, -3.317, -0.013, 0.05, 1.715, -3.387, -0.011, 0.05
 370630855, 1.886, -3.249, -0.015, 0.05, 1.813, -3.317, -0.013, 0.05
 370830775, 1.939, -3.18, -0.014, 0.05, 1.886, -3.249, -0.015, 0.05
 371030695, 2.007, -3.117, -0.01, 0.05, 1.939, -3.18, -0.014, 0.05
 371231448, 2.085, -3.069, -0.007, 0.05, 2.007, -3.117, -0.01, 0.05
 371431368, 2.143, -3.042, -0.005, 0.05, 2.085, -3.069, -0.007, 0.05
 371631288, 2.186, -3.01, -0.004, 0.05, 2.143, -3.042, -0.005, 0.05
 371831208, 2.237, -2.958, -0.005, 0.05, 2.186, -3.01, -0.004, 0.05
 372031128, 2.295, -2.898, -0.006, 0.05, 2.237, -2.958, -0.005, 0.05
 372231048, 2.35, -2.84, -0.007, 0.05, 2.295, -2.898, -0.006, 0.05
 372430968, 2.403, -2.787, -0.007, 0.05, 2.35, -2.84, -0.007, 0.05
 372630888, 2.462, -2.731, -0.004, 0.05, 2.403, -2.787, -0.007, 0.05
 372830808, 2.544, -2.664, 0, 0.05, 2.462, -2.731, -0.004, 0.05
 373030728, 2.63, -2.587, 0.001, 0.05, 2.544, -2.664, 0, 0.05
 373231481, 2.697, -2.513, 0.001, 0.05, 2.63, -2.587, 0.001, 0.05
 373431401, 2.757, -2.445, 0.002, 0.05, 2.697, -2.513, 0.001, 0.05
 373631321, 2.822, -2.372, 0.003, 0.05, 2.757, -2.445, 0.002, 0.05
 373831241, 2.892, -2.285, 0.005, 0.05, 2.822, -2.372, 0.003, 0.05
 374031161, 2.974, -2.181, 0.01, 0.05, 2.892, -2.285, 0.005, 0.05
 374231081, 3.057, -2.064, 0.015, 0.05, 2.974, -2.181, 0.01, 0.05
 374431001, 3.131, -1.955, 0.018, 0.05, 3.057, -2.064, 0.015, 0.05
 374630921, 3.195, -1.855, 0.021, 0.05, 3.131, -1.955, 0.018, 0.05
 374830841, 3.249, -1.753, 0.024, 0.05, 3.195, -1.855, 0.021, 0.05
 375030761, 3.296, -1.65, 0.029, 0.05, 3.249, -1.753, 0.024, 0.05
 375230681, 3.336, -1.547, 0.036, 0.05, 3.296, -1.65, 0.029, 0.05
 375431434, 3.375, -1.444, 0.04, 0.05, 3.336, -1.547, 0.036, 0.05
 375631354, 3.419, -1.295, 0.016, 0.05, 3.375, -1.444, 0.04, 0.05
 375831274, 3.376, -1.121, 0.001, 0.05, 3.419, -1.295, 0.016, 0.05
 376031194, 3.234, -0.997, -0.008, 0.05, 3.376, -1.121, 0.001, 0.05
 376231114, 3.06, -0.9020001, -0.011, 0.05, 3.234, -0.997, -0.008, 0.05
 376431034, 2.893, -0.812, -0.011, 0.05, 3.06, -0.9020001, -0.011, 0.05
 376630954, 2.736, -0.705, -0.01, 0.05, 2.893, -0.812, -0.011, 0.05
 376830874, 2.556, -0.5700001, -0.009000001, 0.05, 2.736, -0.705, -0.01, 0.05
 377030794, 2.343, -0.427, -0.009000001, 0.05, 2.556, -0.5700001, -0.009000001, 0.05
 377230714, 2.118, -0.302, -0.009000001, 0.05, 2.343, -0.427, -0.009000001, 0.05
 377431467, 1.887, -0.173, -0.007, 0.05, 2.118, -0.302, -0.009000001, 0.05
 377631387, 1.628, -0.01, -0.005, 0.05, 1.887, -0.173, -0.007, 0.05
 377831307, 1.344, 0.2, -0.001, 0.05, 1.628, -0.01, -0.005, 0.05
 378031227, 1.075, 0.42, 0.002, 0.05, 1.344, 0.2, -0.001, 0.05
 378231147, 0.837, 0.62, 0.004, 0.05, 1.075, 0.42, 0.002, 0.05
 378431067, 0.657, 0.791, 0.006, 0.05, 0.837, 0.62, 0.004, 0.05
 378630987, 0.529, 0.9540001, 0.008, 0.05, 0.657, 0.791, 0.006, 0.05
 378830907, 0.431, 1.122, 0.011, 0.05, 0.529, 0.9540001, 0.008, 0.05
 379030827, 0.356, 1.289, 0.013, 0.05, 0.431, 1.122, 0.011, 0.05
 379230747, 0.305, 1.447, 0.011, 0.05, 0.356, 1.289, 0.013, 0.05
 379430667, 0.265, 1.577, 0.008, 0.05, 0.305, 1.447, 0.011, 0.05
 379631420, 0.239, 1.694, 0.006, 0.05, 0.265, 1.577, 0.008, 0.05
 379831340, 0.224, 1.832, 0.005, 0.05, 0.239, 1.694, 0.006, 0.05
 380031260, 0.225, 2.002, 0.006, 0.05, 0.224, 1.832, 0.005, 0.05
 380231180, 0.234, 2.204, 0.007, 0.05, 0.225, 2.002, 0.006, 0.05
 380431100, 0.253, 2.418, 0.006, 0.05, 0.234, 2.204, 0.007, 0.05
 380631020, 0.289, 2.625, 0.004, 0.05, 0.253, 2.418, 0.006, 0.05
 380830940, 0.334, 2.802, 0.002, 0.05, 0.289, 2.625, 0.004, 0.05
 381030860, 0.352, 2.96, 0, 0.05, 0.334, 2.802, 0.002, 0.05
 381230780, 0.35, 3.111, 0, 0.05, 0.352, 2.96, 0, 0.05
 381430700, 0.355, 3.258, -0.001, 0.05, 0.35, 3.111, 0, 0.05
 381631453, 0.374, 3.389, -0.001, 0.05, 0.355, 3.258, -0.001, 0.05
 381831373, 0.396, 3.499, -0.002, 0.05, 0.374, 3.389, -0.001, 0.05
 382031293, 0.408, 3.585, -0.002, 0.05, 0.396, 3.499, -0.002, 0.05
 382231213, 0.403, 3.648, -0.003, 0.05, 0.408, 3.585, -0.002, 0.05
 382431133, 0.401, 3.702, -0.003, 0.05, 0.403, 3.648, -0.003, 0.05
 382631053, 0.412, 3.753, -0.002, 0.05, 0.401, 3.702, -0.003, 0.05
 382830973, 0.433, 3.805, -0.001, 0.05, 0.412, 3.753, -0.002, 0.05
 383030893, 0.455, 3.869, 0, 0.05, 0.433, 3.805, -0.001, 0.05
 383230813, 0.474, 3.94, 0.001, 0.05, 0.455, 3.869, 0, 0.05
 383430733, 0.482, 4.009, 0, 0.05, 0.474, 3.94, 0.001, 0.05
 383631486, 0.481, 4.074, -0.002, 0.05, 0.482, 4.009, 0, 0.05
 383831406, 0.48, 4.132, -0.003, 0.05, 0.481, 4.074, -0.002, 0.05
 384031326, 0.488, 4.184, -0.001, 0.05, 0.48, 4.132, -0.003, 0.05
 384231246, 0.505, 4.236, 0, 0.05, 0.488, 4.184, -0.001, 0.05
 384431166, 0.518, 4.287, 0, 0.05, 0.505, 4.236, 0, 0.05
 384631086, 0.513, 4.332, 0, 0.05, 0.518, 4.287, 0, 0.05
 384831006, 0.492, 4.372, 0, 0.05, 0.513, 4.332, 0, 0.05
 385030926, 0.475, 4.406, 0, 0.05, 0.492, 4.372, 0, 0.05
 385230846, 0.472, 4.435, 0, 0.05, 0.475, 4.406, 0, 0.05
 385430766, 0.462, 4.461, 0, 0.05, 0.472, 4.435, 0, 0.05
 385630686, 0.442, 4.482, 0, 0.05, 0.462, 4.461, 0, 0.05
 385831439, 0.428, 4.495, -0.001, 0.05, 0.442, 4.482, 0, 0.05
 386031359, 0.428, 4.501, -0.001, 0.05, 0.428, 4.495, -0.001, 0.05
 386231279, 0.442, 4.497, -0.001, 0.05, 0.428, 4.501, -0.001, 0.05
 386431199, 0.461, 4.49, -0.002, 0.05, 0.442, 4.497, -0.001, 0.05
 386631119, 0.48, 4.495, -0.002, 0.05, 0.461, 4.49, -0.002, 0.05
 386831039, 0.5, 4.516, -0.002, 0.05, 0.48, 4.495, -0.002, 0.05
 387030959, 0.508, 4.545, -0.003, 0.05, 0.5, 4.516, -0.002, 0.05
 387230879, 0.507, 4.575, -0.004, 0.05, 0.508, 4.545, -0.003, 0.05
 387430799, 0.517, 4.595, -0.004, 0.05, 0.507, 4.575, -0.004, 0.05
 387630719, 0.54, 4.609, -0.002, 0.05, 0.517, 4.595, -0.004, 0.05
 387831472, 0.561, 4.63, 0, 0.05, 0.54, 4.609, -0.002, 0.05
 388031392, 0.569, 4.659, 0.002, 0.05, 0.561, 4.63, 0, 0.05
 388231312, 0.567, 4.688, 0.003, 0.05, 0.569, 4.659, 0.002, 0.05
 388431232, 0.552, 4.712, 0.003, 0.05, 0.567, 4.688, 0.003, 0.05
 388631152, 0.532, 4.728, 0.001, 0.05, 0.552, 4.712, 0.003, 0.05
 388831072, 0.52, 4.742, 0, 0.05, 0.532, 4.728, 0.001, 0.05
 389030992, 0.521, 4.756, 0, 0.05, 0.52, 4.742, 0, 0.05
 389230912, 0.535, 4.768, -0.002, 0.05, 0.521, 4.756, 0, 0.05
 389430832, 0.535, 4.78, -0.003, 0.05, 0.535, 4.768, -0.002, 0.05
 389630752, 0.513, 4.787, -0.002, 0.05, 0.535, 4.78, -0.003, 0.05
 389830672, 0.485, 4.792, 0, 0.05, 0.513, 4.787, -0.002, 0.05
 390031425, 0.456, 4.797, 0, 0.05, 0.485, 4.792, 0, 0.05
 390231345, 0.439, 4.798, 0, 0.05, 0.456, 4.797, 0, 0.05
 390431265, 0.446, 4.793, -0.001, 0.05, 0.439, 4.798, 0, 0.05
 390631185, 0.459, 4.771, -0.003, 0.05, 0.446, 4.793, -0.001, 0.05
 390831105, 0.46, 4.722, -0.004, 0.05, 0.459, 4.771, -0.003, 0.05
 391031025, 0.454, 4.657, -0.004, 0.05, 0.46, 4.722, -0.004, 0.05
 391230945, 0.456, 4.576, -0.004, 0.05, 0.454, 4.657, -0.004, 0.05
 391430865, 0.464, 4.472, -0.004, 0.05, 0.456, 4.576, -0.004, 0.05
 391630785, 0.473, 4.346, -0.002, 0.05, 0.464, 4.472, -0.004, 0.05
