TimeUS,COFN,COFE,COFD,CNe,CEe,CDe,POFN,POFE,POFD,PNe,PEe,PDe
 196256466, 0, 0, 0, 0, 0, 0, 0, 0, 0, 0, 0, 0
 196431396, 0.007110293, -0.01410135, 0.002590093, 0.02651177, -0.0267584, 5.832182E-05, 0, 0, 0, 0, 0, 0
 196631316, -0.0007870514, 0.01771595, 2.625894E-05, 0.02614516, -0.02621916, 0.1000078, 0.007110293, -0.01410135, 0.002590093, 0.02651177, -0.0267584, 5.832182E-05
 196831236, 0.01382098, -0.009368198, 1.116175E-05, 0.02685402, -0.02716493, 0.1000078, -0.0007870514, 0.01771595, 2.625894E-05, 0.02614516, -0.02621916, 0.1000078
 197031156, 0.02261154, -0.00806545, 2.984636E-05, 0.02708243, -0.02713379, 0.1000085, 0.01382098, -0.009368198, 1.116175E-05, 0.02685402, -0.02716493, 0.1000078
 197231076, -0.01047011, -0.01144526, -3.77999E-05, 0.02630281, -0.02721659, 0.1000067, 0.02261154, -0.00806545, 2.984636E-05, 0.02708243, -0.02713379, 0.1000085
 197430996, -0.02214549, 0.01611476, -1.617453E-05, 0.02608154, -0.02661555, 0.1000071, -0.01047011, -0.01144526, -3.77999E-05, 0.02630281, -0.02721659, 0.1000067
 197630916, 0.004536418, -0.01086836, -8.814621E-06, 0.02662888, -0.02720363, 0.1000069, -0.02214549, 0.01611476, -1.617453E-05, 0.02608154, -0.02661555, 0.1000071
 197830836, -0.006783534, -0.009343766, -2.774318E-05, 0.02637945, -0.02716725, 0.1000061, 0.004536418, -0.01086836, -8.814621E-06, 0.02662888, -0.02720363, 0.1000069
 198030756, -0.01414913, -0.006630367, -3.731195E-05, 0.02623082, -0.02710268, 0.1000059, -0.006783534, -0.009343766, -2.774318E-05, 0.02637945, -0.02716725, 0.1000061
 198230676, -0.01404767, 0.007768593, -1.400697E-05, 0.02623231, -0.0267831, 0.1000066, -0.01414913, -0.006630367, -3.731195E-05, 0.02623082, -0.02710268, 0.1000059
 198431429, 0.006963532, -0.01598729, -1.271915E-05, 0.02668586, -0.02733351, 0.1000064, -0.01404767, 0.007768593, -1.400697E-05, 0.02623231, -0.0267831, 0.1000066
 198631349, 0.02235784, 0.002317953, 4.580469E-05, 0.02707699, -0.02690078, 0.1000072, 0.006963532, -0.01598729, -1.271915E-05, 0.02668586, -0.02733351, 0.1000064
 198831269, 0.008138929, 0.00698557, 2.662835E-05, 0.0267159, -0.02680118, 0.1000064, 0.02235784, 0.002317953, 4.580469E-05, 0.02707699, -0.02690078, 0.1000072
 199031189, -0.01709114, 0.0220686, 3.978857E-06, 0.02617699, -0.02650878, 0.1000059, 0.008138929, 0.00698557, 2.662835E-05, 0.0267159, -0.02680118, 0.1000064
 199231109, -0.02299241, 0.01516455, -1.828055E-05, 0.02606994, -0.02663552, 0.1000057, -0.01709114, 0.0220686, 3.978857E-06, 0.02617699, -0.02650878, 0.1000059
 199431029, -0.005174753, 0.0114972, 8.796751E-06, 0.02641547, -0.02670636, 0.1000065, -0.02299241, 0.01516455, -1.828055E-05, 0.02606994, -0.02663552, 0.1000057
 199630949, 0.0207851, -0.009656413, 2.322401E-05, 0.02703628, -0.0271741, 0.100007, -0.005174753, 0.0114972, 8.796751E-06, 0.02641547, -0.02670636, 0.1000065
 199830869, -0.01522065, -0.003129303, -3.341178E-05, 0.02621156, -0.02701961, 0.100006, 0.0207851, -0.009656413, 2.322401E-05, 0.02703628, -0.0271741, 0.100007
 200030789, -0.0215705, 0.01333244, -1.910737E-05, 0.0260937, -0.02666929, 0.1000065, -0.01522065, -0.003129303, -3.341178E-05, 0.02621156, -0.02701961, 0.100006
 200230709, -0.01722711, 0.01821385, -3.290555E-06, 0.02617344, -0.02657561, 0.1000069, -0.0215705, 0.01333244, -1.910737E-05, 0.0260937, -0.02666929, 0.1000065
 200431462, -0.024557, 0.007548512, -3.390482E-05, 0.0260415, -0.02678493, 0.1000064, -0.01722711, 0.01821385, -3.290555E-06, 0.02617344, -0.02657561, 0.1000069
 200631382, 0.00750185, -0.01375913, -7.855615E-06, 0.02670106, -0.02727414, 0.1000066, -0.024557, 0.007548512, -3.390482E-05, 0.0260415, -0.02678493, 0.1000064
 200831302, -0.02457494, -0.002228803, -4.92353E-05, 0.02604176, -0.0269973, 0.1000061, 0.00750185, -0.01375913, -7.855615E-06, 0.02670106, -0.02727414, 0.1000066
 201031222, -0.01915337, 0.003695327, -2.996283E-05, 0.02613777, -0.02686499, 0.1000069, -0.02457494, -0.002228803, -4.92353E-05, 0.02604176, -0.0269973, 0.1000061
 201231142, -0.005117025, 0.02446864, 2.855818E-05, 0.02641512, -0.02646073, 0.1000085, -0.01915337, 0.003695327, -2.996283E-05, 0.02613777, -0.02686499, 0.1000069
 201431062, 0.02157428, 0.02111195, 7.343449E-05, 0.0270548, -0.02651931, 0.10001, -0.005117025, 0.02446864, 2.855818E-05, 0.02641512, -0.02646073, 0.1000085
 201630982, -0.0189506, -0.01954699, -6.617712E-05, 0.02613948, -0.02741992, 0.100007, 0.02157428, 0.02111195, 7.343449E-05, 0.0270548, -0.02651931, 0.10001
 201830902, -0.01361102, -0.0227309, -6.11834E-05, 0.02624045, -0.02750508, 0.100007, -0.0189506, -0.01954699, -6.617712E-05, 0.02613948, -0.02741992, 0.100007
 202030822, -0.01694254, -0.02314051, -6.823946E-05, 0.02617612, -0.02751607, 0.100007, -0.01361102, -0.0227309, -6.11834E-05, 0.02624045, -0.02750508, 0.100007
 202230742, -0.02545991, 0.02285239, -1.270974E-05, 0.02602344, -0.0264885, 0.1000083, -0.01694254, -0.02314051, -6.823946E-05, 0.02617612, -0.02751607, 0.100007
 202430662, 0.01462277, 0.01022974, 4.393252E-05, 0.02687285, -0.02672833, 0.1000093, -0.02545991, 0.02285239, -1.270974E-05, 0.02602344, -0.0264885, 0.1000083
 202631415, 0.01396081, -0.007428417, 1.48645E-05, 0.02685584, -0.02711794, 0.1000085, 0.01462277, 0.01022974, 4.393252E-05, 0.02687285, -0.02672833, 0.1000093
 202831335, 0.01279258, 0.02126711, 5.814754E-05, 0.02682652, -0.02651874, 0.1000093, 0.01396081, -0.007428417, 1.48645E-05, 0.02685584, -0.02711794, 0.1000085
 203031255, -0.0176532, -0.01184829, -5.249833E-05, 0.02616298, -0.02722563, 0.1000068, 0.01279258, 0.02126711, 5.814754E-05, 0.02682652, -0.02651874, 0.1000093
 203231175, -0.02084349, 0.01434272, -1.669938E-05, 0.02610507, -0.02664893, 0.1000072, -0.0176532, -0.01184829, -5.249833E-05, 0.02616298, -0.02722563, 0.1000068
 203431095, 0.01525582, 0.02545181, 7.001047E-05, 0.02688958, -0.02644732, 0.1000088, -0.02084349, 0.01434272, -1.669938E-05, 0.02610507, -0.02664893, 0.1000072
 203631015, -0.005919766, 0.02398226, 2.733679E-05, 0.02639669, -0.02647238, 0.100008, 0.01525582, 0.02545181, 7.001047E-05, 0.02688958, -0.02644732, 0.1000088
 203830935, -0.0197524, 0.0244506, 1.863758E-06, 0.02612468, -0.02646494, 0.1000073, -0.005919766, 0.02398226, 2.733679E-05, 0.02639669, -0.02647238, 0.100008
 204030855, -0.02295566, -0.01509292, -6.843769E-05, 0.02606703, -0.02730996, 0.1000056, -0.0197524, 0.0244506, 1.863758E-06, 0.02612468, -0.02646494, 0.1000073
 204230775, 0.005156211, 0.00246995, 1.383769E-05, 0.02664299, -0.02689464, 0.1000075, -0.02295566, -0.01509292, -6.843769E-05, 0.02606703, -0.02730996, 0.1000056
 204430695, 0.0001695132, 0.0209238, 3.401859E-05, 0.02652985, -0.02652662, 0.1000078, 0.005156211, 0.00246995, 1.383769E-05, 0.02664299, -0.02689464, 0.1000075
 204631448, 0.01225947, 0.009804106, 3.88527E-05, 0.02681594, -0.026739, 0.1000079, 0.0001695132, 0.0209238, 3.401859E-05, 0.02652985, -0.02652662, 0.1000078
 204831368, -0.01009648, -0.00602963, -2.860263E-05, 0.02631295, -0.02708538, 0.1000064, 0.01225947, 0.009804106, 3.88527E-05, 0.02681594, -0.026739, 0.1000079
 205031288, -0.01600964, -0.005271762, -3.834186E-05, 0.02619784, -0.0270678, 0.100006, -0.01009648, -0.00602963, -2.860263E-05, 0.02631295, -0.02708538, 0.1000064
 205231208, -0.01035637, 0.002301249, -1.558771E-05, 0.02630937, -0.02689717, 0.1000061, -0.01600964, -0.005271762, -3.834186E-05, 0.02619784, -0.0270678, 0.100006
 205431128, 0.02518388, -0.02397074, 8.37231E-06, 0.02715719, -0.02754181, 0.1000065, -0.01035637, 0.002301249, -1.558771E-05, 0.02630937, -0.02689717, 0.1000061
 205631048, -0.02405318, 0.01326137, -2.341687E-05, 0.02605314, -0.02666952, 0.1000059, 0.02518388, -0.02397074, 8.37231E-06, 0.02715719, -0.02754181, 0.1000065
 205830968, -0.01938155, 0.0002974221, -3.540659E-05, 0.02613659, -0.02694038, 0.1000057, -0.02405318, 0.01326137, -2.341687E-05, 0.02605314, -0.02666952, 0.1000059
 206030888, -0.0148962, 0.005183795, -1.929184E-05, 0.026221, -0.02683426, 0.1000059, -0.01938155, 0.0002974221, -3.540659E-05, 0.02613659, -0.02694038, 0.1000057
 206230808, 0.02203608, -0.01092454, 2.334619E-05, 0.02707227, -0.02720301, 0.1000069, -0.0148962, 0.005183795, -1.929184E-05, 0.026221, -0.02683426, 0.1000059
 206430728, 0.0105142, 0.01026919, 3.581111E-05, 0.02677653, -0.02672893, 0.1000071, 0.02203608, -0.01092454, 2.334619E-05, 0.02707227, -0.02720301, 0.1000069
 206631481, -0.01497908, -0.01601725, -5.326082E-05, 0.02621995, -0.02733149, 0.1000048, 0.0105142, 0.01026919, 3.581111E-05, 0.02677653, -0.02672893, 0.1000071
 206831401, 0.004918768, -0.0002864843, 8.639679E-06, 0.02664281, -0.02695425, 0.1000063, -0.01497908, -0.01601725, -5.326082E-05, 0.02621995, -0.02733149, 0.1000048
 207031321, 0.01782282, 0.006706048, 4.384213E-05, 0.02696035, -0.02680299, 0.1000073, 0.004918768, -0.0002864843, 8.639679E-06, 0.02664281, -0.02695425, 0.1000063
 207231241, -0.006123149, -0.003909586, -1.763101E-05, 0.0263973, -0.02703632, 0.1000059, 0.01782282, 0.006706048, 4.384213E-05, 0.02696035, -0.02680299, 0.1000073
 207431161, 0.0206129, 0.01816908, 6.739239E-05, 0.02703355, -0.0265763, 0.1000079, -0.006123149, -0.003909586, -1.763101E-05, 0.0263973, -0.02703632, 0.1000059
 207631081, -0.0008397132, -0.001895247, -4.60598E-06, 0.02651125, -0.02699047, 0.1000062, 0.0206129, 0.01816908, 6.739239E-05, 0.02703355, -0.0265763, 0.1000079
 207831001, -0.01061719, 0.006538738, -9.254359E-06, 0.0263044, -0.0268068, 0.100006, -0.0008397132, -0.001895247, -4.60598E-06, 0.02651125, -0.02699047, 0.1000062
 208030921, -0.00722056, -0.01155925, -3.215314E-05, 0.02637367, -0.02722007, 0.1000055, -0.01061719, 0.006538738, -9.254359E-06, 0.0263044, -0.0268068, 0.100006
 208230841, 0.0009319467, 0.002866072, 6.386471E-06, 0.02655, -0.02688568, 0.1000063, -0.00722056, -0.01155925, -3.215314E-05, 0.02637367, -0.02722007, 0.1000055
 208430761, 0.01129256, -0.007625749, 8.750191E-06, 0.02679418, -0.02712543, 0.1000063, 0.0009319467, 0.002866072, 6.386471E-06, 0.02655, -0.02688568, 0.1000063
 208630681, 0.0230807, -0.01342776, 2.132469E-05, 0.02709925, -0.02726778, 0.1000065, 0.01129256, -0.007625749, 8.750191E-06, 0.02679418, -0.02712543, 0.1000063
 208831434, 0.01727319, -0.01116472, 1.414275E-05, 0.02694498, -0.02721232, 0.1000062, 0.0230807, -0.01342776, 2.132469E-05, 0.02709925, -0.02726778, 0.1000065
 209031354, -0.0123299, -0.003050587, -2.832204E-05, 0.02626859, -0.02701993, 0.1000054, 0.01727319, -0.01116472, 1.414275E-05, 0.02694498, -0.02721232, 0.1000062
 209231274, -0.01586467, 0.01564875, -4.332156E-06, 0.02620033, -0.02662587, 0.1000061, -0.0123299, -0.003050587, -2.832204E-05, 0.02626859, -0.02701993, 0.1000054
 209431194, 0.01029401, -0.002410518, 1.536608E-05, 0.02676994, -0.02700307, 0.1000065, -0.01586467, 0.01564875, -4.332156E-06, 0.02620033, -0.02662587, 0.1000061
 209631114, 0.00053039, 0.01972247, 3.284023E-05, 0.02654208, -0.02654823, 0.1000068, 0.01029401, -0.002410518, 1.536608E-05, 0.02676994, -0.02700307, 0.1000065
 209831034, 0.01208038, 0.01990954, 5.429209E-05, 0.02681536, -0.0265438, 0.1000074, 0.00053039, 0.01972247, 3.284023E-05, 0.02654208, -0.02654823, 0.1000068
 210030954, -0.0006652294, -0.02528312, -4.152137E-05, 0.02651647, -0.02757633, 0.1000053, 0.01208038, 0.01990954, 5.429209E-05, 0.02681536, -0.0265438, 0.1000074
 210230874, -0.01433979, 0.01855767, 3.03753E-06, 0.02623305, -0.0265673, 0.1000064, -0.0006652294, -0.02528312, -4.152137E-05, 0.02651647, -0.02757633, 0.1000053
 210430794, -0.01967863, -0.002168996, -3.959204E-05, 0.02613314, -0.02699411, 0.1000055, -0.01433979, 0.01855767, 3.03753E-06, 0.02623305, -0.0265673, 0.1000064
 210630714, -0.009478995, -0.01037841, -3.3717E-05, 0.02633005, -0.02718691, 0.1000059, -0.01967863, -0.002168996, -3.959204E-05, 0.02613314, -0.02699411, 0.1000055
 210831467, -0.004186869, -0.01670438, -3.379442E-05, 0.02644063, -0.02734487, 0.100006, -0.009478995, -0.01037841, -3.3717E-05, 0.02633005, -0.02718691, 0.1000059
 211031387, -0.01156139, -0.02190185, -5.542418E-05, 0.02628849, -0.02748168, 0.1000054, -0.004186869, -0.01670438, -3.379442E-05, 0.02644063, -0.02734487, 0.100006
 211231307, 0.001647321, 0.01830536, 3.169925E-05, 0.02656994, -0.02656997, 0.1000072, -0.01156139, -0.02190185, -5.542418E-05, 0.02628849, -0.02748168, 0.1000054
 211431227, 0.009682358, 0.007094112, 2.877937E-05, 0.02675904, -0.02679048, 0.1000071, 0.001647321, 0.01830536, 3.169925E-05, 0.02656994, -0.02656997, 0.1000072
 211631147, -0.004828715, 0.0122027, 1.027916E-05, 0.0264284, -0.02668653, 0.1000067, 0.009682358, 0.007094112, 2.877937E-05, 0.02675904, -0.02679048, 0.1000071
 211831067, 0.004012489, 0.01870215, 3.666729E-05, 0.02662492, -0.02656274, 0.1000071, -0.004828715, 0.0122027, 1.027916E-05, 0.0264284, -0.02668653, 0.1000067
 212030987, -0.01903916, 0.01600579, -9.5142E-06, 0.02614663, -0.02661355, 0.100006, 0.004012489, 0.01870215, 3.666729E-05, 0.02662492, -0.02656274, 0.1000071
 212230907, -0.00388465, 0.01754449, 2.055689E-05, 0.02644869, -0.02658474, 0.1000066, -0.01903916, 0.01600579, -9.5142E-06, 0.02614663, -0.02661355, 0.100006
 212430827, -0.006519427, -0.004849078, -1.95616E-05, 0.02639232, -0.02705479, 0.1000059, -0.00388465, 0.01754449, 2.055689E-05, 0.02644869, -0.02658474, 0.1000066
 212630747, 0.01481245, 0.001020053, 2.874235E-05, 0.02688635, -0.02692192, 0.1000069, -0.006519427, -0.004849078, -1.95616E-05, 0.02639232, -0.02705479, 0.1000059
 212830667, -0.02327263, -0.008603475, -5.644386E-05, 0.02606926, -0.02714491, 0.100005, 0.01481245, 0.001020053, 2.874235E-05, 0.02688635, -0.02692192, 0.1000069
 213031420, -0.02145196, -0.006991423, -5.072621E-05, 0.02610085, -0.02710649, 0.1000053, -0.02327263, -0.008603475, -5.644386E-05, 0.02606926, -0.02714491, 0.100005
 213231340, -0.01369649, -0.008804787, -3.942212E-05, 0.02624533, -0.02715029, 0.1000055, -0.02145196, -0.006991423, -5.072621E-05, 0.02610085, -0.02710649, 0.1000053
 213431260, 0.02500249, 0.0165769, 7.300128E-05, 0.02715334, -0.026605, 0.1000081, -0.01369649, -0.008804787, -3.942212E-05, 0.02624533, -0.02715029, 0.1000055
 213631180, -0.01965389, 0.008319261, -2.319315E-05, 0.02613248, -0.0267682, 0.1000058, 0.02500249, 0.0165769, 7.300128E-05, 0.02715334, -0.026605, 0.1000081
 213831100, -0.01515293, 0.02108461, 5.839056E-06, 0.02621662, -0.0265228, 0.1000062, -0.01965389, 0.008319261, -2.319315E-05, 0.02613248, -0.0267682, 0.1000058
 214031020, -0.004597359, 0.01119589, 9.620137E-06, 0.02643061, -0.02671132, 0.1000061, -0.01515293, 0.02108461, 5.839056E-06, 0.02621662, -0.0265228, 0.1000062
 214230940, 0.01407162, 0.02213319, 6.250668E-05, 0.0268646, -0.02650571, 0.1000072, -0.004597359, 0.01119589, 9.620137E-06, 0.02643061, -0.02671132, 0.1000061
 214430860, 0.001773922, -0.00999084, -1.301498E-05, 0.02657038, -0.02718221, 0.1000055, 0.01407162, 0.02213319, 6.250668E-05, 0.0268646, -0.02650571, 0.1000072
 214630780, -0.02533506, 0.02354939, -8.778403E-06, 0.02603259, -0.02647998, 0.1000055, 0.001773922, -0.00999084, -1.301498E-05, 0.02657038, -0.02718221, 0.1000055
 214830700, -0.00500696, -0.01366381, -3.143639E-05, 0.02642303, -0.02727247, 0.1000048, -0.02533506, 0.02354939, -8.778403E-06, 0.02603259, -0.02647998, 0.1000055
 215031453, 0.006841324, 0.01662541, 3.953015E-05, 0.02668994, -0.02660582, 0.1000063, -0.00500696, -0.01366381, -3.143639E-05, 0.02642303, -0.02727247, 0.1000048
 215231373, -0.01594686, -0.01312889, -5.044977E-05, 0.02620278, -0.02725757, 0.1000048, 0.006841324, 0.01662541, 3.953015E-05, 0.02668994, -0.02660582, 0.1000063
 215431293, -0.0002712977, 0.01797887, 2.813641E-05, 0.02652635, -0.02657804, 0.1000067, -0.01594686, -0.01312889, -5.044977E-05, 0.02620278, -0.02725757, 0.1000048
 215631213, 0.01366237, -0.006311107, 1.508041E-05, 0.02685695, -0.02708999, 0.1000066, -0.0002712977, 0.01797887, 2.813641E-05, 0.02652635, -0.02657804, 0.1000067
 215831133, 0.02482636, 0.00706835, 5.683456E-05, 0.02714989, -0.02679192, 0.1000079, 0.01366237, -0.006311107, 1.508041E-05, 0.02685695, -0.02708999, 0.1000066
 216031053, 0.002653922, -0.004405229, -2.03339E-06, 0.02659224, -0.02704402, 0.1000067, 0.02482636, 0.00706835, 5.683456E-05, 0.02714989, -0.02679192, 0.1000079
 216230973, -0.003844197, 0.02114972, 2.615573E-05, 0.02644891, -0.0265179, 0.100007, 0.002653922, -0.004405229, -2.03339E-06, 0.02659224, -0.02704402, 0.1000067
 216430893, -0.02226491, -0.004239494, -4.725367E-05, 0.0260884, -0.02704024, 0.1000053, -0.003844197, 0.02114972, 2.615573E-05, 0.02644891, -0.0265179, 0.100007
 216630813, 0.004541741, -0.001422449, 6.016118E-06, 0.02663816, -0.02697584, 0.1000062, -0.02226491, -0.004239494, -4.725367E-05, 0.0260884, -0.02704024, 0.1000053
 216830733, -0.02160504, 0.01596317, -1.411715E-05, 0.02610126, -0.02661378, 0.1000057, 0.004541741, -0.001422449, 6.016118E-06, 0.02663816, -0.02697584, 0.1000062
 217031486, 0.01917071, -0.01834883, 6.116234E-06, 0.02700048, -0.0273871, 0.1000064, -0.02160504, 0.01596317, -1.411715E-05, 0.02610126, -0.02661378, 0.1000057
 217231406, -0.0009060744, 0.01478306, 2.149577E-05, 0.0265143, -0.02663591, 0.1000068, 0.01917071, -0.01834883, 6.116234E-06, 0.02700048, -0.0273871, 0.1000064
 217431326, -0.02062585, -0.01765672, -6.528279E-05, 0.02611811, -0.02736985, 0.1000047, -0.0009060744, 0.01478306, 2.149577E-05, 0.0265143, -0.02663591, 0.1000068
 217631246, 0.008002888, -0.01303728, -6.026966E-06, 0.02671934, -0.02725301, 0.1000058, -0.02062585, -0.01765672, -6.528279E-05, 0.02611811, -0.02736985, 0.1000047
 217831166, -0.01878558, -0.01089856, -5.194155E-05, 0.02615032, -0.02720174, 0.1000047, 0.008002888, -0.01303728, -6.026966E-06, 0.02671934, -0.02725301, 0.1000058
 218031086, -0.005413876, 0.001380378, -7.769605E-06, 0.02641456, -0.02691675, 0.1000056, -0.01878558, -0.01089856, -5.194155E-05, 0.02615032, -0.02720174, 0.1000047
 218231006, -0.008715627, 0.01658162, 1.059076E-05, 0.0263451, -0.02660579, 0.1000061, -0.005413876, 0.001380378, -7.769605E-06, 0.02641456, -0.02691675, 0.1000056
 218430926, -0.004591192, -0.01273921, -2.921799E-05, 0.02643097, -0.02724935, 0.1000051, -0.008715627, 0.01658162, 1.059076E-05, 0.0263451, -0.02660579, 0.1000061
 218630846, -0.01340028, 0.01115941, -6.667291E-06, 0.02625055, -0.02671369, 0.1000053, -0.004591192, -0.01273921, -2.921799E-05, 0.02643097, -0.02724935, 0.1000051
 218830766, -0.0008409087, -0.00575125, -1.105024E-05, 0.02651182, -0.02708239, 0.1000051, -0.01340028, 0.01115941, -6.667291E-06, 0.02625055, -0.02671369, 0.1000053
 219030686, 0.003849035, 0.006366299, 1.77612E-05, 0.02661739, -0.02681366, 0.1000056, -0.0008409087, -0.00575125, -1.105024E-05, 0.02651182, -0.02708239, 0.1000051
 219231439, 0.01971717, -0.01730711, 8.26772E-06, 0.02700975, -0.02736873, 0.1000055, 0.003849035, 0.006366299, 1.77612E-05, 0.02661739, -0.02681366, 0.1000056
 219431359, 0.01536856, 0.004917036, 3.710519E-05, 0.02689651, -0.02684473, 0.1000062, 0.01971717, -0.01730711, 8.26772E-06, 0.02700975, -0.02736873, 0.1000055
 219631279, 0.02200919, 0.01317949, 6.322257E-05, 0.02707059, -0.02667594, 0.1000067, 0.01536856, 0.004917036, 3.710519E-05, 0.02689651, -0.02684473, 0.1000062
 219831199, 0.02472599, -0.006733885, 3.488512E-05, 0.02714571, -0.02710662, 0.1000059, 0.02200919, 0.01317949, 6.322257E-05, 0.02707059, -0.02667594, 0.1000067
 220031119, 0.02465807, 0.01912657, 7.728879E-05, 0.02714448, -0.02656275, 0.1000066, 0.02472599, -0.006733885, 3.488512E-05, 0.02714571, -0.02710662, 0.1000059
 220231039, 0.01996629, -0.01645676, 9.735619E-06, 0.0270189, -0.02734603, 0.100005, 0.02465807, 0.01912657, 7.728879E-05, 0.02714448, -0.02656275, 0.1000066
 220430959, 0.01957426, -0.006647574, 2.506949E-05, 0.02700911, -0.02710315, 0.1000054, 0.01996629, -0.01645676, 9.735619E-06, 0.0270189, -0.02734603, 0.100005
 220630879, 0.01835057, -0.01340561, 1.163216E-05, 0.02697767, -0.02726784, 0.1000049, 0.01957426, -0.006647574, 2.506949E-05, 0.02700911, -0.02710315, 0.1000054
 220830799, 0.007833965, 0.01246389, 3.463129E-05, 0.02671523, -0.0266884, 0.1000052, 0.01835057, -0.01340561, 1.163216E-05, 0.02697767, -0.02726784, 0.1000049
 221030719, -0.02026836, 0.0007345832, -3.555436E-05, 0.02612489, -0.02693365, 0.1000037, 0.007833965, 0.01246389, 3.463129E-05, 0.02671523, -0.0266884, 0.1000052
 221231472, -0.01323834, 0.02349929, 1.416065E-05, 0.02625798, -0.0264818, 0.1000047, -0.02026836, 0.0007345832, -3.555436E-05, 0.02612489, -0.02693365, 0.1000037
 221431392, 0.01667681, 0.003156312, 3.523165E-05, 0.02693596, -0.02687993, 0.1000053, -0.01323834, 0.02349929, 1.416065E-05, 0.02625798, -0.0264818, 0.1000047
 221631312, 0.01999833, 0.01365711, 5.824435E-05, 0.02702253, -0.02666418, 0.1000058, 0.01667681, 0.003156312, 3.523165E-05, 0.02693596, -0.02687993, 0.1000053
 221831232, 0.02342103, 0.01415452, 6.516108E-05, 0.02711425, -0.02665429, 0.100006, 0.01999833, 0.01365711, 5.824435E-05, 0.02702253, -0.02666418, 0.1000058
 222031152, 0.01812724, 0.002668578, 3.69546E-05, 0.02697387, -0.02689033, 0.1000053, 0.02342103, 0.01415452, 6.516108E-05, 0.02711425, -0.02665429, 0.100006
 222231072, -0.01066239, 0.0221383, 1.657682E-05, 0.02630975, -0.02650548, 0.1000047, 0.01812724, 0.002668578, 3.69546E-05, 0.02697387, -0.02689033, 0.1000053
 222430992, -0.002930867, 0.02205847, 3.05596E-05, 0.02647133, -0.02650791, 0.1000047, -0.01066239, 0.0221383, 1.657682E-05, 0.02630975, -0.02650548, 0.1000047
 222630912, 0.0003036263, -0.001180678, -1.382847E-06, 0.02654302, -0.0269772, 0.1000038, -0.002930867, 0.02205847, 3.05596E-05, 0.02647133, -0.02650791, 0.1000047
 222830832, 0.0141542, 0.01758035, 5.41244E-05, 0.02687255, -0.02659071, 0.1000049, 0.0003036263, -0.001180678, -1.382847E-06, 0.02654302, -0.0269772, 0.1000038
 223030752, 0.01483588, -0.01847389, -3.601468E-06, 0.0268892, -0.02739892, 0.1000037, 0.0141542, 0.01758035, 5.41244E-05, 0.02687255, -0.02659071, 0.1000049
 223230672, -0.02139232, 0.0146529, -1.451302E-05, 0.02610504, -0.02664725, 0.1000035, 0.01483588, -0.01847389, -3.601468E-06, 0.0268892, -0.02739892, 0.1000037
 223431425, 0.01193865, -0.01455554, -2.40368E-06, 0.02681564, -0.02729901, 0.1000037, -0.02139232, 0.0146529, -1.451302E-05, 0.02610504, -0.02664725, 0.1000035
 223631345, 0.004958794, 0.01723087, 3.754918E-05, 0.02664649, -0.02659915, 0.1000048, 0.01193865, -0.01455554, -2.40368E-06, 0.02681564, -0.02729901, 0.1000037
 223831265, 0.005768577, 0.0132944, 3.264192E-05, 0.02666457, -0.02667508, 0.1000048, 0.004958794, 0.01723087, 3.754918E-05, 0.02664649, -0.02659915, 0.1000048
 224031185, 0.01051839, 0.001078132, 2.114487E-05, 0.02677789, -0.02693037, 0.1000045, 0.005768577, 0.0132944, 3.264192E-05, 0.02666457, -0.02667508, 0.1000048
 224231105, -0.01710926, 0.01269723, -1.03298E-05, 0.02617936, -0.02668858, 0.1000038, 0.01051839, 0.001078132, 2.114487E-05, 0.02677789, -0.02693037, 0.1000045
 224431025, 0.02072321, -0.01462393, 1.395444E-05, 0.02703645, -0.02730386, 0.1000046, -0.01710926, 0.01269723, -1.03298E-05, 0.02617936, -0.02668858, 0.1000038
 224630945, 0.01786409, -0.02299603, -5.368129E-06, 0.02696061, -0.02752316, 0.1000042, 0.02072321, -0.01462393, 1.395444E-05, 0.02703645, -0.02730386, 0.1000046
 224830865, 0.004680162, 0.02238215, 4.644516E-05, 0.02663598, -0.02650802, 0.1000052, 0.01786409, -0.02299603, -5.368129E-06, 0.02696061, -0.02752316, 0.1000042
 225030785, 0.005884675, -0.005615899, 1.46999E-06, 0.02666514, -0.02708401, 0.1000041, 0.004680162, 0.02238215, 4.644516E-05, 0.02663598, -0.02650802, 0.1000052
 225230705, 0.009284824, 0.002084922, 2.060363E-05, 0.02674698, -0.02690908, 0.1000045, 0.005884675, -0.005615899, 1.46999E-06, 0.02666514, -0.02708401, 0.1000041
 225431458, -0.008590847, -0.02018563, -4.953026E-05, 0.02634699, -0.02744762, 0.1000028, 0.009284824, 0.002084922, 2.060363E-05, 0.02674698, -0.02690908, 0.1000045
 225631378, -0.02237083, 0.0103138, -2.373798E-05, 0.02608418, -0.02673629, 0.1000033, -0.008590847, -0.02018563, -4.953026E-05, 0.02634699, -0.02744762, 0.1000028
 225831298, -0.006888455, -0.02523148, -5.452996E-05, 0.0263834, -0.02758366, 0.1000024, -0.02237083, 0.0103138, -2.373798E-05, 0.02608418, -0.02673629, 0.1000033
 226031218, -0.007880701, -0.005296558, -2.312676E-05, 0.02636289, -0.02707561, 0.1000033, -0.006888455, -0.02523148, -5.452996E-05, 0.0263834, -0.02758366, 0.1000024
 226231138, 0.01397237, -0.0001805739, 2.514647E-05, 0.02686394, -0.0269588, 0.1000044, -0.007880701, -0.005296558, -2.312676E-05, 0.02636289, -0.02707561, 0.1000033
 226431058, 0.0145708, -0.01207974, 6.439812E-06, 0.02687935, -0.02723938, 0.1000039, 0.01397237, -0.0001805739, 2.514647E-05, 0.02686394, -0.0269588, 0.1000044
 226630978, 0.01569648, -0.007918095, 1.536483E-05, 0.02690795, -0.02713818, 0.100004, 0.0145708, -0.01207974, 6.439812E-06, 0.02687935, -0.02723938, 0.1000039
 226830898, -0.01806246, 0.01985903, 2.139059E-07, 0.02616247, -0.02655351, 0.1000036, 0.01569648, -0.007918095, 1.536483E-05, 0.02690795, -0.02713818, 0.100004
 227030818, -0.01661034, -0.01370711, -5.312492E-05, 0.02618921, -0.02728134, 0.1000025, -0.01806246, 0.01985903, 2.139059E-07, 0.02616247, -0.02655351, 0.1000036
 227230738, -0.01511992, 0.02383059, 1.201975E-05, 0.02621773, -0.02648229, 0.100004, -0.01661034, -0.01370711, -5.312492E-05, 0.02618921, -0.02728134, 0.1000025
 227430658, -0.01418417, -0.003970132, -3.246415E-05, 0.02623553, -0.02704606, 0.1000031, -0.01511992, 0.02383059, 1.201975E-05, 0.02621773, -0.02648229, 0.100004
 227631411, -0.01336056, 0.009702078, -8.270068E-06, 0.02625081, -0.02674973, 0.1000036, -0.01418417, -0.003970132, -3.246415E-05, 0.02623553, -0.02704606, 0.1000031
 227831331, 0.00808559, 0.01985758, 4.792388E-05, 0.02671715, -0.02655409, 0.1000049, -0.01336056, 0.009702078, -8.270068E-06, 0.02625081, -0.02674973, 0.1000036
 228031251, -0.0099961, 0.0190736, 1.34498E-05, 0.02631732, -0.02656828, 0.1000042, 0.00808559, 0.01985758, 4.792388E-05, 0.02671715, -0.02655409, 0.1000049
 228231171, 0.0214314, 0.0217105, 7.548102E-05, 0.02705539, -0.02652078, 0.1000056, -0.0099961, 0.0190736, 1.34498E-05, 0.02631732, -0.02656828, 0.1000042
 228431091, 0.006219151, 0.02324392, 5.011668E-05, 0.02667301, -0.02649346, 0.1000049, 0.0214314, 0.0217105, 7.548102E-05, 0.02705539, -0.02652078, 0.1000056
 228631011, 0.008604447, 0.00956802, 3.168242E-05, 0.0267303, -0.02675249, 0.1000044, 0.006219151, 0.02324392, 5.011668E-05, 0.02667301, -0.02649346, 0.1000049
 228830931, 0.003057831, 0.01079812, 2.362576E-05, 0.02660037, -0.02672793, 0.100004, 0.008604447, 0.00956802, 3.168242E-05, 0.0267303, -0.02675249, 0.1000044
 229030851, 0.0006245322, -0.0008899217, -3.495535E-07, 0.02654461, -0.02697713, 0.1000035, 0.003057831, 0.01079812, 2.362576E-05, 0.02660037, -0.02672793, 0.100004
 229230771, 0.01119077, 0.01582444, 4.718117E-05, 0.02679271, -0.02663087, 0.1000045, 0.0006245322, -0.0008899217, -3.495535E-07, 0.02654461, -0.02697713, 0.1000035
 229430691, -0.01575627, 0.008688001, -1.411478E-05, 0.02620452, -0.0267733, 0.1000028, 0.01119077, 0.01582444, 4.718117E-05, 0.02679271, -0.02663087, 0.1000045
 229631444, 0.01661805, 0.02219598, 6.85007E-05, 0.02692868, -0.02651596, 0.1000045, -0.01575627, 0.008688001, -1.411478E-05, 0.02620452, -0.0267733, 0.1000028
 229831364, -0.02236616, -0.01023315, -5.877207E-05, 0.02608174, -0.02719974, 0.1000018, 0.01661805, 0.02219598, 6.85007E-05, 0.02692868, -0.02651596, 0.1000045
 230031284, 0.02507639, -0.01327476, 2.32906E-05, 0.02715471, -0.02727461, 0.1000034, -0.02236616, -0.01023315, -5.877207E-05, 0.02608174, -0.02719974, 0.1000018
 230231204, -0.02183054, 0.00761219, -2.685989E-05, 0.02609318, -0.0267956, 0.1000023, 0.02507639, -0.01327476, 2.32906E-05, 0.02715471, -0.02727461, 0.1000034
 230431124, 0.01590502, -0.02155168, -7.338234E-06, 0.02691197, -0.02748714, 0.1000029, -0.02183054, 0.00761219, -2.685989E-05, 0.02609318, -0.0267956, 0.1000023
 230631044, 0.01995241, 0.02321541, 7.511675E-05, 0.02701682, -0.02649553, 0.100005, 0.01590502, -0.02155168, -7.338234E-06, 0.02691197, -0.02748714, 0.1000029
 230830964, 0.01639407, -0.008906236, 1.496062E-05, 0.02692425, -0.02716393, 0.1000039, 0.01995241, 0.02321541, 7.511675E-05, 0.02701682, -0.02649553, 0.100005
 231030884, -0.01775194, -0.005143904, -4.074895E-05, 0.02616724, -0.02707435, 0.1000028, 0.01639407, -0.008906236, 1.496062E-05, 0.02692425, -0.02716393, 0.1000039
 231230804, 0.002865458, 0.02400189, 4.481552E-05, 0.02659571, -0.02648, 0.1000046, -0.01775194, -0.005143904, -4.074895E-05, 0.02616724, -0.02707435, 0.1000028
 231430724, 0.001073871, -0.01900878, -2.916721E-05, 0.02655504, -0.02741615, 0.1000034, 0.002865458, 0.02400189, 4.481552E-05, 0.02659571, -0.02648, 0.1000046
 231631477, -0.01373693, -0.007107694, -3.649064E-05, 0.02624371, -0.02711842, 0.1000034, 0.001073871, -0.01900878, -2.916721E-05, 0.02655504, -0.02741615, 0.1000034
 231831397, 0.00782848, -0.01453936, -9.573866E-06, 0.02671173, -0.02730075, 0.100004, -0.01373693, -0.007107694, -3.649064E-05, 0.02624371, -0.02711842, 0.1000034
 232031317, 0.01228053, 0.002278554, 2.586783E-05, 0.02682065, -0.0269039, 0.1000048, 0.00782848, -0.01453936, -9.573866E-06, 0.02671173, -0.02730075, 0.100004
 232231237, -0.007682281, 0.02052705, 1.944538E-05, 0.02636558, -0.02653931, 0.1000048, 0.01228053, 0.002278554, 2.586783E-05, 0.02682065, -0.0269039, 0.1000048
 232431157, 0.02177467, 0.01687599, 6.681534E-05, 0.02706493, -0.02660664, 0.1000061, -0.007682281, 0.02052705, 1.944538E-05, 0.02636558, -0.02653931, 0.1000048
 232631077, -0.01096762, -5.679191E-05, -1.997099E-05, 0.02629809, -0.02695524, 0.1000041, 0.02177467, 0.01687599, 6.681534E-05, 0.02706493, -0.02660664, 0.1000061
 232830997, 0.01008501, -0.007098123, 6.698293E-06, 0.02676534, -0.02711886, 0.1000044, -0.01096762, -5.679191E-05, -1.997099E-05, 0.02629809, -0.02695524, 0.1000041
 233030917, -0.004226134, -0.02083291, -4.205239E-05, 0.02643711, -0.027466, 0.100003, 0.01008501, -0.007098123, 6.698293E-06, 0.02676534, -0.02711886, 0.1000044
 233230837, 0.006474612, 0.01339415, 3.382836E-05, 0.02667865, -0.02667593, 0.1000047, -0.004226134, -0.02083291, -4.205239E-05, 0.02643711, -0.027466, 0.100003
 233430757, 0.01079722, -0.02189751, -1.637785E-05, 0.02678269, -0.02749384, 0.1000037, 0.006474612, 0.01339415, 3.382836E-05, 0.02667865, -0.02667593, 0.1000047
 233630677, -0.004174226, -0.02095028, -4.215484E-05, 0.02643763, -0.02746889, 0.1000032, 0.01079722, -0.02189751, -1.637785E-05, 0.02678269, -0.02749384, 0.1000037
 233831430, -0.02173391, -0.01218791, -6.002893E-05, 0.026092, -0.02724395, 0.1000031, -0.004174226, -0.02095028, -4.215484E-05, 0.02643763, -0.02746889, 0.1000032
 234031350, 0.01687593, 0.009393013, 4.66105E-05, 0.02693346, -0.02675627, 0.1000056, -0.02173391, -0.01218791, -6.002893E-05, 0.026092, -0.02724395, 0.1000031
 234231270, -0.01734284, -0.002091249, -3.550117E-05, 0.02617127, -0.02700433, 0.1000037, 0.01687593, 0.009393013, 4.66105E-05, 0.02693346, -0.02675627, 0.1000056
 234431190, -0.02331263, -0.02191428, -7.979506E-05, 0.02606256, -0.0274971, 0.1000025, -0.01734284, -0.002091249, -3.550117E-05, 0.02617127, -0.02700433, 0.1000037
 234631110, 0.01948395, 0.02510877, 7.856519E-05, 0.02699978, -0.0264646, 0.1000058, -0.02331263, -0.02191428, -7.979506E-05, 0.02606256, -0.0274971, 0.1000025
 234831030, 0.01263118, -0.007397821, 1.10729E-05, 0.02682354, -0.02713101, 0.1000044, 0.01948395, 0.02510877, 7.856519E-05, 0.02699978, -0.0264646, 0.1000058
 235030950, 0.02154487, -0.01245973, 1.911766E-05, 0.02705355, -0.02725529, 0.1000044, 0.01263118, -0.007397821, 1.10729E-05, 0.02682354, -0.02713101, 0.1000044
 235230870, -0.02422951, 0.02417985, -4.123576E-06, 0.02604526, -0.02648187, 0.1000038, 0.02154487, -0.01245973, 1.911766E-05, 0.02705355, -0.02725529, 0.1000044
 235430790, -0.003352952, 0.02460979, 3.540463E-05, 0.02645203, -0.02647375, 0.1000047, -0.02422951, 0.02417985, -4.123576E-06, 0.02604526, -0.02648187, 0.1000038
 235630710, -0.02173637, 0.005415225, -3.133957E-05, 0.02608922, -0.02684243, 0.1000035, -0.003352952, 0.02460979, 3.540463E-05, 0.02645203, -0.02647375, 0.1000047
 235831463, -0.003340448, -0.01371778, -2.926729E-05, 0.02645198, -0.02728518, 0.1000036, -0.02173637, 0.005415225, -3.133957E-05, 0.02608922, -0.02684243, 0.1000035
 236031383, -0.002420395, -0.0222837, -4.180558E-05, 0.02647292, -0.02750781, 0.1000031, -0.003340448, -0.01371778, -2.926729E-05, 0.02645198, -0.02728518, 0.1000036
 236231303, -0.0210367, 0.004159678, -3.170924E-05, 0.02610352, -0.02686812, 0.1000033, -0.002420395, -0.0222837, -4.180558E-05, 0.02647292, -0.02750781, 0.1000031
 236431223, 0.02538344, 0.01766211, 7.608436E-05, 0.02715952, -0.02659716, 0.1000059, -0.0210367, 0.004159678, -3.170924E-05, 0.02610352, -0.02686812, 0.1000033
 236631143, -0.009618296, -0.005958997, -2.759502E-05, 0.02632175, -0.02709529, 0.1000036, 0.02538344, 0.01766211, 7.608436E-05, 0.02715952, -0.02659716, 0.1000059
 236831063, -0.0009630613, -0.0172228, -3.034414E-05, 0.02650586, -0.02737327, 0.1000034, -0.009618296, -0.005958997, -2.759502E-05, 0.02632175, -0.02709529, 0.1000036
 237030983, -0.01045638, 0.002919364, -1.430324E-05, 0.02630541, -0.0268943, 0.1000038, -0.0009630613, -0.0172228, -3.034414E-05, 0.02650586, -0.02737327, 0.1000034
 237230903, 0.0127614, -0.0119487, 3.383322E-06, 0.0268295, -0.02724043, 0.1000038, -0.01045638, 0.002919364, -1.430324E-05, 0.02630541, -0.0268943, 0.1000038
 237430823, -0.02110032, 0.0125141, -1.751407E-05, 0.02610348, -0.02669673, 0.1000031, 0.0127614, -0.0119487, 3.383322E-06, 0.0268295, -0.02724043, 0.1000038
 237630743, -0.01176295, 0.01421919, 2.417286E-06, 0.02628024, -0.02666392, 0.1000034, -0.02110032, 0.0125141, -1.751407E-05, 0.02610348, -0.02669673, 0.1000031
 237830663, -0.009848252, -0.01342603, -4.044108E-05, 0.02631843, -0.02727869, 0.1000024, -0.01176295, 0.01421919, 2.417286E-06, 0.02628024, -0.02666392, 0.1000034
 238031416, 0.00787955, 0.01920412, 4.65643E-05, 0.02670989, -0.02657017, 0.1000044, -0.009848252, -0.01342603, -4.044108E-05, 0.02631843, -0.02727869, 0.1000024
 238231336, -0.02124641, -0.02068803, -7.336859E-05, 0.02610033, -0.02746652, 0.1000017, 0.00787955, 0.01920412, 4.65643E-05, 0.02670989, -0.02657017, 0.1000044
 238431256, -0.0234834, 0.009311855, -2.713719E-05, 0.02606108, -0.02676171, 0.1000028, -0.02124641, -0.02068803, -7.336859E-05, 0.02610033, -0.02746652, 0.1000017
 238631176, 0.01381792, -0.007148108, 1.320521E-05, 0.02685602, -0.02712492, 0.1000037, -0.0234834, 0.009311855, -2.713719E-05, 0.02606108, -0.02676171, 0.1000028
 238831096, -0.005601107, 0.02432767, 3.058324E-05, 0.02640625, -0.02647877, 0.1000039, 0.01381792, -0.007148108, 1.320521E-05, 0.02685602, -0.02712492, 0.1000037
 239031016, -0.005158134, 0.003089034, -4.200287E-06, 0.02641574, -0.02689312, 0.1000031, -0.005601107, 0.02432767, 3.058324E-05, 0.02640625, -0.02647877, 0.1000039
 239230936, 0.007857176, -0.004959727, 5.978835E-06, 0.02670939, -0.0270746, 0.1000033, -0.005158134, 0.003089034, -4.200287E-06, 0.02641574, -0.02689312, 0.1000031
 239430856, 0.008794278, 0.01131431, 3.527675E-05, 0.02673143, -0.02672314, 0.1000038, 0.007857176, -0.004959727, 5.978835E-06, 0.02670939, -0.0270746, 0.1000033
 239630776, 0.01707187, -0.02091688, -4.253554E-06, 0.02693792, -0.02747446, 0.1000029, 0.008794278, 0.01131431, 3.527675E-05, 0.02673143, -0.02672314, 0.1000038
 239830696, -0.02479885, -0.02186524, -8.30181E-05, 0.02603645, -0.02750115, 0.100001, 0.01707187, -0.02091688, -4.253554E-06, 0.02693792, -0.02747446, 0.1000029
 240031449, 0.01656976, -0.02341882, -9.760697E-06, 0.02692422, -0.02754365, 0.1000025, -0.02479885, -0.02186524, -8.30181E-05, 0.02603645, -0.02750115, 0.100001
 240231369, 0.01384834, -0.02549507, -1.815261E-05, 0.02685395, -0.0276002, 0.1000026, 0.01656976, -0.02341882, -9.760697E-06, 0.02692422, -0.02754365, 0.1000025
 240431289, 0.009135774, 0.02242861, 5.51388E-05, 0.02673763, -0.02651468, 0.1000045, 0.01384834, -0.02549507, -1.815261E-05, 0.02685395, -0.0276002, 0.1000026
 240631209, 0.0251018, 0.007001838, 5.810675E-05, 0.02715086, -0.02681113, 0.1000049, 0.009135774, 0.02242861, 5.51388E-05, 0.02673763, -0.02651468, 0.1000045
 240831129, 0.00161782, 0.01449136, 2.732613E-05, 0.02656214, -0.02665948, 0.1000043, 0.0251018, 0.007001838, 5.810675E-05, 0.02715086, -0.02681113, 0.1000049
 241031049, 0.01954141, -0.02336709, -3.030858E-06, 0.02700114, -0.02753779, 0.100004, 0.00161782, 0.01449136, 2.732613E-05, 0.02656214, -0.02665948, 0.1000043
 241230969, 0.0181015, -0.008198444, 1.957301E-05, 0.02696354, -0.02715022, 0.1000044, 0.01954141, -0.02336709, -3.030858E-06, 0.02700114, -0.02753779, 0.100004
 241430889, -0.0146907, -0.009478121, -4.271767E-05, 0.02622117, -0.02718186, 0.1000026, 0.0181015, -0.008198444, 1.957301E-05, 0.02696354, -0.02715022, 0.1000044
 241630809, -0.01882067, 0.02091302, 6.18973E-07, 0.02614355, -0.02653938, 0.1000035, -0.0146907, -0.009478121, -4.271767E-05, 0.02622117, -0.02718186, 0.1000026
 241830729, 0.01296734, -0.01040852, 6.296004E-06, 0.02683318, -0.02720432, 0.1000038, -0.01882067, 0.02091302, 6.18973E-07, 0.02614355, -0.02653938, 0.1000035
 242031482, 0.02097765, 0.02438448, 7.898628E-05, 0.02703988, -0.02647841, 0.1000053, 0.01296734, -0.01040852, 6.296004E-06, 0.02683318, -0.02720432, 0.1000038
 242231402, -0.01142852, 0.01411444, 2.760102E-06, 0.02628578, -0.02666645, 0.1000035, 0.02097765, 0.02438448, 7.898628E-05, 0.02703988, -0.02647841, 0.1000053
 242431322, 0.02123975, 0.01637485, 6.569755E-05, 0.02704818, -0.02662314, 0.1000049, -0.01142852, 0.01411444, 2.760102E-06, 0.02628578, -0.02666645, 0.1000035
 242631242, -0.009409898, -0.01022187, -3.40095E-05, 0.02632739, -0.02719949, 0.1000025, 0.02123975, 0.01637485, 6.569755E-05, 0.02704818, -0.02662314, 0.1000049
 242831162, -0.01071857, 0.0176391, 1.003377E-05, 0.02630072, -0.02659955, 0.1000034, -0.009409898, -0.01022187, -3.40095E-05, 0.02632739, -0.02719949, 0.1000025
 243031082, -0.02440136, -0.01169214, -6.369418E-05, 0.02604467, -0.02723638, 0.1000019, -0.01071857, 0.0176391, 1.003377E-05, 0.02630072, -0.02659955, 0.1000034
 243231002, 0.01895071, -0.0195815, 1.567067E-06, 0.02698774, -0.02743775, 0.1000032, -0.02440136, -0.01169214, -6.369418E-05, 0.02604467, -0.02723638, 0.1000019
 243430922, 0.02098836, 0.01205868, 5.816073E-05, 0.0270416, -0.02670795, 0.1000044, 0.01895071, -0.0195815, 1.567067E-06, 0.02698774, -0.02743775, 0.1000032
 243630842, -0.006780267, 0.01918669, 1.993273E-05, 0.02638133, -0.02657196, 0.1000034, 0.02098836, 0.01205868, 5.816073E-05, 0.0270416, -0.02670795, 0.1000044
 243830762, 0.01443322, 0.02353861, 6.567176E-05, 0.02687105, -0.02649429, 0.1000044, -0.006780267, 0.01918669, 1.993273E-05, 0.02638133, -0.02657196, 0.1000034
 244030682, -0.0219516, -0.01795745, -6.983838E-05, 0.02608792, -0.02739625, 0.1000013, 0.01443322, 0.02353861, 6.567176E-05, 0.02687105, -0.02649429, 0.1000044
 244231435, 0.002410849, 0.01413145, 2.813952E-05, 0.02658226, -0.02666768, 0.1000035, -0.0219516, -0.01795745, -6.983838E-05, 0.02608792, -0.02739625, 0.1000013
 244431355, -0.007756628, -0.01575617, -4.061569E-05, 0.02636057, -0.02733962, 0.100002, 0.002410849, 0.01413145, 2.813952E-05, 0.02658226, -0.02666768, 0.1000035
 244631275, 0.009425852, -0.008120429, 3.49795E-06, 0.0267463, -0.02715037, 0.1000032, -0.007756628, -0.01575617, -4.061569E-05, 0.02636057, -0.02733962, 0.100002
 244831195, -0.01784748, 0.0002786003, -3.215301E-05, 0.02616107, -0.02695621, 0.1000026, 0.009425852, -0.008120429, 3.49795E-06, 0.0267463, -0.02715037, 0.1000032
 245031115, 0.01611144, -0.02315335, -9.644318E-06, 0.0269125, -0.02753459, 0.1000029, -0.01784748, 0.0002786003, -3.215301E-05, 0.02616107, -0.02695621, 0.1000026
 245231035, 0.0215378, -0.007675913, 2.650241E-05, 0.02705436, -0.02714061, 0.1000038, 0.01611144, -0.02315335, -9.644318E-06, 0.0269125, -0.02753459, 0.1000029
 245430955, 0.003295207, 0.0008466325, 7.495871E-06, 0.02660045, -0.02694476, 0.1000033, 0.0215378, -0.007675913, 2.650241E-05, 0.02705436, -0.02714061, 0.1000038
 245630875, -0.01356719, 0.02468259, 1.702066E-05, 0.02624282, -0.02647514, 0.1000034, 0.003295207, 0.0008466325, 7.495871E-06, 0.02660045, -0.02694476, 0.1000033
 245830795, 0.007657946, -0.01699577, -1.456786E-05, 0.02670381, -0.02737059, 0.100003, -0.01356719, 0.02468259, 1.702066E-05, 0.02624282, -0.02647514, 0.1000034
 246030715, -0.002247722, 0.02132466, 3.135709E-05, 0.02647729, -0.02653134, 0.1000043, 0.007657946, -0.01699577, -1.456786E-05, 0.02670381, -0.02737059, 0.100003
 246231468, 0.008884242, 0.01230446, 3.651333E-05, 0.02673334, -0.02670075, 0.1000047, -0.002247722, 0.02132466, 3.135709E-05, 0.02647729, -0.02653134, 0.1000043
 246431388, 0.02182833, -0.01037906, 2.245152E-05, 0.0270636, -0.02720216, 0.1000044, 0.008884242, 0.01230446, 3.651333E-05, 0.02673334, -0.02670075, 0.1000047
 246631308, 0.01449893, 0.02215308, 6.297617E-05, 0.0268723, -0.02651649, 0.100005, 0.02182833, -0.01037906, 2.245152E-05, 0.0270636, -0.02720216, 0.1000044
 246831228, 0.01660763, -0.004987443, 2.183826E-05, 0.02692627, -0.02707414, 0.1000041, 0.01449893, 0.02215308, 6.297617E-05, 0.0268723, -0.02651649, 0.100005
 247031148, 0.001151465, 0.0211357, 3.702733E-05, 0.02655298, -0.02653435, 0.1000045, 0.01660763, -0.004987443, 2.183826E-05, 0.02692627, -0.02707414, 0.1000041
 247231068, 0.01346411, 0.02520691, 6.598065E-05, 0.02684592, -0.02646266, 0.1000053, 0.001151465, 0.0211357, 3.702733E-05, 0.02655298, -0.02653435, 0.1000045
 247430988, -0.0008161265, 0.003107842, 3.644234E-06, 0.02650914, -0.02689113, 0.1000039, 0.01346411, 0.02520691, 6.598065E-05, 0.02684592, -0.02646266, 0.1000053
 247630908, 0.02309571, 0.01372805, 6.444348E-05, 0.02709764, -0.02667296, 0.1000053, -0.0008161265, 0.003107842, 3.644234E-06, 0.02650914, -0.02689113, 0.1000039
 247830828, 0.009267973, -0.02009329, -1.62973E-05, 0.02674305, -0.02744912, 0.1000034, 0.02309571, 0.01372805, 6.444348E-05, 0.02709764, -0.02667296, 0.1000053
 248030748, 0.0132995, -0.02417832, -1.562898E-05, 0.0268425, -0.02755846, 0.1000035, 0.009267973, -0.02009329, -1.62973E-05, 0.02674305, -0.02744912, 0.1000034
 248230668, 0.0234823, 0.01198055, 6.205589E-05, 0.02710873, -0.02670657, 0.1000053, 0.0132995, -0.02417832, -1.562898E-05, 0.0268425, -0.02755846, 0.1000035
 248431421, -0.01588593, 0.008683686, 0.07237149, 0.02701496, -0.02758235, 0.1000036, 0.0234823, 0.01198055, 6.205589E-05, 0.02710873, -0.02670657, 0.1000053
 248631341, -0.01890657, 0.01251388, 0.1315587, 0.02829278, -0.02864061, 0.1000046, -0.01588593, 0.008683686, 0.07237149, 0.02701496, -0.02758235, 0.1000036
 248831261, -0.02238879, 0.02818456, 0.3411773, 0.03148585, -0.03072031, 0.100008, -0.01890657, 0.01251388, 0.1315587, 0.02829278, -0.02864061, 0.1000046
 249031181, -0.02435951, -0.02185862, 0.7497628, 0.03834854, -0.03805944, 0.1000093, -0.02238879, 0.02818456, 0.3411773, 0.03148585, -0.03072031, 0.100008
 249231101, 0.03072817, 0.004322851, 1.131136, 0.04979871, -0.04826048, 0.09998858, -0.02435951, -0.02185862, 0.7497628, 0.03834854, -0.03805944, 0.1000093
 249431021, 0.003292154, 0.01762144, 1.467141, 0.06371354, -0.06253795, 0.09998097, 0.03072817, 0.004322851, 1.131136, 0.04979871, -0.04826048, 0.09998858
 249630941, -0.02379378, -0.07417825, 1.698318, 0.0803586, -0.08063547, 0.09998459, 0.003292154, 0.01762144, 1.467141, 0.06371354, -0.06253795, 0.09998097
 249830861, 0.09038346, -0.08522104, 1.983908, 0.1011713, -0.100559, 0.0999697, -0.02379378, -0.07417825, 1.698318, 0.0803586, -0.08063547, 0.09998459
 250030781, 0.01225102, 0.006938503, 2.248963, 0.1228191, -0.122193, 0.09994468, 0.09038346, -0.08522104, 1.983908, 0.1011713, -0.100559, 0.0999697
 250230701, 0.01609088, -0.0229653, 2.465784, 0.1475088, -0.1472723, 0.09990653, 0.01225102, 0.006938503, 2.248963, 0.1228191, -0.122193, 0.09994468
 250431454, 0.1585095, 0.04228414, 2.676346, 0.1755809, -0.1739785, 0.09987114, 0.01609088, -0.0229653, 2.465784, 0.1475088, -0.1472723, 0.09990653
 250631374, 0.09555395, -0.04105301, 2.869604, 0.2038798, -0.2034429, 0.0998835, 0.1585095, 0.04228414, 2.676346, 0.1755809, -0.1739785, 0.09987114
 250831294, -0.137659, -0.07680836, 2.976219, 0.2330059, -0.2338051, 0.09990608, 0.09555395, -0.04105301, 2.869604, 0.2038798, -0.2034429, 0.0998835
 251031214, 0.2406774, -0.146025, 3.138038, 0.2691386, -0.2666709, 0.2498975, -0.137659, -0.07680836, 2.976219, 0.2330059, -0.2338051, 0.09990608
 251231134, -0.05955135, -0.2430387, 3.253441, 0.2995274, -0.300985, 0.2498666, 0.2406774, -0.146025, 3.138038, 0.2691386, -0.2666709, 0.2498975
 251431054, 0.3652207, -0.03081422, 3.381277, 0.337689, -0.3339089, 0.2497647, -0.05955135, -0.2430387, 3.253441, 0.2995274, -0.300985, 0.2498666
 251630974, 0.4397652, 0.2661785, 3.42864, 0.373261, -0.3679838, 0.2497591, 0.3652207, -0.03081422, 3.381277, 0.337689, -0.3339089, 0.2497647
 251830894, 0.114737, -0.02867529, 3.542883, 0.4060653, -0.4060179, 0.2497929, 0.4397652, 0.2661785, 3.42864, 0.373261, -0.3679838, 0.2497591
 252030814, 0.4437499, 0.1060604, 3.608507, 0.4457469, -0.4428364, 0.2497787, 0.114737, -0.02867529, 3.542883, 0.4060653, -0.4060179, 0.2497929
 252230734, 0.3670356, 0.1347016, 3.658763, 0.4821815, -0.4807886, 0.250025, 0.4437499, 0.1060604, 3.608507, 0.4457469, -0.4428364, 0.2497787
 252430654, 0.1173723, -0.1727554, 3.554163, 0.5168716, -0.5199507, 0.2503482, 0.3670356, 0.1347016, 3.658763, 0.4821815, -0.4807886, 0.250025
 252631407, 0.5688806, 0.3471292, 3.345913, 0.5551458, -0.5531962, 0.2504892, 0.1173723, -0.1727554, 3.554163, 0.5168716, -0.5199507, 0.2503482
 252831327, -0.2757515, -0.2408038, 3.092328, 0.5818573, -0.5888026, 0.2506263, 0.5688806, 0.3471292, 3.345913, 0.5551458, -0.5531962, 0.2504892
 253031247, 0.0955359, -0.3126417, 2.837554, 0.6126268, -0.6195894, 0.250669, -0.2757515, -0.2408038, 3.092328, 0.5818573, -0.5888026, 0.2506263
 253231167, 0.3763008, 0.3637946, 2.517956, 0.6405283, -0.6434895, 0.2506054, 0.0955359, -0.3126417, 2.837554, 0.6126268, -0.6195894, 0.250669
 253431087, -0.212549, -0.5316755, 2.174411, 0.6602145, -0.6719537, 0.2505574, 0.3763008, 0.3637946, 2.517956, 0.6405283, -0.6434895, 0.2506054
 253631007, 0.3605883, -0.5612013, 1.915565, 0.6840842, -0.690919, 0.252874, -0.212549, -0.5316755, 2.174411, 0.6602145, -0.6719537, 0.2505574
 253830927, 0.03119528, -0.6645836, 1.661823, 0.7020262, -0.7083405, 0.2494726, 0.3605883, -0.5612013, 1.915565, 0.6840842, -0.690919, 0.252874
 254030847, 0.6081201, 0.1344672, 1.350617, 0.7224573, -0.722681, 0.2282848, 0.03119528, -0.6645836, 1.661823, 0.7020262, -0.7083405, 0.2494726
 254230767, -0.3066561, -0.7275283, 1.111341, 0.7321117, -0.7450877, 0.2035027, 0.6081201, 0.1344672, 1.350617, 0.7224573, -0.722681, 0.2282848
 254430687, 0.3875625, -0.1251986, 0.9318106, 0.7485538, -0.7532164, 0.1798186, -0.3066561, -0.7275283, 1.111341, 0.7321117, -0.7450877, 0.2035027
 254631440, -0.1597581, -0.7757021, 0.7571351, 0.7583957, -0.7654492, 0.1648444, 0.3875625, -0.1251986, 0.9318106, 0.7485538, -0.7532164, 0.1798186
 254831360, 0.8656258, 0.4314163, 0.5523798, 0.775708, -0.7625257, 0.1611902, -0.1597581, -0.7757021, 0.7571351, 0.7583957, -0.7654492, 0.1648444
 255031280, 0.9617115, -0.3579872, 0.440028, 0.7866671, -0.7667927, 0.1622449, 0.8656258, 0.4314163, 0.5523798, 0.775708, -0.7625257, 0.1611902
 255231200, 1.063011, 0.01681397, 0.3279021, 0.799266, -0.7641939, 0.1521298, 0.9617115, -0.3579872, 0.440028, 0.7866671, -0.7667927, 0.1622449
 255431120, 1.007911, 0.3585308, 0.2271729, 0.8094229, -0.7627617, 0.1337982, 1.063011, 0.01681397, 0.3279021, 0.799266, -0.7641939, 0.1521298
 255631040, 0.9751829, -0.6303004, 0.1485378, 0.8193949, -0.7656835, 0.1183591, 1.007911, 0.3585308, 0.2271729, 0.8094229, -0.7627617, 0.1337982
 255830960, 1.144911, 0.2191316, 0.04121546, 0.8343168, -0.7523839, 0.1137251, 0.9751829, -0.6303004, 0.1485378, 0.8193949, -0.7656835, 0.1183591
 256030880, 1.132576, 0.3112053, -0.003352776, 0.8434471, -0.7452457, 0.1217902, 1.144911, 0.2191316, 0.04121546, 0.8343168, -0.7523839, 0.1137251
 256230800, 0.8086886, 0.5733739, 0.01951523, 0.8442498, -0.7431762, 0.1281047, 1.132576, 0.3112053, -0.003352776, 0.8434471, -0.7452457, 0.1217902
 256430720, 2.26796, 0.1616004, -0.2611277, 0.8718063, -0.7406461, 0.1175727, 0.8086886, 0.5733739, 0.01951523, 0.8442498, -0.7431762, 0.1281047
 256631473, 2.517774, -0.2494723, -0.3803299, 0.8878416, -0.7323387, 0.1140848, 2.26796, 0.1616004, -0.2611277, 0.8718063, -0.7406461, 0.1175727
 256831393, 1.629881, -0.1485676, -0.2000466, 0.8847414, -0.7163701, 0.1252178, 2.517774, -0.2494723, -0.3803299, 0.8878416, -0.7323387, 0.1140848
 257031313, 2.754542, -0.1334451, -0.4879299, 0.9177915, -0.7042243, 0.1122346, 1.629881, -0.1485676, -0.2000466, 0.8847414, -0.7163701, 0.1252178
 257231233, 2.856843, -0.2729145, -0.570813, 0.9304153, -0.6959547, 0.08772708, 2.754542, -0.1334451, -0.4879299, 0.9177915, -0.7042243, 0.1122346
 257431153, 1.681802, 0.220908, -0.3249991, 0.9208223, -0.6798005, 0.08106135, 2.856843, -0.2729145, -0.570813, 0.9304153, -0.6959547, 0.08772708
 257631073, 2.595781, 0.03496983, -0.5040041, 0.9519218, -0.6594655, 0.08730099, 1.681802, 0.220908, -0.3249991, 0.9208223, -0.6798005, 0.08106135
 257830993, 3.150327, -0.09497792, -0.6366887, 0.9772579, -0.6392291, 0.09778799, 2.595781, 0.03496983, -0.5040041, 0.9519218, -0.6594655, 0.08730099
 258030913, 2.380608, -0.335508, -0.4437207, 0.971082, -0.625009, 0.1014567, 3.150327, -0.09497792, -0.6366887, 0.9772579, -0.6392291, 0.09778799
 258230833, 2.801839, 0.4000251, -0.5848594, 0.996591, -0.5963382, 0.09721382, 2.380608, -0.335508, -0.4437207, 0.971082, -0.625009, 0.1014567
 258430753, 2.983253, 1.323647, -0.7742779, 1.018195, -0.5729515, 0.08758983, 2.801839, 0.4000251, -0.5848594, 0.996591, -0.5963382, 0.09721382
 258630673, 3.010544, -0.03201126, -0.6849427, 1.021646, -0.5653428, 0.08100991, 2.983253, 1.323647, -0.7742779, 1.018195, -0.5729515, 0.08758983
 258831426, 3.24987, 0.2876139, -0.7294182, 1.036754, -0.548307, 0.07664055, 3.010544, -0.03201126, -0.6849427, 1.021646, -0.5653428, 0.08100991
 259031346, 3.171198, 1.281232, -0.8370375, 1.0488, -0.5254183, 0.08183245, 3.24987, 0.2876139, -0.7294182, 1.036754, -0.548307, 0.07664055
 259231266, 3.117108, 0.7962885, -0.7278539, 1.054153, -0.5069928, 0.09057328, 3.171198, 1.281232, -0.8370375, 1.0488, -0.5254183, 0.08183245
 259431186, 2.276247, 0.373101, -0.5428685, 1.044324, -0.4927284, 0.0894464, 3.117108, 0.7962885, -0.7278539, 1.054153, -0.5069928, 0.09057328
 259631106, 2.05336, 1.136416, -0.5684739, 1.054741, -0.4677532, 0.07947768, 2.276247, 0.373101, -0.5428685, 1.044324, -0.4927284, 0.0894464
 259831026, 2.116609, 1.319292, -0.6082776, 1.068351, -0.4400717, 0.08754763, 2.05336, 1.136416, -0.5684739, 1.054741, -0.4677532, 0.07947768
 260030946, 2.688655, 1.189568, -0.7851621, 1.089109, -0.4093721, 0.09598456, 2.116609, 1.319292, -0.6082776, 1.068351, -0.4400717, 0.08754763
 260230866, 2.980042, 0.5550359, -0.6708409, 1.099337, -0.3917215, 0.09480135, 2.688655, 1.189568, -0.7851621, 1.089109, -0.4093721, 0.09598456
 260430786, 3.540653, 0.7437816, -0.8837972, 1.12184, -0.3656676, 0.08471394, 2.980042, 0.5550359, -0.6708409, 1.099337, -0.3917215, 0.09480135
 260630706, 3.63243, 1.686571, -1.002331, 1.140304, -0.33016, 0.08078876, 3.540653, 0.7437816, -0.8837972, 1.12184, -0.3656676, 0.08471394
 260831459, 2.382419, 1.229984, -0.6800231, 1.114076, -0.3189289, 0.08697793, 3.63243, 1.686571, -1.002331, 1.140304, -0.33016, 0.08078876
 261031379, 3.427046, 0.9212165, -0.8595834, 1.142179, -0.2892519, 0.07099593, 2.382419, 1.229984, -0.6800231, 1.114076, -0.3189289, 0.08697793
 261231299, 2.852648, 1.204122, -0.7707244, 1.137945, -0.2611994, 0.07484347, 3.427046, 0.9212165, -0.8595834, 1.142179, -0.2892519, 0.07099593
 261431219, 3.009086, 2.015723, -0.9128075, 1.155641, -0.2187268, 0.08407733, 2.852648, 1.204122, -0.7707244, 1.137945, -0.2611994, 0.07484347
 261631139, 3.815252, 1.63344, -0.97751, 1.175668, -0.1857824, 0.08650202, 3.009086, 2.015723, -0.9128075, 1.155641, -0.2187268, 0.08407733
 261831059, 2.597218, 1.956041, -0.7783017, 1.155702, -0.1720315, 0.08624844, 3.815252, 1.63344, -0.97751, 1.175668, -0.1857824, 0.08650202
 262030979, 3.870728, 1.647681, -0.9225929, 1.185819, -0.136474, 0.07812274, 2.597218, 1.956041, -0.7783017, 1.155702, -0.1720315, 0.08624844
 262230899, 3.067997, 2.426105, -0.999879, 1.180162, -0.1103547, 0.07651879, 3.870728, 1.647681, -0.9225929, 1.185819, -0.136474, 0.07812274
 262430819, 2.842906, 1.322532, -0.7005081, 1.166701, -0.1086398, 0.06934457, 3.067997, 2.426105, -0.999879, 1.180162, -0.1103547, 0.07651879
 262630739, 3.020081, 2.612387, -1.002448, 1.18848, -0.06441426, 0.05624552, 2.842906, 1.322532, -0.7005081, 1.166701, -0.1086398, 0.06934457
 262830659, 3.036447, 2.33104, -0.8828767, 1.186275, -0.03683218, 0.07348198, 3.020081, 2.612387, -1.002448, 1.18848, -0.06441426, 0.05624552
 263031412, 3.175607, 2.690742, -0.9170495, 1.194859, 0.00424552, 0.08687955, 3.036447, 2.33104, -0.8828767, 1.186275, -0.03683218, 0.07348198
 263231332, 2.340513, 1.882513, -0.6584612, 1.169997, 0.01425607, 0.09972657, 3.175607, 2.690742, -0.9170495, 1.194859, 0.00424552, 0.08687955
 263431252, 3.077146, 1.657409, -0.7371038, 1.181483, 0.0469095, 0.0937928, 2.340513, 1.882513, -0.6584612, 1.169997, 0.01425607, 0.09972657
 263631172, 2.684801, 1.667843, -0.6535202, 1.174181, 0.07178269, 0.08765976, 3.077146, 1.657409, -0.7371038, 1.181483, 0.0469095, 0.0937928
 263831092, 2.35353, 2.200847, -0.7268445, 1.172888, 0.1092592, 0.08452553, 2.684801, 1.667843, -0.6535202, 1.174181, 0.07178269, 0.08765976
 264031012, 2.400997, 2.993731, -0.9214029, 1.180771, 0.1557237, 0.08525816, 2.35353, 2.200847, -0.7268445, 1.172888, 0.1092592, 0.08452553
 264230932, 2.576223, 1.811799, -0.6407776, 1.166493, 0.1651086, 0.09721242, 2.400997, 2.993731, -0.9214029, 1.180771, 0.1557237, 0.08525816
 264430852, 2.86235, 3.048132, -0.9524863, 1.181402, 0.2207301, 0.08540963, 2.576223, 1.811799, -0.6407776, 1.166493, 0.1651086, 0.09721242
 264630772, 2.017046, 2.16085, -0.6736584, 1.154835, 0.2207706, 0.08717483, 2.86235, 3.048132, -0.9524863, 1.181402, 0.2207301, 0.08540963
 264830692, 1.705604, 3.261967, -0.9229423, 1.157789, 0.2697483, 0.08476157, 2.017046, 2.16085, -0.6736584, 1.154835, 0.2207706, 0.08717483
 265031445, 2.471311, 2.54929, -0.8236941, 1.151943, 0.2940696, 0.08615604, 1.705604, 3.261967, -0.9229423, 1.157789, 0.2697483, 0.08476157
 265231365, 2.592698, 2.934893, -0.9492638, 1.150828, 0.3323914, 0.07779564, 2.471311, 2.54929, -0.8236941, 1.151943, 0.2940696, 0.08615604
 265431285, 1.89211, 3.392477, -0.9946499, 1.138532, 0.3642973, 0.07854167, 2.592698, 2.934893, -0.9492638, 1.150828, 0.3323914, 0.07779564
 265631205, 1.984393, 2.816998, -0.8262396, 1.122712, 0.3812917, 0.09121569, 1.89211, 3.392477, -0.9946499, 1.138532, 0.3642973, 0.07854167
 265831125, 1.860648, 2.220232, -0.6594863, 1.107603, 0.3934991, 0.09359574, 1.984393, 2.816998, -0.8262396, 1.122712, 0.3812917, 0.09121569
 266031045, 1.846205, 3.79991, -1.053851, 1.115511, 0.4549903, 0.06866878, 1.860648, 2.220232, -0.6594863, 1.107603, 0.3934991, 0.09359574
 266230965, 0.8872576, 2.786552, -0.7468962, 1.087983, 0.4458607, 0.06595069, 1.846205, 3.79991, -1.053851, 1.115511, 0.4549903, 0.06866878
 266430885, 0.84851, 3.160956, -0.8107619, 1.080138, 0.4825572, 0.05979945, 0.8872576, 2.786552, -0.7468962, 1.087983, 0.4458607, 0.06595069
 266630805, 0.8978505, 2.803344, -0.7278652, 1.063376, 0.5058588, 0.07057203, 0.84851, 3.160956, -0.8107619, 1.080138, 0.4825572, 0.05979945
 266830725, 0.9842531, 2.866299, -0.7886506, 1.05002, 0.5357879, 0.07884671, 0.8978505, 2.803344, -0.7278652, 1.063376, 0.5058588, 0.07057203
 267031478, 0.6873673, 2.975726, -0.7958008, 1.03512, 0.5623624, 0.08242004, 0.9842531, 2.866299, -0.7886506, 1.05002, 0.5357879, 0.07884671
 267231398, 1.200285, 2.65741, -0.722414, 1.021604, 0.5841773, 0.08577414, 0.6873673, 2.975726, -0.7958008, 1.03512, 0.5623624, 0.08242004
 267431318, 0.6727152, 2.949391, -0.7740179, 1.00468, 0.6133508, 0.08903374, 1.200285, 2.65741, -0.722414, 1.021604, 0.5841773, 0.08577414
 267631238, 0.3697831, 2.932396, -0.7440259, 0.9877543, 0.6363753, 0.09043126, 0.6727152, 2.949391, -0.7740179, 1.00468, 0.6133508, 0.08903374
 267831158, 0.175244, 2.975928, -0.769585, 0.9720663, 0.6614454, 0.0820965, 0.3697831, 2.932396, -0.7440259, 0.9877543, 0.6363753, 0.09043126
 268031078, 1.050713, 3.970153, -1.033778, 0.9661824, 0.7190653, 0.05878422, 0.175244, 2.975928, -0.769585, 0.9720663, 0.6614454, 0.0820965
 268230998, 0.5663686, 3.817205, -1.064126, 0.9452232, 0.7362995, 0.05202229, 1.050713, 3.970153, -1.033778, 0.9661824, 0.7190653, 0.05878422
 268430918, 0.2606556, 3.200905, -0.8329883, 0.9225115, 0.741251, 0.06503083, 0.5663686, 3.817205, -1.064126, 0.9452232, 0.7362995, 0.05202229
 268630838, 0.4456757, 4.335454, -1.179843, 0.9110208, 0.7964646, 0.06564525, 0.2606556, 3.200905, -0.8329883, 0.9225115, 0.741251, 0.06503083
 268830758, 1.36182, 4.07245, -1.005045, 0.9016398, 0.8069539, 0.06825143, 0.4456757, 4.335454, -1.179843, 0.9110208, 0.7964646, 0.06564525
 269030678, 0.01775361, 4.223645, -1.051848, 0.8748402, 0.8285108, 0.07348555, 1.36182, 4.07245, -1.005045, 0.9016398, 0.8069539, 0.06825143
 269231431, -0.3003287, 3.803874, -0.9384028, 0.8484787, 0.8400692, 0.08141373, 0.01775361, 4.223645, -1.051848, 0.8748402, 0.8285108, 0.07348555
 269431351, 0.397305, 4.15131, -0.9918786, 0.8248886, 0.8785476, 0.07975212, -0.3003287, 3.803874, -0.9384028, 0.8484787, 0.8400692, 0.08141373
 269631271, -0.5714012, 3.5843, -0.8708462, 0.7970159, 0.8839056, 0.07752638, 0.397305, 4.15131, -0.9918786, 0.8248886, 0.8785476, 0.07975212
 269831191, 0.2603179, 4.286181, -1.068742, 0.771799, 0.9308003, 0.06753573, -0.5714012, 3.5843, -0.8708462, 0.7970159, 0.8839056, 0.07752638
 270031111, -0.3330955, 4.026844, -0.9808393, 0.7370844, 0.9479474, 0.0813328, 0.2603179, 4.286181, -1.068742, 0.771799, 0.9308003, 0.06753573
 270231031, -0.7266453, 3.815991, -0.9922745, 0.7075244, 0.9629886, 0.09762262, -0.3330955, 4.026844, -0.9808393, 0.7370844, 0.9479474, 0.0813328
 270430951, -0.5161313, 4.003474, -0.9578829, 0.6861208, 0.982978, 0.1030061, -0.7266453, 3.815991, -0.9922745, 0.7075244, 0.9629886, 0.09762262
 270630871, -0.9365816, 2.728744, -0.7307232, 0.6669772, 0.9632547, 0.1148504, -0.5161313, 4.003474, -0.9578829, 0.6861208, 0.982978, 0.1030061
 270830791, 0.1166551, 2.902995, -0.5878929, 0.647174, 0.9810649, 0.1111363, -0.9365816, 2.728744, -0.7307232, 0.6669772, 0.9632547, 0.1148504
 271030711, -0.62046, 2.67535, -0.7195093, 0.6184467, 0.9954199, 0.1028741, 0.1166551, 2.902995, -0.5878929, 0.647174, 0.9810649, 0.1111363
 271231464, -0.3031569, 2.971136, -0.686261, 0.5961151, 1.016318, 0.0953185, -0.62046, 2.67535, -0.7195093, 0.6184467, 0.9954199, 0.1028741
 271431384, -0.6479239, 4.164756, -1.022078, 0.5643833, 1.066051, 0.08250557, -0.3031569, 2.971136, -0.686261, 0.5961151, 1.016318, 0.0953185
 271631304, -0.6189649, 3.201545, -0.7734064, 0.5417086, 1.052834, 0.08828348, -0.6479239, 4.164756, -1.022078, 0.5643833, 1.066051, 0.08250557
 271831224, -1.41304, 3.411391, -0.9409211, 0.5067089, 1.078825, 0.08373891, -0.6189649, 3.201545, -0.7734064, 0.5417086, 1.052834, 0.08828348
 272031144, -0.9919326, 3.094253, -0.8007615, 0.4855084, 1.079795, 0.08464634, -1.41304, 3.411391, -0.9409211, 0.5067089, 1.078825, 0.08373891
 272231064, -0.5295878, 3.316528, -0.8438075, 0.4638311, 1.093334, 0.08372189, -0.9919326, 3.094253, -0.8007615, 0.4855084, 1.079795, 0.08464634
 272430984, -0.7671217, 3.617834, -0.8734079, 0.4333275, 1.113003, 0.08389466, -0.5295878, 3.316528, -0.8438075, 0.4638311, 1.093334, 0.08372189
 272630904, -1.75863, 3.776224, -1.013058, 0.3957681, 1.137015, 0.08654185, -0.7671217, 3.617834, -0.8734079, 0.4333275, 1.113003, 0.08389466
 272830824, -1.898787, 3.819763, -1.040748, 0.3681259, 1.149431, 0.08600593, -1.75863, 3.776224, -1.013058, 0.3957681, 1.137015, 0.08654185
