TimeUS,CAN,CAE,CAD,CAe,NAN,NAE,NAD,NAe,m10,m00
 170860795, -6.070795E-06, 4.192994E-05, 6.939972E-06, 6.484905E-06, 0, 0, 0, 0, -0.9999977, -0.001442234
 171030727, -0.5027649, 2.850679, 0.4829789, 0.4438254, -0.03555252, 3.242308, -0.02087978, 0.4438184, -0.9999977, -0.001441022
 171231480, -0.03523186, 3.249652, -0.02112258, 0.4443466, 0.0002345571, 0.004455086, -0.0003345415, 0.0005209541, -0.9999977, -0.001435848
 171431400, 8.208476E-05, 0.01184276, -0.0006198096, 0.001046232, 0.0001338223, 0.004276747, 0.000128181, 0.0005187925, -0.9999977, -0.001433032
 171631320, 0.0001243338, 0.01165987, -0.0003187632, 0.00104407, 0.0002626089, 0.004600147, -0.0002859569, 0.0005187925, -0.9999977, -0.001428797
 171831240, 0.0001769809, 0.01211649, -0.00052293, 0.00104407, 0.0002362831, 0.004337054, 0.0003322309, 0.0005187925, -0.9999977, -0.00142159
 172031160, 0.0002498209, 0.01203082, 0.0001834873, 0.00104407, 9.704651E-05, 0.004762291, -0.0001248695, 0.0005187925, -0.9999977, -0.001414917
 172231080, 0.0002508113, 0.01209258, -0.0004133669, 0.00104407, -0.0002151486, 0.003951779, -0.000344464, 0.0005187925, -0.9999977, -0.00140788
 172431000, 1.485688E-05, 0.01124291, -0.0004583013, 0.00104407, 0.0002378615, 0.004075995, 4.232619E-06, 0.0005187925, -0.9999977, -0.001400388
 172630920, 0.0004270864, 0.01145634, 1.527409E-05, 0.00104407, -0.000151938, 0.004285166, 0.0003405377, 0.0005187925, -0.9999977, -0.0014085
 172830840, 5.803739E-06, 0.0117892, 0.0005379622, 0.00104407, -3.483487E-05, 0.004369295, -5.08558E-05, 0.0005187925, -0.9999977, -0.001415894
 173030760, -0.0003275714, 0.01167458, -0.0003365183, 0.00104407, -0.0005329601, 0.004032067, -0.0004060944, 0.0005187925, -0.9999977, -0.001422447
 173230680, -0.0005312144, 0.01146023, -0.0007646243, 0.00104407, -0.0001028382, 0.004295587, -0.0002175283, 0.0005187925, -0.9999977, -0.001428277
 173431433, -0.0002558565, 0.01193186, -0.0004816655, 0.001046232, 0.0001521854, 0.00452358, -0.0005893873, 0.0005209541, -0.9999977, -0.001433201
 173631353, 0.0001195916, 0.01217798, -0.0009228694, 0.001046232, 0.0003038301, 0.004525229, 4.924473E-05, 0.0005187925, -0.9999976, -0.001437442
 173831273, 0.0004303112, 0.01192157, -0.000121639, 0.00104407, 0.0001452966, 0.003885441, 5.193896E-05, 0.0005187925, -0.9999976, -0.001441592
 174031193, 0.0002140791, 0.01129501, -0.0001537304, 0.00104407, 0.0002470388, 0.004032539, -0.0004409587, 0.0005187925, -0.9999976, -0.001445917
 174231113, 1.410441E-05, 0.01123322, -0.0005946152, 0.00104407, -4.598242E-05, 0.00383142, 0.0004696934, 0.0005187925, -0.9999976, -0.001448895
 174431033, -0.000193478, 0.01130961, 0.0007147457, 0.00104407, -0.0001327784, 0.004419491, -2.448413E-05, 0.0005187925, -0.9999977, -0.001450169
 174630953, -0.0002109199, 0.0118168, -0.0001786673, 0.00104407, 0.0003029314, 0.004360335, -0.0002793494, 0.0005187925, -0.9999977, -0.001451251
 174830873, 0.0002427336, 0.01188824, -0.0002863894, 0.00104407, 0.0001881508, 0.00362185, 7.109181E-05, 0.0005187925, -0.9999977, -0.001451249
 175030793, 4.762771E-05, 0.01079905, -0.0001682478, 0.00104407, -0.0001307342, 0.004081528, -0.0004547279, 0.0005187925, -0.9999977, -0.0014514
 175230713, -0.0004638163, 0.01129579, -0.0005206933, 0.00104407, -0.0002831186, 0.00437276, -0.0004443059, 0.0005187925, -0.9999977, -0.001451038
 175431466, -0.0003862123, 0.01188477, -0.000425858, 0.001046232, -0.0004334706, 0.003995429, 0.0002391641, 0.0005209541, -0.9999977, -0.001447636
 175631386, -0.0005412886, 0.01170843, 0.0001003778, 0.001046232, -0.0002960433, 0.004353142, -0.000171327, 0.0005187925, -0.9999977, -0.001445474
 175831306, -0.000127256, 0.01163475, -0.000393779, 0.00104407, 0.0003661154, 0.004203315, 1.714259E-05, 0.0005187925, -0.9999977, -0.001441467
 176031226, 0.0003258239, 0.01167854, -0.0003067197, 0.00104407, -0.0001074414, 0.004025922, 0.000234323, 0.0005187925, -0.9999977, -0.001436628
 176231146, -0.0001571911, 0.01123161, 0.0003966176, 0.00104407, 0.0002203172, 0.004155647, 0.0001379176, 0.0005187925, -0.9999977, -0.001432662
 176431066, 0.0002563779, 0.01128685, -0.0002786356, 0.00104407, -0.0001204318, 0.004477633, -0.0001934708, 0.0005187925, -0.9999977, -0.001428797
 176630986, -5.405796E-05, 0.01207142, -0.0003669332, 0.00104407, -5.996674E-05, 0.004377464, -0.0002767933, 0.0005187925, -0.9999977, -0.001422953
 176830906, 0.0001013967, 0.01152891, -0.0003756117, 0.00104407, -0.0004213516, 0.004360477, -0.0004912211, 0.0005187925, -0.9999977, -0.001417881
 177030826, -0.0003539665, 0.01192594, -0.0005794544, 0.00104407, -0.0002363493, 0.004409458, -0.0003782905, 0.0005187925, -0.9999977, -0.001412971
 177230746, 8.104675E-05, 0.01191053, -0.0005881185, 0.00104407, 1.083378E-05, 0.004317261, -0.0003712754, 0.0005187925, -0.9999977, -0.001405995
 177430666, 0.0002166479, 0.01173337, -0.0006392925, 0.00104407, 0.0003509538, 0.004110424, -0.0005599105, 0.0005187925, -0.9999977, -0.001398443
 177631419, 0.0005316411, 0.01129127, -0.0004330622, 0.001046232, 7.659911E-05, 0.00376713, 0.000190682, 0.0005209541, -0.9999978, -0.001389141
 177831339, 0.0004809173, 0.01127849, 0.0001368805, 0.001046232, 0.0002045936, 0.004029113, 0.0002218408, 0.0005187925, -0.9999978, -0.001396457
 178031259, 0.0002480004, 0.0112217, -0.0001230343, 0.00104407, 0.0001677083, 0.003919145, 0.0002205598, 0.0005187925, -0.9999978, -0.00140099
 178231179, 0.0002446476, 0.01128918, 0.0002354049, 0.00104407, 0.0002532524, 0.004152295, -3.244771E-05, 0.0005187925, -0.9999977, -0.001405406
 178431099, 0.0001009146, 0.01136975, -0.0002436795, 0.00104407, -0.0001091512, 0.004180154, 0.0002379776, 0.0005187925, -0.9999977, -0.001410543
 178631019, -0.0003197658, 0.01153011, 0.0001049921, 0.00104407, -0.0001110746, 0.003970438, 0.0004134896, 0.0005187925, -0.9999978, -0.001415155
 178830939, 0.0001088441, 0.01131824, 0.0002992124, 0.00104407, -4.563355E-05, 0.00431356, 0.0001677176, 0.0005187925, -0.9999978, -0.001417269
 179030859, 0.0002660761, 0.0116647, -6.058217E-06, 0.00104407, 0.000149834, 0.004253285, -2.449965E-06, 0.0005187925, -0.9999978, -0.001419043
 179230779, -1.478202E-07, 0.01113735, -0.0004044083, 0.00104407, -4.02274E-06, 0.003914248, 4.102853E-05, 0.0005187925, -0.9999978, -0.001419974
 179430699, -0.0002417794, 0.01082567, -0.000309769, 0.00104407, -0.0003809728, 0.004158407, -0.000548035, 0.0005187925, -0.9999978, -0.001419906
 179631452, -0.0002190712, 0.01172975, -0.000745804, 0.001046232, 7.334841E-05, 0.004623154, -0.0003942664, 0.0005209541, -0.9999978, -0.001419804
 179831372, 8.886705E-05, 0.01195967, -0.0005618089, 0.001046232, 0.0001249125, 0.004362328, 0.0002418194, 0.0005187925, -0.9999977, -0.001420883
 180031292, -8.621988E-05, 0.01155565, 0.0003068078, 0.00104407, -0.0001958803, 0.004209697, -0.0003036762, 0.0005187925, -0.9999977, -0.001419247
 180231212, -0.0002301754, 0.01160737, -0.0004466214, 0.00104407, -9.693141E-05, 0.004241332, -0.0002033815, 0.0005187925, -0.9999977, -0.001419262
 180431132, -0.0002092175, 0.01161236, -0.0005867541, 0.00104407, 0.0002174819, 0.004303127, 0.0001923447, 0.0005187925, -0.9999977, -0.001418973
 180631052, 0.0001176126, 0.01168769, 1.660643E-05, 0.00104407, -0.0001376278, 0.004339697, -0.0001589377, 0.0005187925, -0.9999977, -0.00141661
 180830972, -0.0001873902, 0.01129749, -0.0003592425, 0.00104407, 0.0002975788, 0.00387981, -0.0001952868, 0.0005187925, -0.9999977, -0.001414105
 181030892, 0.0001261063, 0.01090556, -0.0003833893, 0.00104407, -0.0003826073, 0.004335431, -5.573307E-05, 0.0005187925, -0.9999977, -0.001413194
 181230812, -0.000655959, 0.01159114, -0.0002421876, 0.00104407, 0.0002711565, 0.004183995, -0.0001509575, 0.0005187925, -0.9999977, -0.001411347
 181430732, -3.635695E-05, 0.0113035, -0.0002298651, 0.00104407, 0.000197461, 0.003897121, 9.947252E-05, 0.0005187925, -0.9999977, -0.00140828
 181631485, 0.0004713417, 0.01097578, 0.000148834, 0.001046232, 0.0003019387, 0.004213821, 0.0004295764, 0.0005209541, -0.9999977, -0.001403913
 181831405, 0.0004211371, 0.01170103, 0.0003300825, 0.001046232, -0.0002366546, 0.004370461, -0.0001048634, 0.0005187925, -0.9999977, -0.001401493
 182031325, 5.317909E-05, 0.01181659, -0.0002941326, 0.00104407, -7.516753E-05, 0.004496571, -0.0001290949, 0.0005187925, -0.9999977, -0.001397987
 182231245, 0.0003513895, 0.01184117, 2.425173E-05, 0.00104407, 0.0002065522, 0.00435212, 0.0001734266, 0.0005187925, -0.9999977, -0.001392796
 182431165, -0.0002090024, 0.01161938, 0.0001808516, 0.00104407, -0.0005166832, 0.003889818, -4.963319E-05, 0.0005187925, -0.9999977, -0.001389004
 182631085, -0.0002822765, 0.01130043, -0.0001241414, 0.00104407, 0.0002119479, 0.004430453, -3.045413E-05, 0.0005187925, -0.9999977, -0.001384275
 182831005, 8.620806E-06, 0.01199765, 0.0002116751, 0.00104407, -6.736198E-06, 0.004468085, 6.83225E-05, 0.0005187925, -0.9999977, -0.001379892
 183030925, 0.0001224302, 0.01195842, 0.000107336, 0.00104407, 0.000350632, 0.004499126, -0.0001173063, 0.0005187925, -0.9999977, -0.001390527
 183230845, 0.0003843213, 0.01180921, -8.651965E-05, 0.00104407, 0.0001111342, 0.004331813, 4.728571E-05, 0.0005187925, -0.9999977, -0.001399624
 183430765, -0.0001335274, 0.01150325, 0.0001000052, 0.00104407, 4.523855E-05, 0.004135906, 6.218447E-05, 0.0005187925, -0.9999977, -0.001408924
 183630685, 5.031212E-05, 0.01163326, 4.295417E-05, 0.00104407, 6.13297E-05, 0.004463827, 0.0001952761, 0.0005187925, -0.9999977, -0.00141663
 183831438, -0.0001912722, 0.01180074, 1.493811E-05, 0.001046232, 0.0001466236, 0.004120722, -0.0003544951, 0.0005209541, -0.9999977, -0.001423969
 184031358, -4.958652E-05, 0.01134462, -0.0006850469, 0.001046232, -0.0002385976, 0.004082575, 2.766575E-05, 0.0005187925, -0.9999976, -0.001429769
 184231278, -0.0003282091, 0.01154215, -0.0002164142, 0.00104407, -7.038916E-06, 0.004607023, -6.512181E-05, 0.0005187925, -0.9999976, -0.001432785
 184431198, 5.996102E-05, 0.01205302, -0.0003412002, 0.00104407, -9.535176E-05, 0.004570337, -3.288622E-05, 0.0005187925, -0.9999976, -0.0014363
 184631118, -9.895432E-05, 0.01206992, -7.365383E-06, 0.00104407, 0.0001351604, 0.004169522, 7.688783E-05, 0.0005187925, -0.9999976, -0.001440931
 184831038, 5.459064E-05, 0.0113159, -7.209263E-06, 0.00104407, -0.0003155109, 0.003877727, -0.0001426841, 0.0005187925, -0.9999976, -0.001445393
 185030958, -0.000204934, 0.01133224, 2.17947E-05, 0.00104407, -0.0002886071, 0.00484199, -0.0003921096, 0.0005187925, -0.9999976, -0.001448006
 185230878, -0.0004698161, 0.0124412, -0.000869919, 0.00104407, -0.0003878909, 0.004568134, 0.0001423409, 0.0005187925, -0.9999976, -0.001450164
 185430798, -0.0004035978, 0.01201953, 0.0002162736, 0.00104407, 0.0003733744, 0.003835128, 0.0001908397, 0.0005187925, -0.9999976, -0.001452326
 185630718, 0.0003865975, 0.01103467, -6.551434E-06, 0.00104407, -0.000120731, 0.004168512, -0.0003239646, 0.0005187925, -0.9999976, -0.001452378
 185831471, -0.0002361977, 0.01165493, -0.0005137117, 0.001046232, -3.254519E-05, 0.004074155, 0.000177351, 0.0005209541, -0.9999976, -0.001452442
 186031391, 0.0001587524, 0.01138244, -0.0003257458, 0.001046232, 0.0001822966, 0.003897496, -0.0004779035, 0.0005187925, -0.9999976, -0.001453527
 186231311, 0.0004437669, 0.01108616, -0.0005173268, 0.00104407, 0.0003790914, 0.004074684, 0.000174928, 0.0005187925, -0.9999976, -0.001452474
 186431231, 0.0001895419, 0.01172503, -4.327713E-05, 0.00104407, -0.0001014911, 0.00475959, 4.021585E-05, 0.0005187925, -0.9999976, -0.00145019
 186631151, -0.0001318189, 0.01234142, -0.0004945993, 0.00104407, 0.0004171693, 0.00464283, -0.0003512837, 0.0005187925, -0.9999976, -0.001449357
 186831071, 0.0007991437, 0.0124669, -0.0002170552, 0.00104407, -0.0003207441, 0.00480131, 0.0002505957, 0.0005187925, -0.9999976, -0.001447158
 187030991, -0.0004151368, 0.01208121, -0.0001033155, 0.00104407, -0.000218314, 0.004171534, -0.0001954786, 0.0005187925, -0.9999976, -0.001444063
 187230911, -9.851389E-05, 0.01167069, -0.0001105152, 0.00104407, 0.0002208911, 0.004236751, 0.0002572878, 0.0005187925, -0.9999976, -0.001439828
 187430831, 0.0001731638, 0.01187509, 7.295671E-05, 0.00104407, -1.49585E-05, 0.004482063, -0.0001130784, 0.0005187925, -0.9999976, -0.001435877
 187630751, -8.809378E-05, 0.01192512, -0.0004126602, 0.00104407, -0.0001371383, 0.004210404, 0.000155519, 0.0005187925, -0.9999976, -0.00143051
 187830671, -0.0001270619, 0.01181066, 0.0001129163, 0.00104407, 0.0002709178, 0.004693944, -0.00010376, 0.0005187925, -0.9999976, -0.001425471
 188031424, 0.0004125044, 0.01200548, -0.0001600893, 0.001046232, -0.0001274615, 0.003822011, 3.865602E-06, 0.0005209541, -0.9999977, -0.001420739
 188231344, 0.0002158314, 0.01121417, -9.640768E-05, 0.001046232, 0.0002034224, 0.003999063, -2.988096E-05, 0.0005187925, -0.9999976, -0.00143053
 188431264, 0.0002826628, 0.01142628, 6.421501E-05, 0.00104407, 0.0003779282, 0.004319173, -0.0002888716, 0.0005187925, -0.9999976, -0.001438515
 188631184, 0.0002837039, 0.01152442, -0.000497819, 0.00104407, 0.0001533521, 0.004093476, -0.0002034744, 0.0005187925, -0.9999976, -0.00144669
 188831104, 6.212221E-05, 0.01166102, -6.412566E-05, 0.00104407, -0.00015606, 0.004059147, 0.0001590558, 0.0005187925, -0.9999976, -0.001453829
 189031024, -2.8453E-05, 0.01128328, -0.0001081176, 0.00104407, 1.702062E-05, 0.00430954, -2.946871E-06, 0.0005187925, -0.9999976, -0.001460083
 189230944, 0.0002846017, 0.01147174, -2.983211E-05, 0.00104407, -0.0001368126, 0.004350679, -1.005605E-05, 0.0005187925, -0.9999976, -0.001465045
 189430864, 7.571655E-05, 0.01158129, -0.000142926, 0.00104407, -6.093799E-05, 0.004137259, -0.0005028275, 0.0005187925, -0.9999976, -0.001468342
 189630784, -2.350528E-05, 0.01147311, -0.0007471148, 0.00104407, 0.0002693396, 0.004150255, -0.0004457466, 0.0005187925, -0.9999976, -0.001470824
 189830704, 0.0003482986, 0.01153779, -0.0009737531, 0.00104407, 0.0006099193, 0.004052775, -0.0006288587, 0.0005187925, -0.9999976, -0.001472091
 190031457, 0.000540613, 0.01118084, -0.0009651824, 0.001046232, -2.83548E-05, 0.004056912, -0.000216063, 0.0005209541, -0.9999977, -0.001474006
 190231377, 0.0001759331, 0.01129079, -0.0003217057, 0.001046232, -6.017114E-05, 0.004000937, 0.0001299422, 0.0005187925, -0.9999977, -0.001474354
 190431297, -3.023989E-05, 0.01144836, -4.418514E-06, 0.00104407, 0.0003037757, 0.004224224, -0.0001649042, 0.0005187925, -0.9999977, -0.001473125
 190631217, 0.0002676964, 0.01169707, -0.0002664262, 0.00104407, 0.0001919703, 0.004786861, -0.0001296145, 0.0005187925, -0.9999977, -0.001472447
 190831137, 0.0001219754, 0.01227116, -0.0003551862, 0.00104407, 0.0002311857, 0.004361659, 0.000151626, 0.0005187925, -0.9999977, -0.00147089
 191031057, 7.514349E-05, 0.01132508, -5.419941E-05, 0.00104407, -0.0003131917, 0.00418388, -0.0004773685, 0.0005187925, -0.9999977, -0.001470123
 191230977, -0.0002300613, 0.0114007, -0.0005392752, 0.00104407, 0.0003226203, 0.004197183, -0.0003360858, 0.0005187925, -0.9999976, -0.001468563
 191430897, 0.0003293859, 0.01136632, -0.0006482177, 0.00104407, -0.0003325531, 0.004122012, -0.0004233812, 0.0005187925, -0.9999976, -0.001466474
 191630817, -0.0004152932, 0.01144346, -0.0007627392, 0.00104407, -0.0002034643, 0.004209387, -0.0002740085, 0.0005187925, -0.9999976, -0.001463075
 191830737, -0.000163271, 0.01154733, -0.0001346824, 0.00104407, -4.703563E-05, 0.003859064, -5.419351E-05, 0.0005187925, -0.9999977, -0.001459284
 192030657, 0.0001237922, 0.01116808, 4.940917E-05, 0.00104407, 0.0001062545, 0.004315697, -0.0002668863, 0.0005187925, -0.9999976, -0.001456267
 192231410, -9.582961E-05, 0.01163715, -0.0003483367, 0.001046232, 2.525948E-05, 0.003963034, -0.0001376614, 0.0005209541, -0.9999977, -0.001453791
 192431330, 0.0002493107, 0.01160123, -0.0001856799, 0.001046232, 0.0001981008, 0.004155352, 0.0002211484, 0.0005187925, -0.9999977, -0.001448321
 192631250, 0.0002318528, 0.01186652, 0.0003827398, 0.00104407, -0.0002042441, 0.004599391, 5.392897E-05, 0.0005187925, -0.9999977, -0.001441866
 192831170, -0.0004087, 0.01195678, -0.000220194, 0.00104407, -2.332424E-05, 0.004126463, 9.802352E-05, 0.0005187925, -0.9999977, -0.001436772
 193031090, 0.0001829806, 0.01178211, 0.0001600924, 0.00104407, 9.201097E-05, 0.004371416, 6.072833E-05, 0.0005187925, -0.9999977, -0.001430443
 193231010, -4.11935E-05, 0.01165644, -9.159359E-05, 0.00104407, 0.0003594797, 0.003707547, -0.0001146728, 0.0005187925, -0.9999977, -0.001423752
 193430930, 0.0004042491, 0.01136008, -0.0005118633, 0.00104407, -0.000105492, 0.004170566, 0.0001050791, 0.0005187925, -0.9999977, -0.001431463
 193630850, -6.259943E-05, 0.01154998, -1.997981E-05, 0.00104407, -0.0001195234, 0.004513668, -0.0003344628, 0.0005187925, -0.9999977, -0.001438493
 193830770, -7.070418E-05, 0.01181016, -0.0002906638, 0.00104407, 0.0001317611, 0.004476467, 0.0004061862, 0.0005187925, -0.9999977, -0.001444179
 194030690, 0.0002155586, 0.01156305, -2.995727E-05, 0.00104407, -7.222295E-05, 0.003986098, -0.0003819856, 0.0005187925, -0.9999977, -0.001449442
 194231443, -6.71046E-05, 0.01124865, -0.0003899705, 0.001046232, 3.53884E-05, 0.003635543, 0.0001396201, 0.0005209541, -0.9999977, -0.00145407
 194431363, 0.0002130313, 0.01099451, 0.000126125, 0.001046232, -1.735524E-05, 0.004472589, 0.0002355384, 0.0005187925, -0.9999977, -0.001457559
 194631283, 1.913286E-07, 0.0120535, 0.0001332346, 0.00104407, -8.168342E-05, 0.00430975, -0.0002531195, 0.0005187925, -0.9999977, -0.001457952
 194831203, 6.053733E-05, 0.01158108, -0.0004775282, 0.00104407, 7.155908E-05, 0.004220491, 0.0002734258, 0.0005187925, -0.9999977, -0.001458402
 195031123, -3.226276E-05, 0.01144102, 0.0001391105, 0.00104407, -0.000161335, 0.003940544, 0.0003422679, 0.0005187925, -0.9999977, -0.001457536
 195231043, -0.0004120973, 0.01114199, 3.694033E-06, 0.00104407, -0.0001357427, 0.004121474, -0.0001724411, 0.0005187925, -0.9999977, -0.001456943
 195430963, -8.623053E-05, 0.01141675, -0.0003982285, 0.00104407, 0.0001179343, 0.004265516, 6.669595E-05, 0.0005187925, -0.9999977, -0.001456229
 195630883, 0.0002359861, 0.01160385, -0.0001200029, 0.00104407, -7.919942E-05, 0.004226541, -2.62644E-05, 0.0005187925, -0.9999978, -0.001453429
 195830803, 0.0001209206, 0.01127798, -0.0001067449, 0.00104407, -6.750427E-05, 0.003994801, 0.0001189483, 0.0005187925, -0.9999978, -0.00145057
 196030723, 0.0003353108, 0.01134237, 0.0001096084, 0.00104407, 0.0003892202, 0.004170545, 0.0003307545, 0.0005187925, -0.9999978, -0.001446735
 196231476, 7.755649E-05, 0.01133891, 0.0002898981, 0.001046232, -0.0001944298, 0.004116287, -3.623784E-05, 0.0005209541, -0.9999978, -0.00144279
 196431396, -9.80113E-05, 0.01153022, -0.0002846231, 0.001046232, -3.761438E-05, 0.00417523, -0.0001888771, 0.0005187925, -0.9999978, -0.001438866
 196631316, -0.0002096707, 0.01139735, -0.0003635774, 0.00104407, -0.0003884549, 0.003954658, 1.2848E-05, 0.0005187925, -0.9999978, -0.001432786
 196831236, -0.0004044211, 0.01082261, -0.0001391688, 0.00104407, 0.0002027353, 0.004103046, -6.781369E-05, 0.0005187925, -0.9999978, -0.001425883
 197031156, -0.0002509551, 0.0111675, -2.220938E-05, 0.00104407, -0.00050851, 0.003924481, -0.0002417372, 0.0005187925, -0.9999978, -0.001420059
 197231076, -0.0002123465, 0.01143577, -0.0004352723, 0.00104407, 0.0001270574, 0.00425308, -0.0001623732, 0.0005187925, -0.9999978, -0.001414016
 197430996, 0.000167536, 0.01155113, -0.0004650723, 0.00104407, 2.41017E-06, 0.003879236, -0.0004921422, 0.0005187925, -0.9999978, -0.001408897
 197630916, -2.893744E-05, 0.01098573, -0.0008790732, 0.00104407, 6.188861E-05, 0.00398799, -0.0001961448, 0.0005187925, -0.9999978, -0.0014037
 197830836, 0.0004613162, 0.01154955, -0.0004600198, 0.00104407, 0.0001763392, 0.004317284, -0.0003301563, 0.0005187925, -0.9999978, -0.001396811
 198030756, 0.0004435358, 0.01173461, -0.0008539419, 0.00104407, -6.384107E-06, 0.004373487, -0.000355415, 0.0005187925, -0.9999978, -0.001390295
 198230676, 0.0001319993, 0.0118985, -0.0003394639, 0.00104407, 0.0003670742, 0.004032478, -0.0003215123, 0.0005187925, -0.9999978, -0.001383463
 198431429, 0.0003036045, 0.01136133, -0.00048855, 0.001046232, 0.000113771, 0.004121334, -0.0001293305, 0.0005209541, -0.9999978, -0.001379021
 198631349, 7.253592E-06, 0.01143048, -0.0001960336, 0.001046232, -0.00021727, 0.004201105, -0.0001405035, 0.0005187925, -0.9999978, -0.001384838
 198831269, 5.695518E-05, 0.01140664, -0.0001021513, 0.00104407, 0.0001999341, 0.004118794, -0.0005034732, 0.0005187925, -0.9999978, -0.001389498
 199031189, 0.0003270559, 0.01189975, -0.0006590185, 0.00104407, 0.0002475984, 0.004742626, -0.0002920627, 0.0005187925, -0.9999978, -0.001395063
 199231109, 0.0001562009, 0.01189412, -0.0004100959, 0.00104407, -0.0001281513, 0.004256119, -2.277773E-05, 0.0005187925, -0.9999978, -0.001398915
 199431029, -0.0001669976, 0.01143102, -2.968672E-05, 0.00104407, 8.20112E-05, 0.004126284, 3.388122E-05, 0.0005187925, -0.9999978, -0.001401676
 199630949, 5.844417E-05, 0.01122979, 0.0001478152, 0.00104407, 0.0001650084, 0.003782587, 5.431267E-05, 0.0005187925, -0.9999978, -0.001403694
 199830869, -4.335185E-05, 0.0114209, 2.721889E-05, 0.00104407, -0.000366462, 0.004596168, -0.0001561958, 0.0005187925, -0.9999978, -0.001405186
 200030789, -0.0002752281, 0.0118243, -0.0003080411, 0.00104407, 0.0005461691, 0.003841935, -0.0002648153, 0.0005187925, -0.9999978, -0.001405728
 200230709, 0.0007880186, 0.01100277, -4.102026E-05, 0.00104407, 0.0003173867, 0.00423818, 4.679476E-05, 0.0005187925, -0.9999978, -0.001405695
 200431462, 0.000352654, 0.01138467, -0.0004580746, 0.001046232, 0.0001599882, 0.003888918, -0.0004015655, 0.0005209541, -0.9999978, -0.001406929
 200631382, -1.715608E-06, 0.01143017, -0.0006564857, 0.001046232, -9.996391E-05, 0.00422341, -0.0002685497, 0.0005187925, -0.9999978, -0.001406044
 200831302, 5.120183E-05, 0.0112763, -0.0002769566, 0.00104407, -1.729804E-05, 0.004230746, -3.459023E-05, 0.0005187925, -0.9999978, -0.001403679
 201031222, 7.568144E-05, 0.01149199, 5.340226E-05, 0.00104407, 0.0003905907, 0.003979575, -0.0002440072, 0.0005187925, -0.9999979, -0.001398147
 201231142, 0.0003079513, 0.01094296, -0.0003645963, 0.00104407, -9.129908E-05, 0.003893073, 0.0001471217, 0.0005187925, -0.9999979, -0.001393225
 201431062, -0.000396471, 0.01110548, 0.0001657776, 0.00104407, -0.000220969, 0.003967854, 9.907089E-06, 0.0005187925, -0.9999979, -0.001388214
 201630982, -1.896629E-05, 0.01091958, 5.258243E-05, 0.00104407, 0.0001136707, 0.003761511, 0.0003834632, 0.0005187925, -0.9999979, -0.001382701
 201830902, -0.0001099019, 0.0109375, 0.0002145063, 0.00104407, -0.0006914821, 0.004345021, 5.277669E-06, 0.0005187925, -0.9999979, -0.001376478
 202030822, -0.0005715782, 0.01170079, -0.0002069217, 0.00104407, 0.0002268111, 0.003948586, -0.0001717989, 0.0005187925, -0.9999979, -0.001370417
 202230742, 0.0003362867, 0.01129512, -0.0003454221, 0.00104407, 0.0002881901, 0.004241316, 0.0002799738, 0.0005187925, -0.9999978, -0.001363494
 202430662, 0.000549594, 0.01143727, -2.45258E-05, 0.00104407, 0.0002205723, 0.004089798, -0.0003608058, 0.0005187925, -0.9999978, -0.001357292
 202631415, 0.0004484229, 0.01129572, -0.0005507738, 0.001046232, 0.0003154067, 0.003824648, -0.0001984959, 0.0005209541, -0.9999978, -0.001352737
 202831335, 0.0005236731, 0.01106633, -0.0003864543, 0.001046232, -9.793707E-05, 0.00380455, 3.94985E-05, 0.0005187925, -0.9999978, -0.001346351
 203031255, -6.71226E-05, 0.01126135, -1.814115E-05, 0.00104407, 0.0004602838, 0.004685131, 0.0002131741, 0.0005187925, -0.9999978, -0.001338868
 203231175, 0.0003693889, 0.01196931, -0.0001443941, 0.00104407, 6.194035E-05, 0.004310223, -0.0005450713, 0.0005187925, -0.9999978, -0.001331675
 203431095, 0.0001842449, 0.01138684, -0.0005690369, 0.00104407, 0.000278781, 0.004115393, 0.0001729869, 0.0005187925, -0.9999978, -0.001322748
 203631015, 0.0004581571, 0.01159785, 0.0003292006, 0.00104407, 0.0004406596, 0.004202083, 2.893839E-05, 0.0005187925, -0.9999978, -0.001315509
 203830935, 0.0004894839, 0.01175212, -7.458333E-06, 0.00104407, -0.000202046, 0.004322832, -4.835578E-05, 0.0005187925, -0.9999978, -0.001322408
 204030855, 0.0001217011, 0.01172167, -0.0002942291, 0.00104407, 0.0001687005, 0.004280397, -0.0003123393, 0.0005187925, -0.9999978, -0.001329195
 204230775, 0.0002945503, 0.01158739, -0.000501512, 0.00104407, 0.0004400332, 0.004093136, -0.0002539977, 0.0005187925, -0.9999978, -0.001334444
 204430695, 0.0006188241, 0.01131902, -0.0005850619, 0.00104407, -0.0001294391, 0.00423543, -0.0002137116, 0.0005187925, -0.9999978, -0.001338779
 204631448, -8.552682E-05, 0.01151529, -2.930225E-05, 0.001046232, 1.948069E-08, 0.004483879, -0.0003115564, 0.0005209541, -0.9999979, -0.001344768
 204831368, 0.0001733462, 0.011407, -0.0001615939, 0.001046232, -8.952808E-05, 0.003895667, 0.0001356286, 0.0005187925, -0.9999978, -0.001346504
 205031288, -0.000178295, 0.01126707, -0.0003050156, 0.00104407, 2.55373E-05, 0.004392065, -0.0002617003, 0.0005187925, -0.9999978, -0.001347652
 205231208, -4.331105E-05, 0.0116339, -0.000378431, 0.00104407, 0.0002283192, 0.00416853, -0.0002482851, 0.0005187925, -0.9999978, -0.001348746
 205431128, 0.0003274367, 0.01128701, -0.0001959172, 0.00104407, -0.000165123, 0.003588206, 0.0003026073, 0.0005187925, -0.9999978, -0.00135015
 205631048, 0.0001063835, 0.01104101, -1.537778E-05, 0.00104407, 2.927616E-05, 0.003885254, 0.0003023821, 0.0005187925, -0.9999978, -0.001350206
 205830968, -3.904307E-05, 0.01120285, 0.0001821539, 0.00104407, -0.000142784, 0.00441757, 0.0001730381, 0.0005187925, -0.9999978, -0.001348299
 206030888, 3.429492E-05, 0.011577, -0.0001355535, 0.00104407, -0.000174127, 0.00396894, -0.0001997577, 0.0005187925, -0.9999978, -0.001346545
 206230808, 9.541407E-05, 0.0110934, -0.000205878, 0.00104407, 6.684195E-05, 0.00420273, 6.526243E-05, 0.0005187925, -0.9999978, -0.001344774
 206430728, 0.0002435491, 0.01132943, 0.000165556, 0.00104407, 0.0003293092, 0.004101634, -0.0001386803, 0.0005187925, -0.9999978, -0.001342901
 206631481, 0.0005185885, 0.01135904, -0.0001153806, 0.001046232, 9.562562E-06, 0.004364134, 1.080438E-05, 0.0005209541, -0.9999978, -0.001342095
 206831401, -5.76417E-05, 0.01185739, 9.745632E-05, 0.001046232, -4.783435E-05, 0.004151773, -9.071774E-06, 0.0005187925, -0.9999979, -0.001340573
 207031321, -0.000156628, 0.01118459, -0.0003278541, 0.00104407, -0.0001099949, 0.004468737, -0.0004627057, 0.0005187925, -0.9999979, -0.001337991
 207231241, 6.905053E-05, 0.01172261, -0.0004865298, 0.00104407, -8.22822E-05, 0.003833954, -3.288869E-07, 0.0005187925, -0.9999978, -0.001333253
 207431161, -0.0001541607, 0.01087821, 4.045417E-05, 0.00104407, -0.0002709335, 0.004171186, 0.000106801, 0.0005187925, -0.9999978, -0.001328357
 207631081, -8.645454E-05, 0.01136961, -6.738947E-05, 0.00104407, 0.0002463677, 0.004454096, 0.0001370739, 0.0005187925, -0.9999978, -0.001323485
 207831001, 0.0001593319, 0.01149558, 0.0001863961, 0.00104407, -3.994563E-06, 0.003703723, 0.0006090659, 0.0005187925, -0.9999978, -0.001318677
 208030921, -0.0001573359, 0.011343, 0.0004807144, 0.00104407, -0.0001647305, 0.004345218, 0.0004447397, 0.0005187925, -0.9999978, -0.001313293
 208230841, 1.730828E-05, 0.01162263, 0.0003430615, 0.00104407, 0.0002227714, 0.004009644, -0.0002624677, 0.0005187925, -0.9999978, -0.001307344
 208430761, -3.943416E-06, 0.01127229, -0.0003023941, 0.00104407, -0.0002166596, 0.00446294, -0.0002215012, 0.0005187925, -0.9999978, -0.0013024
 208630681, -0.0001333083, 0.0118855, -0.0004402485, 0.00104407, -2.745778E-05, 0.004199981, -0.000109071, 0.0005187925, -0.9999978, -0.001296205
 208831434, 7.479408E-05, 0.01198691, -0.0001057226, 0.001046232, 0.0002426918, 0.004448831, -4.111393E-05, 0.0005209541, -0.9999979, -0.001292189
 209031354, 0.0005504831, 0.01182231, 8.467906E-05, 0.001046232, 0.0005884255, 0.004149566, 0.0007121062, 0.0005187925, -0.9999979, -0.001300871
 209231274, 0.0006827253, 0.01143583, 0.0007750774, 0.00104407, 0.0001315906, 0.003978392, 0.0005128179, 0.0005187925, -0.9999979, -0.001307267
 209431194, 9.420067E-05, 0.01137857, 0.0003415231, 0.00104407, -0.0003677239, 0.003714492, -0.0003001514, 0.0005187925, -0.9999979, -0.00131292
 209631114, -0.0006020603, 0.01101083, -0.0002219481, 0.00104407, 2.51784E-05, 0.004248729, 2.94496E-05, 0.0005187925, -0.9999979, -0.001317776
 209831034, -8.43381E-05, 0.01157633, 2.049818E-05, 0.00104407, 0.0001433383, 0.004788027, 2.333899E-05, 0.0005187925, -0.9999979, -0.001321251
 210030954, 0.0002811291, 0.01211013, 0.0001607335, 0.00104407, 3.823234E-05, 0.004238232, -0.0002169409, 0.0005187925, -0.9999979, -0.001324998
 210230874, -0.000133813, 0.01157473, -7.763855E-05, 0.00104407, -0.0002942405, 0.004155762, 0.0002453859, 0.0005187925, -0.9999979, -0.001327641
 210430794, -0.0001841894, 0.01148022, 0.0001348921, 0.00104407, 0.0001979742, 0.004372156, -4.60941E-05, 0.0005187925, -0.9999979, -0.001328825
 210630714, 0.0001359634, 0.01113035, -6.00205E-05, 0.00104407, 0.0004112342, 0.003866747, -0.0001430368, 0.0005187925, -0.9999979, -0.001327206
 210831467, 0.0003128466, 0.01133558, -1.541119E-05, 0.001046232, 0.0001229295, 0.003756447, 7.727669E-05, 0.0005209541, -0.9999979, -0.001327744
 211031387, 0.00017823, 0.01115783, 9.832179E-05, 0.001046232, 1.402927E-05, 0.004255356, -0.0003942474, 0.0005187925, -0.9999979, -0.001327649
 211231307, 8.679248E-05, 0.01123984, -0.0007041437, 0.00104407, -5.70904E-05, 0.003734033, 1.975698E-06, 0.0005187925, -0.9999979, -0.001326652
 211431227, -0.0002623391, 0.01107102, -0.0003010225, 0.00104407, 0.0003357198, 0.004320993, 0.0001835565, 0.0005187925, -0.9999979, -0.001323969
 211631147, 0.0002656814, 0.01146826, -0.0001244298, 0.00104407, -0.0004141846, 0.004049234, -0.0001930942, 0.0005187925, -0.9999979, -0.001322264
 211831067, -0.0007953203, 0.01127203, -0.0002006074, 0.00104407, -9.112235E-05, 0.004302479, -0.0004190937, 0.0005187925, -0.9999979, -0.001319887
 212030987, 4.340123E-05, 0.0117367, -0.0004030355, 0.00104407, 0.0002404138, 0.004435856, 6.143734E-05, 0.0005187925, -0.9999979, -0.001316278
 212230907, 0.0002660687, 0.01150779, 0.0001844991, 0.00104407, 7.08869E-05, 0.004009882, 0.0002953277, 0.0005187925, -0.9999979, -0.001313005
 212430827, 0.0002247824, 0.01108477, 0.0001591117, 0.00104407, 0.000329231, 0.004041928, -0.0003080828, 0.0005187925, -0.9999979, -0.001308361
 212630747, 0.0004054662, 0.01115842, -0.0002411891, 0.00104407, 0.0001248576, 0.003724547, 0.000128536, 0.0005187925, -0.9999979, -0.001303892
 212830667, -0.0001702586, 0.01069295, -5.740372E-05, 0.00104407, -0.0003038007, 0.004173717, -0.0001605893, 0.0005187925, -0.9999979, -0.001299034
 213031420, -0.0002573114, 0.01136832, -0.000611407, 0.001046232, -0.0005064621, 0.003694162, -0.0001814029, 0.0005209541, -0.9999979, -0.001295616
 213231340, -0.0004320056, 0.01122589, 4.897342E-05, 0.001046232, 0.0002388104, 0.004079612, 0.0004868824, 0.0005187925, -0.9999979, -0.001290731
 213431260, 0.0002807042, 0.0113623, 0.0005321711, 0.00104407, -0.0001742072, 0.004313662, -0.0001559373, 0.0005187925, -0.9999979, -0.001283395
 213631180, -0.0001261734, 0.01142941, -0.0003558476, 0.00104407, -3.234676E-05, 0.003939596, -0.0005137545, 0.0005187925, -0.9999979, -0.001277928
 213831100, -9.654493E-05, 0.01117068, -0.0007195751, 0.00104407, -7.697656E-05, 0.003797021, -0.0003252171, 0.0005187925, -0.9999979, -0.001272149
 214031020, 0.0002676169, 0.0113849, -0.0003932167, 0.00104407, 4.324684E-05, 0.004439053, 7.602391E-05, 0.0005187925, -0.9999979, -0.001266188
 214230940, 0.0002328212, 0.01193193, 8.380158E-05, 0.00104407, -6.115851E-05, 0.003895277, 6.232152E-06, 0.0005187925, -0.9999979, -0.001275673
 214430860, 0.000420036, 0.01113061, 5.133481E-06, 0.00104407, -5.715521E-05, 0.00413199, 9.649701E-06, 0.0005187925, -0.9999979, -0.001284298
 214630780, 0.0002059499, 0.01167566, -0.000302282, 0.00104407, -7.334245E-05, 0.004240389, -0.0003317317, 0.0005187925, -0.9999979, -0.001291671
 214830700, 6.954627E-05, 0.01188702, -0.0003832571, 0.00104407, 8.882324E-05, 0.004633481, -6.659466E-05, 0.0005187925, -0.9999979, -0.001298483
 215031453, 0.0001438316, 0.01202252, -0.0006294347, 0.001046232, 0.0002024194, 0.00456464, -0.0003606864, 0.0005209541, -0.9999979, -0.001303837
 215231373, 9.075097E-05, 0.0121955, -0.0005471361, 0.001046232, 4.943337E-06, 0.00438047, 1.214375E-05, 0.0005187925, -0.9999979, -0.001307905
 215431293, 0.0001737803, 0.01148206, 6.81497E-05, 0.00104407, 7.793008E-05, 0.003884267, 0.0003595678, 0.0005187925, -0.9999979, -0.001310055
 215631213, 0.0001182904, 0.01115321, 0.0002793624, 0.00104407, -0.0001419598, 0.00370956, -0.0002354836, 0.0005187925, -0.9999979, -0.001311686
 215831133, 0.0002597171, 0.01066939, -0.0001866667, 0.00104407, 0.0003408637, 0.004194289, -8.072007E-06, 0.0005187925, -0.9999979, -0.001313014
 216031053, 0.0005318029, 0.01128749, -7.702488E-05, 0.00104407, 0.0001720913, 0.00433205, -9.340958E-05, 0.0005187925, -0.9999979, -0.001313288
 216230973, 0.0003668801, 0.01157447, -0.0002216119, 0.00104407, 0.0002544762, 0.003618269, 2.50859E-05, 0.0005187925, -0.9999979, -0.001313508
 216430893, 0.0007431401, 0.01081176, -0.0002924809, 0.00104407, 0.0003150327, 0.004286465, -0.0002444815, 0.0005187925, -0.9999979, -0.001312872
 216630813, 0.0001260451, 0.01142509, -0.0002811869, 0.00104407, 0.000248669, 0.004278416, 0.000498633, 0.0005187925, -0.9999979, -0.001312292
 216830733, -2.082515E-05, 0.01147141, 5.327131E-05, 0.00104407, -0.0003224267, 0.003676845, -0.0003044055, 0.0005187925, -0.9999979, -0.001309966
 217031486, -0.0001669397, 0.01076682, -0.0009150916, 0.001046232, -0.0001023479, 0.003807276, -0.0002776251, 0.0005187925, -0.9999979, -0.001306185
 217231406, 0.0001497362, 0.0109964, -0.0001210078, 0.001046232, -5.560133E-05, 0.004157901, 0.0001161059, 0.0005209541, -0.9999979, -0.00130464
 217431326, 1.557082E-05, 0.01128213, 2.383547E-05, 0.001046232, 0.0003348606, 0.004165707, -9.723111E-05, 0.0005187925, -0.9999979, -0.001301343
 217631246, -9.825394E-05, 0.0112233, -0.0002994543, 0.00104407, -0.0003365913, 0.004229088, -0.000341274, 0.0005187925, -0.9999979, -0.001295936
 217831166, -0.0006589932, 0.01177372, -0.0003714063, 0.00104407, -0.0001849088, 0.004244147, 2.126796E-05, 0.0005187925, -0.9999979, -0.001293579
 218031086, -8.516395E-05, 0.01152864, -0.0003014348, 0.00104407, -0.0001068393, 0.004097176, -0.0001547075, 0.0005187925, -0.9999979, -0.001290663
 218231006, -0.0001411217, 0.011211, -0.0003627387, 0.00104407, -0.0001374514, 0.003988371, -0.0001009633, 0.0005187925, -0.9999979, -0.00128718
 218430926, 0.0001282954, 0.01139922, -0.0001489281, 0.00104407, -4.349672E-05, 0.004396689, -0.0001277091, 0.0005187925, -0.9999979, -0.001283932
 218630846, -6.356582E-05, 0.01159829, -0.0005099854, 0.00104407, 0.0001135115, 0.004270385, 0.0004051447, 0.0005187925, -0.9999978, -0.001280114
 218830766, 0.0001989927, 0.01172665, 7.738491E-05, 0.00104407, -0.0002339428, 0.004361028, -0.0003883798, 0.0005187925, -0.9999978, -0.001276288
 219030686, -0.0003768737, 0.0117879, -0.0003641782, 0.00104407, -4.141398E-05, 0.004243263, -0.0002319576, 0.0005187925, -0.9999978, -0.001273118
 219231439, 0.0002664152, 0.01196443, -0.0005422531, 0.001046232, 0.0001701727, 0.004221777, -0.0002892715, 0.0005209541, -0.9999978, -0.001269583
 219431359, 0.0004616894, 0.01142996, -0.0002801354, 0.001046232, 0.0005093397, 0.004477202, -9.715485E-05, 0.0005187925, -0.9999979, -0.001279378
 219631279, 0.000619437, 0.01155712, -0.0004382228, 0.00104407, 5.990411E-05, 0.004055625, -0.0001961996, 0.0005187925, -0.9999978, -0.001286871
 219831199, 0.0001779216, 0.01143346, -0.0004079415, 0.00104407, 0.0001386276, 0.004220749, 5.618827E-05, 0.0005187925, -0.9999978, -0.001294653
 220031119, 0.0001960324, 0.01157789, -0.000170102, 0.00104407, 3.024913E-06, 0.004490694, 9.750873E-05, 0.0005187925, -0.9999978, -0.001302305
 220231039, 0.0001106886, 0.01150331, -0.000215014, 0.00104407, -0.0001033236, 0.003845383, 5.412201E-05, 0.0005187925, -0.9999978, -0.001310391
 220430959, -0.000207593, 0.01111667, 0.0001308704, 0.00104407, -0.0001012041, 0.004230573, 4.191389E-05, 0.0005187925, -0.9999978, -0.001317536
 220630879, -0.0002897283, 0.01171504, -4.921257E-05, 0.00104407, -0.0002568808, 0.004195195, -8.174009E-05, 0.0005187925, -0.9999978, -0.001322387
 220830799, -0.0003503988, 0.01166303, 0.0001384956, 0.00104407, -0.0004642837, 0.004962971, 0.0001572969, 0.0005187925, -0.9999978, -0.001326928
 221030719, -0.0003736708, 0.01238133, -0.0001198385, 0.00104407, 0.0004605214, 0.004016551, 0.0002141882, 0.0005187925, -0.9999978, -0.001330848
 221231472, 0.0006835626, 0.0111183, -8.35561E-05, 0.001046232, 0.0002852521, 0.003781543, -6.558297E-05, 0.0005209541, -0.9999979, -0.001331716
 221431392, 0.0002443683, 0.01122652, -0.0005035722, 0.001046232, 0.0004299785, 0.004430129, 2.496317E-05, 0.0005187925, -0.9999978, -0.001335026
 221631312, 0.0007737507, 0.01169111, 3.789428E-07, 0.00104407, 0.0002193036, 0.004149054, -0.0001648351, 0.0005187925, -0.9999978, -0.001337455
 221831232, 0.0004786155, 0.01167923, -0.1806744, 0.00104407, 0.0003217079, 0.004877661, -0.2637004, 0.0005187925, -0.9999978, -0.001337511
 222031152, 0.0005589543, 0.01246506, -0.3908853, 0.00104407, -0.0001695208, 0.004044145, 0.02513119, 0.0005187925, -0.9999978, -0.001337471
 222231072, -0.0003577975, 0.01115481, 0.1314936, 0.00104407, 4.870476E-06, 0.004046623, 0.05371966, 0.0005187925, -0.9999978, -0.001337342
 222430992, -0.0007854552, 0.01043082, -0.7388049, 0.00104407, -0.001197256, 0.00247468, -0.8595586, 0.0005187925, -0.9999984, -0.001378655
 222630912, -0.01045314, -0.0005923474, -1.869033, 0.00104407, -0.007356848, -0.003900291, -0.3338173, 0.0005187925, -0.9999855, -0.001466397
 222830832, -0.02210535, -0.01303442, -0.513903, 0.00104407, -0.009088294, -0.005121206, -0.05512493, 0.0005187925, -0.9999769, -0.001557484
 223030752, -0.02400746, -0.01389182, -0.2351999, 0.00104407, -0.008254431, -0.004505756, -0.1333975, 0.0005187925, -0.9999761, -0.001650499
 223230672, -0.02131793, -0.01073087, -0.383706, 0.00104407, -0.007078852, -0.00316537, -0.1390578, 0.0005187925, -0.9999785, -0.00173104
 223431425, -0.01840963, -0.006701241, -0.3457354, 0.001046232, -0.006237678, -0.001408933, -0.108528, 0.0005209541, -0.9999816, -0.001797514
 223631345, -0.01603886, -0.002285046, -0.2786332, 0.001046232, -0.005477256, 0.000245581, -0.09343649, 0.0005187925, -0.9999846, -0.001857121
 223831265, -0.0140607, 0.001779654, -0.2454643, 0.00104407, -0.004449748, 0.001351979, -0.08337215, 0.0005187925, -0.9999865, -0.001894136
 224031185, -0.01167734, 0.004208064, -0.2175889, 0.00104407, -0.003971341, 0.001904691, -0.07342835, 0.0005187925, -0.9999869, -0.001824288
 224231105, -0.009223264, 0.005344077, -0.1912018, 0.00104407, -0.002760409, 0.001792112, -0.06456, 0.0005187925, -0.9999872, -0.001757487
 224431025, -0.006349175, 0.005783306, -0.1679195, 0.00104407, -0.001876455, 0.002609616, -0.05638253, 0.0005187925, -0.9999875, -0.00169719
 224630945, -0.004123624, 0.006906611, -0.146848, 0.00104407, -0.0008218347, 0.002648955, -0.04924225, 0.0005187925, -0.9999877, -0.001687908
 224830865, -0.002196996, 0.007413406, -0.1274664, 0.00104407, -0.0008205828, 0.002846487, -0.04299943, 0.0005187925, -0.9999872, -0.001985238
 225030785, -0.002253453, 0.008010798, -0.1124922, 0.00104407, -0.0009966461, 0.003088665, -0.03833264, 0.0005187925, -0.9999859, -0.002540872
 225230705, -0.002297826, 0.00861554, -0.09984299, 0.00104407, -0.0006539393, 0.003470841, -0.03360796, 0.0005187925, -0.9999844, -0.003097609
 225431458, -0.002080483, 0.009130299, -0.08790171, 0.001046232, -0.0005902741, 0.003242507, -0.02984911, 0.0005209541, -0.9999821, -0.003613461
 225631378, -0.002105219, 0.008878956, -0.03171881, 0.001046232, -0.001120454, 0.00301768, -0.01313606, 0.0005187925, -0.999979, -0.004085508
 225831298, 0.0004315839, 0.01095115, 0.5614787, 0.00104407, 0.0007581019, 0.00453987, 0.3153498, 0.0005187925, -0.9999726, -0.004621815
 226031218, 0.001845586, 0.01094032, 0.8192605, 0.00104407, 0.0004389243, 0.003673495, 0.2758937, 0.0005187925, -0.9999672, -0.005186573
 226231138, 0.001177862, 0.009567399, 0.7017784, 0.00104407, 0.0002347493, 0.003351652, 0.2127217, 0.0005187925, -0.999962, -0.005729885
 226431058, -0.003557645, 0.01054256, 0.604219, 0.00104407, -0.003778011, 0.005017983, 0.2135754, 0.0005187925, -0.9999729, -0.006187739
 226630978, 0.002692657, 0.02574941, 0.5288163, 0.00104407, 0.01134155, 0.01660288, 0.1637842, 0.0005187925, -0.9999391, -0.006579623
 226830898, 0.05398417, 0.0669051, 0.4119999, 0.00104407, 0.0293447, 0.03570919, 0.1327196, 0.0005187925, -0.9995556, -0.00675444
 227030818, 0.0914904, 0.1194951, 0.3495313, 0.00104407, 0.0425139, 0.05457145, 0.1212689, 0.0005187925, -0.9986872, -0.006999488
 227230738, 0.1562403, 0.1600963, 0.3324262, 0.00104407, 0.07796498, 0.06105638, 0.1229563, 0.0005187925, -0.9981035, -0.00757318
 227430658, 0.2401155, 0.1422041, 0.3354383, 0.00104407, 0.09863693, 0.03509889, 0.119028, 0.0005187925, -0.9991605, -0.01034567
 227631411, 0.2672656, 0.06120937, 0.3102041, 0.001046232, 0.09301745, 0.006304136, 0.1046945, 0.0005209541, -0.9997739, -0.01177103
 227831331, 0.2395206, 0.009792699, 0.265339, 0.001046232, 0.07998305, 0.001842923, 0.08654771, 0.0005187925, -0.9998261, -0.01023727
 228031251, 0.2204407, 0.003448287, 0.2188293, 0.00104407, 0.08281691, -0.0006390837, 0.07031296, 0.0005187925, -0.9998943, -0.009197112
 228231171, 0.2381967, -0.01462109, 0.1749516, 0.00104407, 0.09219186, -0.01225566, 0.05527547, 0.0005187925, -0.9999558, -0.009344894
 228431091, 0.2539449, -0.04819573, 0.1355414, 0.00104407, 0.09210543, -0.02424302, 0.04071544, 0.0005187925, -0.9998684, -0.009640972
 228631011, 0.2414934, -0.05058815, 0.1010086, 0.00104407, 0.08184403, -0.004304649, 0.03294381, 0.0005187925, -0.9999674, 0.0009142697
 228830931, 0.2167892, 0.04585271, 0.08814544, 0.00104407, 0.0762301, 0.04635531, 0.02918581, 0.0005187925, -0.9960445, 0.07840395
 229030851, 0.2159143, 0.1500368, 0.06500091, 0.00104407, 0.08340426, 0.06172773, 0.01611925, 0.0005187925, -0.9672748, 0.2527401
 229230771, 0.2465021, 0.1489954, 0.03735946, 0.00104407, 0.09981428, 0.04168393, 0.01118269, 0.0005187925, -0.8733517, 0.4845921
 229430691, 0.2884118, 0.08256421, 0.02958855, 0.00104407, 0.111154, 0.01336627, 0.01033078, 0.0005187925, -0.6891133, 0.7119514
 229631444, 0.3068455, 0.01258753, 0.02891679, 0.001046232, 0.1115606, -0.006471175, 0.01084655, 0.0005209541, -0.4345428, 0.878506
 229831364, 0.3078307, -0.0291613, 0.03180429, 0.001046232, 0.1145404, -0.01568109, 0.01252577, 0.0005187925, -0.1679487, 0.9560273
 230031284, 0.3237961, -0.04692606, 0.03240932, 0.00104407, 0.1222472, -0.0185171, 0.009831193, 0.0005187925, 0.06388775, 0.9628024
 230231204, 0.3337703, -0.05010551, 0.02789203, 0.00104407, 0.1198954, -0.01985887, 0.01131588, 0.0005187925, 0.236275, 0.9347426
 230431124, 0.3230934, -0.075891, 0.02694931, 0.00104407, 0.1147294, -0.03998465, 0.006464079, 0.0005187925, 0.3179436, 0.9122804
 230631044, 0.3062361, -0.1183341, 0.01172415, 0.00104407, 0.1070181, -0.04374859, 0.001281509, 0.0005187925, 0.311712, 0.913364
 230830964, 0.2826532, -0.08557777, 0.001996652, 0.00104407, 0.097245, -0.00984801, 0.0002264345, 0.0005187925, 0.2460493, 0.9284093
 231030884, 0.2561884, 0.02549463, 0.002581191, 0.00104407, 0.08817196, 0.03579102, 0.002031639, 0.0005187925, 0.1550193, 0.9435876
 231230804, 0.2308018, 0.1386147, 0.007556248, 0.00104407, 0.07818943, 0.06973591, 0.003847715, 0.0005187925, 0.07649701, 0.952197
 231430724, 0.2008873, 0.205901, 0.00883276, 0.00104407, 0.06608151, 0.0792653, 0.001938693, 0.0005187925, 0.03853911, 0.955691
 231631477, 0.1724875, 0.1931438, 0.002374501, 0.001046232, 0.0597028, 0.05452803, -1.853003E-05, 0.0005209541, 0.04359151, 0.955191
 231831397, 0.1575112, 0.1103075, -0.0002887337, 0.001046232, 0.05425712, 0.02104017, -0.0002570042, 0.0005187925, 0.07596857, 0.9526393
 232031317, 0.1383937, 0.03491472, -1.141217E-05, 0.00104407, 0.044438, 0.00280832, 0.0002038891, 0.0005187925, 0.1150675, 0.9499263
 232231237, 0.1087676, 0.01177141, 0.0007280763, 0.00104407, 0.03339239, 0.009002376, -0.0002019599, 0.0005187925, 0.1454589, 0.9466996
 232431157, 0.08793083, 0.04481418, 0.001422383, 0.00104407, 0.03176083, 0.02671207, 0.001490938, 0.0005187925, 0.161805, 0.9421349
 232631077, 0.08752178, 0.08745056, 0.002810786, 0.00104407, 0.03108487, 0.03835461, 0.0001094547, 0.0005187925, 0.1670864, 0.9400742
 232830997, 0.08197344, 0.100547, -0.001187379, 0.00104407, 0.02876795, 0.03239218, -0.001362312, 0.0005187925, 0.1656717, 0.9399441
 233030917, 0.07933922, 0.07085291, -0.002117795, 0.00104407, 0.02914313, 0.01665178, -0.0005765455, 0.0005187925, 0.1601111, 0.9403182
 233230837, 0.07934846, 0.02521223, -0.0007388699, 0.00104407, 0.02775016, -0.001940271, 0.0005199735, 0.0005187925, 0.1513798, 0.9418535
 233430757, 0.07438071, -0.01532559, 0.0008946629, 0.00104407, 0.02648967, -0.00895225, -0.0003623871, 0.0005187925, 0.1398714, 0.9433202
 233630677, 0.06863283, -0.01887709, -0.0004173504, 0.00104407, 0.0228707, -0.003692527, -0.00039917, 0.0005187925, 0.1279262, 0.9448593
 233831430, 0.05943929, -0.005854242, -0.0007257267, 0.001046232, 0.0203348, -0.001098374, -0.000291994, 0.0005209541, 0.1174891, 0.9459509
 234031350, 0.05619127, -0.01653401, 9.661818E-05, 0.001046232, 0.02140083, -0.01499508, 0.000361802, 0.0005187925, 0.1080537, 0.9464353
 234231270, 0.05990032, -0.05585673, 0.002335359, 0.00104407, 0.02273722, -0.02596536, 0.001055426, 0.0005187925, 0.0977956, 0.9466391
 234431190, 0.06079565, -0.06843613, 0.002106463, 0.00104407, 0.02124424, -0.02212418, -0.0009312586, 0.0005187925, 0.08704362, 0.9474351
 234631110, 0.05381008, -0.04676438, -0.001446089, 0.00104407, 0.01764829, -0.009047921, -5.615968E-05, 0.0005187925, 0.07739282, 0.9479571
 234831030, 0.04651029, 0.0004176307, 0.00104898, 0.00104407, 0.01612538, 0.01420651, 0.0004587972, 0.0005187925, 0.07247394, 0.9475651
 235030950, 0.04389242, 0.06162103, 0.0007002091, 0.00104407, 0.0159465, 0.03269849, -0.00044958, 0.0005187925, 0.07576915, 0.9464173
 235230870, 0.04406108, 0.0924115, -0.002214454, 0.00104407, 0.01650299, 0.03322513, -0.001114437, 0.0005187925, 0.08694088, 0.9446163
 235430790, 0.04574984, 0.07551939, -0.002229174, 0.00104407, 0.01684072, 0.01830632, -0.0002627608, 0.0005187925, 0.1014898, 0.9425254
 235630710, 0.04101101, 0.03415996, -0.0002723271, 0.00104407, 0.01100514, 0.005202483, -0.000275044, 0.0005187925, 0.1139469, 0.9426296
 235831463, 0.02156331, 0.001786296, -0.001091762, 0.001046232, 0.004136442, -0.006338955, -0.0008216618, 0.0005209541, 0.1195965, 0.9436432
 236031383, 0.01072471, -0.02890114, -0.003035733, 0.001046232, 0.004319706, -0.01608584, -0.00191335, 0.0005187925, 0.1157961, 0.9439418
 236231303, 0.01401097, -0.04753814, -0.00534962, 0.00104407, 0.005879685, -0.01871935, -0.001727399, 0.0005187925, 0.1037697, 0.944865
 236431223, 0.01389906, -0.04350595, -0.005104989, 0.00104407, 0.003125076, -0.01050014, -0.001892215, 0.0005187925, 0.08772792, 0.946755
 236631143, 0.00603528, -0.01871158, -0.004331705, 0.00104407, 0.001128415, -0.002722511, -0.001380177, 0.0005187925, 0.07308886, 0.948103
 236831063, 0.003824611, -0.006283294, -0.002654795, 0.00104407, 0.002196244, -0.002297417, -0.0006909681, 0.0005187925, 0.0628988, 0.9483911
 237030983, 0.006387857, -0.003152608, -0.002546056, 0.00104407, 0.002624113, 0.001139004, -0.001432712, 0.0005187925, 0.05853222, 0.9483971
 237230903, 0.006503142, 0.005944103, -0.003733181, 0.00104407, 0.002219899, 0.003574062, -0.00170381, 0.0005187925, 0.05958501, 0.9481766
 237430823, 0.005640397, 0.0108129, -0.00469075, 0.00104407, 0.001508299, 0.004825291, -0.001958168, 0.0005187925, 0.06396417, 0.94788
 237630743, 0.00406617, 0.01839384, -0.003235812, 0.00104407, 0.002140519, 0.00992156, -0.0004154462, 0.0005187925, 0.06979875, 0.9469818
 237830663, 0.009661188, 0.03072174, -0.0008457304, 0.00104407, 0.006357044, 0.01248441, -0.0006768843, 0.0005187925, 0.07566033, 0.94489
 238031416, 0.02215384, 0.02022937, -0.0003561208, 0.001046232, 0.0100927, -0.001670299, 0.0006384889, 0.0005209541, 0.07922152, 0.9436613
 238231336, 0.02592694, -0.01583032, 0.001701259, 0.001046232, 0.008055436, -0.008963228, -4.556738E-06, 0.0005187925, 0.07842173, 0.9441661
 238431256, 0.01730585, -0.01447968, -0.0005783151, 0.00104407, 0.003628418, 0.0008287256, -0.0001168582, 0.0005187925, 0.07452289, 0.9450424
 238631176, 0.006387031, 0.01112591, -0.0001209621, 0.00104407, 0.0006700265, 0.008017698, -5.309845E-06, 0.0005187925, 0.0698854, 0.945767
 238831096, -0.0002171088, 0.02153219, 0.001918725, 0.00104407, -0.001462169, 0.007440547, 0.002498254, 0.0005187925, 0.06632124, 0.9462734
 239031016, -0.005400008, 0.01835894, 0.006952473, 0.00104407, -0.002653954, 0.005250432, 0.0031149, 0.0005187925, 0.06449633, 0.9466281
 239230936, -0.007496259, 0.01433212, 0.007104405, 0.00104407, -0.002360767, 0.005201752, 0.001536656, 0.0005187925, 0.06427635, 0.9465026
 239430856, -0.003953722, 0.01605681, 0.005862668, 0.00104407, 0.0003599782, 0.006691358, 0.002736938, 0.0005187925, 0.06514952, 0.9454279
 239630776, 0.003418963, 0.0181677, 0.005351514, 0.00104407, 0.001727114, 0.006431925, 0.0006868392, 0.0005187925, 0.06678322, 0.9451426
 239830696, -0.002600842, 0.01532176, -0.001251416, 0.00104407, -0.005865183, 0.004177677, -0.002676533, 0.0005187925, 0.06844687, 0.947504
 240031449, -0.02473902, 0.005419938, -0.007836145, 0.001046232, -0.0122218, -0.001622646, -0.003376084, 0.0005209541, 0.06867168, 0.94898
 240231369, -0.02591627, -0.004912768, -0.009474944, 0.001046232, -0.004173932, -0.001119077, -0.003635149, 0.0005187925, 0.06692423, 0.9468721
 240431289, 0.004136356, 0.003751756, -0.007763776, 0.00104407, 0.009823837, 0.004838644, -0.001428908, 0.0005187925, 0.06439889, 0.9430809
 240631209, 0.03559314, 0.01527059, -0.002601607, 0.00104407, 0.01643398, 0.006094069, -0.0005310568, 0.0005187925, 0.06216025, 0.9412584
 240831129, 0.04046717, 0.007737552, -0.0005673976, 0.00104407, 0.01167062, -0.002808079, 1.823054E-05, 0.0005187925, 0.05980895, 0.9425238
 241031049, 0.02329496, -0.01941404, 0.000400047, 0.00104407, 0.004749132, -0.01261867, 0.0003531426, 0.0005187925, 0.0558027, 0.9442245
 241230969, 0.008048605, -0.03553443, 1.945309E-05, 0.00104407, 0.0009884571, -0.01247183, -0.00128865, 0.0005187925, 0.04987663, 0.945242
 241430889, 0.001358587, -0.02194328, -0.002731666, 0.00104407, -7.642229E-05, -0.0009024669, -0.0001692691, 0.0005187925, 0.04389513, 0.9453787
 241630809, -0.00164503, 0.01504192, 0.0007189162, 0.00104407, -0.001600013, 0.01375007, 0.0009316413, 0.0005187925, 0.0408807, 0.9455732
 241830729, -0.007490164, 0.04932402, 0.004773634, 0.00104407, -0.004055291, 0.02306936, 0.002275281, 0.0005187925, 0.04300156, 0.9459578
 242031482, -0.01640671, 0.06204214, 0.007095292, 0.001046232, -0.008508584, 0.0208965, 0.00305351, 0.0005209541, 0.0499162, 0.9465772
 242231402, -0.02377328, 0.04882087, 0.008985649, 0.001046232, -0.008188139, 0.01345127, 0.003415568, 0.0005187925, 0.05882043, 0.9457785
 242431322, -0.01484432, 0.03003145, 0.008573206, 0.00104407, -0.001300749, 0.00725881, 0.003025008, 0.0005187925, 0.06674463, 0.9435434
 242631242, -0.001834735, 0.01241343, 0.005795209, 0.00104407, -0.000995321, 0.0008571926, 0.0006705903, 0.0005187925, 0.07115607, 0.943774
 242831162, -0.01004593, 0.004009222, 0.0008282481, 0.00104407, -0.007579436, 0.003793456, 0.0001754095, 0.0005187925, 0.07128882, 0.9453769
 243031082, -0.02503906, 0.02215415, 0.0008281718, 0.00104407, -0.01046751, 0.01405923, 0.0005463238, 0.0005187925, 0.06946123, 0.9459251
 243231002, -0.02668339, 0.04583026, -0.0003919297, 0.00104407, -0.008599761, 0.01991308, -0.00134277, 0.0005187925, 0.06845918, 0.9458221
 243430922, -0.02810386, 0.05556008, -0.005185836, 0.00104407, -0.01358259, 0.02038245, -0.00235533, 0.0005187925, 0.0701929, 0.9474557
 243630842, -0.040693, 0.04483734, -0.006458381, 0.00104407, -0.01544169, 0.00904237, -0.001656586, 0.0005187925, 0.07322603, 0.9478171
 243830762, -0.03968867, 0.01541764, -0.002524302, 0.00104407, -0.01353919, 0.002560549, 0.0005670782, 0.0005187925, 0.07574372, 0.9474584
 244030682, -0.03958848, 0.01258869, 0.002044105, 0.00104407, -0.01648671, 0.008301008, -4.908981E-05, 0.0005187925, 0.07781503, 0.9483032
 244231435, -0.04471361, 0.03436959, 0.001007221, 0.001046232, -0.01493087, 0.01848566, 0.0008615312, 0.0005209541, 0.0801636, 0.9474857
 244431355, -0.0330653, 0.05380083, 0.003377019, 0.001046232, -0.007733265, 0.01979246, 0.00133982, 0.0005187925, 0.08348013, 0.9455901
 244631275, -0.01743433, 0.05215744, 0.002126409, 0.00104407, -0.005010229, 0.01887991, -0.0002310031, 0.0005187925, 0.08804557, 0.9448254
 244831195, -0.01672132, 0.05268566, -0.001604671, 0.00104407, -0.007782861, 0.01961562, -0.001837916, 0.0005187925, 0.09379178, 0.9451032
 245031115, -0.02432151, 0.04908227, -0.004470236, 0.00104407, -0.00981603, 0.01462188, -0.001896529, 0.0005187925, 0.09936586, 0.9451194
 245231035, -0.02628672, 0.03030394, -0.006439699, 0.00104407, -0.009451946, 0.005576045, -0.003456083, 0.0005187925, 0.103064, 0.9451883
 245430955, -0.0253803, 0.003597601, -0.007923137, 0.00104407, -0.008798446, -0.005258376, -0.002839329, 0.0005187925, 0.1031284, 0.9453392
 245630875, -0.02087193, -0.03040721, -0.005110624, 0.00104407, -0.006130389, -0.01947079, -0.0004278176, 0.0005187925, 0.09771478, 0.9455742
 245830795, -0.01191087, -0.05803148, -0.001675376, 0.00104407, -0.002008911, -0.02138799, -0.001390825, 0.0005187925, 0.08703994, 0.9457652
 246030715, -0.004167137, -0.04643039, -0.002620896, 0.00104407, -0.0009254948, -0.009943122, -0.0004057774, 0.0005187925, 0.07447595, 0.9463034
 246231468, -0.002711023, -0.01447212, 0.0004284777, 0.001046232, -0.0003802507, 0.0008741574, 0.0005234773, 0.0005209541, 0.06399558, 0.946651
 246431388, -0.0001393287, 0.003450684, 0.0008568591, 0.001046232, 0.0007762437, 1.818504E-05, -6.960587E-05, 0.0005187925, 0.05778873, 0.9464939
 246631308, 0.00756272, -0.007911696, -0.0008148127, 0.00104407, 0.005763689, -0.006801446, -8.163405E-05, 0.0005187925, 0.0550882, 0.9450797
 246831228, 0.02206121, -0.01308951, 0.0004780823, 0.00104407, 0.01087901, 0.0002770607, 3.308284E-05, 0.0005187925, 0.05533804, 0.9435468
 247031148, 0.02655645, 0.01690247, 0.0004308789, 0.00104407, 0.007357906, 0.01377692, 0.0002370339, 0.0005187925, 0.05904562, 0.9436592
 247231068, 0.01276719, 0.03385422, 0.001671654, 0.00104407, 0.0009658717, 0.007303721, 0.001006731, 0.0005187925, 0.06431603, 0.9447257
 247430988, -0.0006805327, 0.0007909583, 0.002586253, 0.00104407, -0.00132535, -0.009212309, 0.001033701, 0.0005187925, 0.06723053, 0.9450012
 247630908, -0.0009584478, -0.03820487, 0.003512263, 0.00104407, 0.0008674261, -0.01970743, 0.002538113, 0.0005187925, 0.06524828, 0.9444384
 247830828, 0.001927084, -0.04571452, 0.005918742, 0.00104407, -0.000518746, -0.00941403, 0.001007322, 0.0005187925, 0.05898726, 0.9451823
 248030748, -0.006652609, 0.0003334666, 0.001045312, 0.00104407, -0.005044245, 0.01378184, -0.0009285323, 0.0005187925, 0.05300291, 0.9465489
 248230668, -0.01661193, 0.05213436, -0.002338436, 0.00104407, -0.007350955, 0.02416335, -0.000137186, 0.0005187925, 0.05117877, 0.9468809
 248431421, -0.02135843, 0.07053248, -0.0007758246, 0.001046232, -0.009161166, 0.02782563, -7.11363E-05, 0.0005209541, 0.05535299, 0.9472912
 248631341, -0.03129547, 0.070612, -0.0004421174, 0.001046232, -0.01471376, 0.02073857, -4.621445E-05, 0.0005187925, 0.06458043, 0.948391
 248831261, -0.03976027, 0.04683531, -0.0002959462, 0.00104407, -0.01274208, 0.01274803, 0.0005655827, 0.0005187925, 0.07477235, 0.9469046
 249031181, -0.02112273, 0.03396909, 0.001137342, 0.00104407, 0.0003705624, 0.01177793, -0.0003214574, 0.0005187925, 0.08317824, 0.9428167
 249231101, 0.01077926, 0.03042947, -0.000705041, 0.00104407, 0.007854235, 0.01023448, -0.0001090376, 0.0005187925, 0.08846897, 0.940504
 249431021, 0.01783456, 0.02465956, -0.00122718, 0.00104407, 0.00361035, 0.007034807, -0.0005825394, 0.0005187925, 0.08990829, 0.9415361
 249630941, -0.002569207, 0.02257083, -0.002767103, 0.00104407, -0.007580247, 0.01127742, -0.001915175, 0.0005187925, 0.08867776, 0.9445429
 249830861, -0.03059135, 0.04069096, -0.00480207, 0.00104407, -0.01497964, 0.01976154, -0.001514281, 0.0005187925, 0.08740942, 0.946222
 250030781, -0.04385654, 0.0639402, -0.003183154, 0.00104407, -0.01730274, 0.02872169, -0.0004506597, 0.0005187925, 0.08902469, 0.9466196
 250230701, -0.04818302, 0.07955468, -0.002213768, 0.00104407, -0.01774953, 0.02710486, -0.0009669595, 0.0005187925, 0.09471529, 0.9464622
 250431454, -0.04473196, 0.06338732, -0.001910891, 0.001046232, -0.01383619, 0.01741173, 0.0004187859, 0.0005209541, 0.1023431, 0.9449188
 250631374, -0.03040081, 0.04264009, 0.002017525, 0.001046232, -0.006780981, 0.01338999, 0.001617069, 0.0005187925, 0.1097878, 0.9423693
 250831294, -0.01256958, 0.02330254, 0.003348991, 0.00104407, -0.001783303, -0.0007058718, 0.0003890686, 0.0005187925, 0.114291, 0.9412301
 251031214, -0.003633806, -0.02790741, 0.0005219566, 0.00104407, -0.001214355, -0.02337135, 0.000363257, 0.0005187925, 0.1115346, 0.9421995
 251231134, -0.006819328, -0.07015057, 4.89362E-05, 0.00104407, -0.004494634, -0.02535488, -0.0009769308, 0.0005187925, 0.1008561, 0.9443984
 251431054, -0.01286861, -0.05001698, -0.00322942, 0.00104407, -0.003820429, -0.007154377, -0.001543652, 0.0005187925, 0.08665283, 0.9449064
 251630974, -0.003369242, -0.01304729, -0.003119162, 0.00104407, 0.002305255, -0.004168724, -0.0004910042, 0.0005187925, 0.07330821, 0.9443401
 251830894, 0.008208331, -0.01634407, -0.00167447, 0.00104407, 0.003364005, -0.00785879, -0.001358765, 0.0005187925, 0.06324227, 0.9450196
 252030814, 0.005671266, -0.01721652, -0.001428969, 0.00104407, 0.0002615126, -0.003175712, 0.0007930431, 0.0005187925, 0.05804269, 0.9457225
 252230734, -0.003723522, -0.003654853, 0.002984584, 0.00104407, -0.00409206, 0.0001582749, 0.001524952, 0.0005187925, 0.05769565, 0.9467021
 252430654, -0.01536924, -0.01017899, 0.004433895, 0.00104407, -0.007256001, -0.01044535, 0.00132307, 0.0005187925, 0.05912513, 0.9475664
 252631407, -0.01901285, -0.03902895, 0.003515332, 0.001046232, -0.00626044, -0.01769281, 0.001480767, 0.0005209541, 0.05884039, 0.947426
 252831327, -0.01468747, -0.03919629, 0.001550083, 0.001046232, -0.004054229, -0.008123131, -0.00135136, 0.0005187925, 0.05653385, 0.9472361
 253031247, -0.009548118, -0.01119246, -0.02505533, 0.00104407, -0.004636486, -0.001007393, -0.01693094, 0.0005187925, 0.05345379, 0.9492187
 253231167, -0.02438189, -0.02278318, -0.04899911, 0.00104407, -0.0154823, -0.02102503, -0.01825319, 0.0005187925, 0.04733953, 0.952762
 253431087, -0.0456964, -0.08483538, -0.04950641, 0.00104407, -0.01718014, -0.04295999, -0.01752153, 0.0005187925, 0.03505972, 0.9539735
 253631007, -0.03884277, -0.1109354, -0.04648153, 0.00104407, -0.009445984, -0.03237804, -0.01613066, 0.0005187925, 0.01825359, 0.9526985
 253830927, -0.01909816, -0.05944389, -0.04242166, 0.00104407, -0.004291482, -0.007245877, -0.01489546, 0.0005187925, 0.002173514, 0.9517968
 254030847, -0.01133138, -0.001581622, -0.03806871, 0.00104407, -0.004181529, 0.007230629, -0.01225771, 0.0005187925, -0.008451062, 0.9520375
 254230767, -0.01417603, 0.02276264, -0.03009359, 0.00104407, -0.006181122, 0.008708475, -0.009877797, 0.0005187925, -0.01149564, 0.9522847
 254430687, -0.01500397, 0.01619062, -0.02416331, 0.00104407, -0.003825984, 0.001351041, -0.0070573, 0.0005187925, -0.008530807, 0.9515216
 254631440, -0.003787613, -0.005826273, -0.01553779, 0.001046232, 0.002449975, -0.007002193, -0.003658261, 0.0005209541, -0.003346378, 0.9493929
 254831360, 0.01382292, -0.02572004, -0.00788247, 0.001046232, 0.007486601, -0.01224858, -0.00131722, 0.0005187925, 5.146602E-05, 0.9478275
