TimeUS,CAN,CAE,CAD,CAe
 170560915, 0, 0, 0, 0
 170635885, -0.0825514, 3.186883, 0.08937076, 0.442794
 170735845, -0.0001493323, 0.003538543, -8.146126E-05, 0.0002593961
 170835805, 7.725656E-05, 0.003602068, 1.070429E-05, 0.0002593961
 170935765, -0.0001853022, 0.003603076, -4.60655E-05, 0.0002593961
 171035725, 0.0001073207, 0.003614395, -0.0001004723, 0.0002593961
 171135685, 0.0001394599, 0.003419011, -0.0001189769, 0.0002593961
 171236478, 0.000204464, 0.003706468, -0.0001191239, 0.0002615578
 171336438, -0.0001281865, 0.003629506, -0.0002035995, 0.0002593961
 171436398, -3.268819E-05, 0.003612728, -3.1641E-05, 0.0002593961
 171536358, -0.0001043996, 0.00346652, -0.0001368571, 0.0002593961
 171636318, 0.0001533747, 0.003798032, -0.0002207659, 0.0002593961
 171736278, -0.000104259, 0.003690409, -0.0001711375, 0.0002593961
 171836238, 4.113415E-05, 0.003692426, -3.972252E-05, 0.0002593961
 171936198, -0.0001445074, 0.003671885, 6.795667E-05, 0.0002593961
 172036158, 0.0001360068, 0.003924171, -0.0001316438, 0.0002593961
 172136118, 1.263636E-05, 0.003636288, -9.547348E-05, 0.0002593961
 172236078, 7.824031E-05, 0.003494213, -0.0001269631, 0.0002593961
 172336038, 0.0001562942, 0.003568388, -3.741555E-05, 0.0002593961
 172435998, 2.185266E-05, 0.003554123, -3.620249E-05, 0.0002593961
 172535958, 0.0002568654, 0.003667573, -5.287203E-05, 0.0002593961
 172635918, -5.112374E-05, 0.003541827, 1.175171E-05, 0.0002593961
 172735878, 0.0001086253, 0.003545695, 0.0002021255, 0.0002593961
 172835838, 8.210254E-05, 0.003673267, -3.046961E-06, 0.0002593961
 172935798, -0.0001025933, 0.003574713, -0.0001041377, 0.0002593961
 173035758, -0.0003014538, 0.003528211, -0.0002515203, 0.0002593961
 173135718, -5.014235E-05, 0.003817697, -0.0001693131, 0.0002593961
 173235678, 4.60576E-05, 0.003479881, -7.413401E-05, 0.0002593961
 173336471, -4.167887E-05, 0.003570254, -9.092547E-05, 0.0002615578
 173436431, -0.0001079814, 0.00390493, -0.0001536994, 0.0002593961
 173536391, -0.0001371432, 0.003787401, -0.000142043, 0.0002593961
 173636351, 0.0001326049, 0.00367503, -0.0001395275, 0.0002593961
 173736311, 3.901514E-05, 0.003528684, -3.832475E-05, 0.0002593961
 173836271, 5.35537E-05, 0.003612503, -0.0001435147, 0.0002593961
 173936231, 4.483423E-05, 0.003606612, -0.0001415282, 0.0002593961
 174036191, -0.0001293511, 0.003582951, -0.0001480225, 0.0002593961
 174136151, -0.0001883397, 0.003550304, -0.0001670121, 0.0002593961
 174236111, -1.740072E-05, 0.003477367, -2.77039E-05, 0.0002593961
 174336071, -9.51299E-05, 0.00358587, 5.230123E-05, 0.0002593961
 174436031, -0.0001178925, 0.003646024, 0.0001464985, 0.0002593961
 174535991, -0.0002265309, 0.003594859, -6.626936E-05, 0.0002593961
 174635951, 0.0001477329, 0.003625122, -8.789241E-05, 0.0002593961
 174735911, -0.0001644596, 0.003790871, 6.05329E-05, 0.0002593961
 174835871, 0.0001461332, 0.003492915, -5.214392E-05, 0.0002593961
 174935831, -2.415916E-05, 0.00350884, -1.945928E-06, 0.0002593961
 175035791, -9.030646E-05, 0.003592703, -0.0002727526, 0.0002593961
 175135751, -4.519376E-05, 0.003530988, 2.832351E-05, 0.0002593961
 175235711, -0.0002055236, 0.003624997, -0.0001528069, 0.0002593961
 175335671, -2.890718E-05, 0.003716098, 4.161243E-05, 0.0002593961
 175436464, -5.382095E-05, 0.003538258, -7.84846E-05, 0.0002615578
 175536424, 1.191462E-05, 0.003825664, -7.219049E-05, 0.0002593961
 175636384, 9.619797E-06, 0.00366146, -3.289217E-05, 0.0002593961
 175736344, 2.492418E-05, 0.003403137, -3.734762E-05, 0.0002593961
 175836304, 0.000119341, 0.003701132, -6.07331E-05, 0.0002593961
 175936264, 6.176181E-05, 0.003813352, -0.0001944527, 0.0002593961
 176036224, -8.798889E-05, 0.003597775, -0.0001429248, 0.0002593961
 176136184, -3.414491E-05, 0.003350407, -1.102959E-05, 0.0002593961
 176236144, -0.0001092259, 0.003662998, 0.0001085991, 0.0002593961
 176336104, 3.072986E-05, 0.003341635, -0.0002539108, 0.0002593961
 176436064, 2.917219E-05, 0.003573847, -0.0002417813, 0.0002593961
 176536024, -5.535449E-05, 0.003738035, 3.020864E-05, 0.0002593961
 176635984, 0.00013086, 0.003750688, -4.499542E-05, 0.0002593961
 176735944, 0.000204631, 0.003485419, -4.621326E-05, 0.0002593961
 176835904, -5.017419E-05, 0.003581067, -7.215951E-05, 0.0002593961
 176935864, 6.169608E-06, 0.003693682, 4.974401E-05, 0.0002593961
 177035824, -5.160516E-05, 0.00374134, -8.385164E-05, 0.0002593961
 177135784, 0.0002256801, 0.003523418, -8.202251E-05, 0.0002593961
 177235744, 0.0001930054, 0.00374066, -4.323541E-05, 0.0002593961
 177335704, 7.662733E-05, 0.003615879, -0.0001269357, 0.0002593961
 177435664, 5.123404E-05, 0.003622319, -0.0002026069, 0.0002593961
 177536457, 6.274047E-05, 0.003564021, -9.235345E-05, 0.0002615578
 177636417, 0.0001061317, 0.003413831, 0.0001689723, 0.0002593961
 177736377, 7.994958E-05, 0.003668185, -0.0001867501, 0.0002593961
 177836337, 0.0003174509, 0.00354846, 0.0001195918, 0.0002593961
 177936297, 7.569386E-05, 0.003560988, -0.0003429769, 0.0002593961
 178036257, -0.0001039658, 0.003415626, -1.220455E-05, 0.0002593961
 178136217, 0.0001222385, 0.003721447, 7.293167E-05, 0.0002593961
 178236177, 2.376168E-05, 0.003509114, -7.958803E-05, 0.0002593961
 178336137, 8.592424E-05, 0.003601271, -7.02994E-05, 0.0002593961
 178436097, -0.000223042, 0.00356029, -5.680316E-05, 0.0002593961
 178536057, 4.192176E-05, 0.0034464, -1.82222E-05, 0.0002593961
 178636017, -0.0002117784, 0.003698644, -3.870965E-05, 0.0002593961
 178735977, 4.3034E-05, 0.003578104, -0.0001481489, 0.0002593961
 178835937, 0.0001885071, 0.003627721, -7.787449E-05, 0.0002593961
 178935897, 0.000165372, 0.003645577, -5.975955E-05, 0.0002593961
 179035857, 9.335599E-05, 0.003526399, -7.62694E-05, 0.0002593961
 179135817, -0.0001441367, 0.003401962, -7.600485E-05, 0.0002593961
 179235777, 2.497018E-05, 0.003312554, -0.000196644, 0.0002593961
 179335737, -7.816611E-05, 0.003343282, -0.0001819788, 0.0002593961
 179435697, -0.0001161782, 0.003447705, -0.0001578951, 0.0002593961
 179535657, -5.934015E-05, 0.003648681, -5.601668E-05, 0.0002593961
 179636450, 0.0001931316, 0.003655395, -0.0001338511, 0.0002615578
 179736410, 2.414373E-05, 0.003458379, -0.0001478319, 0.0002593961
 179836370, -8.234154E-05, 0.003659218, 6.99288E-05, 0.0002593961
 179936330, -0.0001372908, 0.003591228, 0.0001127269, 0.0002593961
 180036290, -9.044564E-05, 0.003395852, -7.144452E-05, 0.0002593961
 180136250, 0.0001458114, 0.003689374, -5.117632E-05, 0.0002593961
 180236210, -0.0001136644, 0.003592877, -0.0001181106, 0.0002593961
 180336170, -0.0001236782, 0.003538282, -0.0003251527, 0.0002593961
 180436130, 7.859833E-05, 0.003615405, -5.19223E-05, 0.0002593961
 180536090, -3.398124E-06, 0.003626601, -0.0001452056, 0.0002593961
 180636050, -6.258428E-05, 0.003630647, -3.735596E-05, 0.0002593961
 180736010, -1.305331E-05, 0.003468789, -0.0001673279, 0.0002593961
 180835970, -3.352812E-05, 0.003385916, -9.093699E-05, 0.0002593961
 180935930, -3.425388E-05, 0.003443175, 6.188071E-06, 0.0002593961
 181035890, -5.860411E-05, 0.003539597, -0.0002107182, 0.0002593961
 181135850, -0.0001660344, 0.003416054, -9.065814E-05, 0.0002593961
 181235810, 8.090679E-05, 0.003683969, -0.000125899, 0.0002593961
 181335770, -7.47219E-05, 0.003421312, 6.478102E-05, 0.0002593961
 181435730, -0.0001675393, 0.003462189, -0.0001665558, 0.0002593961
 181535690, 5.419251E-05, 0.003482924, -1.163614E-05, 0.0002593961
 181636483, 0.000194886, 0.003426736, 0.0001464004, 0.0002615578
 181736443, -2.585636E-05, 0.003620445, 8.802586E-05, 0.0002593961
 181836403, 6.407248E-05, 0.003707793, -0.000201718, 0.0002593961
 181936363, 6.530515E-05, 0.003587291, -0.0002797449, 0.0002593961
 182036323, 0.0002267064, 0.003789214, 2.119886E-05, 0.0002593961
 182136283, 0.0001551574, 0.003688684, -7.938309E-05, 0.0002593961
 182236243, 0.0001458655, 0.003524407, 0.0001017414, 0.0002593961
 182336203, -0.0001248757, 0.003633078, 2.775752E-05, 0.0002593961
 182436163, -0.0002718061, 0.003465222, -7.327485E-05, 0.0002593961
 182536123, -2.305475E-05, 0.003667919, -5.032191E-06, 0.0002593961
 182636083, 0.0001843611, 0.00354877, -4.897065E-05, 0.0002593961
 182736043, -0.0002374099, 0.003651919, 0.0001075469, 0.0002593961
 182836003, 0.0001465644, 0.003735866, 0.0001061206, 0.0002593961
 182935963, 9.753164E-05, 0.003730518, 9.914483E-05, 0.0002593961
 183035923, 2.137981E-05, 0.00355932, -0.0001011944, 0.0002593961
 183135883, 5.481055E-05, 0.00349174, -0.0001038291, 0.0002593961
 183235843, 3.296159E-05, 0.00369982, 0.000117771, 0.0002593961
 183335803, -0.0001720279, 0.003620834, 5.629552E-05, 0.0002593961
 183435763, -0.0001003222, 0.003342542, -6.625027E-05, 0.0002593961
 183535723, -7.512636E-05, 0.003772773, -1.868096E-05, 0.0002593961
 183635683, 0.0001122321, 0.003570766, -2.500488E-05, 0.0002593961
 183736476, -0.0001330221, 0.00373177, 5.32851E-05, 0.0002615578
 183836436, -5.595809E-05, 0.003514091, -0.0002680696, 0.0002593961
 183936396, -0.0002147518, 0.00352001, -0.0002485437, 0.0002593961
 184036356, 3.461463E-05, 0.003467205, 6.086772E-06, 0.0002593961
 184136316, -0.0001354193, 0.003559344, -7.954275E-05, 0.0002593961
 184236276, 0.0001054363, 0.003650625, -0.0001404534, 0.0002593961
 184336236, 2.248699E-05, 0.003600981, -0.0001272896, 0.0002593961
 184436196, -1.929067E-05, 0.003618752, -3.20425E-06, 0.0002593961
 184536156, 2.463008E-05, 0.003777697, -5.083674E-05, 0.0002593961
 184636116, -2.740629E-05, 0.003552858, 6.659347E-05, 0.0002593961
 184736076, -2.274243E-05, 0.003493515, -0.0001273432, 0.0002593961
 184836036, -9.765097E-05, 0.003477273, -2.89443E-06, 0.0002593961
 184935996, 8.4267E-05, 0.003455136, 0.0002546257, 0.0002593961
 185035956, 6.119013E-05, 0.003742107, -0.0001997804, 0.0002593961
 185135916, 2.961011E-05, 0.003770504, -0.0002941898, 0.0002593961
 185235876, -0.0001743625, 0.003708848, -0.0001097883, 0.0002593961
 185335836, -4.11293E-05, 0.003734461, 9.902089E-05, 0.0002593961
 185435796, -2.598145E-05, 0.003526802, 1.851413E-05, 0.0002593961
 185535756, -4.556595E-05, 0.003415504, -1.514542E-06, 0.0002593961
 185635716, 3.374848E-05, 0.003584286, -0.0004067748, 0.0002593961
 185735676, -6.647224E-06, 0.003792222, -0.0001248969, 0.0002593961
 185836469, 4.16102E-05, 0.003425135, -0.0001643636, 0.0002615578
 185936429, 0.0001886947, 0.003612748, -0.0001829572, 0.0002593961
 186036389, -9.594605E-05, 0.003502798, -0.0002647818, 0.0002593961
 186136349, 0.0001636934, 0.003459995, -2.295051E-06, 0.0002593961
 186236309, 9.915383E-05, 0.003540625, 1.941142E-05, 0.0002593961
 186336269, -1.09688E-05, 0.00376063, -6.546739E-05, 0.0002593961
 186436229, -0.0001177704, 0.003790071, -0.0002021278, 0.0002593961
 186536189, -0.0001138453, 0.003718644, -0.0002627204, 0.0002593961
 186636149, 0.0001536997, 0.00372458, -0.0001620252, 0.0002593961
 186736109, 0.0003816012, 0.003817824, -7.274457E-05, 0.0002593961
 186836069, -0.000121806, 0.00386968, 0.0001715343, 0.0002593961
 186936029, -7.359837E-05, 0.003527574, -0.0001039804, 0.0002593961
 187035989, 5.4645E-05, 0.003549589, -0.0001574029, 0.0002593961
 187135949, 7.293888E-05, 0.003666415, -6.323071E-05, 0.0002593961
 187235909, 6.684872E-06, 0.003620866, 3.471534E-05, 0.0002593961
 187335869, -1.545918E-05, 0.003699485, -7.452129E-05, 0.0002593961
 187435829, -1.397606E-05, 0.003768095, -8.613359E-05, 0.0002593961
 187535789, -5.212465E-05, 0.003606408, -0.0001053377, 0.0002593961
 187635749, -0.0001026371, 0.003620425, -0.0001604655, 0.0002593961
 187735709, -5.408825E-05, 0.003491185, 4.232739E-05, 0.0002593961
 187835669, 3.995828E-05, 0.003953685, -0.0001122693, 0.0002593961
 187936462, -3.164147E-05, 0.003530459, -3.340537E-05, 0.0002615578
 188036422, 0.0001819212, 0.003576167, 3.910765E-05, 0.0002593961
 188136382, 0.0001024736, 0.003742348, -3.567698E-05, 0.0002593961
 188236342, 0.0002004027, 0.003533106, 3.045294E-05, 0.0002593961
 188336302, -5.332325E-05, 0.003610149, 5.8214E-05, 0.0002593961
 188436262, 0.0001873401, 0.003748205, 6.777677E-05, 0.0002593961
 188536222, -6.624246E-05, 0.003558547, 5.852622E-05, 0.0002593961
 188636182, 5.060579E-06, 0.00353057, -0.0001399982, 0.0002593961
 188736142, -2.349108E-05, 0.003765351, -9.811757E-06, 0.0002593961
 188836102, -5.977016E-05, 0.003673242, 0.0001530821, 0.0002593961
 188936062, 0.0001032241, 0.003675898, -0.0002311985, 0.0002593961
 189036022, 4.16722E-05, 0.00348197, -3.721894E-05, 0.0002593961
 189135982, 0.000150938, 0.003557372, 0.000140538, 0.0002593961
 189235942, 1.488337E-05, 0.003590815, -0.0001434419, 0.0002593961
 189335902, 0.0001016517, 0.003542958, -0.0001616701, 0.0002593961
 189435862, 5.124779E-05, 0.003569962, 2.874178E-05, 0.0002593961
 189535822, 0.0001015013, 0.003615211, -6.106913E-05, 0.0002593961
 189635782, -6.621933E-05, 0.003531398, -0.0001643858, 0.0002593961
 189735742, 3.802442E-05, 0.003673, -0.0003443068, 0.0002593961
 189835702, 0.0001598445, 0.003591334, -0.0002232326, 0.0002593961
 189935662, 1.908595E-06, 0.003397004, -0.0002548044, 0.0002593961
 190036455, -0.0001258278, 0.003528816, -8.278514E-05, 0.0002615578
 190136415, 0.0001153215, 0.003633443, -0.0001146394, 0.0002593961
 190236375, 0.0001019169, 0.003454795, 1.49512E-05, 0.0002593961
 190336335, -1.595499E-05, 0.003624643, -2.062092E-05, 0.0002593961
 190436295, 0.0001302938, 0.003563109, -0.0001155081, 0.0002593961
 190536255, -5.605838E-05, 0.003729381, -0.0001113243, 0.0002593961
 190636215, 5.660725E-05, 0.003634758, 5.365489E-05, 0.0002593961
 190736175, -7.057906E-05, 0.003684336, -0.0001302079, 0.0002593961
 190836135, 8.143155E-05, 0.003682472, -4.726545E-05, 0.0002593961
 190936095, -0.0001232675, 0.003268687, -7.789594E-06, 0.0002593961
 191036055, -5.555649E-05, 0.003572933, -0.0002024544, 0.0002593961
 191136015, -0.0001403743, 0.003545974, -1.631442E-05, 0.0002593961
 191235975, 0.0002401801, 0.003528211, 4.370606E-05, 0.0002593961
 191335935, 9.500899E-05, 0.003595605, 7.030178E-05, 0.0002593961
 191435895, -0.0001767915, 0.00346903, -0.0002736606, 0.0002593961
 191535855, -2.503017E-05, 0.00356114, -0.0001793501, 0.0002593961
 191635815, -9.532367E-05, 0.003581221, -5.403263E-05, 0.0002593961
 191735775, 5.469893E-05, 0.003529557, 0.0001137159, 0.0002593961
 191835735, -6.235264E-05, 0.003578154, -1.313161E-05, 0.0002593961
 191935695, 9.917976E-05, 0.003548635, 9.551876E-05, 0.0002593961
 192035655, -3.211512E-05, 0.003707225, -3.495605E-05, 0.0002593961
 192136448, -9.052882E-05, 0.003620088, 1.34315E-05, 0.0002615578
 192236408, -5.495983E-05, 0.003540843, -0.0001837305, 0.0002593961
 192336368, 2.946026E-05, 0.00368659, -7.879204E-05, 0.0002593961
 192436328, 0.0001763797, 0.003678377, 5.279931E-05, 0.0002593961
 192536288, 2.865291E-05, 0.003600708, 0.0002322424, 0.0002593961
 192636248, -2.843367E-05, 0.00387767, -8.571176E-05, 0.0002593961
 192736208, -0.0002181371, 0.003601354, -0.0001818871, 0.0002593961
 192836168, -9.251691E-05, 0.003593225, 5.007171E-05, 0.0002593961
 192936128, 0.0001031628, 0.003782183, -1.950795E-05, 0.0002593961
 193036088, 5.684261E-05, 0.003648721, 8.776133E-05, 0.0002593961
 193136048, -0.0001867726, 0.003461154, -5.684008E-05, 0.0002593961
 193236008, 0.0001156414, 0.003535399, -9.016005E-05, 0.0002593961
 193335968, 4.508955E-05, 0.003781686, -0.0002092918, 0.0002593961
 193435928, 9.723664E-05, 0.003642764, -0.0001932563, 0.0002593961
 193535888, -9.500905E-06, 0.003577077, -0.0001417547, 0.0002593961
 193635848, -1.483719E-05, 0.00364116, -1.001195E-05, 0.0002593961
 193735808, -1.754332E-05, 0.003739383, -9.337265E-05, 0.0002593961
 193835768, -2.270597E-05, 0.003400387, 6.848694E-05, 0.0002593961
 193935728, 9.721179E-05, 0.00335251, -0.0001569787, 0.0002593961
 194035688, 1.445942E-05, 0.003573428, -0.0002135793, 0.0002593961
 194136481, -0.0002230397, 0.003706622, 5.181703E-05, 0.0002615578
 194236441, 0.0002011235, 0.003392332, -4.817108E-05, 0.0002593961
 194336401, 0.0001395739, 0.003566841, 0.0001593751, 0.0002593961
 194436361, 3.743954E-05, 0.003619459, -0.0001061218, 0.0002593961
 194536321, 3.083585E-05, 0.003749795, 5.489299E-05, 0.0002593961
 194636281, -1.155081E-05, 0.003598849, -8.341549E-05, 0.0002593961
 194736241, 0.0001584214, 0.003663967, -0.0001060896, 0.0002593961
 194836201, -9.043163E-05, 0.003459458, -0.0001342772, 0.0002593961
 194936161, -0.0001545993, 0.003573532, 5.520639E-05, 0.0002593961
 195036121, 8.973109E-05, 0.003607659, -9.155308E-05, 0.0002593961
 195136081, -2.947025E-06, 0.0034717, -0.0003279757, 0.0002593961
 195236041, -0.0002160591, 0.0035199, -4.450925E-05, 0.0002593961
 195336001, 0.0001533623, 0.003474273, -7.345005E-05, 0.0002593961
 195435961, 3.793877E-05, 0.0035996, -0.0001249326, 0.0002593961
 195535921, 7.828648E-05, 0.00359602, -0.0001356155, 0.0002593961
 195635881, 6.091272E-05, 0.00360298, 3.931837E-08, 0.0002593961
 195735841, 0.0002211099, 0.003346109, -0.0002256075, 0.0002593961
 195835801, 1.880941E-05, 0.003540959, 0.0001715641, 0.0002593961
 195935761, 0.0001861108, 0.003557847, -5.389203E-05, 0.0002593961
 196035721, 0.0001293972, 0.00358135, 7.806753E-05, 0.0002593961
 196135681, -2.211931E-05, 0.003443239, 2.216049E-05, 0.0002593961
 196236474, -0.0002535465, 0.003526992, -8.565692E-05, 0.0002615578
 196336434, 2.713221E-05, 0.003648592, -0.0001258954, 0.0002593961
 196436394, 0.0001280793, 0.003519183, -0.0001177388, 0.0002593961
 196536354, 6.714224E-05, 0.003458238, -2.871795E-05, 0.0002593961
 196636314, -0.0002011568, 0.003515264, -6.280415E-05, 0.0002593961
 196736274, -3.108812E-05, 0.003437825, -0.0001085454, 0.0002593961
 196836234, 4.178264E-05, 0.003277937, -2.926728E-05, 0.0002593961
 196936194, -0.0001881721, 0.003508817, -1.886805E-05, 0.0002593961
 197036154, -0.0001270481, 0.003374078, 6.429959E-05, 0.0002593961
 197136114, 2.01813E-05, 0.003720012, -6.971073E-05, 0.0002593961
 197236074, 0.0002725337, 0.003544749, -6.39886E-05, 0.0002593961
 197336034, 0.0001129962, 0.003517229, -8.559735E-05, 0.0002593961
 197435994, -7.523131E-05, 0.003600757, -0.0001007452, 0.0002593961
 197535954, -5.866656E-05, 0.003350582, -0.0001683658, 0.0002593961
 197635914, -1.037474E-05, 0.003553064, -0.0001710934, 0.0002593961
 197735874, 0.0002959101, 0.003617416, -0.0001133537, 0.0002593961
 197835834, 0.0001908914, 0.003659814, -0.0001475483, 0.0002593961
 197935794, 0.000192716, 0.003651972, -0.0001502533, 0.0002593961
 198035754, 0.0001631585, 0.003604374, -0.0002890193, 0.0002593961
 198135714, 4.333289E-05, 0.003746043, -4.008715E-05, 0.0002593961
 198235674, 0.0002293023, 0.003588161, 3.072105E-05, 0.0002593961
 198336467, -2.646232E-05, 0.003515488, -9.563632E-05, 0.0002615578
 198436427, -7.968071E-05, 0.00363583, -5.518374E-05, 0.0002593961
 198536387, -0.0001246235, 0.003614459, 4.699734E-06, 0.0002593961
 198636347, 6.616635E-05, 0.003503688, -0.0001359503, 0.0002593961
 198736307, 0.0001214816, 0.003475583, 0.0002196553, 0.0002593961
 198836267, 0.000148697, 0.003537259, -0.0001639318, 0.0002593961
 198936227, 0.0002267569, 0.003697814, -0.0001154926, 0.0002593961
 199036187, -8.63329E-05, 0.003857925, -2.429109E-05, 0.0002593961
 199136147, -7.448136E-05, 0.003376634, -0.0001217736, 0.0002593961
 199236107, -5.194616E-05, 0.003577628, 1.745003E-05, 0.0002593961
 199336067, -0.0001562533, 0.003419459, -8.842982E-06, 0.0002593961
 199436027, 0.0001999416, 0.003584426, -0.0001589485, 0.0002593961
 199535987, -8.139659E-05, 0.003542796, 1.500959E-05, 0.0002593961
 199635947, 8.953988E-05, 0.003367349, 8.446167E-06, 0.0002593961
 199735907, -3.469581E-06, 0.003599329, 1.018831E-05, 0.0002593961
 199835867, -0.0002413184, 0.003864058, -0.0001274302, 0.0002593961
 199935827, -0.000112553, 0.003515806, -5.149212E-05, 0.0002593961
 200035787, 0.0002019302, 0.00348033, 4.533146E-05, 0.0002593961
 200135747, -1.792883E-05, 0.003477145, 8.905303E-05, 0.0002593961
 200235707, 0.0002591552, 0.003431299, 0.0001060836, 0.0002593961
 200335667, -0.0001824806, 0.003493688, -0.0003626922, 0.0002593961
 200436460, 0.0001680166, 0.003537413, -0.0001824185, 0.0002615578
 200536420, -7.605286E-05, 0.003707019, -0.0001484051, 0.0002593961
 200636380, -0.0001825045, 0.003629629, -5.633483E-05, 0.0002593961
 200736340, 8.167532E-05, 0.003513169, 0.0001287339, 0.0002593961
 200836300, 9.686533E-05, 0.003425008, -7.699747E-05, 0.0002593961
 200936260, -5.860932E-05, 0.003523194, 8.732758E-05, 0.0002593961
 201036220, 0.0001750403, 0.003599353, 2.979636E-05, 0.0002593961
 201136180, -7.71327E-05, 0.003479187, -0.0001717059, 0.0002593961
 201236140, -5.989556E-05, 0.003363566, 1.576747E-05, 0.0002593961
 201336100, -0.0002184876, 0.003482427, 8.272913E-05, 0.0002593961
 201436060, -0.0001595163, 0.003552435, -8.289835E-05, 0.0002593961
 201536020, 5.505993E-05, 0.003471002, -8.775895E-05, 0.0002593961
 201635980, 6.251004E-05, 0.003368413, 0.0001628451, 0.0002593961
 201735940, -7.511151E-05, 0.003490404, -8.656854E-05, 0.0002593961
 201835900, -0.0001572756, 0.003571867, 3.813011E-08, 0.0002593961
 201935860, 1.627549E-05, 0.003585153, -7.956778E-05, 0.0002593961
 202035820, 0.0001610652, 0.003503028, -0.000131048, 0.0002593961
 202135780, 6.627837E-05, 0.003678222, 9.466676E-05, 0.0002593961
 202235740, -8.215861E-07, 0.003522924, -0.0002699618, 0.0002593961
 202335700, 0.0001906597, 0.00360662, -7.650296E-05, 0.0002593961
 202435660, -1.302599E-05, 0.003407555, -0.0001897244, 0.0002593961
 202536453, 0.0002306757, 0.003544848, -4.973884E-05, 0.0002615578
 202636413, 9.947323E-05, 0.003430013, 1.291832E-05, 0.0002593961
 202736373, 6.383286E-05, 0.003640827, -7.13492E-05, 0.0002593961
 202836333, 0.0001066629, 0.003477294, -7.54746E-05, 0.0002593961
 202936293, -3.875047E-05, 0.003513036, -0.0002264809, 0.0002593961
 203036253, 0.0001360403, 0.00371841, 7.559612E-05, 0.0002593961
 203136213, 8.038832E-05, 0.003548982, -8.582971E-05, 0.0002593961
 203236173, -0.0001705089, 0.003614933, -0.0002575046, 0.0002593961
 203336133, -6.556603E-05, 0.003590711, -0.0001397349, 0.0002593961
 203436093, 0.0001745827, 0.003329235, 4.307574E-05, 0.0002593961
 203536053, -0.0001819601, 0.003743416, 0.0001912866, 0.0002593961
 203636013, 0.0002500474, 0.003589553, 2.966051E-05, 0.0002593961
 203735973, 3.130191E-05, 0.00369878, -0.0001094726, 0.0002593961
 203835933, 7.854333E-06, 0.003705533, -1.848197E-05, 0.0002593961
 203935893, 0.0001473525, 0.003736207, -5.492517E-05, 0.0002593961
 204035853, 9.625513E-05, 0.0035043, -0.0001330725, 0.0002593961
 204135813, -1.647043E-05, 0.003516182, 2.331039E-05, 0.0002593961
 204235773, 9.417445E-05, 0.003660176, -0.0001558157, 0.0002593961
 204335733, 8.433712E-05, 0.003670423, -0.0002360889, 0.0002593961
 204435693, 1.600398E-05, 0.003471878, -7.735853E-05, 0.0002593961
 204536486, 1.819282E-05, 0.003515949, 8.783877E-05, 0.0002593961
 204636446, 4.243878E-05, 0.003547606, 0.0001507724, 0.0002615578
 204736406, 0.0001325301, 0.003386514, 0.0001362637, 0.0002593961
 204836366, 6.115023E-05, 0.003369731, 3.576517E-05, 0.0002593961
 204936326, 3.655423E-05, 0.003526035, -0.000113026, 0.0002593961
 205036286, -7.112906E-05, 0.003688766, -0.000270952, 0.0002593961
 205136246, -3.398686E-05, 0.00356863, -1.198766E-05, 0.0002593961
 205236206, 2.233406E-05, 0.003551885, -0.0001607645, 0.0002593961
 205336166, -3.44949E-05, 0.003413139, 4.799114E-05, 0.0002593961
 205436126, 0.0001191513, 0.003435892, 2.236423E-05, 0.0002593961
 205536086, 0.0002281443, 0.003697261, -0.0001439854, 0.0002593961
 205636046, 6.258515E-05, 0.003568856, -0.0001067855, 0.0002593961
 205736006, -3.899134E-05, 0.003425209, -9.591196E-05, 0.0002593961
 205835966, -9.952726E-05, 0.003733977, -3.676138E-06, 0.0002593961
 205935926, 0.000190963, 0.003518985, -0.0001268487, 0.0002593961
 206035886, -4.606971E-05, 0.003442841, -0.0002055991, 0.0002593961
 206135846, 0.0003093451, 0.003462543, -0.0001083036, 0.0002593961
 206235806, -7.416742E-05, 0.003476328, -2.887764E-05, 0.0002593961
 206335766, 0.0001243225, 0.003400413, 1.489758E-05, 0.0002593961
 206435726, 0.0001083452, 0.003433172, 4.719397E-05, 0.0002593961
 206535686, 5.944263E-05, 0.003437498, -0.0001002149, 0.0002593961
 206636479, 2.798403E-05, 0.003697536, 5.242833E-05, 0.0002615578
 206736439, 0.0001646497, 0.003588147, -5.363467E-06, 0.0002593961
 206836399, -0.0001333289, 0.003700927, 1.983325E-05, 0.0002593961
 206936359, -0.0001380939, 0.0032663, -5.254431E-05, 0.0002593961
 207036319, 9.986355E-05, 0.003663515, -0.0002537153, 0.0002593961
 207136279, 5.480353E-05, 0.003655916, -4.953545E-05, 0.0002593961
 207236239, 0.0001014055, 0.003391785, 2.724511E-05, 0.0002593961
 207336199, 1.548059E-05, 0.003438947, -3.224156E-05, 0.0002593961
 207436159, -0.0001295376, 0.003450363, 8.867529E-05, 0.0002593961
 207536119, 0.0001696531, 0.003368883, -0.0002490871, 0.0002593961
 207636079, 4.4102E-05, 0.003654175, 5.610605E-05, 0.0002593961
 207736039, -4.000015E-05, 0.003432082, -6.861318E-06, 0.0002593961
 207835999, 6.481098E-06, 0.003392571, 5.805554E-05, 0.0002593961
 207935959, 5.769083E-05, 0.003708221, -0.0001741309, 0.0002593961
 208035919, -0.0001427029, 0.003733805, 0.0001095703, 0.0002593961
 208135879, 3.011559E-05, 0.00349155, 7.445931E-05, 0.0002593961
 208235839, 0.0002120569, 0.003625471, -0.0001256774, 0.0002593961
 208335799, -0.0001540867, 0.00359072, 0.0002496662, 0.0002593961
 208435759, 1.155112E-05, 0.003539522, -8.777802E-05, 0.0002593961
 208535719, 0.0001158592, 0.003635556, -0.0001173885, 0.0002593961
 208635679, -2.133281E-05, 0.003662284, -0.0001380249, 0.0002593961
 208736472, -3.145035E-05, 0.003780265, 8.697205E-06, 0.0002615578
 208836432, 0.000163724, 0.003653188, -4.916847E-05, 0.0002593961
 208936392, 0.0001068807, 0.003646455, -0.000122485, 0.0002593961
 209036352, 0.0002201684, 0.003450873, 0.0002531624, 0.0002593961
 209136312, 0.0001361841, 0.003562338, -1.422075E-05, 0.0002593961
 209236272, 2.201853E-07, 0.003551601, 3.318413E-05, 0.0002593961
 209336232, 9.375789E-05, 0.003760888, -1.947458E-05, 0.0002593961
 209436192, -4.424963E-05, 0.003389929, -0.000101938, 0.0002593961
 209536152, -0.0002094545, 0.003485841, -4.071275E-05, 0.0002593961
 209636112, 2.563202E-05, 0.003580481, 0.0001298719, 0.0002593961
 209736072, -5.703182E-05, 0.003424487, -9.264696E-05, 0.0002593961
 209836032, -7.497205E-05, 0.003759633, 5.370019E-05, 0.0002593961
 209935992, 7.611117E-05, 0.003496713, 0.0001044988, 0.0002593961
 210035952, 8.65536E-05, 0.003636111, -3.301373E-05, 0.0002593961
 210135912, -0.0001481515, 0.003528957, 1.522529E-05, 0.0002593961
 210235872, -4.976999E-05, 0.003595992, 0.0001938521, 0.0002593961
 210335832, 4.699671E-05, 0.003604164, -0.0001424482, 0.0002593961
 210435792, 1.483536E-05, 0.003516466, 6.634084E-05, 0.0002593961
 210535752, -0.0001209813, 0.003217579, 3.247152E-06, 0.0002593961
 210635712, 7.771397E-05, 0.003407292, -3.933763E-05, 0.0002593961
 210735672, -0.0001102189, 0.003529154, 0.0001221514, 0.0002593961
 210836465, 3.270159E-05, 0.003710113, -5.51877E-06, 0.0002615578
 210936425, -6.590536E-05, 0.003638228, 2.382994E-05, 0.0002593961
 211036385, 0.0001899172, 0.003595512, -6.353689E-06, 0.0002593961
 211136345, -4.520537E-06, 0.003339604, -1.540045E-05, 0.0002593961
 211236305, -2.260258E-05, 0.003480896, -0.0002867517, 0.0002593961
 211336265, -0.0001694068, 0.003494478, -0.0002001951, 0.0002593961
 211436225, -9.585482E-05, 0.003689574, 1.38418E-05, 0.0002593961
 211536185, -3.936496E-05, 0.00341689, -0.0003950315, 0.0002593961
 211636145, -5.705464E-05, 0.003531979, -3.394795E-05, 0.0002593961
 211736105, -0.0001896824, 0.003502568, 4.365842E-05, 0.0002593961
 211836065, -0.0001751485, 0.003514445, -8.638381E-05, 0.0002593961
 211936025, 9.375579E-05, 0.003647357, 8.058661E-05, 0.0002593961
 212035985, 4.086372E-05, 0.003636298, -0.0001047657, 0.0002593961
 212135945, 8.793122E-05, 0.003365134, -6.247285E-05, 0.0002593961
 212235905, 1.229088E-06, 0.003586948, 0.0001745861, 0.0002593961
 212335865, -1.79264E-05, 0.003582537, 1.563639E-05, 0.0002593961
 212435825, 0.0001608792, 0.003319478, -0.0001393774, 0.0002593961
 212535785, -2.812891E-05, 0.003596139, 9.322967E-05, 0.0002593961
 212635745, 8.579248E-05, 0.00343049, -1.792191E-06, 0.0002593961
 212735705, -0.0001171523, 0.003439527, -5.72083E-05, 0.0002593961
 212835665, -0.0002112126, 0.00345107, -6.757059E-05, 0.0002593961
 212936458, 0.0001076582, 0.00347199, -0.0002081277, 0.0002615578
 213036418, -9.875387E-05, 0.003477396, -0.0002504562, 0.0002593961
 213136378, 0.0001484375, 0.003627458, 8.30175E-05, 0.0002593961
 213236338, -1.318609E-05, 0.003654971, 0.0001289019, 0.0002593961
 213336298, 3.118087E-05, 0.003496022, -2.450678E-05, 0.0002593961
 213436258, 1.746469E-05, 0.003545145, -6.128838E-05, 0.0002593961
 213536218, -1.183494E-05, 0.003554448, -6.172333E-05, 0.0002593961
 213636178, 2.771535E-05, 0.003376845, -0.0001751366, 0.0002593961
 213736138, -9.381506E-05, 0.003564868, -3.810311E-05, 0.0002593961
 213836098, 6.508682E-05, 0.003438112, -6.924361E-05, 0.0002593961
 213936058, 0.0001035415, 0.00360324, -7.030534E-05, 0.0002593961
 214036018, 0.0002229069, 0.003723752, 6.696524E-05, 0.0002593961
 214135978, 2.029752E-05, 0.003711158, -2.364404E-05, 0.0002593961
 214235938, 4.534328E-05, 0.003525026, -1.499053E-05, 0.0002593961
 214335898, 0.0004522112, 0.003512113, 8.401487E-05, 0.0002593961
 214435858, 8.914415E-05, 0.00355031, -3.282783E-05, 0.0002593961
 214535818, 0.0001533261, 0.003637591, -0.0001791607, 0.0002593961
 214635778, 6.822906E-05, 0.003635753, -8.968579E-05, 0.0002593961
 214735738, 4.199005E-05, 0.003792937, -1.171596E-05, 0.0002593961
 214835698, 0.0001044724, 0.003714942, -7.593811E-05, 0.0002593961
 214935658, 4.112018E-06, 0.003578842, -0.0003328803, 0.0002593961
 215036451, 7.265893E-05, 0.003568351, -0.0002003353, 0.0002615578
 215136411, -0.00011023, 0.003716665, -2.368218E-05, 0.0002593961
 215236371, -8.048611E-06, 0.003714501, -5.790061E-06, 0.0002593961
 215336331, -5.353193E-05, 0.003519392, -2.43327E-06, 0.0002593961
 215436291, 0.0001103498, 0.003296425, 1.963664E-05, 0.0002593961
 215536251, -4.041508E-05, 0.003594368, -8.560688E-05, 0.0002593961
 215636211, 1.230622E-05, 0.003487475, 2.63371E-05, 0.0002593961
 215736171, 0.0002620257, 0.003420991, -0.0001262756, 0.0002593961
 215836131, 0.0001568253, 0.003408585, 0.0001123766, 0.0002593961
 215936091, 0.0001178392, 0.003415506, -5.872999E-05, 0.0002593961
 216036051, 5.92907E-06, 0.003422588, -3.556963E-06, 0.0002593961
 216136011, -1.360396E-06, 0.003544389, -7.365617E-05, 0.0002593961
 216235971, 7.009652E-05, 0.003393848, 8.474178E-05, 0.0002593961
 216335931, 0.000224178, 0.00328422, -0.0002061198, 0.0002593961
 216435891, 0.0001208683, 0.003722471, -0.0001093129, 0.0002593961
 216535851, -8.135614E-05, 0.003453304, -0.00011052, 0.0002593961
 216635811, -9.974787E-05, 0.003459996, 8.840479E-05, 0.0002593961
 216735771, -0.0002365325, 0.003496731, -0.0002001403, 0.0002593961
 216835731, 3.851435E-05, 0.003366101, -0.0002565453, 0.0002593961
 216935691, 7.519646E-07, 0.003494983, -0.0002797307, 0.0002593961
 217036484, 6.677999E-05, 0.003474488, -0.0002456862, 0.0002615578
 217136444, 2.079672E-05, 0.003423735, -8.197603E-05, 0.0002593961
 217236404, 0.0001507523, 0.003538869, 0.0001663841, 0.0002593961
 217336364, 1.388655E-05, 0.003451167, 6.134918E-05, 0.0002593961
 217436324, 2.469317E-05, 0.00345903, -0.0002021028, 0.0002593961
 217536284, -0.0001990726, 0.003507862, 2.629539E-05, 0.0002593961
 217636244, -0.0001303872, 0.003453928, -0.0001187815, 0.0002593961
 217736204, -0.0001108462, 0.00369034, 9.225492E-05, 0.0002593961
 217836164, -0.0001537841, 0.003651906, -2.945913E-05, 0.0002593961
 217936124, 9.287291E-05, 0.003523782, -0.0001927236, 0.0002593961
 218036084, -7.691939E-05, 0.003556001, -2.967363E-05, 0.0002593961
 218136044, -4.872635E-05, 0.003505528, -1.947696E-05, 0.0002593961
 218236004, 5.278797E-05, 0.003460598, -7.249672E-05, 0.0002593961
 218335964, 2.613766E-05, 0.003696449, 2.524558E-05, 0.0002593961
 218435924, 0.0002016333, 0.003556772, -0.0001538519, 0.0002593961
 218535884, 3.000749E-05, 0.003522175, -0.0003278863, 0.0002593961
 218635844, -6.180104E-05, 0.003544712, -5.461179E-06, 0.0002593961
 218735804, 5.793454E-05, 0.003573203, -8.42103E-05, 0.0002593961
 218835764, 7.284441E-05, 0.003613387, -0.0001920122, 0.0002593961
 218935724, -4.777766E-05, 0.003676802, 2.60237E-05, 0.0002593961
 219035684, -4.710025E-05, 0.003573797, -0.0001663508, 0.0002593961
 219136477, 0.0002094071, 0.003919111, -0.0001559436, 0.0002615578
 219236437, 7.095416E-05, 0.003611703, -7.149578E-05, 0.0002593961
 219336397, 5.516084E-05, 0.003480089, 0.0001203985, 0.0002593961
 219436357, 0.0002154912, 0.003588726, -0.0001544573, 0.0002593961
 219536317, 3.731779E-05, 0.003491473, -0.0003657261, 0.0002593961
 219636277, -6.028887E-05, 0.003430286, 5.219038E-05, 0.0002593961
 219736237, -5.238629E-06, 0.003687796, -0.0001472956, 0.0002593961
 219836197, 0.0001079994, 0.003554362, -1.791714E-05, 0.0002593961
 219936157, -1.477583E-05, 0.003487988, -0.000202004, 0.0002593961
 220036117, 5.578089E-05, 0.00367425, 1.040045E-05, 0.0002593961
 220136077, 0.0001149213, 0.003584955, -0.0001478009, 0.0002593961
 220236037, 8.499115E-06, 0.003236649, -4.389318E-05, 0.0002593961
 220335997, -7.180106E-05, 0.003515751, 3.117387E-05, 0.0002593961
 220435957, 5.096786E-05, 0.003618639, -1.637042E-05, 0.0002593961
 220535917, -2.348342E-05, 0.003500262, -3.946275E-05, 0.0002593961
 220635877, -6.933765E-05, 0.003775812, -7.914595E-05, 0.0002593961
 220735837, 6.456084E-05, 0.003523305, 0.0001203187, 0.0002593961
 220835797, -0.0001652508, 0.003773373, -2.511927E-05, 0.0002593961
 220935757, 5.964482E-05, 0.003630851, -0.0002521304, 0.0002593961
 221035717, 4.54357E-05, 0.003551663, 5.61275E-05, 0.0002593961
 221135677, 0.0002398263, 0.003529524, -1.955679E-05, 0.0002593961
 221236470, -1.907581E-05, 0.003502153, -0.0002883858, 0.0002615578
 221336430, -7.229866E-05, 0.003563307, -0.0002594792, 0.0002593961
 221436390, 0.0001020684, 0.003643295, -9.941772E-05, 0.0002593961
 221536350, 8.31727E-05, 0.003557718, 8.676395E-05, 0.0002593961
 221636310, 0.0001980255, 0.003471336, -0.0001636553, 0.0002593961
 221736270, 0.0001058692, 0.00353191, -0.07901918, 0.0002593961
 221836230, 0.0002939686, 0.003937528, -0.1858535, 0.0002593961
 221936190, 0.0001035015, 0.003697515, -0.04895107, 0.0002593961
 222036150, -4.008695E-05, 0.00353385, 0.03930613, 0.0002593961
 222136110, -6.78E-05, 0.003477104, 0.05653406, 0.0002593961
 222236070, -9.630335E-05, 0.003476168, 0.03376938, 0.0002593961
 222336030, -0.0001323111, 0.003457102, -0.4567007, 0.0002593961
 222435990, -0.0019645, 0.001298029, -0.7120165, 0.0002593961
 222535950, -0.004825576, -0.001662218, -0.4844341, 0.0002593961
 222635910, -0.006561921, -0.003819581, -0.2069921, 0.0002593961
 222735870, -0.007292299, -0.004620081, -0.06736752, 0.0002593961
 222835830, -0.007367662, -0.004512663, -0.05444038, 0.0002593961
 222935790, -0.007222672, -0.004332213, -0.09073015, 0.0002593961
 223035750, -0.006773984, -0.003612051, -0.1193682, 0.0002593961
 223135710, -0.006220463, -0.003094293, -0.1239478, 0.0002593961
 223235670, -0.005903055, -0.002389017, -0.1133394, 0.0002593961
 223336463, -0.005465241, -0.001762714, -0.1001194, 0.0002615578
 223436423, -0.00505714, -0.001134298, -0.08874716, 0.0002593961
 223536383, -0.004565588, -0.0004535524, -0.08248024, 0.0002593961
 223636343, -0.00442404, 0.000196921, -0.07805981, 0.0002593961
 223736303, -0.003980634, 0.0007881052, -0.07413695, 0.0002593961
 223836263, -0.003798855, 0.001278217, -0.06983952, 0.0002593961
 223936223, -0.003525685, 0.001513338, -0.06529853, 0.0002593961
 224036183, -0.003258357, 0.001687439, -0.06113803, 0.0002593961
 224136143, -0.002887191, 0.00189633, -0.05714412, 0.0002593961
 224236103, -0.002572614, 0.002041852, -0.05346447, 0.0002593961
 224336063, -0.002219488, 0.002119011, -0.05025338, 0.0002593961
 224436023, -0.001937752, 0.002393947, -0.04698259, 0.0002593961
 224535983, -0.001666906, 0.002451596, -0.04407405, 0.0002593961
 224635943, -0.001204892, 0.002590304, -0.04143955, 0.0002593961
 224735903, -0.0008286865, 0.002709066, -0.03844889, 0.0002593961
 224835863, -0.0008391025, 0.00277208, -0.03558508, 0.0002593961
 224935823, -0.0007482972, 0.002844252, -0.03331207, 0.0002593961
 225035783, -0.0008563104, 0.002964888, -0.03143024, 0.0002593961
 225135743, -0.0007053121, 0.002813273, -0.02963703, 0.0002593961
 225235703, -0.0007681372, 0.002653246, -0.02803456, 0.0002593961
 225335663, -0.0007815958, 0.002585097, -0.02624505, 0.0002593961
 225436456, -0.0008477768, 0.002274465, -0.02490378, 0.0002615578
 225536416, -0.0008422604, 0.002293668, 0.002127956, 0.0002593961
 225636376, 0.0004770273, 0.003660176, 0.2913428, 0.0002593961
 225736336, 0.0005318211, 0.003388655, 0.2705727, 0.0002593961
 225836296, 0.0006411012, 0.003152284, 0.2524862, 0.0002593961
 225936256, 0.0004918387, 0.002761398, 0.2362935, 0.0002593961
 226036216, 0.000356387, 0.002707268, 0.2209938, 0.0002593961
 226136176, 0.0004827448, 0.002636893, 0.2063766, 0.0002593961
 226236136, 0.0002445898, 0.002412086, 0.1652378, 0.0002593961
 226336096, -0.002275974, 0.002618732, 0.154839, 0.0002593961
 226436056, -0.007253587, 0.003817987, 0.1397755, 0.0002593961
 226536016, -0.01166441, 0.006617173, 0.1254734, 0.0002593961
 226635976, -0.01280095, 0.01128893, 0.1130783, 0.0002593961
 226735936, -0.007662856, 0.018594, 0.09390094, 0.0002593961
 226835896, 0.01016766, 0.03146544, 0.07824385, 0.0002593961
 226935856, 0.04016871, 0.0495639, 0.06659065, 0.0002593961
 227035816, 0.07490277, 0.06933951, 0.0572219, 0.0002593961
 227135776, 0.1045702, 0.08541506, 0.0502703, 0.0002593961
 227235736, 0.1222862, 0.09298667, 0.04423904, 0.0002593961
 227335696, 0.1280778, 0.08856936, 0.03746393, 0.0002593961
 227435656, 0.124074, 0.07278451, 0.03054979, 0.0002593961
 227536449, 0.1135024, 0.05355205, 0.02479407, 0.0002615578
 227636409, 0.0980766, 0.03715393, 0.01768529, 0.0002593961
 227736369, 0.08587123, 0.02919358, 0.01089345, 0.0002593961
 227836329, 0.07916733, 0.02885053, 0.004498647, 0.0002593961
 227936289, 0.07893462, 0.03418132, -0.001383478, 0.0002593961
 228036249, 0.08241906, 0.04503778, -0.005227845, 0.0002593961
 228136209, 0.0866788, 0.05796549, -0.01078653, 0.0002593961
 228236169, 0.091041, 0.06746033, -0.01972959, 0.0002593961
 228336129, 0.09384939, 0.06903747, -0.02858782, 0.0002593961
 228436089, 0.09626186, 0.06231657, -0.03692589, 0.0002593961
 228536049, 0.09790722, 0.05329726, -0.04250773, 0.0002593961
 228636009, 0.09938885, 0.04661459, -0.04616848, 0.0002593961
 228735969, 0.1000983, 0.04125131, -0.04870054, 0.0002593961
 228835929, 0.1012112, 0.03522912, -0.05061017, 0.0002593961
 228935889, 0.104128, 0.02812075, -0.05170951, 0.0002593961
 229035849, 0.1088046, 0.02062809, -0.0516601, 0.0002593961
 229135809, 0.1137829, 0.01422031, -0.04915581, 0.0002593961
 229235769, 0.1168368, 0.009855632, -0.04584247, 0.0002593961
 229335729, 0.1149979, 0.006830154, -0.0428895, 0.0002593961
 229435689, 0.1072967, 0.004668414, -0.04027356, 0.0002593961
 229536482, 0.09575122, 0.005522809, -0.03791816, 0.0002615578
 229636442, 0.08080461, 0.01043253, -0.03441647, 0.0002593961
 229736402, 0.07024853, 0.01616001, -0.03047061, 0.0002593961
 229836362, 0.06918982, 0.01702546, -0.02535534, 0.0002593961
 229936322, 0.07634076, 0.01053816, -0.02104602, 0.0002593961
 230036282, 0.0854562, 0.0004243782, -0.01928945, 0.0002593961
 230136242, 0.09009555, -0.005931115, -0.01862564, 0.0002593961
 230236202, 0.08632265, -0.003981661, -0.01853477, 0.0002593961
 230336162, 0.07623394, 0.004943745, -0.01808134, 0.0002593961
 230436122, 0.06346655, 0.01763467, -0.01729699, 0.0002593961
 230536082, 0.0529995, 0.03126059, -0.01546614, 0.0002593961
 230636042, 0.04811959, 0.04325556, -0.0130443, 0.0002593961
 230736002, 0.04567099, 0.05177265, -0.005922606, 0.0002593961
 230835962, 0.04009618, 0.05561041, 0.01140361, 0.0002593961
 230935922, 0.03138378, 0.05516135, 0.01651589, 0.0002593961
 231035882, 0.01865449, 0.05055046, 0.01996792, 0.0002593961
 231135842, 0.005953729, 0.04462867, 0.02188933, 0.0002593961
 231235802, -0.003201794, 0.03984198, 0.02251372, 0.0002593961
 231335762, -0.007089742, 0.03574569, 0.02246843, 0.0002593961
 231435722, -0.006721045, 0.03146212, 0.02318458, 0.0002593961
 231535682, -0.002297135, 0.02444535, 0.02283993, 0.0002593961
 231636475, 0.005320543, 0.01458798, 0.0193228, 0.0002615578
 231736435, 0.0116293, 0.005090935, 0.01537748, 0.0002593961
 231836395, 0.01517752, -0.001052031, 0.009228624, 0.0002593961
 231936355, 0.01443307, -0.002775018, 0.003902222, 0.0002593961
 232036315, 0.009761677, -0.000946901, 0.002170993, 0.0002593961
 232136275, 0.002576051, 0.005340647, 0.001146038, 0.0002593961
 232236235, -0.005769404, 0.0144777, 0.005144789, 0.0002593961
 232336195, -0.01187343, 0.02414426, 0.008576717, 0.0002593961
 232436155, -0.01347011, 0.0318664, 0.006564467, 0.0002593961
 232536115, -0.01297483, 0.0366901, 0.003925746, 0.0002593961
 232636075, -0.0134153, 0.03874949, 0.005710012, 0.0002593961
 232736035, -0.01273287, 0.03604687, 0.006676007, 0.0002593961
 232835995, -0.009991882, 0.0290985, 0.005792114, 0.0002593961
 232935955, -0.006304277, 0.01931685, 0.005279657, 0.0002593961
 233035915, -0.002157149, 0.009925358, 0.002279655, 0.0002593961
 233135875, 0.002199414, 0.0003743537, -0.0002907257, 0.0002593961
 233235835, 0.005350268, -0.008795209, 0.0005056348, 0.0002593961
 233335795, 0.006949005, -0.01515573, 0.001789269, 0.0002593961
 233435755, 0.007697737, -0.01676472, -0.0003672776, 0.0002593961
 233535715, 0.007016234, -0.01445226, -0.002087336, 0.0002593961
 233635675, 0.004915409, -0.01045618, -0.001762525, 0.0002593961
 233736468, 0.003109221, -0.006781982, -0.001589816, 0.0002615578
 233836428, -0.001149904, -0.006540138, 0.01474951, 0.0002593961
 233936388, 0.000532655, -0.009282891, 0.0128042, 0.0002593961
 234036348, 0.005830318, -0.01583339, 0.005445732, 0.0002593961
 234136308, 0.01040887, -0.02288738, 0.002098372, 0.0002593961
 234236268, 0.01347371, -0.02623024, -0.002957337, 0.0002593961
 234336228, 0.01365181, -0.02555275, -0.006322043, 0.0002593961
 234436188, 0.0109728, -0.02168713, -0.006232058, 0.0002593961
 234536148, 0.006853029, -0.0157428, -0.005215507, 0.0002593961
 234636108, 0.00299274, -0.008887547, -0.002541676, 0.0002593961
 234736068, -0.0007448026, -0.0001401078, -6.48108E-05, 0.0002593961
 234836028, -0.004774546, 0.01019784, 0.002973323, 0.0002593961
 234935988, -0.007827717, 0.01955655, 0.004686458, 0.0002593961
 235035948, -0.01001855, 0.02519378, 0.007107314, 0.0002593961
 235135908, -0.01057421, 0.02675057, 0.0079164, 0.0002593961
 235235868, -0.009524196, 0.02433985, 0.008761715, 0.0002593961
 235335828, -0.007369723, 0.01852208, 0.008500699, 0.0002593961
 235435788, -0.00309806, 0.01108939, 0.003100804, 0.0002593961
 235535748, -2.302612E-05, 0.005372153, -0.001590038, 0.0002593961
 235635708, 0.0005950144, 0.003166804, -0.005463729, 0.0002593961
 235735668, -0.005300255, -0.0005267595, 0.01635867, 0.0002593961
 235836461, -0.02051131, -0.009890022, 0.0563453, 0.0002615578
 235936421, -0.03963007, -0.02227367, 0.07381795, 0.0002593961
 236036381, -0.06081172, -0.03576151, 0.08868493, 0.0002593961
 236136341, -0.07180844, -0.04882081, 0.1022676, 0.0002593961
 236236301, -0.06296074, -0.06244202, 0.1142342, 0.0002593961
 236336261, -0.04163474, -0.07296648, 0.1240605, 0.0002593961
 236436221, -0.0176144, -0.07795984, 0.1249919, 0.0002593961
 236536181, 0.00245475, -0.07933921, 0.120445, 0.0002593961
 236636141, 0.01597065, -0.07918836, 0.1122154, 0.0002593961
 236736101, 0.02318796, -0.07719221, 0.1023508, 0.0002593961
 236836061, 0.02626132, -0.07319568, 0.09157565, 0.0002593961
 236936021, 0.02714494, -0.06641479, 0.08060178, 0.0002593961
 237035981, 0.02773499, -0.05716385, 0.07053379, 0.0002593961
 237135941, 0.02912661, -0.04884334, 0.06082173, 0.0002593961
 237235901, 0.03157568, -0.04273385, 0.0516558, 0.0002593961
 237335861, 0.03449183, -0.03885204, 0.04342153, 0.0002593961
 237435821, 0.03649303, -0.03641545, 0.03585114, 0.0002593961
 237535781, 0.03805876, -0.03418795, 0.02924457, 0.0002593961
 237635741, 0.03964914, -0.03172912, 0.02355402, 0.0002593961
 237735701, 0.04091787, -0.03004981, 0.01878663, 0.0002593961
 237835661, 0.04269448, -0.0300479, 0.01470528, 0.0002593961
 237936454, 0.04427471, -0.03464019, 0.01161756, 0.0002615578
 238036414, 0.0440931, -0.04234348, 0.008873397, 0.0002593961
 238136374, 0.04277908, -0.04839627, 0.006762323, 0.0002593961
 238236334, 0.040445, -0.04836626, 0.004563887, 0.0002593961
 238336294, 0.03759108, -0.04289542, 0.003083693, 0.0002593961
 238436254, 0.03457826, -0.03454838, 0.002306348, 0.0002593961
 238536214, 0.03211758, -0.02672374, 0.001818938, 0.0002593961
 238636174, 0.03008183, -0.02090355, 0.001316978, 0.0002593961
 238736134, 0.02845503, -0.01758154, 0.00126305, 0.0002593961
 238836094, 0.02668604, -0.01536779, 0.001148176, 0.0002593961
 238936054, 0.02493335, -0.01385732, 0.001135584, 0.0002593961
 239036014, 0.02303866, -0.01300541, 0.00120752, 0.0002593961
 239135974, 0.02112339, -0.01145351, 0.001347919, 0.0002593961
 239235934, 0.02023095, -0.009511542, 0.0009005425, 0.0002593961
 239335894, 0.01980546, -0.007544099, 0.00155502, 0.0002593961
 239435854, 0.02060111, -0.006174756, 0.001526024, 0.0002593961
 239535814, 0.02104812, -0.005692298, 0.00147247, 0.0002593961
 239635774, 0.02037561, -0.005388467, 0.0009136106, 0.0002593961
 239735734, 0.01697069, -0.005641965, 9.465482E-05, 0.0002593961
 239835694, 0.01159762, -0.006687341, -0.0005972058, 0.0002593961
 239935654, 0.006235316, -0.008748417, -0.0005056385, 0.0002593961
 240036447, 0.003729897, -0.01097501, -0.000586507, 0.0002615578
 240136407, 0.004725878, -0.01139893, -4.731193E-05, 0.0002593961
 240236367, 0.008721258, -0.009072034, 0.0004992109, 0.0002593961
 240336327, 0.01455593, -0.004910457, 0.0009514172, 0.0002593961
 240436287, 0.02095804, -0.001069328, 0.001246845, 0.0002593961
 240536247, 0.02543728, 0.001439747, 0.0009975459, 0.0002593961
 240636207, 0.02703937, 0.002445332, 0.0006626719, 0.0002593961
 240736167, 0.02559995, 0.00050349, -8.589406E-05, 0.0002593961
 240836127, 0.02193508, -0.004686163, -0.0003877792, 0.0002593961
 240936087, 0.01760616, -0.009877492, -0.0006271143, 0.0002593961
 241036047, 0.01426129, -0.01367598, -0.0006695822, 0.0002593961
 241136007, 0.01142402, -0.01527611, -0.0001401472, 0.0002593961
 241235967, 0.009732744, -0.01454474, -0.0004366105, 0.0002593961
 241335927, 0.00948164, -0.01046593, -0.0002748832, 0.0002593961
 241435887, 0.01091986, -0.003870774, 0.0001446789, 0.0002593961
 241535847, 0.01224348, 0.003922343, 0.0002931948, 0.0002593961
 241635807, 0.01236808, 0.01023896, 0.0002079716, 0.0002593961
 241735767, 0.01071952, 0.01528315, -9.583692E-05, 0.0002593961
 241835727, 0.007935553, 0.01803987, -0.0005787047, 0.0002593961
 241935687, 0.004295015, 0.01811542, -0.0004670932, 0.0002593961
 242036480, 0.000839175, 0.0158751, -0.0004370356, 0.0002615578
 242136440, -0.00105261, 0.01266101, -0.0002065035, 0.0002593961
 242236400, -0.001337258, 0.01001661, 0.0003897133, 0.0002593961
 242336360, 0.0006006666, 0.008030171, 0.0006664827, 0.0002593961
 242436320, 0.0038395, 0.005912947, 0.0008772999, 0.0002593961
 242536280, 0.005530418, 0.003374483, 0.0006021045, 0.0002593961
 242636240, 0.004452426, 0.0005424719, -0.0004005129, 0.0002593961
 242736200, 0.00142756, -0.0004863725, -0.0005632853, 0.0002593961
 242836160, -0.001675678, 0.00222225, -0.000817868, 0.0002593961
 242936120, -0.004112551, 0.006752534, -0.0003755067, 0.0002593961
 243036080, -0.004509543, 0.0110441, -0.0003231853, 0.0002593961
 243136040, -0.004157656, 0.01423344, 6.866449E-05, 0.0002593961
 243236000, -0.003362102, 0.01617776, -0.0003570773, 0.0002593961
 243335960, -0.004208271, 0.01656159, -0.0007074542, 0.0002593961
 243435920, -0.006820357, 0.01593159, -0.0007568955, 0.0002593961
 243535880, -0.00935309, 0.01242526, -0.001083727, 0.0002593961
 243635840, -0.009513437, 0.006424135, -0.0002854826, 0.0002593961
 243735800, -0.00848283, 0.00161769, -0.0003030982, 0.0002593961
 243835760, -0.007479258, 0.0006051515, -4.162196E-05, 0.0002593961
 243935720, -0.008174525, 0.002110389, 0.0003551278, 0.0002593961
 244035680, -0.00994294, 0.005245772, -0.0004499042, 0.0002593961
 244136473, -0.01117651, 0.009551091, -0.0002913517, 0.0002615578
 244236433, -0.009779566, 0.01414466, 0.0004225232, 0.0002593961
 244336393, -0.007189082, 0.01671742, 0.0008065393, 0.0002593961
 244436353, -0.004109146, 0.01636312, 0.0007614546, 0.0002593961
 244536313, -0.001992371, 0.01510053, -4.808649E-05, 0.0002593961
 244636273, -0.001487264, 0.01530765, -1.031701E-05, 0.0002593961
 244736233, -0.00227191, 0.01567016, -0.0002391621, 0.0002593961
 244836193, -0.003325842, 0.01574723, -0.0006215946, 0.0002593961
 244936153, -0.004448005, 0.014472, -0.0006096783, 0.0002593961
 245036113, -0.00451207, 0.01160814, -0.0007293262, 0.0002593961
 245136073, -0.004782028, 0.00795217, -0.0006512813, 0.0002593961
 245236033, -0.005334216, 0.004137979, -0.0006042637, 0.0002593961
 245335993, -0.005685081, -0.0002089772, -0.0007412507, 0.0002593961
 245435953, -0.005717314, -0.004802219, -0.0007148577, 0.0002593961
 245535913, -0.005112505, -0.01041681, -0.0002935308, 0.0002593961
 245635873, -0.003671518, -0.01645649, 0.0001355857, 0.0002593961
 245735833, -0.001481644, -0.01981022, 0.0002163415, 0.0002593961
 245835793, 0.0001410787, -0.01880178, -3.092721E-05, 0.0002593961
 245935753, 0.0009261348, -0.01446033, -0.0001672886, 0.0002593961
 246035713, 0.0005528497, -0.009099307, -0.0001288351, 0.0002593961
 246135673, 0.00102545, -0.003794175, -0.0001695395, 0.0002593961
 246236466, 0.002210917, 0.00073557, 1.855508E-05, 0.0002615578
 246336426, 0.002780129, 0.002491195, -0.0003458594, 0.0002593961
 246436386, 0.003267596, 0.0009660496, -7.817001E-05, 0.0002593961
 246536346, 0.004520484, -0.002054771, 3.595821E-05, 0.0002593961
 246636306, 0.006939974, -0.004956775, 0.0002312784, 0.0002593961
 246736266, 0.009482448, -0.004291784, 0.0005294589, 0.0002593961
 246836226, 0.01147553, 0.000308364, -1.614641E-06, 0.0002593961
 246936186, 0.01135935, 0.006985168, -1.467597E-05, 0.0002593961
 247036146, 0.009226734, 0.01231525, -0.0005141835, 0.0002593961
 247136106, 0.006277917, 0.01288701, -0.0006214338, 0.0002593961
 247236066, 0.003340835, 0.007657344, -0.0006141672, 0.0002593961
 247336026, 0.001025648, 4.063239E-05, -0.0003631617, 0.0002593961
 247435986, 0.0002701176, -0.00688077, -1.289089E-05, 0.0002593961
 247535946, 0.0008524617, -0.01249047, 0.0002293682, 0.0002593961
 247635906, 0.001769693, -0.01629295, 0.00051326, 0.0002593961
 247735866, 0.002338992, -0.01526061, 0.000373879, 0.0002593961
 247835826, 0.001263306, -0.008895939, -5.314964E-05, 0.0002593961
 247935786, -0.0007674218, 0.0007256885, -0.0003982333, 0.0002593961
 248035746, -0.002753302, 0.01069713, -0.0003339611, 0.0002593961
 248135706, -0.00384451, 0.01747882, -0.0002396983, 0.0002593961
 248235666, -0.003809728, 0.02023363, -0.0002491586, 0.0002593961
 248336459, -0.003877287, 0.02159719, -0.0001111897, 0.0002615578
 248436419, -0.004906649, 0.02297337, -0.000245032, 0.0002593961
 248536379, -0.007124603, 0.02224914, -0.0003761956, 0.0002593961
 248636339, -0.01015404, 0.01776484, -0.0005003762, 0.0002593961
 248736299, -0.01156252, 0.01305892, -0.0003510477, 0.0002593961
 248836259, -0.0100235, 0.01095282, 0.000425277, 0.0002593961
 248936219, -0.00543288, 0.01108719, 0.000685327, 0.0002593961
 249036179, 0.0003979412, 0.01135146, 0.001131832, 0.0002593961
 249136139, 0.005112243, 0.0115502, 0.0007955622, 0.0002593961
 249236099, 0.007621416, 0.01103878, 0.0005287653, 0.0002593961
 249336059, 0.007097599, 0.009409191, -0.0001986662, 0.0002593961
 249436019, 0.004680349, 0.006943578, -0.0008188726, 0.0002593961
 249535979, 0.0003172127, 0.006473789, -0.001114933, 0.0002593961
 249635939, -0.004772755, 0.008782925, -0.001328537, 0.0002593961
 249735899, -0.008809702, 0.01248832, -0.001184706, 0.0002593961
 249835859, -0.01087561, 0.01610717, -0.0004989785, 0.0002593961
 249935819, -0.01156507, 0.02012556, -0.0005548499, 0.0002593961
 250035779, -0.01214885, 0.02434638, -0.0002269218, 0.0002593961
 250135739, -0.01267652, 0.02631206, -0.000434636, 0.0002593961
 250235699, -0.01284608, 0.02388727, -3.917081E-05, 0.0002593961
 250335659, -0.0121073, 0.01955313, -0.0002764597, 0.0002593961
 250436452, -0.01039248, 0.01569652, 0.000406604, 0.0002615578
 250536412, -0.007774162, 0.01342826, 0.0003107723, 0.0002593961
 250636372, -0.0050267, 0.012323, 0.0008839383, 0.0002593961
 250736332, -0.002563623, 0.009035077, 0.0006118306, 0.0002593961
 250836292, -0.001424448, 0.001727756, 0.000446122, 0.0002593961
 250936252, -0.0009546243, -0.008300171, -4.499423E-05, 0.0002593961
 251036212, -0.001431332, -0.01811991, -2.788454E-07, 0.0002593961
 251136172, -0.002342114, -0.02313233, -0.0001523636, 0.0002593961
 251236132, -0.00416402, -0.02159676, -0.0004725949, 0.0002593961
 251336092, -0.004901609, -0.01489217, -0.0003842962, 0.0002593961
 251436052, -0.003348714, -0.006419911, -0.0001746158, 0.0002593961
 251536012, -0.0003979898, -0.001046025, 0.0001796683, 0.0002593961
 251635972, 0.002464574, -0.001496261, 0.0002470078, 0.0002593961
 251735932, 0.003731973, -0.004187346, 0.0005375869, 0.0002593961
 251835892, 0.003649977, -0.006093224, -0.0001601723, 0.0002593961
 251935852, 0.002295587, -0.00551094, -0.0007292249, 0.0002593961
 252035812, 0.001556615, -0.003020545, -0.0004418679, 0.0002593961
 252135772, 0.000297964, -0.0004174192, -0.0003269866, 0.0002593961
 252235732, -0.001526803, 0.0002651505, -8.449273E-05, 0.0002593961
 252335692, -0.003834964, -0.002853314, -0.0003269199, 0.0002593961
 252436485, -0.005497781, -0.008492398, -0.0001453085, 0.0002615578
 252536445, -0.006368433, -0.0135598, 0.0003297702, 0.0002593961
 252636405, -0.005688628, -0.01506869, 0.0002175795, 0.0002593961
 252736365, -0.004324735, -0.01244857, 0.0006116541, 0.0002593961
 252836325, -0.003609158, -0.006828933, 6.151956E-05, 0.0002593961
 252936285, -0.004492941, -0.0009043372, -0.0003055446, 0.0002593961
 253036245, -0.006992965, 0.003292558, -0.0007125149, 0.0002593961
 253136205, -0.01088276, 0.003118032, -0.001373077, 0.0002593961
 253236165, -0.01515366, -0.001565133, -0.0008727992, 0.0002593961
 253336125, -0.01718807, -0.008703867, -0.0003681212, 0.0002593961
 253436085, -0.0164674, -0.01480826, 0.000116664, 0.0002593961
 253536045, -0.01334875, -0.01579472, 0.0004501175, 0.0002593961
 253636005, -0.009252854, -0.009955068, 0.0006102505, 0.0002593961
 253735965, -0.005448233, -0.0009406087, 0.0002327833, 0.0002593961
 253835925, -0.003110273, 0.007275383, -0.0001557371, 0.0002593961
 253935885, -0.002295208, 0.0138196, -0.0005121566, 0.0002593961
 254035845, -0.002380814, 0.01839771, -0.0007359873, 0.0002593961
 254135805, -0.002891156, 0.02073341, -0.0004973937, 0.0002593961
 254235765, -0.003167254, 0.02139154, -0.0007465641, 0.0002593961
 254335725, -0.002919885, 0.0194409, -0.0007874556, 0.0002593961
 254435685, -0.002097314, 0.01650691, -0.0005507089, 0.0002593961
 254536478, 0.0004159526, 0.01325136, -0.0007382156, 0.0002615578
 254636438, 0.003831763, 0.009935294, 0.000367355, 0.0002593961
 254736398, 0.007207314, 0.007168723, 0.0004757587, 0.0002593961
 254836358, 0.008667264, 0.005581304, 6.092375E-05, 0.0002593961
 254936318, 0.008837976, 0.005247366, -0.0003714422, 0.0002593961
 255036278, 0.007630042, 0.0058231, -0.0001948435, 0.0002593961
 255136238, 0.006640941, 0.008172593, -0.0002299581, 0.0002593961
 255236198, 0.006173479, 0.01230905, -0.0002551202, 0.0002593961
 255336158, 0.004548515, 0.01480994, -7.747889E-05, 0.0002593961
 255436118, 0.001291113, 0.01370361, -0.0007869289, 0.0002593961
 255536078, -0.002836521, 0.008931498, -0.0004623292, 0.0002593961
 255636038, -0.00591025, 0.002795368, -0.0003582284, 0.0002593961
 255735998, -0.006441837, -0.001951158, 0.0001789021, 0.0002593961
 255835958, -0.003869974, -0.003432877, 0.0002002987, 0.0002593961
 255935918, -0.0001475896, -0.001348969, 0.0009814007, 0.0002593961
 256035878, 0.003209507, 0.002550157, 0.0007054688, 0.0002593961
 256135838, 0.005131965, 0.006567514, 0.0001635624, 0.0002593961
 256235798, 0.005531198, 0.009372417, 7.273864E-05, 0.0002593961
 256335758, 0.004878564, 0.007977214, 7.648865E-05, 0.0002593961
 256435718, 0.004271897, 0.001826046, -0.0001563662, 0.0002593961
 256535678, 0.00424057, -0.004432702, -4.224994E-05, 0.0002593961
 256636471, 0.004154332, -0.006810352, 2.158969E-05, 0.0002615578
 256736431, 0.00403337, -0.00371357, -0.0001521634, 0.0002593961
 256836391, 0.003466046, 0.004461812, 6.397429E-05, 0.0002593961
 256936351, 0.002317614, 0.01324207, -0.0002575761, 0.0002593961
 257036311, 0.0008375333, 0.01944438, -0.0006911255, 0.0002593961
 257136271, 5.987756E-05, 0.02209874, -3.424109E-05, 0.0002593961
 257236231, 0.0009740444, 0.02176771, -0.0002719232, 0.0002593961
 257336191, 0.002794141, 0.01854578, 0.0003603828, 0.0002593961
 257436151, 0.005587033, 0.01370327, 0.0003803269, 0.0002593961
 257536111, 0.007269943, 0.0113109, -0.0002371554, 0.0002593961
 257636071, 0.006689463, 0.01294821, -0.0003153707, 0.0002593961
 257736031, 0.004567608, 0.01327913, -0.0006703281, 0.0002593961
 257835991, 0.001331858, 0.009103636, -0.0008693519, 0.0002593961
 257935951, -0.002105368, 0.002575754, -0.001025991, 0.0002593961
 258035911, -0.005570686, -0.003290431, -0.0003959121, 0.0002593961
 258135871, -0.008618118, -0.007413329, -0.0005412785, 0.0002593961
 258235831, -0.01136923, -0.008607031, -0.0006720072, 0.0002593961
 258335791, -0.01387916, -0.00671467, -0.0002597603, 0.0002593961
 258435751, -0.01537212, -0.002504457, -0.0001211695, 0.0002593961
 258535711, -0.01532342, 0.002761652, 0.0003105626, 0.0002593961
 258635671, -0.01386447, 0.007320413, 0.0005630361, 0.0002593961
 258736464, -0.01103908, 0.01003917, 0.0007108685, 0.0002615578
 258836424, -0.007759988, 0.01073067, 0.0006189444, 0.0002593961
 258936384, -0.005539895, 0.009462727, 0.001156991, 0.0002593961
 259036344, -0.004952255, 0.007082382, 0.0003691126, 0.0002593961
 259136304, -0.007168139, 0.005330479, 7.516357E-05, 0.0002593961
 259236264, -0.01103647, 0.004101902, -0.0005516777, 0.0002593961
 259336224, -0.01380519, 0.003264121, -0.0005293778, 0.0002593961
 259436184, -0.01326367, 0.001568281, 8.128015E-05, 0.0002593961
 259536144, -0.01074452, -0.001526604, 0.0008304921, 0.0002593961
 259636104, -0.008085175, -0.006558706, 0.0008715765, 0.0002593961
 259736064, -0.006012798, -0.01055599, 0.0004176352, 0.0002593961
 259836024, -0.005900986, -0.0122171, 0.0006116981, 0.0002593961
 259935984, -0.006032628, -0.01037922, 0.0001724733, 0.0002593961
 260035944, -0.006550151, -0.005328447, 0.0001852379, 0.0002593961
 260135904, -0.00625981, 0.000863649, 0.000543912, 0.0002593961
 260235864, -0.005216274, 0.005996292, 0.000241624, 0.0002593961
 260335824, -0.004049731, 0.00861493, -0.000628127, 0.0002593961
 260435784, -0.004319574, 0.00870129, -0.0006917643, 0.0002593961
 260535744, -0.004787623, 0.008529325, -0.0005358625, 0.0002593961
 260635704, -0.006966454, 0.009992133, -0.000718473, 0.0002593961
 260735664, -0.009103236, 0.01158118, -0.0005215036, 0.0002593961
 260836457, -0.01005872, 0.01292097, -0.0002314182, 0.0002615578
 260936417, -0.01038073, 0.0114135, 4.057458E-06, 0.0002593961
 261036377, -0.007227712, 0.007258882, -0.0001003662, 0.0002593961
 261136337, -0.01351363, 0.001733643, 0.0002169408, 0.0002593961
 261236297, -0.02881447, -0.004361264, 0.000497315, 0.0002593961
 261336257, -0.03594988, -0.007775865, 0.0004568323, 0.0002593961
 261436217, -0.03657315, -0.007659169, 0.0002003118, 0.0002593961
 261536177, -0.03823652, -0.00441015, 0.0001147645, 0.0002593961
