TimeUS,CAN,CAE,CAD,CAe,NAN,NAE,NAD,NAe,m10,m00
 170953258, 2.581599E-06, 4.333347E-05, -3.629663E-06, 6.484905E-06, 0, 0, 0, 0, -0.9999977, -0.0014404
 171030727, 0.2258695, 2.922379, -0.2044506, 0.4438249, -0.03602361, 3.242296, -0.02079821, 0.4438184, -0.9999977, -0.001441103
 171231480, -0.03570409, 3.24964, -0.02104081, 0.4443466, 0.0002339124, 0.00445507, -0.0003344298, 0.0005209541, -0.9999977, -0.001435929
 171431400, 8.032493E-05, 0.01184271, -0.0006195048, 0.001046232, 0.0001331822, 0.004276731, 0.0001282942, 0.0005187925, -0.9999977, -0.001433114
 171631320, 0.0001225787, 0.01165983, -0.000318457, 0.00104407, 0.0002619689, 0.00460013, -0.000285846, 0.0005187925, -0.9999977, -0.00142888
 171831240, 0.000175226, 0.01211645, -0.000522626, 0.00104407, 0.0002356431, 0.004337039, 0.0003323417, 0.0005187925, -0.9999977, -0.001421673
 172031160, 0.0002480659, 0.01203078, 0.0001837913, 0.00104407, 9.640647E-05, 0.004762275, -0.0001247587, 0.0005187925, -0.9999977, -0.001415
 172231080, 0.0002490563, 0.01209254, -0.000413063, 0.00104407, -0.0002157886, 0.003951763, -0.0003443532, 0.0005187925, -0.9999977, -0.001407962
 172431000, 1.31019E-05, 0.01124287, -0.0004579976, 0.00104407, 0.0002372215, 0.004075978, 4.343438E-06, 0.0005187925, -0.9999977, -0.001400471
 172630920, 0.0004253315, 0.0114563, 1.557807E-05, 0.00104407, -0.0001525782, 0.004285151, 0.0003406485, 0.0005187925, -0.9999977, -0.001408582
 172830840, 4.048716E-06, 0.01178916, 0.0005382661, 0.00104407, -3.547488E-05, 0.004369279, -5.074497E-05, 0.0005187925, -0.9999977, -0.001415977
 173030760, -0.0003293263, 0.01167454, -0.0003362145, 0.00104407, -0.0005336001, 0.004032051, -0.0004059836, 0.0005187925, -0.9999977, -0.001422529
 173230680, -0.0005329694, 0.01146018, -0.0007643203, 0.00104407, -0.0001034783, 0.00429557, -0.0002174175, 0.0005187925, -0.9999977, -0.001428359
 173431433, -0.0002576161, 0.01193182, -0.0004813609, 0.001046232, 0.0001515431, 0.004523565, -0.000589276, 0.0005209541, -0.9999977, -0.001433283
 173631353, 0.0001178341, 0.01217793, -0.0009225652, 0.001046232, 0.0003031899, 0.004525214, 4.935553E-05, 0.0005187925, -0.9999976, -0.001437524
 173831273, 0.0004285559, 0.01192152, -0.0001213351, 0.00104407, 0.0001446564, 0.003885426, 5.20498E-05, 0.0005187925, -0.9999976, -0.001441673
 174031193, 0.0002123237, 0.01129497, -0.0001534265, 0.00104407, 0.0002463986, 0.004032523, -0.0004408479, 0.0005187925, -0.9999976, -0.001445998
 174231113, 1.234911E-05, 0.01123317, -0.0005943114, 0.00104407, -4.662282E-05, 0.003831405, 0.0004698042, 0.0005187925, -0.9999976, -0.001448976
 174431033, -0.0001952336, 0.01130957, 0.0007150495, 0.00104407, -0.0001334187, 0.004419475, -2.437331E-05, 0.0005187925, -0.9999976, -0.00145025
 174630953, -0.0002126753, 0.01181675, -0.0001783635, 0.00104407, 0.0003022912, 0.004360319, -0.0002792385, 0.0005187925, -0.9999977, -0.001451332
 174830873, 0.0002409781, 0.0118882, -0.0002860856, 0.00104407, 0.0001875105, 0.003621834, 7.120264E-05, 0.0005187925, -0.9999977, -0.00145133
 175030793, 4.587225E-05, 0.010799, -0.000167944, 0.00104407, -0.0001313744, 0.004081512, -0.000454617, 0.0005187925, -0.9999977, -0.001451481
 175230713, -0.0004655717, 0.01129574, -0.0005203894, 0.00104407, -0.0002837587, 0.004372744, -0.0004441951, 0.0005187925, -0.9999977, -0.001451119
 175431466, -0.0003879722, 0.01188473, -0.0004255534, 0.001046232, -0.0004341133, 0.003995414, 0.0002392753, 0.0005209541, -0.9999977, -0.001447718
 175631386, -0.0005430465, 0.01170839, 0.000100682, 0.001046232, -0.0002966835, 0.004353126, -0.0001712161, 0.0005187925, -0.9999977, -0.001445555
 175831306, -0.0001290114, 0.01163471, -0.0003934751, 0.00104407, 0.0003654753, 0.004203299, 1.725341E-05, 0.0005187925, -0.9999977, -0.00144155
 176031226, 0.0003240688, 0.0116785, -0.0003064157, 0.00104407, -0.0001080815, 0.004025907, 0.0002344338, 0.0005187925, -0.9999977, -0.00143671
 176231146, -0.0001589463, 0.01123157, 0.0003969213, 0.00104407, 0.0002196773, 0.004155631, 0.0001380285, 0.0005187925, -0.9999977, -0.001432743
 176431066, 0.0002546227, 0.0112868, -0.0002783317, 0.00104407, -0.000121072, 0.004477617, -0.00019336, 0.0005187925, -0.9999977, -0.001428879
 176630986, -5.581332E-05, 0.01207137, -0.0003666293, 0.00104407, -6.060697E-05, 0.004377449, -0.0002766825, 0.0005187925, -0.9999977, -0.001423034
 176830906, 9.964129E-05, 0.01152887, -0.0003753077, 0.00104407, -0.0004219917, 0.004360463, -0.0004911103, 0.0005187925, -0.9999977, -0.001417963
 177030826, -0.0003557216, 0.0119259, -0.0005791505, 0.00104407, -0.0002369895, 0.004409442, -0.0003781796, 0.0005187925, -0.9999977, -0.001413054
 177230746, 7.92914E-05, 0.01191049, -0.0005878145, 0.00104407, 1.019354E-05, 0.004317246, -0.0003711646, 0.0005187925, -0.9999977, -0.001406078
 177430666, 0.0002148925, 0.01173333, -0.0006389887, 0.00104407, 0.0003503136, 0.004110409, -0.0005597997, 0.0005187925, -0.9999977, -0.001398526
 177631419, 0.0005298813, 0.01129123, -0.0004327574, 0.001046232, 7.595657E-05, 0.003767115, 0.0001907932, 0.0005209541, -0.9999977, -0.001389224
 177831339, 0.0004791595, 0.01127844, 0.00013718, 0.001046232, 0.0002039535, 0.004029098, 0.0002219516, 0.0005187925, -0.9999977, -0.001396539
 178031259, 0.0002462452, 0.01122166, -0.000122721, 0.00104407, 0.0001670682, 0.00391913, 0.0002206706, 0.0005187925, -0.9999978, -0.001401072
 178231179, 0.0002428924, 0.01128914, 0.0002357087, 0.00104407, 0.0002526124, 0.004152278, -3.233688E-05, 0.0005187925, -0.9999977, -0.001405488
 178431099, 9.915929E-05, 0.0113697, -0.0002433756, 0.00104407, -0.0001097915, 0.004180138, 0.0002380885, 0.0005187925, -0.9999977, -0.001410625
 178631019, -0.0003215212, 0.01153006, 0.000105296, 0.00104407, -0.0001117146, 0.003970422, 0.0004136004, 0.0005187925, -0.9999978, -0.001415237
 178830939, 0.0001070888, 0.0113182, 0.0002995163, 0.00104407, -4.62738E-05, 0.004313544, 0.0001678284, 0.0005187925, -0.9999978, -0.001417351
 179030859, 0.0002643207, 0.01166466, -5.754337E-06, 0.00104407, 0.0001491938, 0.004253271, -2.339145E-06, 0.0005187925, -0.9999978, -0.001419125
 179230779, -1.903258E-06, 0.01113731, -0.0004041044, 0.00104407, -4.662986E-06, 0.003914232, 4.113936E-05, 0.0005187925, -0.9999978, -0.001420056
 179430699, -0.0002435349, 0.01082564, -0.000309465, 0.00104407, -0.0003816128, 0.004158391, -0.0005479242, 0.0005187925, -0.9999977, -0.001419988
 179631452, -0.0002208308, 0.01172971, -0.0007454993, 0.001046232, 7.270588E-05, 0.004623137, -0.0003941552, 0.0005209541, -0.9999978, -0.001419886
 179831372, 8.710937E-05, 0.01195963, -0.0005615047, 0.001046232, 0.0001242724, 0.004362313, 0.0002419302, 0.0005187925, -0.9999977, -0.001420965
 180031292, -8.797519E-05, 0.01155561, 0.0003071116, 0.00104407, -0.0001965205, 0.004209682, -0.0003035653, 0.0005187925, -0.9999977, -0.001419329
 180231212, -0.0002319307, 0.01160733, -0.0004463173, 0.00104407, -9.757164E-05, 0.004241317, -0.0002032706, 0.0005187925, -0.9999977, -0.001419343
 180431132, -0.0002109729, 0.01161232, -0.0005864503, 0.00104407, 0.0002168418, 0.004303112, 0.0001924555, 0.0005187925, -0.9999977, -0.001419054
 180631052, 0.0001158573, 0.01168765, 1.691022E-05, 0.00104407, -0.0001382681, 0.004339681, -0.000158827, 0.0005187925, -0.9999977, -0.001416691
 180830972, -0.0001891456, 0.01129745, -0.0003589386, 0.00104407, 0.0002969386, 0.003879795, -0.000195176, 0.0005187925, -0.9999977, -0.001414185
 181030892, 0.0001243508, 0.01090552, -0.0003830879, 0.00104407, -0.0003832474, 0.004335416, -5.562226E-05, 0.0005187925, -0.9999977, -0.001413274
 181230812, -0.0006577141, 0.01159109, -0.0002418861, 0.00104407, 0.0002705163, 0.004183979, -0.0001508491, 0.0005187925, -0.9999977, -0.001411428
 181430732, -3.811239E-05, 0.01130346, -0.0002295636, 0.00104407, 0.0001968209, 0.003897105, 9.958335E-05, 0.0005187925, -0.9999977, -0.001408361
 181631485, 0.0004695819, 0.01097574, 0.0001491387, 0.001046232, 0.000301294, 0.004213805, 0.000429688, 0.0005209541, -0.9999977, -0.001403994
 181831405, 0.0004193771, 0.01170099, 0.0003303872, 0.001046232, -0.0002372948, 0.004370446, -0.0001047526, 0.0005187925, -0.9999977, -0.001401574
 182031325, 5.142366E-05, 0.01181655, -0.0002938287, 0.00104407, -7.580763E-05, 0.004496555, -0.0001289841, 0.0005187925, -0.9999977, -0.001398068
 182231245, 0.0003496344, 0.01184112, 2.455564E-05, 0.00104407, 0.0002059121, 0.004352104, 0.0001735374, 0.0005187925, -0.9999977, -0.001392878
 182431165, -0.0002107574, 0.01161933, 0.0001811579, 0.00104407, -0.0005173233, 0.003889802, -4.951999E-05, 0.0005187925, -0.9999977, -0.001389085
 182631085, -0.0002840311, 0.01130039, -0.0001238351, 0.00104407, 0.0002113078, 0.004430437, -3.034331E-05, 0.0005187925, -0.9999977, -0.001384357
 182831005, 6.865703E-06, 0.0119976, 0.000211979, 0.00104407, -7.376433E-06, 0.004468069, 6.843332E-05, 0.0005187925, -0.9999977, -0.001379974
 183030925, 0.0001206748, 0.01195838, 0.0001076399, 0.00104407, 0.0003499918, 0.004499111, -0.0001171954, 0.0005187925, -0.9999977, -0.001390608
 183230845, 0.0003825661, 0.01180917, -8.621583E-05, 0.00104407, 0.000110494, 0.004331796, 4.739653E-05, 0.0005187925, -0.9999977, -0.001399706
 183430765, -0.0001352828, 0.0115032, 0.0001003091, 0.00104407, 4.459832E-05, 0.00413589, 6.22953E-05, 0.0005187925, -0.9999977, -0.001409006
 183630685, 4.855672E-05, 0.01163321, 4.324612E-05, 0.00104407, 6.068948E-05, 0.004463812, 0.0001953869, 0.0005187925, -0.9999977, -0.001416712
 183831438, -0.0001930322, 0.0118007, 1.524275E-05, 0.001046232, 0.0001459812, 0.004120707, -0.0003543839, 0.0005209541, -0.9999977, -0.001424051
 184031358, -5.134398E-05, 0.01134458, -0.0006847426, 0.001046232, -0.0002392379, 0.00408256, 2.777656E-05, 0.0005187925, -0.9999976, -0.001429851
 184231278, -0.0003299646, 0.01154211, -0.0002161103, 0.00104407, -7.678975E-06, 0.004607006, -6.5011E-05, 0.0005187925, -0.9999976, -0.001432867
 184431198, 5.820573E-05, 0.01205298, -0.0003408963, 0.00104407, -9.5992E-05, 0.004570322, -3.277542E-05, 0.0005187925, -0.9999976, -0.001436383
 184631118, -0.0001007098, 0.01206988, -7.061568E-06, 0.00104407, 0.0001345202, 0.004169506, 7.699866E-05, 0.0005187925, -0.9999976, -0.001441014
 184831038, 5.283518E-05, 0.01131585, -6.9054E-06, 0.00104407, -0.0003161512, 0.003877711, -0.0001425733, 0.0005187925, -0.9999976, -0.001445476
 185030958, -0.0002066895, 0.0113322, 2.209849E-05, 0.00104407, -0.0002892474, 0.004841974, -0.0003919988, 0.0005187925, -0.9999976, -0.001448089
 185230878, -0.0004715715, 0.01244116, -0.0008696151, 0.00104407, -0.000388531, 0.004568118, 0.0001424517, 0.0005187925, -0.9999976, -0.001450248
 185430798, -0.000405353, 0.01201949, 0.0002165595, 0.00104407, 0.0003727342, 0.003835113, 0.0001909505, 0.0005187925, -0.9999976, -0.001452409
 185630718, 0.0003848422, 0.01103462, -6.246529E-06, 0.00104407, -0.0001213709, 0.004168496, -0.0003238539, 0.0005187925, -0.9999976, -0.00145246
 185831471, -0.0002379573, 0.01165488, -0.0005134071, 0.001046232, -3.318753E-05, 0.004074139, 0.0001774622, 0.0005209541, -0.9999976, -0.001452524
 186031391, 0.0001569949, 0.01138239, -0.0003254415, 0.001046232, 0.0001816564, 0.003897481, -0.0004777928, 0.0005187925, -0.9999976, -0.001453609
 186231311, 0.0004420114, 0.01108612, -0.0005170231, 0.00104407, 0.0003784513, 0.004074668, 0.0001750389, 0.0005187925, -0.9999976, -0.001452556
 186431231, 0.0001877866, 0.01172498, -4.297324E-05, 0.00104407, -0.0001021313, 0.004759575, 4.032666E-05, 0.0005187925, -0.9999976, -0.001450272
 186631151, -0.0001335742, 0.01234138, -0.0004942954, 0.00104407, 0.000416529, 0.004642814, -0.0003511728, 0.0005187925, -0.9999976, -0.00144944
 186831071, 0.0007973881, 0.01246686, -0.0002167514, 0.00104407, -0.0003213843, 0.004801293, 0.0002507065, 0.0005187925, -0.9999976, -0.00144724
 187030991, -0.0004168925, 0.01208116, -0.000102995, 0.00104407, -0.0002189543, 0.004171518, -0.0001954477, 0.0005187925, -0.9999976, -0.001444145
 187230911, -0.0001002696, 0.01167065, -0.0001102889, 0.00104407, 0.0002202508, 0.004236737, 0.0002573986, 0.0005187925, -0.9999976, -0.00143991
 187430831, 0.0001714081, 0.01187505, 7.32606E-05, 0.00104407, -1.559892E-05, 0.004482048, -0.0001129676, 0.0005187925, -0.9999976, -0.00143596
 187630751, -8.984961E-05, 0.01192508, -0.0004123563, 0.00104407, -0.0001377785, 0.004210388, 0.0001557133, 0.0005187925, -0.9999976, -0.001430594
 187830671, -0.0001288177, 0.01181062, 0.0001133036, 0.00104407, 0.0002702777, 0.00469393, -0.0001036491, 0.0005187925, -0.9999976, -0.001425554
 188031424, 0.0004107443, 0.01200544, -0.0001597846, 0.001046232, -0.0001281041, 0.003821996, 3.976819E-06, 0.0005209541, -0.9999977, -0.001420822
 188231344, 0.0002140735, 0.01121413, -9.610344E-05, 0.001046232, 0.0002027821, 0.003999047, -2.977014E-05, 0.0005187925, -0.9999976, -0.001430614
 188431264, 0.0002809071, 0.01142623, 6.451886E-05, 0.00104407, 0.0003772878, 0.004319158, -0.0002887608, 0.0005187925, -0.9999976, -0.001438598
 188631184, 0.0002819481, 0.01152437, -0.0004975152, 0.00104407, 0.0001527116, 0.00409346, -0.0002033636, 0.0005187925, -0.9999976, -0.001446773
 188831104, 6.036635E-05, 0.01166098, -6.382421E-05, 0.00104407, -0.0001567006, 0.00405913, 0.0001591665, 0.0005187925, -0.9999976, -0.001453912
 189031024, -3.020899E-05, 0.01128324, -0.0001078139, 0.00104407, 1.638035E-05, 0.004309523, -2.836054E-06, 0.0005187925, -0.9999976, -0.001460166
 189230944, 0.0002828461, 0.01147169, -2.952826E-05, 0.00104407, -0.0001374531, 0.004350663, -9.94523E-06, 0.0005187925, -0.9999976, -0.001465128
 189430864, 7.396069E-05, 0.01158125, -0.0001426221, 0.00104407, -6.157826E-05, 0.004137242, -0.0005027166, 0.0005187925, -0.9999976, -0.001468425
 189630784, -2.5261E-05, 0.01147308, -0.0007468109, 0.00104407, 0.0002686993, 0.00415024, -0.0004456358, 0.0005187925, -0.9999976, -0.001470908
 189830704, 0.0003465429, 0.01153775, -0.0009734493, 0.00104407, 0.0006092791, 0.00405276, -0.0006287455, 0.0005187925, -0.9999976, -0.001472174
 190031457, 0.0005388526, 0.0111808, -0.0009648754, 0.001046232, -2.899738E-05, 0.004056897, -0.0002159518, 0.0005209541, -0.9999977, -0.001474089
 190231377, 0.0001741751, 0.01129075, -0.0003214015, 0.001046232, -6.081141E-05, 0.004000921, 0.000130053, 0.0005187925, -0.9999977, -0.001474437
 190431297, -3.199549E-05, 0.01144831, -4.112251E-06, 0.00104407, 0.0003031355, 0.004224209, -0.0001647934, 0.0005187925, -0.9999977, -0.001473208
 190631217, 0.0002659408, 0.01169703, -0.0002661224, 0.00104407, 0.0001913301, 0.004786845, -0.0001294226, 0.0005187925, -0.9999976, -0.00147253
 190831137, 0.0001202199, 0.01227112, -0.0003548012, 0.00104407, 0.0002305454, 0.004361643, 0.0001517368, 0.0005187925, -0.9999977, -0.001470972
 191031057, 7.338788E-05, 0.01132504, -5.389562E-05, 0.00104407, -0.000313832, 0.004183864, -0.0004772577, 0.0005187925, -0.9999977, -0.001470206
 191230977, -0.0002318171, 0.01140065, -0.0005389713, 0.00104407, 0.0003219801, 0.004197169, -0.000335975, 0.0005187925, -0.9999976, -0.001468646
 191430897, 0.0003276303, 0.01136627, -0.000647914, 0.00104407, -0.0003331933, 0.004121996, -0.0004232703, 0.0005187925, -0.9999976, -0.001466557
 191630817, -0.0004170488, 0.01144342, -0.0007624353, 0.00104407, -0.0002041046, 0.004209372, -0.0002738977, 0.0005187925, -0.9999976, -0.001463158
 191830737, -0.0001650266, 0.01154728, -0.0001343785, 0.00104407, -4.767608E-05, 0.003859049, -5.408268E-05, 0.0005187925, -0.9999977, -0.001459367
 192030657, 0.0001220364, 0.01116804, 4.971304E-05, 0.00104407, 0.000105614, 0.004315682, -0.0002667754, 0.0005187925, -0.9999976, -0.001456351
 192231410, -9.758996E-05, 0.01163711, -0.0003480321, 0.001046232, 2.461692E-05, 0.003963018, -0.0001375526, 0.0005209541, -0.9999977, -0.001453875
 192431330, 0.0002475528, 0.01160119, -0.000185378, 0.001046232, 0.0001974603, 0.004155336, 0.0002212593, 0.0005187925, -0.9999977, -0.001448405
 192631250, 0.000230097, 0.01186648, 0.0003830438, 0.00104407, -0.0002048844, 0.004599376, 5.40398E-05, 0.0005187925, -0.9999977, -0.001441949
 192831170, -0.0004104556, 0.01195674, -0.0002198901, 0.00104407, -2.396465E-05, 0.004126447, 9.813435E-05, 0.0005187925, -0.9999977, -0.001436855
 193031090, 0.0001812249, 0.01178207, 0.0001603986, 0.00104407, 9.137057E-05, 0.0043714, 6.084154E-05, 0.0005187925, -0.9999977, -0.001430527
 193231010, -4.294931E-05, 0.01165639, -9.128732E-05, 0.00104407, 0.0003588394, 0.003707531, -0.000114562, 0.0005187925, -0.9999977, -0.001423835
 193430930, 0.0004024936, 0.01136003, -0.0005115595, 0.00104407, -0.0001061323, 0.004170551, 0.0001051899, 0.0005187925, -0.9999977, -0.001431547
 193630850, -6.435507E-05, 0.01154993, -1.967357E-05, 0.00104407, -0.0001201635, 0.004513652, -0.0003343519, 0.0005187925, -0.9999977, -0.001438576
 193830770, -7.245972E-05, 0.01181011, -0.0002903599, 0.00104407, 0.0001311208, 0.004476451, 0.000406297, 0.0005187925, -0.9999977, -0.001444263
 194030690, 0.0002138029, 0.01156301, -2.965332E-05, 0.00104407, -7.286321E-05, 0.003986082, -0.0003818748, 0.0005187925, -0.9999977, -0.001449526
 194231443, -6.886492E-05, 0.0112486, -0.0003896685, 0.001046232, 3.474567E-05, 0.003635527, 0.0001397313, 0.0005209541, -0.9999977, -0.001454154
 194431363, 0.0002112732, 0.01099446, 0.0001264269, 0.001046232, -1.799535E-05, 0.004472574, 0.0002356492, 0.0005187925, -0.9999977, -0.001457642
 194631283, -1.56392E-06, 0.01205347, 0.0001335385, 0.00104407, -8.232332E-05, 0.004309735, -0.0002530086, 0.0005187925, -0.9999977, -0.001458035
 194831203, 5.878224E-05, 0.01158103, -0.0004772243, 0.00104407, 7.091864E-05, 0.004220477, 0.0002735367, 0.0005187925, -0.9999977, -0.001458486
 195031123, -3.401868E-05, 0.01144098, 0.0001394143, 0.00104407, -0.0001619755, 0.003940528, 0.0003423787, 0.0005187925, -0.9999977, -0.00145762
 195231043, -0.0004138533, 0.01114195, 3.997862E-06, 0.00104407, -0.000136383, 0.004121458, -0.0001723303, 0.0005187925, -0.9999977, -0.001457026
 195430963, -8.798607E-05, 0.01141671, -0.0003979246, 0.00104407, 0.0001172941, 0.0042655, 6.680677E-05, 0.0005187925, -0.9999977, -0.001456312
 195630883, 0.0002342305, 0.01160381, -0.000119699, 0.00104407, -7.983967E-05, 0.004226525, -2.615358E-05, 0.0005187925, -0.9999978, -0.001453513
 195830803, 0.0001191649, 0.01127794, -0.0001064411, 0.00104407, -6.814455E-05, 0.003994785, 0.0001190591, 0.0005187925, -0.9999978, -0.001450653
 196030723, 0.0003335552, 0.01134232, 0.0001099123, 0.00104407, 0.0003885799, 0.00417053, 0.0003308653, 0.0005187925, -0.9999978, -0.001446818
 196231476, 7.579636E-05, 0.01133886, 0.0002902025, 0.001046232, -0.0001950746, 0.004116272, -3.612622E-05, 0.0005209541, -0.9999978, -0.001442874
 196431396, -9.977123E-05, 0.01153018, -0.0002843184, 0.001046232, -3.825461E-05, 0.004175214, -0.0001887663, 0.0005187925, -0.9999978, -0.001438949
 196631316, -0.0002114261, 0.0113973, -0.0003632545, 0.00104407, -0.000389095, 0.003954642, 1.296359E-05, 0.0005187925, -0.9999978, -0.00143287
 196831236, -0.0004061765, 0.01082256, -0.0001388602, 0.00104407, 0.0002020953, 0.00410303, -6.770285E-05, 0.0005187925, -0.9999978, -0.001425967
 197031156, -0.0002527102, 0.01116746, -2.190547E-05, 0.00104407, -0.0005091504, 0.003924465, -0.0002416264, 0.0005187925, -0.9999978, -0.001420143
 197231076, -0.000214102, 0.01143572, -0.0004349684, 0.00104407, 0.0001264172, 0.004253064, -0.0001622624, 0.0005187925, -0.9999978, -0.001414099
 197430996, 0.0001657805, 0.01155109, -0.0004647683, 0.00104407, 1.769945E-06, 0.00387922, -0.0004920314, 0.0005187925, -0.9999978, -0.001408981
 197630916, -3.069289E-05, 0.01098569, -0.0008787693, 0.00104407, 6.124838E-05, 0.003987974, -0.000196034, 0.0005187925, -0.9999978, -0.001403784
 197830836, 0.0004595609, 0.0115495, -0.0004597159, 0.00104407, 0.0001756992, 0.004317268, -0.0003300455, 0.0005187925, -0.9999978, -0.001396895
 198030756, 0.0004417808, 0.01173456, -0.0008536378, 0.00104407, -7.024142E-06, 0.004373471, -0.0003553042, 0.0005187925, -0.9999978, -0.001390379
 198230676, 0.0001302443, 0.01189846, -0.0003391601, 0.00104407, 0.0003664342, 0.004032462, -0.0003214015, 0.0005187925, -0.9999978, -0.001383547
 198431429, 0.0003018449, 0.01136128, -0.0004882452, 0.001046232, 0.0001131287, 0.004121319, -0.0001292192, 0.0005209541, -0.9999978, -0.001379105
 198631349, 5.49637E-06, 0.01143044, -0.0001957292, 0.001046232, -0.00021791, 0.004201089, -0.0001403926, 0.0005187925, -0.9999978, -0.001384923
 198831269, 5.520017E-05, 0.0114066, -0.0001018474, 0.00104407, 0.000199294, 0.004118778, -0.0005033624, 0.0005187925, -0.9999978, -0.001389582
 199031189, 0.0003253008, 0.01189971, -0.0006587146, 0.00104407, 0.0002469585, 0.00474261, -0.0002919519, 0.0005187925, -0.9999978, -0.001395147
 199231109, 0.000154446, 0.01189408, -0.0004097919, 0.00104407, -0.0001287913, 0.004256103, -2.266692E-05, 0.0005187925, -0.9999978, -0.001398999
 199431029, -0.0001687525, 0.01143098, -2.938288E-05, 0.00104407, 8.137116E-05, 0.00412627, 3.399206E-05, 0.0005187925, -0.9999978, -0.00140176
 199630949, 5.668918E-05, 0.01122975, 0.0001481191, 0.00104407, 0.0001643683, 0.003782571, 5.442349E-05, 0.0005187925, -0.9999978, -0.001403779
 199830869, -4.510681E-05, 0.01142085, 2.752275E-05, 0.00104407, -0.000367102, 0.004596152, -0.000156085, 0.0005187925, -0.9999978, -0.00140527
 200030789, -0.0002769828, 0.01182426, -0.0003077372, 0.00104407, 0.0005455289, 0.00384192, -0.0002647044, 0.0005187925, -0.9999978, -0.001405813
 200230709, 0.0007862633, 0.01100273, -4.071639E-05, 0.00104407, 0.0003167467, 0.004238164, 4.690558E-05, 0.0005187925, -0.9999978, -0.00140578
 200431462, 0.0003508943, 0.01138462, -0.00045777, 0.001046232, 0.0001593458, 0.003888902, -0.0004014543, 0.0005209541, -0.9999978, -0.001407013
 200631382, -3.472942E-06, 0.01143012, -0.0006561814, 0.001046232, -0.0001006039, 0.004223393, -0.0002684389, 0.0005187925, -0.9999978, -0.00140613
 200831302, 4.944689E-05, 0.01127626, -0.0002766527, 0.00104407, -1.793807E-05, 0.004230731, -3.447942E-05, 0.0005187925, -0.9999978, -0.001403764
 201031222, 7.392651E-05, 0.01149195, 5.370615E-05, 0.00104407, 0.0003899507, 0.00397956, -0.0002438964, 0.0005187925, -0.9999979, -0.001398232
 201231142, 0.0003061962, 0.01094292, -0.0003642925, 0.00104407, -9.193912E-05, 0.003893057, 0.0001472325, 0.0005187925, -0.9999979, -0.00139331
 201431062, -0.0003982261, 0.01110543, 0.0001660838, 0.00104407, -0.0002216092, 0.003967838, 1.001792E-05, 0.0005187925, -0.9999979, -0.001388299
 201630982, -2.072159E-05, 0.01091954, 5.288631E-05, 0.00104407, 0.0001130305, 0.003761496, 0.0003835741, 0.0005187925, -0.9999979, -0.001382786
 201830902, -0.0001116573, 0.01093746, 0.0002148103, 0.00104407, -0.0006921222, 0.004345005, 5.388488E-06, 0.0005187925, -0.9999979, -0.001376563
 202030822, -0.0005733332, 0.01170075, -0.0002066179, 0.00104407, 0.000226171, 0.003948571, -0.000171688, 0.0005187925, -0.9999979, -0.001370503
 202230742, 0.0003345315, 0.01129508, -0.0003451337, 0.00104407, 0.0002875499, 0.0042413, 0.0002800047, 0.0005187925, -0.9999979, -0.001363581
 202430662, 0.0005478387, 0.01143723, -2.429709E-05, 0.00104407, 0.000219932, 0.004089782, -0.0003607748, 0.0005187925, -0.9999979, -0.001357379
 202631415, 0.0004466628, 0.01129568, -0.0005505726, 0.001046232, 0.0003147644, 0.003824633, -0.0001984744, 0.0005209541, -0.9999979, -0.001352824
 202831335, 0.0005219156, 0.01106628, -0.0003862409, 0.001046232, -9.857731E-05, 0.003804534, 3.960932E-05, 0.0005187925, -0.9999979, -0.001346439
 203031255, -6.887796E-05, 0.0112613, -1.783726E-05, 0.00104407, 0.0004596435, 0.004685115, 0.000213285, 0.0005187925, -0.9999978, -0.001338956
 203231175, 0.0003676332, 0.01196927, -0.0001440902, 0.00104407, 6.130016E-05, 0.004310208, -0.0005449605, 0.0005187925, -0.9999978, -0.001331763
 203431095, 0.0001824895, 0.0113868, -0.0005687331, 0.00104407, 0.0002781409, 0.004115377, 0.0001730977, 0.0005187925, -0.9999978, -0.001322836
 203631015, 0.0004564019, 0.01159781, 0.0003295045, 0.00104407, 0.0004400196, 0.004202067, 2.904922E-05, 0.0005187925, -0.9999978, -0.001315597
 203830935, 0.0004877287, 0.01175208, -7.154449E-06, 0.00104407, -0.0002026862, 0.004322815, -4.824496E-05, 0.0005187925, -0.9999978, -0.001322496
 204030855, 0.0001199457, 0.01172163, -0.0002939252, 0.00104407, 0.0001680603, 0.004280382, -0.0003122285, 0.0005187925, -0.9999978, -0.001329283
 204230775, 0.0002927948, 0.01158735, -0.0005012081, 0.00104407, 0.0004393931, 0.00409312, -0.0002538869, 0.0005187925, -0.9999978, -0.001334533
 204430695, 0.0006170687, 0.01131897, -0.0005847581, 0.00104407, -0.0001300794, 0.004235414, -0.0002136008, 0.0005187925, -0.9999978, -0.001338868
 204631448, -8.728712E-05, 0.01151525, -2.899758E-05, 0.001046232, -6.229191E-07, 0.004483863, -0.0003114451, 0.0005209541, -0.9999979, -0.001344857
 204831368, 0.0001715884, 0.01140696, -0.0001612896, 0.001046232, -9.016851E-05, 0.003895651, 0.0001357394, 0.0005187925, -0.9999978, -0.001346593
 205031288, -0.0001800509, 0.01126703, -0.0003047117, 0.00104407, 2.489704E-05, 0.004392049, -0.0002615895, 0.0005187925, -0.9999978, -0.001347742
 205231208, -4.506667E-05, 0.01163386, -0.0003781175, 0.00104407, 0.0002276788, 0.004168516, -0.0002481743, 0.0005187925, -0.9999978, -0.001348836
 205431128, 0.0003256808, 0.01128697, -0.0001956109, 0.00104407, -0.0001657635, 0.00358819, 0.0003027181, 0.0005187925, -0.9999978, -0.001350239
 205631048, 0.0001046277, 0.01104097, -1.507394E-05, 0.00104407, 2.863573E-05, 0.003885238, 0.0003024929, 0.0005187925, -0.9999978, -0.001350295
 205830968, -4.079896E-05, 0.0112028, 0.0001824602, 0.00104407, -0.0001434246, 0.004417554, 0.0001731489, 0.0005187925, -0.9999978, -0.001348388
 206030888, 3.253886E-05, 0.01157696, -0.0001352449, 0.00104407, -0.0001747673, 0.003968923, -0.0001996422, 0.0005187925, -0.9999978, -0.001346634
 206230808, 9.365844E-05, 0.01109335, -0.0002055597, 0.00104407, 6.620168E-05, 0.004202714, 6.537324E-05, 0.0005187925, -0.9999978, -0.001344863
 206430728, 0.0002417935, 0.01132939, 0.0001658598, 0.00104407, 0.0003286689, 0.004101619, -0.0001385694, 0.0005187925, -0.9999979, -0.00134299
 206631481, 0.0005168282, 0.011359, -0.0001150783, 0.001046232, 8.917553E-06, 0.004364118, 1.0916E-05, 0.0005209541, -0.9999978, -0.001342186
 206831401, -5.940202E-05, 0.01185734, 9.776097E-05, 0.001046232, -4.847477E-05, 0.004151757, -8.960951E-06, 0.0005187925, -0.9999979, -0.001340664
 207031321, -0.0001583839, 0.01118455, -0.0003275502, 0.00104407, -0.0001106351, 0.00446872, -0.0004625948, 0.0005187925, -0.9999979, -0.001338081
 207231241, 6.729487E-05, 0.01172257, -0.0004862295, 0.00104407, -8.292246E-05, 0.00383394, -2.978986E-07, 0.0005187925, -0.9999979, -0.001333343
 207431161, -0.0001559165, 0.01087816, 4.068179E-05, 0.00104407, -0.0002715739, 0.004171172, 0.0001069118, 0.0005187925, -0.9999979, -0.001328447
 207631081, -8.82103E-05, 0.01136957, -6.70856E-05, 0.00104407, 0.0002457273, 0.004454081, 0.0001371848, 0.0005187925, -0.9999979, -0.001323577
 207831001, 0.0001575759, 0.01149554, 0.0001867, 0.00104407, -4.635017E-06, 0.003703707, 0.0006091768, 0.0005187925, -0.9999979, -0.001318768
 208030921, -0.000159092, 0.01134295, 0.0004810172, 0.00104407, -0.000165371, 0.004345203, 0.0004447707, 0.0005187925, -0.9999979, -0.001313385
 208230841, 1.555221E-05, 0.01162259, 0.0003433154, 0.00104407, 0.0002221309, 0.004009628, -0.0002623569, 0.0005187925, -0.9999979, -0.001307436
 208430761, -5.699207E-06, 0.01127224, -0.0003020878, 0.00104407, -0.0002172998, 0.004462925, -0.0002213903, 0.0005187925, -0.9999979, -0.001302493
 208630681, -0.000135064, 0.01188546, -0.0004399446, 0.00104407, -2.809803E-05, 0.004199964, -0.0001089602, 0.0005187925, -0.9999978, -0.001296298
 208831434, 7.303388E-05, 0.01198687, -0.0001054179, 0.001046232, 0.0002420494, 0.004448816, -4.100271E-05, 0.0005209541, -0.9999979, -0.001292282
 209031354, 0.0005487252, 0.01182227, 8.49833E-05, 0.001046232, 0.0005877854, 0.004149549, 0.0007122169, 0.0005187925, -0.9999979, -0.001300963
 209231274, 0.0006809697, 0.01143579, 0.0007753857, 0.00104407, 0.0001309502, 0.003978376, 0.0005129287, 0.0005187925, -0.9999979, -0.00130736
 209431194, 9.24449E-05, 0.01137853, 0.0003418268, 0.00104407, -0.0003683642, 0.003714475, -0.0003000406, 0.0005187925, -0.9999979, -0.001313012
 209631114, -0.0006038159, 0.01101078, -0.0002216441, 0.00104407, 2.453829E-05, 0.004248714, 2.956042E-05, 0.0005187925, -0.9999979, -0.001317868
 209831034, -8.609365E-05, 0.01157628, 2.080205E-05, 0.00104407, 0.0001426979, 0.004788011, 2.344981E-05, 0.0005187925, -0.9999979, -0.001321343
 210030954, 0.0002793733, 0.01211009, 0.0001610373, 0.00104407, 3.759192E-05, 0.004238217, -0.00021683, 0.0005187925, -0.9999979, -0.00132509
 210230874, -0.0001355688, 0.01157468, -7.733952E-05, 0.00104407, -0.0002948807, 0.004155747, 0.0002454967, 0.0005187925, -0.9999979, -0.001327733
 210430794, -0.000185945, 0.01148017, 0.000135196, 0.00104407, 0.000197334, 0.00437214, -4.598328E-05, 0.0005187925, -0.9999979, -0.001328918
 210630714, 0.0001342078, 0.0111303, -5.971664E-05, 0.00104407, 0.0004105938, 0.003866731, -0.000142926, 0.0005187925, -0.9999979, -0.001327298
 210831467, 0.0003110861, 0.01133553, -1.510656E-05, 0.001046232, 0.0001222868, 0.003756431, 7.738791E-05, 0.0005209541, -0.9999979, -0.001327837
 211031387, 0.0001764718, 0.01115779, 9.863086E-05, 0.001046232, 1.338902E-05, 0.004255341, -0.0003941366, 0.0005187925, -0.9999979, -0.001327742
 211231307, 8.503682E-05, 0.0112398, -0.0007038352, 0.00104407, -5.773068E-05, 0.003734017, 2.0889E-06, 0.0005187925, -0.9999979, -0.001326744
 211431227, -0.0002640948, 0.01107098, -0.0003007163, 0.00104407, 0.0003350794, 0.004320977, 0.0001836674, 0.0005187925, -0.9999979, -0.001324061
 211631147, 0.0002639256, 0.01146821, -0.0001241259, 0.00104407, -0.000414825, 0.004049218, -0.0001929834, 0.0005187925, -0.9999979, -0.001322356
 211831067, -0.0007970757, 0.01127199, -0.0002003035, 0.00104407, -9.176261E-05, 0.004302463, -0.0004189829, 0.0005187925, -0.9999979, -0.001319979
 212030987, 4.16456E-05, 0.01173666, -0.0004027316, 0.00104407, 0.0002397736, 0.004435841, 6.154816E-05, 0.0005187925, -0.9999979, -0.00131637
 212230907, 0.0002643131, 0.01150775, 0.000184803, 0.00104407, 7.024664E-05, 0.004009867, 0.0002954386, 0.0005187925, -0.9999979, -0.001313097
 212430827, 0.0002230267, 0.01108472, 0.0001594157, 0.00104407, 0.0003285905, 0.004041912, -0.000307972, 0.0005187925, -0.9999979, -0.001308454
 212630747, 0.0004037102, 0.01115838, -0.0002408828, 0.00104407, 0.0001242172, 0.003724531, 0.0001286468, 0.0005187925, -0.9999979, -0.001303985
 212830667, -0.0001720145, 0.0106929, -5.709034E-05, 0.00104407, -0.0003044409, 0.004173701, -0.0001604785, 0.0005187925, -0.9999979, -0.001299126
 213031420, -0.0002590716, 0.01136828, -0.0006111023, 0.001046232, -0.0005071046, 0.003694146, -0.0001812917, 0.0005209541, -0.9999979, -0.001295708
 213231340, -0.0004337633, 0.01122585, 4.92777E-05, 0.001046232, 0.00023817, 0.004079598, 0.0004869932, 0.0005187925, -0.9999979, -0.001290823
 213431260, 0.0002789483, 0.01136225, 0.0005324748, 0.00104407, -0.0001748475, 0.004313645, -0.0001558264, 0.0005187925, -0.9999979, -0.001283487
 213631180, -0.0001279292, 0.01142937, -0.0003555437, 0.00104407, -3.298721E-05, 0.003939581, -0.0005136437, 0.0005187925, -0.9999979, -0.00127802
 213831100, -9.830078E-05, 0.01117063, -0.0007192711, 0.00104407, -7.761683E-05, 0.003797006, -0.0003251062, 0.0005187925, -0.9999979, -0.001272241
 214031020, 0.0002658613, 0.01138486, -0.0003929128, 0.00104407, 4.260658E-05, 0.004439037, 7.613473E-05, 0.0005187925, -0.9999979, -0.00126628
 214230940, 0.0002310656, 0.01193189, 8.410546E-05, 0.00104407, -6.179878E-05, 0.003895261, 6.342981E-06, 0.0005187925, -0.9999979, -0.001275765
 214430860, 0.0004182804, 0.01113057, 5.437321E-06, 0.00104407, -5.779562E-05, 0.004131975, 9.760533E-06, 0.0005187925, -0.9999979, -0.00128439
 214630780, 0.0002041941, 0.01167561, -0.0003019781, 0.00104407, -7.398285E-05, 0.004240374, -0.0003316208, 0.0005187925, -0.9999979, -0.001291763
 214830700, 6.77906E-05, 0.01188698, -0.0003829532, 0.00104407, 8.818283E-05, 0.004633465, -6.648384E-05, 0.0005187925, -0.9999979, -0.001298574
 215031453, 0.0001420713, 0.01202248, -0.00062913, 0.001046232, 0.0002017768, 0.004564625, -0.0003605751, 0.0005209541, -0.9999979, -0.001303929
 215231373, 8.899295E-05, 0.01219545, -0.0005468319, 0.001046232, 4.303066E-06, 0.004380455, 1.225458E-05, 0.0005187925, -0.9999979, -0.001307997
 215431293, 0.0001720246, 0.01148201, 6.845358E-05, 0.00104407, 7.728962E-05, 0.003884251, 0.0003596786, 0.0005187925, -0.9999979, -0.001310147
 215631213, 0.0001165346, 0.01115317, 0.0002796664, 0.00104407, -0.0001426002, 0.003709544, -0.0002353728, 0.0005187925, -0.9999979, -0.001311777
 215831133, 0.0002579612, 0.01066935, -0.0001863628, 0.00104407, 0.0003402234, 0.004194274, -7.961188E-06, 0.0005187925, -0.9999979, -0.001313105
 216031053, 0.0005300473, 0.01128746, -7.672101E-05, 0.00104407, 0.0001714512, 0.004332034, -9.329878E-05, 0.0005187925, -0.9999979, -0.001313379
 216230973, 0.0003651246, 0.01157443, -0.0002213081, 0.00104407, 0.0002538357, 0.003618254, 2.519672E-05, 0.0005187925, -0.9999979, -0.001313599
 216430893, 0.0007413842, 0.01081172, -0.0002921771, 0.00104407, 0.0003143925, 0.00428645, -0.0002443706, 0.0005187925, -0.9999979, -0.001312963
 216630813, 0.0001242894, 0.01142504, -0.000280883, 0.00104407, 0.0002480287, 0.0042784, 0.0004987437, 0.0005187925, -0.9999979, -0.001312383
 216830733, -2.258084E-05, 0.01147137, 5.357492E-05, 0.00104407, -0.000323067, 0.003676829, -0.0003042946, 0.0005187925, -0.9999979, -0.001310057
 217031486, -0.0001687001, 0.01076677, -0.0009147868, 0.001046232, -0.0001029883, 0.003807261, -0.0002775143, 0.0005187925, -0.9999979, -0.001306277
 217231406, 0.0001479758, 0.01099635, -0.0001207031, 0.001046232, -5.624373E-05, 0.004157886, 0.0001162171, 0.0005209541, -0.9999979, -0.001304731
 217431326, 1.381305E-05, 0.01128209, 2.413261E-05, 0.001046232, 0.0003342202, 0.004165691, -9.712266E-05, 0.0005187925, -0.9999979, -0.001301434
 217631246, -0.0001000098, 0.01122326, -0.0002991528, 0.00104407, -0.0003372316, 0.004229074, -0.0003411632, 0.0005187925, -0.9999979, -0.001296027
 217831166, -0.0006607488, 0.01177367, -0.0003711024, 0.00104407, -0.0001855491, 0.004244132, 2.137878E-05, 0.0005187925, -0.9999979, -0.001293669
 218031086, -8.69197E-05, 0.0115286, -0.0003011309, 0.00104407, -0.0001074797, 0.004097161, -0.0001545967, 0.0005187925, -0.9999979, -0.001290754
 218231006, -0.0001428775, 0.01121096, -0.0003624348, 0.00104407, -0.0001380917, 0.003988356, -0.0001008524, 0.0005187925, -0.9999979, -0.001287271
 218430926, 0.0001265397, 0.01139918, -0.0001486243, 0.00104407, -4.413716E-05, 0.004396673, -0.0001275983, 0.0005187925, -0.9999979, -0.001284023
 218630846, -6.532188E-05, 0.01159825, -0.000509684, 0.00104407, 0.000112871, 0.004270369, 0.0004052555, 0.0005187925, -0.9999978, -0.001280204
 218830766, 0.0001972364, 0.0117266, 7.768869E-05, 0.00104407, -0.0002345833, 0.004361012, -0.0003882691, 0.0005187925, -0.9999978, -0.001276379
 219030686, -0.0003786298, 0.01178786, -0.0003638743, 0.00104407, -4.205445E-05, 0.004243248, -0.0002318468, 0.0005187925, -0.9999978, -0.001273209
 219231439, 0.0002646545, 0.01196439, -0.0005419485, 0.001046232, 0.00016953, 0.004221761, -0.0002891603, 0.0005209541, -0.9999978, -0.001269673
 219431359, 0.0004538786, 0.01143999, -0.0002797979, 0.001046232, 0.0005027355, 0.004487108, -9.693916E-05, 0.0005187925, -0.9999978, -0.00127954
 219631279, 0.0005938318, 0.01158423, -0.0004377973, 0.00104407, 4.66786E-05, 0.004064206, -0.0001960864, 0.0005187925, -0.9999978, -0.001287651
 219831199, 0.0001491195, 0.01145607, -0.0004076328, 0.00104407, 0.0001334666, 0.004228821, 5.629909E-05, 0.0005187925, -0.9999978, -0.001295848
 220031119, 0.0001844694, 0.01159296, -0.0001697957, 0.00104407, -7.478202E-07, 0.004491802, 9.76196E-05, 0.0005187925, -0.9999978, -0.001303726
 220231039, 9.992454E-05, 0.01150794, -0.0002147101, 0.00104407, -0.0001074781, 0.003848943, 5.423283E-05, 0.0005187925, -0.9999978, -0.001311888
 220430959, -0.0002190371, 0.01112755, 0.0001311767, 0.00104407, -0.0001053677, 0.004234752, 4.202472E-05, 0.0005187925, -0.9999978, -0.001319206
 220630879, -0.0003010646, 0.01172649, -4.880146E-05, 0.00104407, -0.0002609723, 0.004199381, -8.157566E-05, 0.0005187925, -0.9999978, -0.001324233
 220830799, -0.000361526, 0.01167445, 0.000139027, 0.00104407, -0.0004682923, 0.004967104, 0.0001574101, 0.0005187925, -0.9999978, -0.001328945
 221030719, -0.0003845781, 0.01239258, -0.0001195274, 0.00104407, 0.0004565895, 0.004020612, 0.0002142991, 0.0005187925, -0.9999978, -0.001333028
 221231472, 0.0006728377, 0.01112939, -8.325379E-05, 0.001046232, 0.0002813808, 0.003785554, -6.546937E-05, 0.0005209541, -0.9999978, -0.001334052
 221431392, 0.0001869072, 0.01124538, -0.0003594639, 0.001046232, 0.0001724057, 0.004441977, 0.0004609088, 0.0005187925, -0.9999978, -0.00133752
 221631312, 0.0005532847, 0.01163401, 0.0004822161, 0.00104407, 0.0004530867, 0.004111415, -0.0001644716, 0.0005187925, -0.9999978, -0.001340443
 221831232, 0.0002931059, 0.01136351, -0.0005923251, 0.00104407, -0.0004749251, 0.004314709, -0.0001542535, 0.0005187925, -0.9999978, -0.001340734
 222031152, -0.0003312629, 0.01181311, -0.0002918101, 0.00104407, -0.0001133398, 0.00409944, 0.000184828, 0.0005187925, -0.9999978, -0.001340922
 222231072, -8.784283E-05, 0.01146302, -5.600581E-06, 0.00104407, 0.0002309234, 0.004164118, 0.000223036, 0.0005187925, -0.9999978, -0.001340613
 222430992, 4.576042E-05, 0.01156328, -0.0001148491, 0.00104407, -3.274662E-05, 0.004170473, -0.000302288, 0.0005187925, -0.9999978, -0.001340316
 222630912, -0.0001027033, 0.01135397, -0.05029809, 0.00104407, 2.926708E-05, 0.00421625, -0.0975237, 0.0005187925, -0.9999978, -0.001341508
 222830832, 0.0008052255, 0.01200581, -0.3695629, 0.00104407, -7.400932E-05, 0.004720866, -0.04913712, 0.0005187925, -0.9999978, -0.001341381
 223030752, -0.000433864, 0.01180261, 0.03894462, 0.00104407, -0.0002890735, 0.004115809, 0.06734392, 0.0005187925, -0.9999978, -0.001340412
 223230672, -0.0005404123, 0.01120824, -0.2414262, 0.00104407, -1.21055E-05, 0.003881459, -0.6165243, 0.0005187925, -0.9999991, -0.001370357
 223431425, -0.006228197, 0.004387734, -1.897558, 0.001046232, -0.006012978, -0.001965416, -0.553595, 0.0005209541, -0.9999906, -0.001508887
 223631345, -0.02071282, -0.009985925, -0.8850442, 0.001046232, -0.009347142, -0.005114588, -0.06993961, 0.0005187925, -0.9999793, -0.001672767
 223831265, -0.02532317, -0.013779, -0.2098062, 0.00104407, -0.008673941, -0.004459194, -0.1097422, 0.0005187925, -0.9999775, -0.001838632
 224031185, -0.02286964, -0.01070581, -0.3565209, 0.00104407, -0.007860237, -0.00295795, -0.1463162, 0.0005187925, -0.9999786, -0.00200731
 224231105, -0.01975316, -0.006794685, -0.36871, 0.00104407, -0.006513831, -0.002025467, -0.1161849, 0.0005187925, -0.9999806, -0.002166764
 224431025, -0.01649661, -0.003634575, -0.2942109, 0.00104407, -0.005513084, -0.0002891588, -0.0964822, 0.0005187925, -0.9999823, -0.002318711
 224630945, -0.0139903, -0.0001470279, -0.2541031, 0.00104407, -0.004332382, 0.0005265023, -0.08736888, 0.0005187925, -0.9999837, -0.002476411
 224830865, -0.01105792, 0.002369255, -0.2274721, 0.00104407, -0.003592075, 0.001403375, -0.07684966, 0.0005187925, -0.9999847, -0.002639793
 225030785, -0.008800351, 0.004601811, -0.1994606, 0.00104407, -0.002818148, 0.002091248, -0.06701637, 0.0005187925, -0.9999853, -0.002789077
 225230705, -0.006331428, 0.00615257, -0.17444, 0.00104407, -0.001635122, 0.002701266, -0.05877718, 0.0005187925, -0.9999853, -0.002917047
 225431458, -0.003990435, 0.007272596, -0.1536079, 0.001046232, -0.0008911944, 0.002720281, -0.0519052, 0.0005209541, -0.9999849, -0.003032516
 225631378, -0.002524035, 0.007517887, -0.1349025, 0.001046232, -0.0009913853, 0.002705794, -0.04559594, 0.0005187925, -0.9999842, -0.003139275
 225831298, -0.002023286, 0.007860391, -0.11836, 0.00104407, -0.0007628718, 0.003252471, -0.04004237, 0.0005187925, -0.9999833, -0.0032708
 226031218, -0.002535, 0.008052218, -0.1033302, 0.00104407, -0.001257366, 0.002906731, -0.03435995, 0.0005187925, -0.9999822, -0.003446608
 226231138, -0.003350574, 0.007883712, -0.08986624, 0.00104407, -0.001238448, 0.003101791, -0.03061286, 0.0005187925, -0.9999806, -0.003845075
 226431058, -0.003845444, 0.008219658, -0.08017392, 0.00104407, -0.001697235, 0.00285183, -0.02720827, 0.0005187925, -0.9999782, -0.004307481
 226630978, -0.001384148, 0.01052448, 0.4424696, 0.00104407, 0.0007295075, 0.004421756, 0.3236547, 0.0005187925, -0.9999726, -0.004924759
 226830898, 0.001448867, 0.01157018, 0.8407651, 0.00104407, 0.0004656445, 0.003963499, 0.2829764, 0.0005187925, -0.9999666, -0.005675639
 227030818, 0.0009050407, 0.01045946, 0.7353228, 0.00104407, 0.0004429983, 0.003639037, 0.2477976, 0.0005187925, -0.9999617, -0.006220402
 227230738, 0.001438471, 0.01005733, 0.600274, 0.00104407, 0.001045959, 0.003594281, 0.18906, 0.0005187925, -0.9999631, -0.006570304
 227430658, 0.0173778, 0.01638493, 0.4794496, 0.00104407, 0.0163096, 0.01006352, 0.1540328, 0.0005187925, -0.9999759, -0.006864625
 227631411, 0.06205744, 0.03476205, 0.3937338, 0.001046232, 0.02827896, 0.01568162, 0.130621, 0.0005209541, -0.9999556, -0.007111829
 227831331, 0.06444387, 0.04203756, 0.343639, 0.001046232, 0.0154223, 0.01421129, 0.1201431, 0.0005187925, -0.9999541, -0.00753651
 228031251, 0.05118883, 0.0376996, 0.3298227, 0.00104407, 0.02884487, 0.01391944, 0.1213108, 0.0005187925, -0.9999393, -0.007984397
 228231171, 0.1287862, 0.041988, 0.3382687, 0.00104407, 0.07334819, 0.01763629, 0.1262393, 0.0005187925, -0.9998814, -0.008241543
 228431091, 0.2356773, 0.05141016, 0.3352268, 0.00104407, 0.1008238, 0.02044089, 0.1156433, 0.0005187925, -0.9998108, -0.008512945
 228631011, 0.2819741, 0.05667008, 0.2972757, 0.00104407, 0.104025, 0.02071601, 0.09864066, 0.0005187925, -0.9997589, -0.00900667
 228830931, 0.284944, 0.05725095, 0.2488229, 0.00104407, 0.1037313, 0.02115429, 0.07967658, 0.0005187925, -0.9997187, -0.009618722
 229030851, 0.2835386, 0.05565577, 0.1995446, 0.00104407, 0.102465, 0.01929074, 0.06317226, 0.0005187925, -0.9997047, -0.01030547
 229230771, 0.2770759, 0.05040004, 0.1558349, 0.00104407, 0.09874543, 0.01719347, 0.04811049, 0.0005187925, -0.9996989, -0.01085379
 229430691, 0.2648226, 0.05087337, 0.1202429, 0.00104407, 0.09281265, 0.02290976, 0.03916611, 0.0005187925, -0.9995229, -0.002599554
 229631444, 0.2491876, 0.09393171, 0.1036733, 0.001046232, 0.08851905, 0.05137222, 0.03368968, 0.0005209541, -0.9959806, 0.07587804
 229831364, 0.2432571, 0.1568439, 0.07573002, 0.001046232, 0.08949078, 0.06194291, 0.01928017, 0.0005187925, -0.9670319, 0.2535134
 230031284, 0.2523031, 0.1490408, 0.0447126, 0.00104407, 0.09612364, 0.04139572, 0.01289912, 0.0005187925, -0.8712985, 0.4885678
 230231204, 0.2779443, 0.08064137, 0.03482995, 0.00104407, 0.1088522, 0.0125651, 0.01252049, 0.0005187925, -0.6852946, 0.7158526
 230431124, 0.3108284, 0.008797497, 0.03516106, 0.00104407, 0.1190341, -0.00931021, 0.01346586, 0.0005187925, -0.4301746, 0.8789102
 230631044, 0.328925, -0.04078381, 0.03823405, 0.00104407, 0.1201745, -0.02180447, 0.01431881, 0.0005187925, -0.1633713, 0.9554901
 230830964, 0.3257906, -0.06418893, 0.03838432, 0.00104407, 0.116504, -0.0244648, 0.01300825, 0.0005187925, 0.0668043, 0.9636978
 231030884, 0.3151828, -0.07180545, 0.03670675, 0.00104407, 0.1131141, -0.03170498, 0.01433658, 0.0005187925, 0.2360972, 0.9365851
 231230804, 0.3079617, -0.1100268, 0.03504569, 0.00104407, 0.1106556, -0.05136633, 0.00956763, 0.0005187925, 0.3122681, 0.915569
 231430724, 0.2900085, -0.1373371, 0.01768557, 0.00104407, 0.09751602, -0.04388154, 0.002050466, 0.0005187925, 0.3011372, 0.9191193
 231631477, 0.249697, -0.07800328, 0.002616012, 0.001046232, 0.08302507, -0.003746053, 0.0001831021, 0.0005209541, 0.2327951, 0.935301
 231831397, 0.2183414, 0.04377294, 0.002630868, 0.001046232, 0.07627922, 0.04315853, 0.001795508, 0.0005187925, 0.1429429, 0.9488483
 232031317, 0.2069467, 0.1508922, 0.007403543, 0.00104407, 0.07405704, 0.06905103, 0.00350031, 0.0005187925, 0.06831089, 0.9551183
 232231237, 0.1951974, 0.1925171, 0.007998955, 0.00104407, 0.06643678, 0.06924395, 0.001860228, 0.0005187925, 0.03405112, 0.9572902
 232431157, 0.1710999, 0.1716187, 0.003607206, 0.00104407, 0.05715521, 0.0517095, 0.0003505651, 0.0005187925, 0.04175522, 0.9571944
 232631077, 0.1511136, 0.1160318, 0.0005739465, 0.00104407, 0.05277264, 0.02920569, 0.0002656708, 0.0005187925, 0.07615808, 0.9540527
 232830997, 0.1439172, 0.05835092, 0.000253862, 0.00104407, 0.05213528, 0.01098372, -0.0002087151, 0.0005187925, 0.1165943, 0.9485971
 233030917, 0.1410552, 0.01752261, 0.0003555031, 0.00104407, 0.0500234, 0.001008791, 0.0002693124, 0.0005187925, 0.1461599, 0.9437166
 233230837, 0.1330363, 0.0007318669, 0.000726974, 0.00104407, 0.04561713, -0.0001752589, 0.000757813, 0.0005187925, 0.1569893, 0.9416206
 233430757, 0.1186087, 0.005353677, 0.001198118, 0.00104407, 0.03974823, 0.00528688, -6.255269E-05, 0.0005187925, 0.1505441, 0.9425998
 233630677, 0.1018971, 0.02311516, -0.0008068492, 0.00104407, 0.03368271, 0.01259841, -0.000567376, 0.0005187925, 0.1341308, 0.9449253
 233831430, 0.08775837, 0.04236358, -0.001037113, 0.001046232, 0.02973716, 0.0189468, -0.0002030577, 0.0005209541, 0.1165508, 0.9468711
 234031350, 0.07815734, 0.05457437, -9.818839E-05, 0.001046232, 0.02725139, 0.02052933, -9.720965E-05, 0.0005187925, 0.104568, 0.9478351
 234231270, 0.07157739, 0.05294331, 0.001473349, 0.00104407, 0.02469963, 0.01725516, 0.001192716, 0.0005187925, 0.100658, 0.9479173
 234431190, 0.06592948, 0.04022457, 0.001855589, 0.00104407, 0.02327272, 0.01103614, -0.0003302802, 0.0005187925, 0.1032609, 0.9473549
 234631110, 0.06141387, 0.02470226, -0.000760357, 0.00104407, 0.02110699, 0.006288548, 0.0001649554, 0.0005187925, 0.1088922, 0.9464515
 234831030, 0.05613769, 0.01395537, 0.001488183, 0.00104407, 0.01962946, 0.003665876, 0.0006935658, 0.0005187925, 0.1139658, 0.9454991
 235030950, 0.05291276, 0.009412128, 0.00100466, 0.00104407, 0.01895484, 0.003319792, -0.001056978, 0.0005187925, 0.1162049, 0.9448959
 235230870, 0.04967633, 0.01014888, -0.002462883, 0.00104407, 0.01681391, 0.004381102, 5.945568E-05, 0.0005187925, 0.1152224, 0.9448429
 235430790, 0.04327956, 0.01333806, -0.0003755067, 0.00104407, 0.01406462, 0.005548103, 0.0002563512, 0.0005187925, 0.1120882, 0.9451102
 235630710, 0.03692975, 0.01587272, 0.001164296, 0.00104407, 0.01247696, 0.006065988, 0.0004974079, 0.0005187925, 0.1081775, 0.9453974
 235831463, 0.03373424, 0.0173518, 6.08495E-05, 0.001046232, 0.01229655, 0.006569278, -0.0007749826, 0.0005209541, 0.1047528, 0.9454882
 236031383, 0.0328574, 0.0182374, -0.003429379, 0.001046232, 0.01142372, 0.006429445, -0.002124326, 0.0005187925, 0.1026107, 0.9454762
 236231303, 0.03010093, 0.0180607, -0.006705203, 0.00104407, 0.01003665, 0.006400993, -0.002482151, 0.0005187925, 0.1020017, 0.9455684
 236431223, 0.02533416, 0.01666445, -0.005968262, 0.00104407, 0.007917148, 0.005478139, -0.001835841, 0.0005187925, 0.1022784, 0.9455807
 236631143, 0.02094667, 0.01401587, -0.004846123, 0.00104407, 0.007163871, 0.004559428, -0.0018861, 0.0005187925, 0.1030723, 0.9454097
 236831063, 0.01876564, 0.01350668, -0.003736955, 0.00104407, 0.00670315, 0.005259556, -0.001074255, 0.0005187925, 0.1035359, 0.9451171
 237030983, 0.01770291, 0.01378075, -0.003082803, 0.00104407, 0.006327966, 0.004473887, -0.001223409, 0.0005187925, 0.1035215, 0.9449002
 237230903, 0.01654698, 0.009191001, -0.003754097, 0.00104407, 0.005531745, 0.00212849, -0.001599815, 0.0005187925, 0.1027016, 0.9449481
 237430823, 0.01456258, 0.003426613, -0.004112045, 0.00104407, 0.004585666, 0.0002477907, -0.0008634723, 0.0005187925, 0.1008159, 0.9451041
 237630743, 0.01215066, 0.0004865599, -0.002104752, 0.00104407, 0.004502823, 0.0004527527, -0.0008024593, 0.0005187925, 0.09858671, 0.9453127
 237830663, 0.01046855, 0.002302362, -0.001448272, 0.00104407, 0.003311719, 0.001709672, -0.0004715761, 0.0005187925, 0.09635831, 0.9453788
 238031416, 0.008302608, 0.005330921, 0.0002619856, 0.001046232, 0.00283536, 0.002330149, 0.0006233213, 0.0005209541, 0.09460236, 0.9453638
 238231336, 0.007768931, 0.006094559, 0.001931302, 0.001046232, 0.002824823, 0.002164539, 0.0006068234, 0.0005187925, 0.09342986, 0.9452993
 238431256, 0.007738028, 0.005891846, 0.001539375, 0.00104407, 0.002793586, 0.002183328, 0.0001683754, 0.0005187925, 0.09288624, 0.9451554
 238631176, 0.007244342, 0.006282446, 0.0002269504, 0.00104407, 0.00235181, 0.002890845, 0.000111664, 0.0005187925, 0.09262212, 0.9450697
 238831096, 0.005563458, 0.009114926, 0.002133254, 0.00104407, 0.001289155, 0.004288444, 0.002197011, 0.0005187925, 0.09249435, 0.9449914
 239031016, 0.003088836, 0.01408868, 0.005750249, 0.00104407, 0.0009612518, 0.005954187, 0.002365344, 0.0005187925, 0.09245821, 0.9448828
 239230936, 0.002414171, 0.01572124, 0.005826852, 0.00104407, 0.001153006, 0.004745675, 0.001700544, 0.0005187925, 0.09223279, 0.9446989
 239430856, 0.003747121, 0.01071814, 0.004581728, 0.00104407, 0.001539492, 0.002453671, 0.0018628, 0.0005187925, 0.09173415, 0.9445333
 239630776, 0.004539495, 0.003930835, 0.003108701, 0.00104407, 0.001588696, 0.0002755358, 0.0001300482, 0.0005187925, 0.0907991, 0.9445701
 239830696, 0.004131387, 0.001169621, -0.002144103, 0.00104407, 0.001017724, 0.0007617048, -0.001925256, 0.0005187925, 0.08935747, 0.9449218
 240031449, 0.001561599, 0.003575891, -0.006325433, 0.001046232, -0.0001441962, 0.001936433, -0.002697438, 0.0005209541, 0.08766665, 0.9452915
 240231369, -0.001190638, 0.006871508, -0.008422801, 0.001046232, -0.0007742697, 0.002873324, -0.003792219, 0.0005187925, 0.08614291, 0.9455945
 240431289, -0.003301275, 0.008575694, -0.007725999, 0.00104407, -0.001270089, 0.003430802, -0.001535146, 0.0005187925, 0.08508294, 0.9455581
 240631209, -0.003233512, 0.009631358, -0.002038325, 0.00104407, -0.0009573055, 0.003875767, 0.0003891819, 0.0005187925, 0.084501, 0.9452409
 240831129, -0.002160678, 0.0116371, 0.002028872, 0.00104407, -0.0004841042, 0.004874368, 0.001427301, 0.0005187925, 0.0841166, 0.9450275
 241031049, -0.002300052, 0.01427265, 0.003370316, 0.00104407, -0.0007773582, 0.005367786, 0.0008342849, 0.0005187925, 0.08397157, 0.9450552
 241230969, -0.002923987, 0.01546839, 0.002162049, 0.00104407, -0.001489801, 0.005792839, 0.0008679958, 0.0005187925, 0.08387104, 0.94502
 241430889, -0.004015411, 0.01639471, 0.001991441, 0.00104407, -0.001450613, 0.005725348, 0.0006047965, 0.0005187925, 0.083823, 0.9449781
 241630809, -0.004360286, 0.01509214, 0.001771783, 0.00104407, -0.00179192, 0.004596311, 0.0008133125, 0.0005187925, 0.08384074, 0.9449298
 241830729, -0.005316709, 0.01189006, 0.003591499, 0.00104407, -0.001749019, 0.003791133, 0.001319555, 0.0005187925, 0.08383808, 0.9449253
 242031482, -0.006375275, 0.009084365, 0.005418336, 0.001046232, -0.002644245, 0.002870466, 0.002594118, 0.0005209541, 0.08360334, 0.9449112
 242231402, -0.007007099, 0.007741401, 0.006783688, 0.001046232, -0.002656686, 0.002731786, 0.002567285, 0.0005187925, 0.08336142, 0.9448326
 242431322, -0.006745539, 0.009010825, 0.005766541, 0.00104407, -0.002276913, 0.004034556, 0.00160857, 0.0005187925, 0.08308429, 0.9447401
 242631242, -0.00557371, 0.01303263, 0.001826385, 0.00104407, -0.001776616, 0.005786118, -0.000144064, 0.0005187925, 0.0828108, 0.9447188
 242831162, -0.005240223, 0.01635984, -0.0004159968, 0.00104407, -0.002086887, 0.006015135, 3.417674E-05, 0.0005187925, 0.08255486, 0.9447018
 243031082, -0.005944452, 0.01707594, -0.000344563, 0.00104407, -0.002217395, 0.006385932, -0.0002635283, 0.0005187925, 0.08237168, 0.9446768
 243231002, -0.005608225, 0.01665341, -0.002787254, 0.00104407, -0.001834606, 0.0057431, -0.002204412, 0.0005187925, 0.08243919, 0.9447117
 243430922, -0.005386414, 0.01550799, -0.007164287, 0.00104407, -0.002361385, 0.005777011, -0.002511034, 0.0005187925, 0.08278468, 0.9448267
 243630842, -0.007821032, 0.01583238, -0.00667166, 0.00104407, -0.003482134, 0.005658981, -0.00186971, 0.0005187925, 0.08334374, 0.944956
 243830762, -0.01026035, 0.01563684, -0.004810906, 0.00104407, -0.004334348, 0.005770527, -0.0009771548, 0.0005187925, 0.08384346, 0.9449864
 244030682, -0.01175553, 0.01584005, -0.0003603541, 0.00104407, -0.004160405, 0.005877396, -1.282417E-05, 0.0005187925, 0.08405712, 0.9447447
 244231435, -0.01047067, 0.01581091, 0.0008974771, 0.001046232, -0.003740693, 0.005209442, 0.001491149, 0.0005209541, 0.08397977, 0.9445958
 244431355, -0.009481858, 0.01174927, 0.002975692, 0.001046232, -0.002889147, 0.00288968, 0.0001840534, 0.0005187925, 0.08357815, 0.9445822
 244631275, -0.008213286, 0.006004224, 0.0005194825, 0.00104407, -0.002952459, 0.001711636, -0.0002962632, 0.0005187925, 0.08268854, 0.9447065
 244831195, -0.008754578, 0.003748342, -0.0008674096, 0.00104407, -0.003577549, 0.001081291, -0.0003615029, 0.0005187925, 0.0813687, 0.9449296
 245031115, -0.009790693, 0.003763496, -0.001924714, 0.00104407, -0.00349499, 0.002045484, -0.001619727, 0.0005187925, 0.07982106, 0.9450651
 245231035, -0.00920064, 0.007242306, -0.005181195, 0.00104407, -0.003291685, 0.003034906, -0.002702249, 0.0005187925, 0.07839923, 0.9452041
 245430955, -0.009118441, 0.009067722, -0.006517042, 0.00104407, -0.003553557, 0.003416511, -0.002465474, 0.0005187925, 0.07756117, 0.9453059
 245630875, -0.01048904, 0.00910758, -0.004608817, 0.00104407, -0.004456726, 0.003243725, -0.000834136, 0.0005187925, 0.07707036, 0.9454813
 245830795, -0.01192066, 0.008650655, -0.002243999, 0.00104407, -0.004059235, 0.003033727, -0.001696425, 0.0005187925, 0.07682164, 0.945522
 246030715, -0.0117918, 0.008942773, -0.002108661, 0.00104407, -0.004490786, 0.003724257, 0.0003674801, 0.0005187925, 0.07671631, 0.9454985
 246231468, -0.01293581, 0.01182365, 0.002090566, 0.001046232, -0.004688031, 0.005100211, 0.001212316, 0.0005209541, 0.07686114, 0.945421
 246431388, -0.01266014, 0.01565656, 0.002288464, 0.001046232, -0.004292483, 0.006199676, 0.0002402715, 0.0005187925, 0.07705102, 0.9452736
 246631308, -0.01055159, 0.01600782, 0.0004116652, 0.00104407, -0.003738117, 0.00526363, 0.0004850819, 0.0005187925, 0.07712407, 0.945035
 246831228, -0.009142617, 0.0126534, 0.001631433, 0.00104407, -0.002624673, 0.003765963, -0.0001350768, 0.0005187925, 0.07680715, 0.9450271
 247031148, -0.008959252, 0.009978191, 0.001662422, 0.00104407, -0.003924544, 0.003375035, 0.001384134, 0.0005187925, 0.0762604, 0.9451253
 247231068, -0.01074891, 0.009728037, 0.003641072, 0.00104407, -0.003833445, 0.00363877, 0.001198566, 0.0005187925, 0.07570138, 0.9451773
 247430988, -0.01092655, 0.01060611, 0.003130152, 0.00104407, -0.004156286, 0.004155966, 0.001290979, 0.0005187925, 0.07512438, 0.9452224
 247630908, -0.01128971, 0.01183542, 0.00301931, 0.00104407, -0.004211847, 0.004604497, 0.00104488, 0.0005187925, 0.07458223, 0.9452276
 247830828, -0.01096121, 0.01320412, 0.003483748, 0.00104407, -0.003570992, 0.005196495, 0.0006288146, 0.0005187925, 0.07424217, 0.9450203
 248030748, -0.008356136, 0.01429659, 0.0003198381, 0.00104407, -0.002400119, 0.005197172, -0.001211472, 0.0005187925, 0.07411683, 0.944993
 248230668, -0.00764086, 0.01469922, -0.003428361, 0.00104407, -0.003679857, 0.005533676, -0.001054609, 0.0005187925, 0.07411276, 0.945196
 248431421, -0.01104833, 0.01551833, -0.002804015, 0.001046232, -0.004548706, 0.005588218, -0.0009549471, 0.0005209541, 0.07423355, 0.9454072
 248631341, -0.01275257, 0.01574396, -0.001495845, 0.001046232, -0.004649452, 0.005692666, 0.0005948356, 0.0005187925, 0.07458691, 0.9453332
 248831261, -0.01292094, 0.01550104, 0.001187504, 0.00104407, -0.004790788, 0.005298893, 0.001118779, 0.0005187925, 0.0748532, 0.9452157
 249031181, -0.01188877, 0.01496795, 0.0009043784, 0.00104407, -0.003654955, 0.005458979, -0.0008588323, 0.0005187925, 0.07505909, 0.9451247
 249231101, -0.01071395, 0.01330777, -0.001392631, 0.00104407, -0.004104815, 0.0041368, -2.541955E-05, 0.0005187925, 0.07501815, 0.9451671
 249431021, -0.01149291, 0.009671913, -0.000518366, 0.00104407, -0.004166485, 0.002695134, -0.0004260719, 0.0005187925, 0.07438119, 0.9452567
 249630941, -0.01169289, 0.006191351, -0.001524034, 0.00104407, -0.00392814, 0.00150471, -0.001249908, 0.0005187925, 0.07323135, 0.9454067
 249830861, -0.0107878, 0.00251087, -0.003831703, 0.00104407, -0.003705511, 0.0002965417, -0.001907593, 0.0005187925, 0.07202494, 0.945554
 250030781, -0.01074159, 0.0008189349, -0.004785166, 0.00104407, -0.004188683, 0.0007086955, -0.001426852, 0.0005187925, 0.07100682, 0.9457012
 250230701, -0.01213195, 0.003848358, -0.004577752, 0.00104407, -0.004784219, 0.002065234, -0.0015756, 0.0005187925, 0.07003361, 0.9459083
 250431454, -0.01356424, 0.006992615, -0.003608154, 0.001046232, -0.005145713, 0.003197921, -0.0008687481, 0.0005209541, 0.06924325, 0.9460528
 250631374, -0.01521848, 0.009171381, 0.0001704257, 0.001046232, -0.00561703, 0.003290851, 0.001060212, 0.0005187925, 0.06865137, 0.9460662
 250831294, -0.01523748, 0.0091735, 0.002339147, 0.00104407, -0.005282027, 0.003361795, 0.0003128278, 0.0005187925, 0.06821525, 0.9460474
 251031214, -0.01423147, 0.0101653, 0.001303154, 0.00104407, -0.004895074, 0.0042024, 0.00011922, 0.0005187925, 0.06807972, 0.9459891
 251231134, -0.01314081, 0.01202194, 0.001040538, 0.00104407, -0.004438889, 0.004611603, 0.000346783, 0.0005187925, 0.06821801, 0.9458729
 251431054, -0.01102688, 0.01162505, -0.0009500564, 0.00104407, -0.003502227, 0.003699918, -0.0008821368, 0.0005187925, 0.06843986, 0.9456639
 251630974, -0.009500769, 0.007594639, -0.00172481, 0.00104407, -0.003832472, 0.001400587, -3.67828E-05, 0.0005187925, 0.06832442, 0.9457408
 251830894, -0.01102833, 0.002889068, -0.0002745436, 0.00104407, -0.004088976, 0.000613767, -0.0001252246, 0.0005187925, 0.06757957, 0.9458734
 252030814, -0.0115784, 0.001121154, 0.0003125537, 0.00104407, -0.00449069, 0.000257565, 0.0006776672, 0.0005187925, 0.066245, 0.9460256
 252230734, -0.01295463, 0.002530302, 0.00258739, 0.00104407, -0.005117836, 0.001727373, 0.00106705, 0.0005187925, 0.06460078, 0.9462086
 252430654, -0.01403928, 0.006112963, 0.004049368, 0.00104407, -0.004801605, 0.003195194, 0.001539771, 0.0005187925, 0.06318951, 0.9461607
 252631407, -0.01222455, 0.01022196, 0.003026502, 0.001046232, -0.004020423, 0.004586161, 0.0006527074, 0.0005209541, 0.06209201, 0.9461078
 252831327, -0.0101626, 0.01264056, 0.0003199808, 0.001046232, -0.003434528, 0.004337009, -0.000231991, 0.0005187925, 0.06136795, 0.9460804
 253031247, -0.00948704, 0.01256863, -0.003434181, 0.00104407, -0.003565153, 0.004702386, -0.00234548, 0.0005187925, 0.06124078, 0.9463139
 253231167, -0.01137082, 0.0130047, -0.005087425, 0.00104407, -0.005129215, 0.004919141, -0.0009261537, 0.0005187925, 0.0615272, 0.9465008
 253431087, -0.01351021, 0.01343926, -0.003088981, 0.00104407, -0.0048836, 0.005289473, -0.001351493, 0.0005187925, 0.06185411, 0.9464433
 253631007, -0.01242263, 0.01379922, -0.004365838, 0.00104407, -0.003919361, 0.004873059, -0.002508659, 0.0005187925, 0.06213837, 0.9463049
 253830927, -0.008737531, 0.01245476, -0.01157792, 0.00104407, -0.001055834, 0.003933248, -0.01107977, 0.0005187925, 0.06218264, 0.9462581
 254030847, 0.0002007915, 0.003726741, -0.04188628, 0.00104407, 0.001076613, -0.004091015, -0.01935046, 0.0005187925, 0.0609419, 0.9469462
 254230767, -0.0001482983, -0.02591723, -0.05419072, 0.00104407, -0.001625502, -0.01638312, -0.02061835, 0.0005187925, 0.05596143, 0.9481959
 254430687, -0.006883593, -0.05000817, -0.05454401, 0.00104407, -0.003723978, -0.01965455, -0.0181192, 0.0005187925, 0.04672056, 0.9492791
 254631440, -0.01236057, -0.04913313, -0.04576825, 0.001046232, -0.005438149, -0.01499016, -0.01478099, 0.0005209541, 0.03502194, 0.9498761
