TimeUS,CAN,CAE,CAD,CAe
 196256466, 0, 0, 0, 0
 196336434, -0.0621233, 3.859369, -0.01601704, 0.5094869
 196436394, 0.0001188606, 0.003524262, -0.0001209395, 0.0002593961
 196536354, 5.792357E-05, 0.003463316, -3.191863E-05, 0.0002593961
 196636314, -0.0002103755, 0.003520342, -6.600481E-05, 0.0002593961
 196736274, -4.03068E-05, 0.003442904, -0.0001117462, 0.0002593961
 196836234, 3.256397E-05, 0.003283017, -3.246796E-05, 0.0002593961
 196936194, -0.0001973908, 0.003513896, -2.206873E-05, 0.0002593961
 197036154, -0.0001362668, 0.003379157, 6.109894E-05, 0.0002593961
 197136114, 1.096261E-05, 0.003725092, -7.291141E-05, 0.0002593961
 197236074, 0.0002633151, 0.003549828, -6.718926E-05, 0.0002593961
 197336034, 0.0001037775, 0.003522307, -8.879803E-05, 0.0002593961
 197435994, -8.445E-05, 0.003605836, -0.0001039459, 0.0002593961
 197535954, -6.788526E-05, 0.003355661, -0.0001715665, 0.0002593961
 197635914, -1.959342E-05, 0.003558144, -0.0001742941, 0.0002593961
 197735874, 0.0002866915, 0.003622495, -0.0001165543, 0.0002593961
 197835834, 0.0001816727, 0.003664892, -0.000150749, 0.0002593961
 197935794, 0.0001834974, 0.00365705, -0.0001534539, 0.0002593961
 198035754, 0.0001539398, 0.003609453, -0.00029222, 0.0002593961
 198135714, 3.41142E-05, 0.003751121, -4.328784E-05, 0.0002593961
 198235674, 0.0002200836, 0.00359324, 2.752036E-05, 0.0002593961
 198336467, -3.575881E-05, 0.00352061, -9.886402E-05, 0.0002615578
 198436427, -8.88994E-05, 0.003640908, -5.838442E-05, 0.0002593961
 198536387, -0.0001338422, 0.003619537, 1.49904E-06, 0.0002593961
 198636347, 5.694765E-05, 0.003508767, -0.000139151, 0.0002593961
 198736307, 0.000112263, 0.003480662, 0.0002164547, 0.0002593961
 198836267, 0.0001394782, 0.003542338, -0.0001671325, 0.0002593961
 198936227, 0.0002175382, 0.003702892, -0.0001186933, 0.0002593961
 199036187, -9.555163E-05, 0.003863004, -2.749178E-05, 0.0002593961
 199136147, -8.370005E-05, 0.003381713, -0.0001249743, 0.0002593961
 199236107, -6.116484E-05, 0.003582707, 1.424935E-05, 0.0002593961
 199336067, -0.000165472, 0.003424538, -1.204366E-05, 0.0002593961
 199436027, 0.0001907229, 0.003589504, -0.0001621491, 0.0002593961
 199535987, -9.061529E-05, 0.003547875, 1.180891E-05, 0.0002593961
 199635947, 8.032121E-05, 0.003372428, 5.245503E-06, 0.0002593961
 199735907, -1.268827E-05, 0.003604408, 6.987643E-06, 0.0002593961
 199835867, -0.0002505371, 0.003869137, -0.0001306309, 0.0002593961
 199935827, -0.0001217717, 0.003520885, -5.469279E-05, 0.0002593961
 200035787, 0.0001927115, 0.003485408, 4.213078E-05, 0.0002593961
 200135747, -2.714751E-05, 0.003482224, 8.585237E-05, 0.0002593961
 200235707, 0.0002499365, 0.003436378, 0.0001028829, 0.0002593961
 200335667, -0.0001916993, 0.003498767, -0.0003658929, 0.0002593961
 200436460, 0.0001587202, 0.003542534, -0.0001856462, 0.0002615578
 200536420, -8.527152E-05, 0.003712098, -0.0001516057, 0.0002593961
 200636380, -0.0001917232, 0.003634708, -5.953553E-05, 0.0002593961
 200736340, 7.245663E-05, 0.003518248, 0.0001255331, 0.0002593961
 200836300, 8.764665E-05, 0.003430087, -8.019817E-05, 0.0002593961
 200936260, -6.782802E-05, 0.003528273, 8.412689E-05, 0.0002593961
 201036220, 0.0001658217, 0.003604432, 2.659567E-05, 0.0002593961
 201136180, -8.635139E-05, 0.003484265, -0.0001749066, 0.0002593961
 201236140, -6.911426E-05, 0.003368645, 1.256678E-05, 0.0002593961
 201336100, -0.0002277063, 0.003487505, 7.952844E-05, 0.0002593961
 201436060, -0.000168735, 0.003557514, -8.609902E-05, 0.0002593961
 201536020, 4.584124E-05, 0.003476082, -9.095963E-05, 0.0002593961
 201635980, 5.329134E-05, 0.003373491, 0.0001596444, 0.0002593961
 201735940, -8.433018E-05, 0.003495483, -8.976921E-05, 0.0002593961
 201835900, -0.0001664943, 0.003576945, -3.162551E-06, 0.0002593961
 201935860, 7.0568E-06, 0.003590231, -8.276846E-05, 0.0002593961
 202035820, 0.0001518465, 0.003508106, -0.0001342487, 0.0002593961
 202135780, 5.705968E-05, 0.003683301, 9.146606E-05, 0.0002593961
 202235740, -1.004028E-05, 0.003528003, -0.0002731625, 0.0002593961
 202335700, 0.000181441, 0.003611698, -7.970362E-05, 0.0002593961
 202435660, -2.224467E-05, 0.003412635, -0.000192925, 0.0002593961
 202536453, 0.0002213792, 0.00354997, -5.296654E-05, 0.0002615578
 202636413, 9.025456E-05, 0.003435091, 9.717618E-06, 0.0002593961
 202736373, 5.461419E-05, 0.003645906, -7.454988E-05, 0.0002593961
 202836333, 9.744418E-05, 0.003482373, -7.867526E-05, 0.0002593961
 202936293, -4.796916E-05, 0.003518115, -0.0002296816, 0.0002593961
 203036253, 0.0001268216, 0.003723488, 7.239546E-05, 0.0002593961
 203136213, 7.116963E-05, 0.00355406, -8.90304E-05, 0.0002593961
 203236173, -0.0001797276, 0.003620011, -0.0002607054, 0.0002593961
 203336133, -7.478472E-05, 0.00359579, -0.0001429355, 0.0002593961
 203436093, 0.0001653639, 0.003334315, 3.987506E-05, 0.0002593961
 203536053, -0.0001911789, 0.003748494, 0.0001880859, 0.0002593961
 203636013, 0.0002408287, 0.003594632, 2.645983E-05, 0.0002593961
 203735973, 2.208324E-05, 0.003703859, -0.0001126733, 0.0002593961
 203835933, -1.364354E-06, 0.003710611, -2.168265E-05, 0.0002593961
 203935893, 0.0001381338, 0.003741286, -5.812584E-05, 0.0002593961
 204035853, 8.703645E-05, 0.003509378, -0.0001362732, 0.0002593961
 204135813, -2.568913E-05, 0.003521261, 2.01097E-05, 0.0002593961
 204235773, 8.495573E-05, 0.003665255, -0.0001590164, 0.0002593961
 204335733, 7.511841E-05, 0.003675502, -0.0002392896, 0.0002593961
 204435693, 6.785314E-06, 0.003476957, -8.055919E-05, 0.0002593961
 204536486, 8.97413E-06, 0.003521028, 8.463813E-05, 0.0002593961
 204636446, 3.31812E-05, 0.003552707, 0.0001475582, 0.0002615578
 204736406, 0.0001233114, 0.003391593, 0.000133063, 0.0002593961
 204836366, 5.193153E-05, 0.00337481, 3.256449E-05, 0.0002593961
 204936326, 2.733553E-05, 0.003531114, -0.0001162266, 0.0002593961
 205036286, -8.034774E-05, 0.003693844, -0.0002741527, 0.0002593961
 205136246, -4.320555E-05, 0.003573709, -1.518832E-05, 0.0002593961
 205236206, 1.311537E-05, 0.003556964, -0.0001639652, 0.0002593961
 205336166, -4.371359E-05, 0.003418217, 4.479047E-05, 0.0002593961
 205436126, 0.0001099326, 0.003440971, 1.916357E-05, 0.0002593961
 205536086, 0.0002189256, 0.003702339, -0.000147186, 0.0002593961
 205636046, 5.336647E-05, 0.003573935, -0.0001099862, 0.0002593961
 205736006, -4.821004E-05, 0.003430287, -9.911269E-05, 0.0002593961
 205835966, -0.000108746, 0.003739057, -6.876821E-06, 0.0002593961
 205935926, 0.0001817443, 0.003524064, -0.0001300494, 0.0002593961
 206035886, -5.52884E-05, 0.003447921, -0.0002087997, 0.0002593961
 206135846, 0.0003001264, 0.003467622, -0.0001115043, 0.0002593961
 206235806, -8.338612E-05, 0.003481406, -3.20783E-05, 0.0002593961
 206335766, 0.0001151038, 0.003405492, 1.16969E-05, 0.0002593961
 206435726, 9.91265E-05, 0.00343825, 4.399326E-05, 0.0002593961
 206535686, 5.022393E-05, 0.003442577, -0.0001034156, 0.0002593961
 206636479, 1.868757E-05, 0.003702657, 4.920061E-05, 0.0002615578
 206736439, 0.000155431, 0.003593227, -8.564144E-06, 0.0002593961
 206836399, -0.0001425476, 0.003706005, 1.663258E-05, 0.0002593961
 206936359, -0.0001473126, 0.003271379, -5.574499E-05, 0.0002593961
 207036319, 9.064486E-05, 0.003668594, -0.000256916, 0.0002593961
 207136279, 4.558485E-05, 0.003660995, -5.273617E-05, 0.0002593961
 207236239, 9.218683E-05, 0.003396864, 2.404444E-05, 0.0002593961
 207336199, 6.261893E-06, 0.003444026, -3.544224E-05, 0.0002593961
 207436159, -0.0001387563, 0.003455443, 8.547462E-05, 0.0002593961
 207536119, 0.0001604344, 0.003373962, -0.0002522878, 0.0002593961
 207636079, 3.488332E-05, 0.003659254, 5.290537E-05, 0.0002593961
 207736039, -4.921885E-05, 0.00343716, -1.006201E-05, 0.0002593961
 207835999, -2.737595E-06, 0.003397649, 5.485485E-05, 0.0002593961
 207935959, 4.847213E-05, 0.0037133, -0.0001773315, 0.0002593961
 208035919, -0.0001519216, 0.003738885, 0.0001063696, 0.0002593961
 208135879, 2.089691E-05, 0.003496629, 7.125863E-05, 0.0002593961
 208235839, 0.0002028383, 0.003630549, -0.000128878, 0.0002593961
 208335799, -0.0001633054, 0.003595799, 0.0002464655, 0.0002593961
 208435759, 2.332431E-06, 0.003544602, -9.097869E-05, 0.0002593961
 208535719, 0.0001066405, 0.003640634, -0.0001205891, 0.0002593961
 208635679, -3.055151E-05, 0.003667363, -0.0001412256, 0.0002593961
 208736472, -4.074684E-05, 0.003785387, 5.469507E-06, 0.0002615578
 208836432, 0.0001545053, 0.003658268, -5.236913E-05, 0.0002593961
 208936392, 9.766208E-05, 0.003651534, -0.0001256857, 0.0002593961
 209036352, 0.0002109497, 0.003455952, 0.0002499617, 0.0002593961
 209136312, 0.0001269654, 0.003567419, -1.742142E-05, 0.0002593961
 209236272, -8.998497E-06, 0.003556679, 2.998344E-05, 0.0002593961
 209336232, 8.45392E-05, 0.003765966, -2.267527E-05, 0.0002593961
 209436192, -5.346832E-05, 0.003395009, -0.0001051387, 0.0002593961
 209536152, -0.0002186731, 0.003490919, -4.391344E-05, 0.0002593961
 209636112, 1.641333E-05, 0.00358556, 0.0001266712, 0.0002593961
 209736072, -6.625053E-05, 0.003429566, -9.584763E-05, 0.0002593961
 209836032, -8.419073E-05, 0.003764711, 5.04995E-05, 0.0002593961
 209935992, 6.689249E-05, 0.003501791, 0.0001012981, 0.0002593961
 210035952, 7.733493E-05, 0.00364119, -3.62144E-05, 0.0002593961
 210135912, -0.0001573702, 0.003534036, 1.202458E-05, 0.0002593961
 210235872, -5.898868E-05, 0.003601071, 0.0001906514, 0.0002593961
 210335832, 3.777803E-05, 0.003609244, -0.0001456489, 0.0002593961
 210435792, 5.616677E-06, 0.003521544, 6.314016E-05, 0.0002593961
 210535752, -0.0001302, 0.003222657, 4.64733E-08, 0.0002593961
 210635712, 6.849528E-05, 0.003412371, -4.253831E-05, 0.0002593961
 210735672, -0.0001194375, 0.003534234, 0.0001189507, 0.0002593961
 210836465, 2.340512E-05, 0.003715235, -8.746462E-06, 0.0002615578
 210936425, -7.512407E-05, 0.003643307, 2.062924E-05, 0.0002593961
 211036385, 0.0001806985, 0.003600591, -9.554382E-06, 0.0002593961
 211136345, -1.373923E-05, 0.003344684, -1.860111E-05, 0.0002593961
 211236305, -3.182127E-05, 0.003485975, -0.0002899524, 0.0002593961
 211336265, -0.0001786255, 0.003499557, -0.0002033957, 0.0002593961
 211436225, -0.0001050735, 0.003694652, 1.064112E-05, 0.0002593961
 211536185, -4.858365E-05, 0.003421968, -0.0003982321, 0.0002593961
 211636145, -6.627334E-05, 0.003537059, -3.714862E-05, 0.0002593961
 211736105, -0.0001989011, 0.003507647, 4.045775E-05, 0.0002593961
 211836065, -0.0001843671, 0.003519524, -8.958449E-05, 0.0002593961
 211936025, 8.45371E-05, 0.003652435, 7.738592E-05, 0.0002593961
 212035985, 3.164503E-05, 0.003641377, -0.0001079664, 0.0002593961
 212135945, 7.871251E-05, 0.003370213, -6.567354E-05, 0.0002593961
 212235905, -7.989606E-06, 0.003592027, 0.0001713854, 0.0002593961
 212335865, -2.714509E-05, 0.003587616, 1.24357E-05, 0.0002593961
 212435825, 0.0001516605, 0.003324556, -0.0001425781, 0.0002593961
 212535785, -3.73476E-05, 0.003601218, 9.002896E-05, 0.0002593961
 212635745, 7.657379E-05, 0.00343557, -4.992867E-06, 0.0002593961
 212735705, -0.000126371, 0.003444606, -6.040897E-05, 0.0002593961
 212835665, -0.0002204313, 0.003456149, -7.077128E-05, 0.0002593961
 212936458, 9.836176E-05, 0.003477111, -0.0002113554, 0.0002615578
 213036418, -0.0001079726, 0.003482475, -0.0002536569, 0.0002593961
 213136378, 0.0001392188, 0.003632537, 7.981682E-05, 0.0002593961
 213236338, -2.24048E-05, 0.00366005, 0.0001257012, 0.0002593961
 213336298, 2.196219E-05, 0.003501101, -2.770746E-05, 0.0002593961
 213436258, 8.245999E-06, 0.003550224, -6.448909E-05, 0.0002593961
 213536218, -2.105362E-05, 0.003559526, -6.492402E-05, 0.0002593961
 213636178, 1.849667E-05, 0.003381924, -0.0001783373, 0.0002593961
 213736138, -0.0001030337, 0.003569947, -4.13038E-05, 0.0002593961
 213836098, 5.586813E-05, 0.00344319, -7.24443E-05, 0.0002593961
 213936058, 9.432276E-05, 0.003608319, -7.350602E-05, 0.0002593961
 214036018, 0.0002136882, 0.003728831, 6.376456E-05, 0.0002593961
 214135978, 1.107884E-05, 0.003716237, -2.684474E-05, 0.0002593961
 214235938, 3.612459E-05, 0.003530105, -1.819121E-05, 0.0002593961
 214335898, 0.0004429925, 0.003517191, 8.081419E-05, 0.0002593961
 214435858, 7.992546E-05, 0.003555388, -3.602851E-05, 0.0002593961
 214535818, 0.0001441074, 0.00364267, -0.0001823613, 0.0002593961
 214635778, 5.901037E-05, 0.003640832, -9.288646E-05, 0.0002593961
 214735738, 3.277137E-05, 0.003798016, -1.491665E-05, 0.0002593961
 214835698, 9.525371E-05, 0.003720022, -7.91388E-05, 0.0002593961
 214935658, -5.10667E-06, 0.003583921, -0.000336081, 0.0002593961
 215036451, 6.336245E-05, 0.003573473, -0.000203563, 0.0002615578
 215136411, -0.0001194487, 0.003721744, -2.688287E-05, 0.0002593961
 215236371, -1.72673E-05, 0.003719579, -8.990737E-06, 0.0002593961
 215336331, -6.275061E-05, 0.003524471, -5.633961E-06, 0.0002593961
 215436291, 0.0001011311, 0.003301504, 1.643595E-05, 0.0002593961
 215536251, -4.963377E-05, 0.003599446, -8.880758E-05, 0.0002593961
 215636211, 3.087534E-06, 0.003492553, 2.313642E-05, 0.0002593961
 215736171, 0.000252807, 0.00342607, -0.0001294762, 0.0002593961
 215836131, 0.0001476066, 0.003413663, 0.0001091759, 0.0002593961
 215936091, 0.0001086205, 0.003420585, -6.193067E-05, 0.0002593961
 216036051, -3.289627E-06, 0.003427667, -6.757655E-06, 0.0002593961
 216136011, -1.057909E-05, 0.003549468, -7.685686E-05, 0.0002593961
 216235971, 6.087785E-05, 0.003398926, 8.154109E-05, 0.0002593961
 216335931, 0.0002149593, 0.003289298, -0.0002093205, 0.0002593961
 216435891, 0.0001116496, 0.00372755, -0.0001125136, 0.0002593961
 216535851, -9.057483E-05, 0.003458382, -0.0001137207, 0.0002593961
 216635811, -0.0001089665, 0.003465075, 8.520413E-05, 0.0002593961
 216735771, -0.0002457512, 0.003501809, -0.0002033409, 0.0002593961
 216835731, 2.929567E-05, 0.00337118, -0.000259746, 0.0002593961
 216935691, -8.466723E-06, 0.003500062, -0.0002829313, 0.0002593961
 217036484, 5.748349E-05, 0.00347961, -0.0002489138, 0.0002615578
 217136444, 1.157804E-05, 0.003428814, -8.517674E-05, 0.0002593961
 217236404, 0.0001415336, 0.003543948, 0.0001631835, 0.0002593961
 217336364, 4.66786E-06, 0.003456246, 5.814846E-05, 0.0002593961
 217436324, 1.547449E-05, 0.003464109, -0.0002053035, 0.0002593961
 217536284, -0.0002082913, 0.003512942, 2.309471E-05, 0.0002593961
 217636244, -0.0001396059, 0.003459007, -0.0001219822, 0.0002593961
 217736204, -0.0001200649, 0.003695419, 8.905423E-05, 0.0002593961
 217836164, -0.0001630028, 0.003656984, -3.265982E-05, 0.0002593961
 217936124, 8.365422E-05, 0.003528861, -0.0001959244, 0.0002593961
 218036084, -8.613808E-05, 0.00356108, -3.287431E-05, 0.0002593961
 218136044, -5.794501E-05, 0.003510606, -2.267764E-05, 0.0002593961
 218236004, 4.356929E-05, 0.003465677, -7.56974E-05, 0.0002593961
 218335964, 1.691898E-05, 0.003701528, 2.20449E-05, 0.0002593961
 218435924, 0.0001924146, 0.00356185, -0.0001570526, 0.0002593961
 218535884, 2.07888E-05, 0.003527254, -0.0003310869, 0.0002593961
 218635844, -7.101972E-05, 0.003549791, -8.661877E-06, 0.0002593961
 218735804, 4.871586E-05, 0.003578282, -8.7411E-05, 0.0002593961
 218835764, 6.362572E-05, 0.003618466, -0.0001952129, 0.0002593961
 218935724, -5.699634E-05, 0.003681882, 2.282302E-05, 0.0002593961
 219035684, -5.631892E-05, 0.003578875, -0.0001695515, 0.0002593961
 219136477, 0.0002001106, 0.003924232, -0.0001591713, 0.0002615578
 219236437, 6.173452E-05, 0.003616784, -7.469646E-05, 0.0002593961
 219336397, 4.435499E-05, 0.003487809, 0.0001171954, 0.0002593961
 219436357, 0.0002016964, 0.003601413, -0.0001576293, 0.0002593961
 219536317, 2.064368E-05, 0.003505669, -0.0003689077, 0.0002593961
 219636277, -7.973726E-05, 0.003442923, 4.898974E-05, 0.0002593961
 219736237, -2.358253E-05, 0.003699718, -0.0001504939, 0.0002593961
 219836197, 9.419403E-05, 0.003566307, -2.111782E-05, 0.0002593961
 219936157, -2.651665E-05, 0.00349809, -0.0002052046, 0.0002593961
 220036117, 4.392082E-05, 0.003680858, 7.202123E-06, 0.0002593961
 220136077, 0.0001029148, 0.00359091, -0.0001510016, 0.0002593961
 220236037, -3.677032E-06, 0.003244461, -4.709386E-05, 0.0002593961
 220335997, -8.430581E-05, 0.003526182, 2.797558E-05, 0.0002593961
 220435957, 3.799274E-05, 0.003632362, -1.95711E-05, 0.0002593961
 220535917, -3.686069E-05, 0.003514709, -4.265866E-05, 0.0002593961
 220635877, -8.305587E-05, 0.003788712, -8.22513E-05, 0.0002593961
 220735837, 5.146146E-05, 0.003533183, 0.0001172348, 0.0002593961
 220835797, -0.0001768844, 0.003778932, -2.828183E-05, 0.0002593961
 220935757, 4.806757E-05, 0.003635376, -0.0002553263, 0.0002593961
 221035717, 3.267381E-05, 0.00355806, 5.292681E-05, 0.0002593961
 221135677, 0.0002294229, 0.003539131, -2.275986E-05, 0.0002593961
 221236470, -2.400867E-05, 0.003516292, -0.000291611, 0.0002615578
 221336430, -0.0001337696, 0.003623271, -0.0002957579, 0.0002593961
 221436390, 5.396955E-05, 0.003657589, 3.132999E-05, 0.0002593961
 221536350, 0.0001250148, 0.003561425, 0.0002115845, 0.0002593961
 221636310, 0.0002200573, 0.003454037, -0.0002418504, 0.0002593961
 221736270, -0.0001286728, 0.003432077, -0.0002049377, 0.0002593961
 221836230, -0.0001267034, 0.003621868, -0.000143635, 0.0002593961
 221936190, 0.0001036944, 0.003712186, -6.406129E-05, 0.0002593961
 222036150, 9.798722E-05, 0.003638374, -9.652086E-06, 0.0002593961
 222136110, 3.545909E-05, 0.003576952, -5.309364E-05, 0.0002593961
 222236070, -1.085872E-05, 0.003660083, -0.0001279939, 0.0002593961
 222336030, -6.792197E-05, 0.003683825, -0.0002231909, 0.0002593961
 222435990, 2.328114E-05, 0.003594551, -0.0001587161, 0.0002593961
 222535950, -0.0003292615, 0.003378093, -0.0002189451, 0.0002593961
 222635910, -2.238728E-05, 0.003525874, -7.254439E-05, 0.0002593961
 222735870, 0.0001527426, 0.003544465, -9.985266E-05, 0.0002593961
 222835830, 0.0001665589, 0.003796164, 9.020057E-05, 0.0002593961
 222935790, -0.0001039444, 0.003467306, -0.0002082159, 0.0002593961
 223035750, 5.310947E-05, 0.00343456, -0.0002603014, 0.0002593961
 223135710, -0.0001253369, 0.003507346, -7.304368E-05, 0.0002593961
 223235670, -0.0001460408, 0.003427634, -2.611188E-05, 0.0002593961
 223336463, -3.873165E-06, 0.003467575, -2.028369E-05, 0.0002615578
 223436423, -7.803245E-05, 0.003618183, -0.0001622326, 0.0002593961
 223536383, 0.0001479687, 0.003622255, -0.0001682026, 0.0002593961
 223636343, -0.000238729, 0.003622895, -3.458188E-05, 0.0002593961
 223736303, -3.684018E-05, 0.00357353, -7.588926E-05, 0.0002593961
 223836263, -0.0002050953, 0.00363786, -2.345338E-05, 0.0002593961
 223936223, -0.0001288366, 0.003738339, 0.000153467, 0.0002593961
 224036183, -0.0003106129, 0.003684235, -0.000144773, 0.0002593961
 224136143, -7.380089E-05, 0.003689977, -7.852869E-05, 0.0002593961
 224236103, 1.758963E-05, 0.003565639, -0.000124624, 0.0002593961
 224336063, 0.0001156141, 0.003415552, -0.0001895813, 0.0002593961
 224436023, 5.630197E-05, 0.003562196, -6.868951E-05, 0.0002593961
 224535983, -6.439145E-05, 0.003584775, -0.0001112981, 0.0002593961
 224635943, -0.0001536094, 0.00359901, -0.0001604761, 0.0002593961
 224735903, 0.0002306837, 0.003669737, -6.164706E-05, 0.0002593961
 224835863, 3.543389E-06, 0.003449553, -3.550776E-05, 0.0002593961
 224935823, -4.714078E-05, 0.00357813, 1.338423E-05, 0.0002593961
 225035783, -7.675814E-05, 0.003537011, -1.102483E-05, 0.0002593961
 225135743, 0.0001782236, 0.003463951, 5.832723E-05, 0.0002593961
 225235703, 0.0001221391, 0.003542447, -3.133116E-05, 0.0002593961
 225335663, -3.969551E-05, 0.003708437, -0.0002496877, 0.0002593961
 225436456, -1.107301E-05, 0.00349005, -6.456256E-05, 0.0002615578
 225536416, -0.0001908014, 0.003550972, -0.0001959124, 0.0002593961
 225636376, -0.0001602565, 0.003568379, -0.000146589, 0.0002593961
 225736336, -2.844434E-05, 0.003763187, -3.898134E-05, 0.0002593961
 225836296, 0.0003218057, 0.003743635, 2.595343E-06, 0.0002593961
 225936256, 7.547089E-05, 0.003542227, 3.005018E-05, 0.0002593961
 226036216, -6.239857E-05, 0.003568905, -6.403626E-05, 0.0002593961
 226136176, 7.667144E-05, 0.003485814, -0.0001365568, 0.0002593961
 226236136, 8.902771E-05, 0.0035131, -5.739539E-05, 0.0002593961
 226336096, -0.0002048896, 0.003625371, -0.0003182949, 0.0002593961
 226436056, 9.041858E-05, 0.003571881, -0.0002359841, 0.0002593961
 226536016, 2.594464E-05, 0.00362398, 3.651112E-05, 0.0002593961
 226635976, -0.0001180724, 0.003770185, -0.0001834791, 0.0002593961
 226735936, -2.834141E-05, 0.003564292, -0.0002490609, 0.0002593961
 226835896, -0.0001584238, 0.003559308, -6.38873E-05, 0.0002593961
 226935856, -0.0001460049, 0.003613715, -6.318068E-05, 0.0002593961
 227035816, 7.836356E-05, 0.003541397, -7.545312E-05, 0.0002593961
 227135776, 0.0001180762, 0.003871417, -4.252639E-05, 0.0002593961
 227235736, 5.548291E-06, 0.003546421, -0.0002326595, 0.0002593961
 227335696, 6.402723E-05, 0.003487181, -0.0001953368, 0.0002593961
 227435656, -4.610554E-05, 0.00372486, -2.594982E-05, 0.0002593961
 227536449, -8.447185E-05, 0.003770964, 5.704107E-05, 0.0002615578
 227636409, 1.487923E-05, 0.003705203, 0.0001022812, 0.0002593961
 227736369, 0.0002102229, 0.003861886, -0.0002665503, 0.0002593961
 227836329, 3.306757E-05, 0.003614433, -0.0002500547, 0.0002593961
 227936289, 7.277668E-06, 0.003340333, -7.273505E-05, 0.0002593961
 228036249, 0.0001010332, 0.003606962, -0.0001634624, 0.0002593961
 228136209, -7.010657E-05, 0.003567636, 5.404336E-05, 0.0002593961
 228236169, 5.861892E-05, 0.003728429, -0.0001298218, 0.0002593961
 228336129, 3.669082E-05, 0.003626168, 0.0001756192, 0.0002593961
 228436089, 0.0003016428, 0.003460883, -0.0002318158, 0.0002593961
 228536049, 1.17211E-05, 0.003727153, 9.429736E-05, 0.0002593961
 228636009, 0.000278126, 0.003455844, -7.175315E-05, 0.0002593961
 228735969, 4.748541E-05, 0.0037124, -3.463551E-05, 0.0002593961
 228835929, 9.99137E-05, 0.00369458, 7.589761E-05, 0.0002593961
 228935889, 0.0001739643, 0.00375676, 6.317232E-05, 0.0002593961
 229035849, -0.0002339935, 0.003587678, -8.704638E-05, 0.0002593961
 229135809, -0.0001068015, 0.003562418, -7.590594E-05, 0.0002593961
 229235769, -8.797903E-05, 0.003607409, -0.0002122816, 0.0002593961
 229335729, 0.0001544222, 0.003699887, -0.0001928333, 0.0002593961
 229435689, 0.0001163238, 0.003676963, 7.221789E-05, 0.0002593961
 229536482, 0.0001302756, 0.003649021, 0.0001035983, 0.0002615578
 229636442, 0.0001204446, 0.00347724, -6.880398E-06, 0.0002593961
 229736402, -0.0001045316, 0.003825319, 7.196765E-05, 0.0002593961
 229836362, 0.0002311806, 0.003767608, -0.0001236969, 0.0002593961
 229936322, -0.0001437954, 0.003543665, -0.0002686045, 0.0002593961
 230036282, -0.0001411514, 0.00366142, -0.0002482291, 0.0002593961
 230136242, -0.0001067939, 0.003475249, -0.000129991, 0.0002593961
 230236202, 8.982542E-05, 0.003730669, -3.142053E-05, 0.0002593961
 230336162, 4.498557E-05, 0.003661874, -4.823662E-05, 0.0002593961
 230436122, -0.0001036542, 0.003485156, 3.951756E-05, 0.0002593961
 230536082, 3.030095E-05, 0.003631796, 3.722846E-05, 0.0002593961
 230636042, 6.991735E-05, 0.00354019, -8.596318E-05, 0.0002593961
 230736002, 2.286327E-05, 0.003773939, 6.392661E-05, 0.0002593961
 230835962, 6.733999E-05, 0.003767167, -0.0001061658, 0.0002593961
 230935922, -0.0001253428, 0.00364648, -0.0001035955, 0.0002593961
 231035882, 9.022993E-05, 0.003489261, -0.0001283811, 0.0002593961
 231135842, -0.0001399136, 0.003788345, -0.0001509527, 0.0002593961
 231235802, -7.838743E-05, 0.003645983, -0.0001884529, 0.0002593961
 231335762, -0.0002833539, 0.003575585, -0.0001796064, 0.0002593961
 231435722, -1.11352E-05, 0.003590732, -5.236079E-05, 0.0002593961
 231535682, 0.0001893743, 0.003579862, -0.0003063693, 0.0002593961
 231636475, -0.0001858166, 0.003588344, -0.0001690383, 0.0002615578
 231736435, -0.0001775005, 0.003481796, -0.0001115555, 0.0002593961
 231836395, 3.211501E-05, 0.003707891, 9.370034E-05, 0.0002593961
 231936355, -9.488652E-05, 0.003531846, 1.020381E-05, 0.0002593961
 232036315, -6.044208E-05, 0.003455327, -0.0001255082, 0.0002593961
 232136275, -0.0001903837, 0.003588091, -1.799697E-05, 0.0002593961
 232236235, -7.678552E-05, 0.003396211, -0.0001079163, 0.0002593961
 232336195, 0.0001894286, 0.003566608, -0.0001357846, 0.0002593961
 232436155, -8.086048E-06, 0.003467941, -1.138589E-05, 0.0002593961
 232536115, -0.0002139744, 0.00339738, -0.000279857, 0.0002593961
 232636075, 0.0001691028, 0.003591198, 0.0001386112, 0.0002593961
 232736035, 9.840921E-05, 0.003714776, 0.0001063672, 0.0002593961
 232835995, 3.131916E-05, 0.00352854, 1.378819E-05, 0.0002593961
 232935955, 7.568625E-06, 0.003705973, -0.0001594275, 0.0002593961
 233035915, 0.00019407, 0.00384764, -3.22642E-05, 0.0002593961
 233135875, -0.0001387437, 0.003537674, -0.0002135876, 0.0002593961
 233235835, -0.0002316004, 0.0033867, -3.270272E-05, 0.0002593961
 233335795, -0.0001175185, 0.003490174, 1.181131E-05, 0.0002593961
 233435755, -0.0001680066, 0.003524113, -5.680553E-05, 0.0002593961
 233535715, -7.140791E-05, 0.003513624, -0.0001540294, 0.0002593961
 233635675, -0.0002419177, 0.003720847, 0.0001040376, 0.0002593961
 233736468, -0.0001551202, 0.003604115, -8.351044E-05, 0.0002615578
 233836428, -1.61927E-06, 0.003464735, -0.0002297972, 0.0002593961
 233936388, 0.0001878168, 0.003715283, 6.731439E-05, 0.0002593961
 234036348, 1.565231E-05, 0.003603412, -0.0002238844, 0.0002593961
 234136308, 0.0001037074, 0.00355797, -0.0001000457, 0.0002593961
 234236268, 0.0001409573, 0.003671721, -0.0001505952, 0.0002593961
 234336228, 7.539395E-05, 0.00353277, 0.0001657073, 0.0002593961
 234436188, 7.672851E-05, 0.003551715, -0.0001044487, 0.0002593961
 234536148, -0.0001861916, 0.003762808, -5.980364E-05, 0.0002593961
 234636108, 5.530169E-05, 0.003801062, -0.0002151439, 0.0002593961
 234736068, -5.981867E-05, 0.003813014, -5.043276E-05, 0.0002593961
 234836028, 5.544324E-05, 0.003676326, -0.0001301125, 0.0002593961
 234935988, 0.0001039817, 0.003519399, -8.777683E-05, 0.0002593961
 235035948, -0.0001814524, 0.003598934, -0.0001188232, 0.0002593961
 235135908, -4.800479E-05, 0.003583368, -0.0003096891, 0.0002593961
 235235868, 0.0001475263, 0.003530536, -1.778844E-05, 0.0002593961
 235335828, 4.864867E-05, 0.003577576, -3.934716E-05, 0.0002593961
 235435788, -1.814037E-05, 0.003593645, -4.863223E-05, 0.0002593961
 235535748, 0.0001162535, 0.003563458, -0.0001180391, 0.0002593961
 235635708, -9.661075E-05, 0.003722172, -0.0001065555, 0.0002593961
 235735668, -5.609395E-05, 0.003526284, -0.0001034633, 0.0002593961
 235836461, -0.0001627012, 0.00347204, 4.625654E-05, 0.0002615578
 235936421, -0.0001830901, 0.003497866, -0.0001946588, 0.0002593961
 236036381, -0.0003715136, 0.003604554, 1.092712E-05, 0.0002593961
 236136341, -9.397111E-05, 0.003467645, 0.0001971719, 0.0002593961
 236236301, 2.600679E-05, 0.003575806, -0.0001866309, 0.0002593961
 236336261, 8.097692E-05, 0.003461483, -3.36E-05, 0.0002593961
 236436221, 0.0001297568, 0.003599723, -0.0001922839, 0.0002593961
 236536181, -3.550886E-05, 0.003372047, -0.0001150195, 0.0002593961
 236636141, 3.896223E-06, 0.003477419, -0.000252886, 0.0002593961
 236736101, -2.231999E-05, 0.003454864, 2.110709E-05, 0.0002593961
 236836061, -9.562491E-05, 0.003570554, 3.762767E-05, 0.0002593961
 236936021, 6.847849E-05, 0.003607848, -5.440681E-05, 0.0002593961
 237035981, 0.0001545671, 0.003801923, 8.296388E-05, 0.0002593961
 237135941, -0.0002203897, 0.003697888, 9.662935E-05, 0.0002593961
 237235901, 5.760577E-05, 0.00371047, -0.0001777021, 0.0002593961
 237335861, -0.0001530404, 0.003569836, -0.0002265584, 0.0002593961
 237435821, -0.0003050766, 0.003664505, 1.485826E-05, 0.0002593961
 237535781, 3.058159E-05, 0.003667525, -1.829608E-05, 0.0002593961
 237635741, -0.00010247, 0.003295025, 3.112502E-05, 0.0002593961
 237735701, -4.027936E-05, 0.003376535, 9.196059E-05, 0.0002593961
 237835661, 2.235841E-06, 0.003698128, 5.815324E-05, 0.0002593961
 237936454, 5.960889E-05, 0.003717713, -0.0002691503, 0.0002615578
 238036414, -6.999466E-06, 0.003765095, -1.603558E-05, 0.0002593961
 238136374, -0.0001590999, 0.003604203, 5.612154E-05, 0.0002593961
 238236334, 7.668774E-06, 0.003529768, -0.0001114316, 0.0002593961
 238336294, -9.078725E-07, 0.003426855, -1.768E-05, 0.0002593961
 238436254, 5.412783E-05, 0.003706777, -0.0001153389, 0.0002593961
 238536214, 1.30164E-05, 0.003704735, -3.301015E-05, 0.0002593961
 238636174, -5.043996E-05, 0.0036263, 5.104885E-05, 0.0002593961
 238736134, -0.0002943299, 0.003443148, -9.207855E-05, 0.0002593961
 238836094, 1.215678E-05, 0.00365111, -8.551036E-05, 0.0002593961
 238936054, 0.0001779459, 0.003484571, -1.873459E-05, 0.0002593961
 239036014, -1.500859E-05, 0.003460622, -6.119543E-05, 0.0002593961
 239135974, -8.678116E-05, 0.003590715, -0.0001541034, 0.0002593961
 239235934, -7.38927E-05, 0.003560317, -0.0001267534, 0.0002593961
 239335894, 0.0001409247, 0.003532023, -0.0001966393, 0.0002593961
 239435854, 1.729715E-05, 0.003652353, 3.509548E-05, 0.0002593961
 239535814, -6.119695E-05, 0.00367793, 6.147785E-05, 0.0002593961
 239635774, -0.0001451867, 0.003622617, -0.0002262367, 0.0002593961
 239735734, 2.759689E-05, 0.003865704, -6.556034E-05, 0.0002593961
 239835694, 0.0001887883, 0.003568192, 9.970133E-05, 0.0002593961
 239935654, 0.0001160983, 0.003683596, 0.000154493, 0.0002593961
 240036447, 5.301058E-05, 0.003620738, 9.143071E-05, 0.0002615578
 240136407, -0.0001841838, 0.003689504, -1.288494E-05, 0.0002593961
 240236367, -0.0001708035, 0.003694605, -0.0001687483, 0.0002593961
 240336327, 5.673413E-05, 0.003677286, 1.64729E-05, 0.0002593961
 240436287, -4.836888E-05, 0.003488287, 0.0001533908, 0.0002593961
 240536247, -0.0003264628, 0.003615363, -0.0001522051, 0.0002593961
 240636207, -4.707244E-05, 0.003624025, -9.84227E-05, 0.0002593961
 240736167, 0.0001172147, 0.003651933, -0.0001336052, 0.0002593961
 240836127, -0.0001873958, 0.003516845, -0.0001687745, 0.0002593961
 240936087, 0.0001133574, 0.003325678, 4.065197E-05, 0.0002593961
 241036047, 4.036601E-05, 0.003356555, -0.0001300983, 0.0002593961
 241136007, -0.0002564936, 0.0036721, -4.240486E-05, 0.0002593961
 241235967, -0.000181322, 0.003615004, 4.609529E-05, 0.0002593961
 241335927, -6.046389E-06, 0.003622186, 7.309253E-05, 0.0002593961
 241435887, -0.0001468449, 0.003500896, -0.0001121621, 0.0002593961
 241535847, 0.0001037172, 0.003535614, -1.986186E-05, 0.0002593961
 241635807, -0.0001558408, 0.003566862, -0.0001078389, 0.0002593961
 241735767, 9.496196E-05, 0.003572865, -9.998732E-05, 0.0002593961
 241835727, 1.190616E-05, 0.003409938, -0.000254628, 0.0002593961
 241935687, -8.938932E-06, 0.003696249, -8.578681E-05, 0.0002593961
 242036480, 1.988308E-05, 0.003705636, 0.000114017, 0.0002615578
 242136440, 1.621128E-05, 0.003414924, -0.0001080033, 0.0002593961
 242236400, -1.589564E-05, 0.003610363, 6.598931E-05, 0.0002593961
 242336360, -4.327212E-05, 0.003529979, -0.0003050966, 0.0002593961
 242436320, -0.0001076904, 0.003518482, -4.017533E-05, 0.0002593961
 242536280, -2.902884E-05, 0.003736214, -9.162217E-05, 0.0002593961
 242636240, 6.526295E-05, 0.00346282, -0.0002028643, 0.0002593961
 242736200, -0.000166755, 0.003509197, -0.0003143638, 0.0002593961
 242836160, -0.0001006815, 0.003441292, -5.921974E-05, 0.0002593961
 242936120, -3.522854E-05, 0.003658524, -0.0001931681, 0.0002593961
 243036080, 5.391111E-05, 0.003712257, -1.722839E-05, 0.0002593961
 243136040, -0.0001477871, 0.003651996, 8.657805E-05, 0.0002593961
 243236000, -8.497826E-05, 0.003528886, -4.219393E-05, 0.0002593961
 243335960, -0.0001509514, 0.003593367, -0.000141048, 0.0002593961
 243435920, 0.0002537904, 0.003493722, -8.242407E-05, 0.0002593961
 243535880, 0.0001953402, 0.00381437, -2.532065E-05, 0.0002593961
 243635840, -4.056233E-05, 0.003562939, 5.186629E-05, 0.0002593961
 243735800, -3.811178E-05, 0.003798334, -0.0001576055, 0.0002593961
 243835760, -8.108521E-05, 0.003656131, -4.864057E-05, 0.0002593961
 243935720, -0.0001043909, 0.003478886, 0.0001825067, 0.0002593961
 244035680, -3.720549E-05, 0.00360432, -0.0001813282, 0.0002593961
 244136473, -0.000331673, 0.003722288, -9.93915E-05, 0.0002615578
 244236433, -0.0001340471, 0.003618444, -0.0001926426, 0.0002593961
 244336393, -4.95455E-05, 0.003584746, -6.32915E-05, 0.0002593961
 244436353, 0.0001213824, 0.003679606, -8.82475E-05, 0.0002593961
 244536313, -0.0001838422, 0.003713498, -0.0001974079, 0.0002593961
 244636273, 9.150715E-05, 0.003618522, -0.0001115484, 0.0002593961
 244736233, -2.98395E-05, 0.003663311, -8.709642E-05, 0.0002593961
 244836193, -7.233162E-05, 0.003545792, -6.094521E-05, 0.0002593961
 244936153, 4.285589E-05, 0.003698714, -5.048161E-05, 0.0002593961
 245036113, 5.681619E-06, 0.003560815, -6.919359E-05, 0.0002593961
 245136073, 0.0001178437, 0.003731921, -0.0001597159, 0.0002593961
 245236033, 0.0001443419, 0.003726034, 9.130517E-05, 0.0002593961
 245335993, -6.486597E-05, 0.003571099, -8.814383E-06, 0.0002593961
 245435953, -6.551472E-05, 0.003645096, -0.000144375, 0.0002593961
 245535913, -0.0002166074, 0.003686365, -0.0001256547, 0.0002593961
 245635873, -0.0001907901, 0.003498895, 8.782687E-05, 0.0002593961
 245735833, -0.0001432761, 0.003380763, -6.038157E-05, 0.0002593961
 245835793, 5.384518E-05, 0.003387655, -0.0001704381, 0.0002593961
 245935753, 0.0001560806, 0.003517158, -0.0001443393, 0.0002593961
 246035713, 0.0003077307, 0.003442425, 1.62894E-05, 0.0002593961
 246135673, 0.0001295206, 0.003451667, -0.0001559218, 0.0002593961
 246236466, -8.903692E-05, 0.00358089, -1.82659E-05, 0.0002615578
 246336426, -0.0001259215, 0.003756845, -0.0004173886, 0.0002593961
 246436386, -8.327923E-05, 0.003648946, -0.0002529348, 0.0002593961
 246536346, 8.601035E-05, 0.003645655, -5.001689E-05, 0.0002593961
 246636306, -3.766823E-05, 0.003712377, -0.0001289507, 0.0002593961
 246736266, 0.0001215102, 0.003350994, -4.198061E-05, 0.0002593961
 246836226, -8.67764E-05, 0.003399953, -4.463674E-05, 0.0002593961
 246936186, -5.775576E-06, 0.003706729, -1.260253E-05, 0.0002593961
 247036146, -6.024637E-05, 0.003729565, -8.633255E-06, 0.0002593961
 247136106, -0.0001113041, 0.003651107, -4.830812E-05, 0.0002593961
 247236066, -4.347456E-05, 0.003631924, 8.046506E-05, 0.0002593961
 247336026, -0.0001040996, 0.003606047, 0.0001160205, 0.0002593961
 247435986, 2.069912E-05, 0.003586183, -7.447622E-07, 0.0002593961
 247535946, -8.548937E-05, 0.003466343, 6.870859E-05, 0.0002593961
 247635906, -0.0001463846, 0.003763482, -6.432342E-05, 0.0002593961
 247735866, 5.722152E-05, 0.003617135, -0.01916206, 0.0002593961
 247835826, 0.0004403032, 0.003827586, -0.1914927, 0.0002593961
 247935786, 0.0001545965, 0.003687864, -0.1003655, 0.0002593961
 248035746, -9.993189E-05, 0.003509396, 0.01516911, 0.0002593961
 248135706, -0.0002397196, 0.003434394, 0.0567968, 0.0002593961
 248235666, -0.0001516015, 0.003490314, 0.04615343, 0.0002593961
 248336459, -4.070806E-05, 0.003540474, -0.2133884, 0.0002615578
 248436419, -0.001447051, 0.00202422, -0.7024462, 0.0002593961
 248536379, -0.00451106, -0.00113256, -0.5903385, 0.0002593961
 248636339, -0.007078278, -0.003753234, -0.2947778, 0.0002593961
 248736299, -0.008466563, -0.004879733, -0.09961362, 0.0002593961
 248836259, -0.008912401, -0.005115514, -0.04930396, 0.0002593961
 248936219, -0.008539466, -0.004820872, -0.07654949, 0.0002593961
 249036179, -0.008173821, -0.004322818, -0.111683, 0.0002593961
 249136139, -0.00762262, -0.003535854, -0.1248634, 0.0002593961
 249236099, -0.00693386, -0.003073351, -0.1181408, 0.0002593961
 249336059, -0.006330228, -0.002265105, -0.1043251, 0.0002593961
 249436019, -0.005932694, -0.001792945, -0.09215856, 0.0002593961
 249535979, -0.005319902, -0.001207375, -0.08447357, 0.0002593961
 249635939, -0.004823907, -0.0007563952, -0.07947724, 0.0002593961
 249735899, -0.00441965, -0.000285983, -0.07558538, 0.0002593961
 249835859, -0.003917323, 0.000141655, -0.07158539, 0.0002593961
 249935819, -0.003553119, 0.0006625417, -0.06698512, 0.0002593961
 250035779, -0.003368386, 0.001103295, -0.06214219, 0.0002593961
 250135739, -0.002890287, 0.001555584, -0.05838474, 0.0002593961
 250235699, -0.002698888, 0.001567256, -0.054826, 0.0002593961
 250335659, -0.00240624, 0.0018593, -0.05137783, 0.0002593961
 250436452, -0.002111083, 0.001906825, -0.04865889, 0.0002615578
 250536412, -0.001677638, 0.002182003, -0.04529059, 0.0002593961
 250636372, -0.001623793, 0.002376844, -0.04227395, 0.0002593961
 250736332, -0.001478986, 0.002370528, -0.03910295, 0.0002593961
 250836292, -0.001330332, 0.002603181, -0.0361225, 0.0002593961
 250936252, -0.001215864, 0.002614822, -0.03406005, 0.0002593961
 251036212, -0.001234039, 0.002794129, -0.03248201, 0.0002593961
 251136172, -0.001225561, 0.002638118, -0.03072209, 0.0002593961
 251236132, -0.001189119, 0.002783638, -0.02874464, 0.0002593961
 251336092, -0.001137911, 0.002832672, -0.02683352, 0.0002593961
 251436052, -0.00128072, 0.002721264, -0.02532823, 0.0002593961
 251536012, -0.001143708, 0.002609473, -0.02368696, 0.0002593961
 251635972, -0.001183703, 0.002623004, -0.02221975, 0.0002593961
 251735932, -0.0009941775, 0.002811133, -0.0207235, 0.0002593961
 251835892, -0.0004661932, 0.003076055, 0.07218112, 0.0002593961
 251935852, 0.0008165693, 0.004186739, 0.2902738, 0.0002593961
 252035812, 0.0006918505, 0.003721448, 0.26972, 0.0002593961
 252135772, 0.0008349026, 0.003635838, 0.2517245, 0.0002593961
 252235732, 0.0009199105, 0.003423929, 0.2357126, 0.0002593961
 252335692, 0.0006405684, 0.003556572, 0.2209713, 0.0002593961
 252436485, 0.0008252912, 0.003405449, 0.208804, 0.0002615578
 252536445, 0.0007902704, 0.003480354, 0.1940788, 0.0002593961
 252636405, 0.0009446465, 0.003396855, 0.1815276, 0.0002593961
 252736365, 0.0009435582, 0.003397569, 0.1699804, 0.0002593961
 252836325, 0.0008306914, 0.003505979, 0.1592117, 0.0002593961
 252936285, 0.0006943076, 0.00370098, 0.1493252, 0.0002593961
 253036245, 0.0008311844, 0.003711439, 0.1401191, 0.0002593961
 253136205, 0.0007098839, 0.003712288, 0.1290826, 0.0002593961
 253236165, 0.0003191142, 0.003362346, 0.123247, 0.0002593961
 253336125, -0.001841473, -0.0001866116, 0.1212769, 0.0002593961
 253436085, -0.006078825, -0.006582927, 0.1107636, 0.0002593961
 253536045, -0.01155569, -0.009770158, 0.09896581, 0.0002593961
 253636005, -0.01664112, -0.005816849, 0.0885252, 0.0002593961
 253735965, -0.02161447, 0.002243235, 0.07816004, 0.0002593961
 253835925, -0.02706378, 0.0105345, 0.06721418, 0.0002593961
 253935885, -0.03275401, 0.01819888, 0.05753877, 0.0002593961
 254035845, -0.03873612, 0.02496626, 0.04838311, 0.0002593961
 254135805, -0.04493596, 0.0296706, 0.04151068, 0.0002593961
 254235765, -0.05065529, 0.03168606, 0.03542288, 0.0002593961
 254335725, -0.0558245, 0.03076844, 0.02984765, 0.0002593961
 254435685, -0.0590117, 0.02789004, 0.02477644, 0.0002593961
 254536478, -0.05985567, 0.02397005, 0.02142442, 0.0002615578
 254636438, -0.05755603, 0.01927172, 0.01711404, 0.0002593961
 254736398, -0.05607984, 0.01457482, 0.01553447, 0.0002593961
 254836358, -0.05711002, 0.01074422, 0.01379522, 0.0002593961
 254936318, -0.0614145, 0.007690322, 0.01163502, 0.0002593961
 255036278, -0.06801178, 0.006019837, 0.01005531, 0.0002593961
 255136238, -0.07323124, 0.007038117, 0.008135648, 0.0002593961
 255236198, -0.07483836, 0.01073406, 0.008202874, 0.0002593961
 255336158, -0.07743595, 0.01159501, 0.007819201, 0.0002593961
 255436118, -0.08294024, 0.006167009, 0.008315028, 0.0002593961
 255536078, -0.08941645, -0.004655005, 0.007424439, 0.0002593961
 255636038, -0.0933324, -0.01728803, 0.006243561, 0.0002593961
 255735998, -0.09157039, -0.02656623, 0.00527133, 0.0002593961
 255835958, -0.08396342, -0.02962872, 0.003998375, 0.0002593961
 255935918, -0.07418148, -0.02724499, 0.003533175, 0.0002593961
 256035878, -0.0669018, -0.02198843, 0.002976856, 0.0002593961
 256135838, -0.06326316, -0.01716445, 0.00256311, 0.0002593961
 256235798, -0.06240617, -0.01489816, 0.003222442, 0.0002593961
 256335758, -0.06262434, -0.01806909, 0.003158497, 0.0002593961
 256435718, -0.06269968, -0.02694547, 0.001888598, 0.0002593961
 256535678, -0.06182389, -0.0362283, 0.00103596, 0.0002593961
 256636471, -0.06059726, -0.04086695, 0.0009786645, 0.0002615578
 256736431, -0.05948905, -0.03735661, 0.0001519668, 0.0002593961
 256836391, -0.05981492, -0.02803882, -0.0003293376, 0.0002593961
 256936351, -0.0615317, -0.01781343, -0.0004530464, 0.0002593961
 257036311, -0.06339421, -0.01097932, -0.001135995, 0.0002593961
 257136271, -0.06292356, -0.008992583, -0.000504106, 0.0002593961
 257236231, -0.05931545, -0.01077035, -0.0008386307, 0.0002593961
 257336191, -0.05247533, -0.01557645, -0.00136927, 0.0002593961
 257436151, -0.043819, -0.02183161, -0.001077207, 0.0002593961
 257536111, -0.03588448, -0.02528013, -0.002049871, 0.0002593961
 257636071, -0.02992335, -0.02387116, -0.001936269, 0.0002593961
 257736031, -0.02739234, -0.02351936, -0.000891306, 0.0002593961
 257835991, -0.02818131, -0.0280016, -0.0002800179, 0.0002593961
 257935951, -0.03083554, -0.0355405, 0.0008832056, 0.0002593961
 258035911, -0.03466206, -0.04251288, 0.001077043, 0.0002593961
 258135871, -0.03898593, -0.04753041, 0.001424409, 0.0002593961
 258235831, -0.04236971, -0.04951101, 0.0008157814, 0.0002593961
 258335791, -0.04385128, -0.04842045, -0.0006587397, 0.0002593961
 258435751, -0.04271592, -0.04498364, -0.0009555141, 0.0002593961
 258535711, -0.03913051, -0.04095311, -0.00109376, 0.0002593961
 258635671, -0.03401695, -0.03775981, -0.001402753, 0.0002593961
 258736464, -0.02815622, -0.036896, -0.002352277, 0.0002615578
 258836424, -0.02109499, -0.03663947, -0.002606762, 0.0002593961
 258936384, -0.01569007, -0.03781208, -0.001606079, 0.0002593961
 259036344, -0.01350925, -0.03913899, -0.0007800771, 0.0002593961
 259136304, -0.01493793, -0.03937063, -0.0004336052, 0.0002593961
 259236264, -0.01925032, -0.03858735, -0.0005341764, 0.0002593961
 259336224, -0.0217044, -0.03787767, -0.001280556, 0.0002593961
 259436184, -0.01947824, -0.03854634, -4.897064E-05, 0.0002593961
 259536144, -0.01380611, -0.04170777, -0.000145451, 0.0002593961
 259636104, -0.007383965, -0.0464981, 0.0002727669, 0.0002593961
 259736064, -0.002074814, -0.05069077, -0.0003731415, 0.0002593961
 259836024, 0.00069895, -0.05214865, -0.0001398338, 0.0002593961
 259935984, 0.001624343, -0.05050535, 0.000457527, 0.0002593961
 260035944, 0.001183102, -0.04606777, 0.0001737995, 0.0002593961
 260135904, 0.001023917, -0.04116159, -0.0004676283, 0.0002593961
 260235864, 0.001322414, -0.03734658, -0.002062408, 0.0002593961
 260335824, 0.003104, -0.03556016, -0.002201126, 0.0002593961
 260435784, 0.005429846, -0.03554436, -0.002324448, 0.0002593961
 260535744, 0.00588456, -0.03522566, -0.002125669, 0.0002593961
 260635704, 0.003404057, -0.03230609, -0.001814871, 0.0002593961
 260735664, 0.0004139368, -0.02882501, -0.002274671, 0.0002593961
 260836457, -2.451532E-05, -0.02676044, -0.002053253, 0.0002615578
 260936417, 0.002436315, -0.02714611, -0.001847805, 0.0002593961
 261036377, 0.007380555, -0.03065951, -0.00234131, 0.0002593961
 261136337, 0.0139506, -0.03576446, -0.001977302, 0.0002593961
 261236297, 0.01943937, -0.04111682, -0.001541451, 0.0002593961
 261336257, 0.02224398, -0.04367269, -0.001414514, 0.0002593961
 261436217, 0.02148432, -0.04259831, -0.00102658, 0.0002593961
 261536177, 0.01942777, -0.04107399, 0.001108543, 0.0002593961
 261636137, 0.01735772, -0.04159052, 0.001378247, 0.0002593961
 261736097, 0.01719644, -0.04400617, 0.001399367, 0.0002593961
 261836057, 0.01813589, -0.04674093, 0.002492884, 0.0002593961
 261936017, 0.01765809, -0.04748074, 0.001974558, 0.0002593961
 262035977, 0.01474715, -0.04439235, 0.001758854, 0.0002593961
 262135937, 0.01020361, -0.03869235, 0.002399078, 0.0002593961
 262235897, 0.005781179, -0.03293313, 0.002602102, 0.0002593961
 262335857, 0.00486897, -0.02926852, 0.001868656, 0.0002593961
 262435817, 0.009813753, -0.02765876, 0.001680592, 0.0002593961
 262535777, 0.01851441, -0.02765513, 0.001879536, 0.0002593961
 262635737, 0.02810739, -0.02832032, 0.002645967, 0.0002593961
 262735697, 0.03607031, -0.02930204, 0.003879191, 0.0002593961
 262835657, 0.04072901, -0.03090076, 0.004461798, 0.0002593961
 262936450, 0.04292669, -0.0336682, 0.004908199, 0.0002615578
 263036410, 0.04301572, -0.03561152, 0.004187858, 0.0002593961
 263136370, 0.04120659, -0.03560482, 0.002988121, 0.0002593961
 263236330, 0.03775188, -0.03229005, 0.002194365, 0.0002593961
 263336290, 0.03468141, -0.02919182, 0.001920617, 0.0002593961
 263436250, 0.03288432, -0.02846546, 0.003111075, 0.0002593961
 263536210, 0.03302336, -0.0294746, 0.003300568, 0.0002593961
 263636170, 0.03509841, -0.03036327, 0.00344539, 0.0002593961
 263736130, 0.03823425, -0.03040697, 0.003105561, 0.0002593961
 263836090, 0.04129133, -0.03002968, 0.002571061, 0.0002593961
 263936050, 0.04403577, -0.02898361, 0.002272688, 0.0002593961
 264036010, 0.04489328, -0.02728753, 0.001745926, 0.0002593961
 264135970, 0.04335368, -0.02475826, 0.001707143, 0.0002593961
 264235930, 0.03917759, -0.02228201, 0.002129385, 0.0002593961
 264335890, 0.03606702, -0.02028043, 0.00230317, 0.0002593961
 264435850, 0.03597757, -0.01990966, 0.001910229, 0.0002593961
 264535810, 0.03818861, -0.02087669, 0.001452393, 0.0002593961
 264635770, 0.0402974, -0.02193537, 0.0005843209, 0.0002593961
 264735730, 0.04094976, -0.02242036, 0.0002854528, 0.0002593961
 264835690, 0.03980377, -0.02242748, 0.0004799818, 0.0002593961
 264936483, 0.03791986, -0.02244356, -5.408545E-05, 0.0002615578
 265036443, 0.03627624, -0.02173976, -0.0004603665, 0.0002593961
 265136403, 0.03730424, -0.0212667, -0.0006448979, 0.0002593961
 265236363, 0.04122392, -0.02077406, -0.0004681228, 0.0002593961
 265336323, 0.0456204, -0.0202099, -0.000470979, 0.0002593961
 265436283, 0.04848067, -0.01896896, -0.0004548327, 0.0002593961
 265536243, 0.04758072, -0.01805485, -0.0002794638, 0.0002593961
 265636203, 0.04311598, -0.01835538, 4.519801E-06, 0.0002593961
 265736163, 0.03659798, -0.01801624, -0.0006081364, 0.0002593961
 265836123, 0.02973884, -0.01540796, -2.976182E-05, 0.0002593961
 265936083, 0.02450339, -0.01302814, -0.0003977865, 0.0002593961
 266036043, 0.02075351, -0.01181076, 7.203675E-05, 0.0002593961
 266136003, 0.02105071, -0.01160135, 0.001030962, 0.0002593961
 266235963, 0.02483956, -0.0119371, 0.001902036, 0.0002593961
 266335923, 0.03061722, -0.01194709, 0.001878375, 0.0002593961
 266435883, 0.03651657, -0.01076299, 0.00142373, 0.0002593961
 266535843, 0.04083072, -0.009700857, 0.0001737233, 0.0002593961
 266635803, 0.04330247, -0.008145764, 0.0003482689, 0.0002593961
 266735763, 0.04535924, -0.008146245, 0.0001474089, 0.0002593961
 266835723, 0.04714426, -0.009125435, 0.0002075128, 0.0002593961
 266935683, 0.04871655, -0.009493692, 0.0005772355, 0.0002593961
 267036476, 0.0504997, -0.009277724, 3.446313E-05, 0.0002615578
 267136436, 0.05158851, -0.007731056, 0.0001480607, 0.0002593961
 267236396, 0.05262937, -0.006233043, 0.0003243996, 0.0002593961
 267336356, 0.05246011, -0.005037196, 7.650651E-05, 0.0002593961
 267436316, 0.05020535, -0.00383681, 0.0005831006, 0.0002593961
 267536276, 0.0464623, -0.004162378, 0.0002960069, 0.0002593961
 267636236, 0.04229723, -0.006719331, 0.0004053533, 0.0002593961
 267736196, 0.03781643, -0.00971706, 0.001834131, 0.0002593961
 267836156, 0.03417227, -0.01292164, 0.001961916, 0.0002593961
 267936116, 0.03314676, -0.01577039, 0.0006668975, 0.0002593961
 268036076, 0.03589016, -0.01738573, 0.0002559984, 0.0002593961
 268136036, 0.04137441, -0.01645442, 0.001200403, 0.0002593961
 268235996, 0.04771901, -0.01387838, 0.0003763945, 0.0002593961
 268335956, 0.05135696, -0.01073732, -0.001743783, 0.0002593961
 268435916, 0.04941155, -0.006671641, -0.001559337, 0.0002593961
 268535876, 0.04520911, -0.001352253, -0.001175286, 0.0002593961
 268635836, 0.04172616, 0.004724402, -0.0009671429, 0.0002593961
 268735796, 0.04085395, 0.009588697, -0.001358036, 0.0002593961
 268835756, 0.04225788, 0.01235814, -0.0005277501, 0.0002593961
 268935716, 0.04496187, 0.01290678, -0.0002485914, 0.0002593961
 269035676, 0.04766552, 0.01242207, -0.0004294382, 0.0002593961
 269136469, 0.04931011, 0.01273501, -0.0001425455, 0.0002615578
 269236429, 0.04723217, 0.01362899, 4.947709E-05, 0.0002593961
 269336389, 0.04227869, 0.01489052, -8.72406E-05, 0.0002593961
 269436349, 0.03677977, 0.015417, 0.000176414, 0.0002593961
 269536309, 0.03503058, 0.01477155, -0.00113136, 0.0002593961
 269636269, 0.03975938, 0.01398897, -0.0008734642, 0.0002593961
 269736229, 0.04945844, 0.01380518, 0.0008289954, 0.0002593961
 269836189, 0.06105341, 0.01410126, 0.0007718264, 0.0002593961
 269936149, 0.06949864, 0.01501379, 0.0004498016, 0.0002593961
 270036109, 0.07196601, 0.01687987, -0.0002787071, 0.0002593961
 270136069, 0.06995481, 0.02000522, -0.0006844607, 0.0002593961
 270236029, 0.06572494, 0.02430954, -0.0009657037, 0.0002593961
 270335989, 0.06220808, 0.02717583, -0.001751093, 0.0002593961
 270435949, 0.06055577, 0.02710429, -0.00206697, 0.0002593961
 270535909, 0.06018332, 0.02410069, -0.001741119, 0.0002593961
 270635869, 0.06099082, 0.01933412, 0.0007986247, 0.0002593961
 270735829, 0.0615797, 0.0143933, 0.000473286, 0.0002593961
 270835789, 0.06040164, 0.01103789, 1.95997E-05, 0.0002593961
 270935749, 0.05614613, 0.01104023, 0.001060474, 0.0002593961
 271035709, 0.0496424, 0.01268455, 0.001303508, 0.0002593961
 271135669, 0.04282609, 0.01530143, 0.0007403701, 0.0002593961
 271236462, 0.0381181, 0.01768299, 0.0007071967, 0.0002615578
 271336422, 0.03720469, 0.01829886, 0.001095722, 0.0002593961
 271436382, 0.04071305, 0.01677912, 0.001194724, 0.0002593961
 271536342, 0.04573634, 0.01464336, 0.0004397946, 0.0002593961
 271636302, 0.04772491, 0.01324899, 0.0009852126, 0.0002593961
 271736262, 0.04701543, 0.01324474, 0.001422445, 0.0002593961
 271836222, 0.04406652, 0.01458111, 0.001190448, 0.0002593961
 271936182, 0.04117951, 0.01617021, 0.0004023718, 0.0002593961
 272036142, 0.03964697, 0.01698133, -0.001030282, 0.0002593961
 272136102, 0.04067996, 0.01825666, -0.001321206, 0.0002593961
 272236062, 0.04367307, 0.02067196, -0.0003365206, 0.0002593961
 272336022, 0.04665976, 0.02338753, 0.00133774, 0.0002593961
 272435982, 0.04761766, 0.02517, 0.001420303, 0.0002593961
 272535942, 0.04540417, 0.02626213, 0.001328045, 0.0002593961
 272635902, 0.04114269, 0.02658384, 0.0006492436, 0.0002593961
 272735862, 0.03704691, 0.02674252, -0.001300977, 0.0002593961
 272835822, 0.03387707, 0.02652349, -0.001747576, 0.0002593961
 272935782, 0.03352396, 0.02749801, -0.001358596, 0.0002593961
 273035742, 0.03613893, 0.02927707, -0.0009866295, 0.0002593961
 273135702, 0.03913196, 0.03074222, -0.000183827, 0.0002593961
 273235662, 0.04103095, 0.03158884, -0.0004514914, 0.0002593961
 273336455, 0.04226848, 0.03330906, -0.0007578458, 0.0002615578
 273436415, 0.04264791, 0.03615361, -0.0005418481, 0.0002593961
 273536375, 0.04379136, 0.04040728, -0.0005138558, 0.0002593961
 273636335, 0.04531951, 0.04506819, -0.0002985641, 0.0002593961
 273736295, 0.04611608, 0.04621806, 0.0001583658, 0.0002593961
 273836255, 0.04493783, 0.04276489, 0.0009222334, 0.0002593961
 273936215, 0.0431409, 0.03924327, 0.002663431, 0.0002593961
 274036175, 0.04258144, 0.03783144, 0.002592632, 0.0002593961
 274136135, 0.04290419, 0.03755725, 0.002349879, 0.0002593961
 274236095, 0.04419539, 0.03641008, 0.001870435, 0.0002593961
 274336055, 0.04604491, 0.034995, 0.00102742, 0.0002593961
 274436015, 0.04741317, 0.0343408, 0.001752728, 0.0002593961
 274535975, 0.04569885, 0.03348256, 0.001540042, 0.0002593961
 274635935, 0.04048612, 0.03207377, 0.0008588953, 0.0002593961
 274735895, 0.03330904, 0.03050744, 0.0009492436, 0.0002593961
 274835855, 0.02805441, 0.02897134, -0.0004649364, 0.0002593961
 274935815, 0.02495828, 0.0278146, 9.03531E-05, 0.0002593961
 275035775, 0.02439879, 0.02652387, 0.0005098496, 0.0002593961
 275135735, 0.02332449, 0.02514489, -2.901348E-05, 0.0002593961
 275235695, 0.02013924, 0.02475623, -0.0009241782, 0.0002593961
 275335655, 0.01667455, 0.02559426, -0.0005657795, 0.0002593961
 275436448, 0.01507606, 0.02751526, -0.0002361338, 0.0002615578
 275536408, 0.01599186, 0.02967761, 0.0002564763, 0.0002593961
 275636368, 0.01912154, 0.03214442, 0.0002738214, 0.0002593961
 275736328, 0.02206126, 0.03301624, -0.0002112557, 0.0002593961
 275836288, 0.02384812, 0.0320433, -0.000741376, 0.0002593961
 275936248, 0.02330961, 0.03009432, -0.0009421179, 0.0002593961
 276036208, 0.02052671, 0.0295108, -0.001260344, 0.0002593961
 276136168, 0.0176878, 0.03139734, -0.00112311, 0.0002593961
 276236128, 0.01666428, 0.03591988, -0.0007483492, 0.0002593961
 276336088, 0.01706094, 0.04076303, -6.066874E-05, 0.0002593961
 276436048, 0.01840793, 0.04414784, 0.001151528, 0.0002593961
 276536008, 0.01878894, 0.04556498, 0.001478832, 0.0002593961
 276635968, 0.01786278, 0.04565672, 0.001508585, 0.0002593961
 276735928, 0.0175136, 0.0465988, 0.001466148, 0.0002593961
 276835888, 0.01970565, 0.04957892, 0.00166832, 0.0002593961
 276935848, 0.0227909, 0.05403168, 0.002684086, 0.0002593961
 277035808, 0.0257284, 0.05881004, 0.003259423, 0.0002593961
 277135768, 0.02794339, 0.06173127, 0.003139744, 0.0002593961
 277235728, 0.02881872, 0.06208184, 0.004128947, 0.0002593961
 277335688, 0.02990967, 0.05928692, 0.004375027, 0.0002593961
 277436481, 0.03208708, 0.05537752, 0.004135807, 0.0002615578
 277536441, 0.03328322, 0.04886176, 0.004835658, 0.0002593961
 277636401, 0.03422504, 0.04204187, 0.004281546, 0.0002593961
 277736361, 0.03347266, 0.03949406, 0.004629605, 0.0002593961
 277836321, 0.03155782, 0.04299359, 0.003875567, 0.0002593961
 277936281, 0.02792565, 0.04825495, 0.003549512, 0.0002593961
 278036241, 0.02339967, 0.05205611, 0.003562792, 0.0002593961
 278136201, 0.01844238, 0.05430935, 0.003906932, 0.0002593961
 278236161, 0.01468711, 0.05533063, 0.004099248, 0.0002593961
 278336121, 0.01212647, 0.05600666, 0.004679328, 0.0002593961
 278436081, 0.01129035, 0.05606541, 0.004928603, 0.0002593961
 278536041, 0.01158331, 0.05483121, 0.004392473, 0.0002593961
 278636001, 0.01194835, 0.05127778, 0.003685408, 0.0002593961
 278735961, 0.01150902, 0.0488816, 0.003217533, 0.0002593961
 278835921, 0.0106564, 0.04866171, 0.002596085, 0.0002593961
 278935881, 0.009355494, 0.04934769, 0.002149437, 0.0002593961
 279035841, 0.007919122, 0.0493953, 0.001440291, 0.0002593961
 279135801, 0.006689748, 0.04803654, 0.001616571, 0.0002593961
 279235761, 0.007002778, 0.04495179, 0.002449506, 0.0002593961
 279335721, 0.006007117, 0.03976417, 0.002947444, 0.0002593961
 279435681, 0.002537209, 0.03354287, 0.002644369, 0.0002593961
 279536474, -0.001761995, 0.03223861, 0.001141107, 0.0002615578
 279636434, -0.006008504, 0.03713498, 0.000693922, 0.0002593961
 279736394, -0.008667229, 0.0462902, 0.00143656, 0.0002593961
 279836354, -0.008828781, 0.05539253, 0.002341645, 0.0002593961
 279936314, -0.007611326, 0.06170365, 0.002072643, 0.0002593961
 280036274, -0.006361003, 0.06481249, 0.001418422, 0.0002593961
 280136234, -0.004937554, 0.06478334, 0.001079708, 0.0002593961
 280236194, -0.00344898, 0.06255812, 0.001830425, 0.0002593961
 280336154, -0.0009046206, 0.06086557, 0.002733648, 0.0002593961
 280436114, 0.002903251, 0.06060917, 0.002042817, 0.0002593961
 280536074, 0.005737601, 0.06154289, 0.002183997, 0.0002593961
 280636034, 0.007652785, 0.06182374, 0.002863071, 0.0002593961
 280735994, 0.007723866, 0.06017127, 0.002473066, 0.0002593961
 280835954, 0.005706599, 0.05555868, 0.001692481, 0.0002593961
 280935914, 0.002835752, 0.0484589, 0.001395353, 0.0002593961
 281035874, -0.0004293074, 0.04017806, 0.001771929, 0.0002593961
 281135834, -0.002642214, 0.03343052, 0.0003583415, 0.0002593961
 281235794, -0.004353317, 0.02986336, -0.000491183, 0.0002593961
 281335754, -0.006784986, 0.03088926, -0.0005990493, 0.0002593961
 281435714, -0.01021363, 0.03486667, -0.0003745261, 0.0002593961
 281535674, -0.01269547, 0.03945455, 0.0005073425, 0.0002593961
 281636467, -0.01315133, 0.04186367, 0.0005354236, 0.0002615578
 281736427, -0.01146476, 0.04184735, 0.000487483, 0.0002593961
 281836387, -0.008405779, 0.04059516, 0.0005378037, 0.0002593961
 281936347, -0.004807614, 0.03730794, -0.00014657, 0.0002593961
 282036307, -0.002721933, 0.0329465, 0.001576731, 0.0002593961
 282136267, -0.003163269, 0.03090247, 0.00166597, 0.0002593961
 282236227, -0.00660977, 0.03322212, 0.001019653, 0.0002593961
 282336187, -0.009932825, 0.03875835, 0.0003873825, 0.0002593961
 282436147, -0.01033683, 0.04517021, -0.0005689657, 0.0002593961
 282536107, -0.007694308, 0.04788728, 0.0002478621, 0.0002593961
 282636067, -0.002623595, 0.04551687, 0.0009236204, 0.0002593961
 282736027, 0.003174456, 0.04022158, 3.71796E-05, 0.0002593961
 282835987, 0.006512199, 0.03539915, 0.0002525428, 0.0002593961
 282935947, 0.006297299, 0.03346149, -0.0001782598, 0.0002593961
 283035907, 0.003218848, 0.03554054, -0.0007585243, 0.0002593961
 283135867, -0.002486396, 0.03909543, -0.0004597172, 0.0002593961
 283235827, -0.009633966, 0.04202347, -0.001150924, 0.0002593961
 283335787, -0.01665788, 0.04566508, -0.001023786, 0.0002593961
 283435747, -0.02174387, 0.05050138, -0.0005432672, 0.0002593961
 283535707, -0.02376077, 0.05504787, 0.0005630993, 0.0002593961
 283635667, -0.02253174, 0.0584777, 0.0005899214, 0.0002593961
 283736460, -0.01996689, 0.05953843, 0.0001989649, 0.0002615578
 283836420, -0.01726439, 0.05729627, -0.0004577986, 0.0002593961
 283936380, -0.01647669, 0.05413122, -0.001264035, 0.0002593961
 284036340, -0.01719183, 0.05193905, -0.0009658536, 0.0002593961
 284136300, -0.01923162, 0.05122067, -0.001151271, 0.0002593961
 284236260, -0.02267551, 0.05120473, -0.0007764772, 0.0002593961
 284336220, -0.02572528, 0.05086113, -0.0001139733, 0.0002593961
 284436180, -0.02712379, 0.04942412, 0.0001277698, 0.0002593961
 284536140, -0.02746216, 0.04831601, 0.0007768812, 0.0002593961
 284636100, -0.02735811, 0.04904845, 0.001388814, 0.0002593961
 284736060, -0.02633715, 0.04877164, 0.001003201, 0.0002593961
 284836020, -0.02536673, 0.04543302, 0.0008160103, 0.0002593961
 284935980, -0.02627222, 0.04124727, 0.000542768, 0.0002593961
 285035940, -0.03073647, 0.0378755, -0.0009502268, 0.0002593961
 285135900, -0.03541861, 0.03587468, -0.001370135, 0.0002593961
 285235860, -0.03801162, 0.03504239, -0.0006474299, 0.0002593961
 285335820, -0.03815545, 0.03554672, -0.0002463607, 0.0002593961
 285435780, -0.03717372, 0.03674935, -0.0007243917, 0.0002593961
 285535740, -0.03591524, 0.03741943, -0.0005566658, 0.0002593961
 285635700, -0.03529665, 0.0376273, -0.0006728699, 0.0002593961
 285735660, -0.03603845, 0.03704343, -0.0007873306, 0.0002593961
 285836453, -0.03740523, 0.03634634, -0.002206598, 0.0002615578
 285936413, -0.03618382, 0.03420023, -0.003037283, 0.0002593961
 286036373, -0.03245246, 0.03127391, -0.002883421, 0.0002593961
 286136333, -0.02891187, 0.02866637, -0.001929504, 0.0002593961
 286236293, -0.02714898, 0.02716501, -0.002001092, 0.0002593961
 286336253, -0.02843732, 0.02812175, -0.002424427, 0.0002593961
 286436213, -0.03195501, 0.03148871, -0.002436562, 0.0002593961
 286536173, -0.03596085, 0.03575831, -0.002282289, 0.0002593961
 286636133, -0.03820182, 0.03951037, -0.002253479, 0.0002593961
 286736093, -0.03892042, 0.04171962, -0.00213808, 0.0002593961
 286836053, -0.03865994, 0.04224777, -0.002150639, 0.0002593961
 286936013, -0.03940707, 0.04178727, -0.002109544, 0.0002593961
 287035973, -0.04286531, 0.04117258, -0.001775862, 0.0002593961
 287135933, -0.04517501, 0.03943957, -0.001376069, 0.0002593961
 287235893, -0.04411045, 0.03557859, -0.0007764511, 0.0002593961
 287335853, -0.04029782, 0.03219926, -0.0002514024, 0.0002593961
 287435813, -0.03672215, 0.03056033, 0.0001765224, 0.0002593961
 287535773, -0.03445965, 0.03004238, 0.0003701207, 0.0002593961
 287635733, -0.03370974, 0.03052342, 2.133125E-07, 0.0002593961
 287735693, -0.03354425, 0.03068147, -0.0001519394, 0.0002593961
 287836486, -0.032841, 0.03027258, 4.880145E-05, 0.0002593961
