TimeUS,COFN,COFE,COFD,CNe,CEe,CDe,POFN,POFE,POFD,PNe,PEe,PDe
 196160671, 0, 0, 0, 0, 0, 0, 0, 0, 0, 0, 0, 0
 196231476, -0.005035491, -0.01209387, 0.002572011, 0.02623905, -0.02670851, 5.800357E-05, 0, 0, 0, 0, 0, 0
 196431396, 0, 0, 0, 0.02623905, -0.02670851, 5.800357E-05, -0.005035491, -0.01209387, 0.002572011, 0.02623905, -0.02670851, 5.800357E-05
 196631316, -0.0007870499, 0.01771595, 2.625894E-05, 0.02650953, -0.02658379, 0.1000079, 0, 0, 0, 0.02623905, -0.02670851, 5.800357E-05
 196831236, 0.01382098, -0.009368199, 1.116175E-05, 0.02685402, -0.02716493, 0.1000078, -0.0007870499, 0.01771595, 2.625894E-05, 0.02650953, -0.02658379, 0.1000079
 197031156, 0.02261154, -0.008065452, 2.984637E-05, 0.02708243, -0.0271338, 0.1000085, 0.01382098, -0.009368199, 1.116175E-05, 0.02685402, -0.02716493, 0.1000078
 197231076, -0.01047011, -0.01144526, -3.77999E-05, 0.02630281, -0.02721659, 0.1000067, 0.02261154, -0.008065452, 2.984637E-05, 0.02708243, -0.0271338, 0.1000085
 197430996, -0.02214549, 0.01611476, -1.617454E-05, 0.02608153, -0.02661555, 0.1000071, -0.01047011, -0.01144526, -3.77999E-05, 0.02630281, -0.02721659, 0.1000067
 197630916, 0.004536417, -0.01086836, -8.814619E-06, 0.02662887, -0.02720363, 0.1000069, -0.02214549, 0.01611476, -1.617454E-05, 0.02608153, -0.02661555, 0.1000071
 197830836, -0.006783534, -0.009343766, -2.774318E-05, 0.02637945, -0.02716725, 0.1000061, 0.004536417, -0.01086836, -8.814619E-06, 0.02662887, -0.02720363, 0.1000069
 198030756, -0.01414913, -0.006630366, -3.731195E-05, 0.02623082, -0.02710268, 0.1000059, -0.006783534, -0.009343766, -2.774318E-05, 0.02637945, -0.02716725, 0.1000061
 198230676, -0.01404767, 0.007768594, -1.400697E-05, 0.02623231, -0.0267831, 0.1000066, -0.01414913, -0.006630366, -3.731195E-05, 0.02623082, -0.02710268, 0.1000059
 198431429, 0.006963531, -0.01598729, -1.271914E-05, 0.02668585, -0.02733351, 0.1000064, -0.01404767, 0.007768594, -1.400697E-05, 0.02623231, -0.0267831, 0.1000066
 198631349, 0.02235784, 0.002317951, 4.58047E-05, 0.02707699, -0.02690078, 0.1000072, 0.006963531, -0.01598729, -1.271914E-05, 0.02668585, -0.02733351, 0.1000064
 198831269, 0.00813893, 0.006985569, 2.662835E-05, 0.0267159, -0.02680118, 0.1000064, 0.02235784, 0.002317951, 4.58047E-05, 0.02707699, -0.02690078, 0.1000072
 199031189, -0.01709113, 0.0220686, 3.978854E-06, 0.02617699, -0.02650878, 0.1000059, 0.00813893, 0.006985569, 2.662835E-05, 0.0267159, -0.02680118, 0.1000064
 199231109, -0.0229924, 0.01516456, -1.828056E-05, 0.02606994, -0.02663553, 0.1000057, -0.01709113, 0.0220686, 3.978854E-06, 0.02617699, -0.02650878, 0.1000059
 199431029, -0.005174752, 0.0114972, 8.796749E-06, 0.02641547, -0.02670636, 0.1000065, -0.0229924, 0.01516456, -1.828056E-05, 0.02606994, -0.02663553, 0.1000057
 199630949, 0.0207851, -0.009656414, 2.322401E-05, 0.02703628, -0.0271741, 0.100007, -0.005174752, 0.0114972, 8.796749E-06, 0.02641547, -0.02670636, 0.1000065
 199830869, -0.01522065, -0.003129302, -3.341179E-05, 0.02621156, -0.02701961, 0.100006, 0.0207851, -0.009656414, 2.322401E-05, 0.02703628, -0.0271741, 0.100007
 200030789, -0.0215705, 0.01333244, -1.910737E-05, 0.0260937, -0.02666929, 0.1000065, -0.01522065, -0.003129302, -3.341179E-05, 0.02621156, -0.02701961, 0.100006
 200230709, -0.01722711, 0.01821385, -3.290561E-06, 0.02617344, -0.02657561, 0.1000069, -0.0215705, 0.01333244, -1.910737E-05, 0.0260937, -0.02666929, 0.1000065
 200431462, -0.024557, 0.007548514, -3.390482E-05, 0.0260415, -0.02678493, 0.1000064, -0.01722711, 0.01821385, -3.290561E-06, 0.02617344, -0.02657561, 0.1000069
 200631382, 0.007501849, -0.01375913, -7.855613E-06, 0.02670105, -0.02727414, 0.1000066, -0.024557, 0.007548514, -3.390482E-05, 0.0260415, -0.02678493, 0.1000064
 200831302, -0.02457494, -0.002228801, -4.923531E-05, 0.02604176, -0.02699731, 0.1000061, 0.007501849, -0.01375913, -7.855613E-06, 0.02670105, -0.02727414, 0.1000066
 201031222, -0.01915336, 0.003695329, -2.996283E-05, 0.02613777, -0.026865, 0.1000069, -0.02457494, -0.002228801, -4.923531E-05, 0.02604176, -0.02699731, 0.1000061
 201231142, -0.005117023, 0.02446864, 2.855818E-05, 0.02641511, -0.02646073, 0.1000085, -0.01915336, 0.003695329, -2.996283E-05, 0.02613777, -0.026865, 0.1000069
 201431062, 0.02157428, 0.02111195, 7.343449E-05, 0.0270548, -0.02651931, 0.10001, -0.005117023, 0.02446864, 2.855818E-05, 0.02641511, -0.02646073, 0.1000085
 201630982, -0.0189506, -0.01954698, -6.617713E-05, 0.02613948, -0.02741992, 0.100007, 0.02157428, 0.02111195, 7.343449E-05, 0.0270548, -0.02651931, 0.10001
 201830902, -0.01361102, -0.0227309, -6.11834E-05, 0.02624045, -0.02750508, 0.100007, -0.0189506, -0.01954698, -6.617713E-05, 0.02613948, -0.02741992, 0.100007
 202030822, -0.01694254, -0.02314051, -6.823946E-05, 0.02617612, -0.02751607, 0.100007, -0.01361102, -0.0227309, -6.11834E-05, 0.02624045, -0.02750508, 0.100007
 202230742, -0.02545991, 0.02285239, -1.270974E-05, 0.02602344, -0.0264885, 0.1000083, -0.01694254, -0.02314051, -6.823946E-05, 0.02617612, -0.02751607, 0.100007
 202430662, 0.01462277, 0.01022974, 4.393252E-05, 0.02687285, -0.02672833, 0.1000093, -0.02545991, 0.02285239, -1.270974E-05, 0.02602344, -0.0264885, 0.1000083
 202631415, 0.01396081, -0.00742842, 1.486451E-05, 0.02685584, -0.02711795, 0.1000085, 0.01462277, 0.01022974, 4.393252E-05, 0.02687285, -0.02672833, 0.1000093
 202831335, 0.01279259, 0.02126711, 5.814754E-05, 0.02682651, -0.02651875, 0.1000094, 0.01396081, -0.00742842, 1.486451E-05, 0.02685584, -0.02711795, 0.1000085
 203031255, -0.0176532, -0.01184829, -5.249833E-05, 0.02616298, -0.02722564, 0.1000068, 0.01279259, 0.02126711, 5.814754E-05, 0.02682651, -0.02651875, 0.1000094
 203231175, -0.02084349, 0.01434272, -1.669938E-05, 0.02610507, -0.02664893, 0.1000072, -0.0176532, -0.01184829, -5.249833E-05, 0.02616298, -0.02722564, 0.1000068
 203431095, 0.01525582, 0.0254518, 7.001047E-05, 0.02688958, -0.02644732, 0.1000088, -0.02084349, 0.01434272, -1.669938E-05, 0.02610507, -0.02664893, 0.1000072
 203631015, -0.005919764, 0.02398226, 2.733679E-05, 0.02639669, -0.02647239, 0.100008, 0.01525582, 0.0254518, 7.001047E-05, 0.02688958, -0.02644732, 0.1000088
 203830935, -0.01975239, 0.02445061, 1.863751E-06, 0.02612468, -0.02646494, 0.1000073, -0.005919764, 0.02398226, 2.733679E-05, 0.02639669, -0.02647239, 0.100008
 204030855, -0.02295566, -0.01509291, -6.843769E-05, 0.02606703, -0.02730996, 0.1000056, -0.01975239, 0.02445061, 1.863751E-06, 0.02612468, -0.02646494, 0.1000073
 204230775, 0.005156211, 0.00246995, 1.383769E-05, 0.02664299, -0.02689464, 0.1000075, -0.02295566, -0.01509291, -6.843769E-05, 0.02606703, -0.02730996, 0.1000056
 204430695, 0.000169515, 0.0209238, 3.401859E-05, 0.02652984, -0.02652662, 0.1000078, 0.005156211, 0.00246995, 1.383769E-05, 0.02664299, -0.02689464, 0.1000075
 204631448, 0.01225947, 0.009804105, 3.88527E-05, 0.02681594, -0.026739, 0.1000079, 0.000169515, 0.0209238, 3.401859E-05, 0.02652984, -0.02652662, 0.1000078
 204831368, -0.01009648, -0.006029629, -2.860263E-05, 0.02631295, -0.02708539, 0.1000064, 0.01225947, 0.009804105, 3.88527E-05, 0.02681594, -0.026739, 0.1000079
 205031288, -0.01600964, -0.00527176, -3.834186E-05, 0.02619784, -0.0270678, 0.100006, -0.01009648, -0.006029629, -2.860263E-05, 0.02631295, -0.02708539, 0.1000064
 205231208, -0.01035637, 0.00230125, -1.558771E-05, 0.02630937, -0.02689717, 0.1000061, -0.01600964, -0.00527176, -3.834186E-05, 0.02619784, -0.0270678, 0.100006
 205431128, 0.02518387, -0.02397074, 8.37231E-06, 0.02715718, -0.02754182, 0.1000065, -0.01035637, 0.00230125, -1.558771E-05, 0.02630937, -0.02689717, 0.1000061
 205631048, -0.02405318, 0.01326137, -2.341687E-05, 0.02605314, -0.02666952, 0.1000059, 0.02518387, -0.02397074, 8.37231E-06, 0.02715718, -0.02754182, 0.1000065
 205830968, -0.01938155, 0.0002974239, -3.540659E-05, 0.02613659, -0.02694038, 0.1000057, -0.02405318, 0.01326137, -2.341687E-05, 0.02605314, -0.02666952, 0.1000059
 206030888, -0.0148962, 0.005183797, -1.929184E-05, 0.026221, -0.02683427, 0.1000059, -0.01938155, 0.0002974239, -3.540659E-05, 0.02613659, -0.02694038, 0.1000057
 206230808, 0.02203608, -0.01092454, 2.334619E-05, 0.02707227, -0.02720302, 0.1000069, -0.0148962, 0.005183797, -1.929184E-05, 0.026221, -0.02683427, 0.1000059
 206430728, 0.0105142, 0.01026918, 3.581111E-05, 0.02677652, -0.02672893, 0.1000071, 0.02203608, -0.01092454, 2.334619E-05, 0.02707227, -0.02720302, 0.1000069
 206631481, -0.01497908, -0.01601725, -5.326082E-05, 0.02621995, -0.02733149, 0.1000048, 0.0105142, 0.01026918, 3.581111E-05, 0.02677652, -0.02672893, 0.1000071
 206831401, 0.004918768, -0.0002864847, 8.639679E-06, 0.0266428, -0.02695425, 0.1000063, -0.01497908, -0.01601725, -5.326082E-05, 0.02621995, -0.02733149, 0.1000048
 207031321, 0.01782282, 0.006706046, 4.384213E-05, 0.02696034, -0.02680299, 0.1000073, 0.004918768, -0.0002864847, 8.639679E-06, 0.0266428, -0.02695425, 0.1000063
 207231241, -0.00612315, -0.003909586, -1.763101E-05, 0.0263973, -0.02703632, 0.1000059, 0.01782282, 0.006706046, 4.384213E-05, 0.02696034, -0.02680299, 0.1000073
 207431161, 0.0206129, 0.01816908, 6.739239E-05, 0.02703354, -0.0265763, 0.1000079, -0.00612315, -0.003909586, -1.763101E-05, 0.0263973, -0.02703632, 0.1000059
 207631081, -0.0008397134, -0.001895247, -4.60598E-06, 0.02651125, -0.02699047, 0.1000062, 0.0206129, 0.01816908, 6.739239E-05, 0.02703354, -0.0265763, 0.1000079
 207831001, -0.01061719, 0.006538739, -9.254361E-06, 0.0263044, -0.02680681, 0.100006, -0.0008397134, -0.001895247, -4.60598E-06, 0.02651125, -0.02699047, 0.1000062
 208030921, -0.007220561, -0.01155925, -3.215313E-05, 0.02637367, -0.02722008, 0.1000055, -0.01061719, 0.006538739, -9.254361E-06, 0.0263044, -0.02680681, 0.100006
 208230841, 0.000931947, 0.002866072, 6.386471E-06, 0.02655, -0.02688569, 0.1000064, -0.007220561, -0.01155925, -3.215313E-05, 0.02637367, -0.02722008, 0.1000055
 208430761, 0.01129255, -0.007625751, 8.750192E-06, 0.02679418, -0.02712544, 0.1000063, 0.000931947, 0.002866072, 6.386471E-06, 0.02655, -0.02688569, 0.1000064
 208630681, 0.0230807, -0.01342776, 2.132469E-05, 0.02709925, -0.02726779, 0.1000065, 0.01129255, -0.007625751, 8.750192E-06, 0.02679418, -0.02712544, 0.1000063
 208831434, 0.01727319, -0.01116472, 1.414275E-05, 0.02694497, -0.02721232, 0.1000062, 0.0230807, -0.01342776, 2.132469E-05, 0.02709925, -0.02726779, 0.1000065
 209031354, -0.0123299, -0.003050586, -2.832204E-05, 0.02626858, -0.02701994, 0.1000054, 0.01727319, -0.01116472, 1.414275E-05, 0.02694497, -0.02721232, 0.1000062
 209231274, -0.01586467, 0.01564876, -4.332156E-06, 0.02620033, -0.02662587, 0.1000061, -0.0123299, -0.003050586, -2.832204E-05, 0.02626858, -0.02701994, 0.1000054
 209431194, 0.01029401, -0.002410519, 1.536608E-05, 0.02676994, -0.02700307, 0.1000065, -0.01586467, 0.01564876, -4.332156E-06, 0.02620033, -0.02662587, 0.1000061
 209631114, 0.0005303918, 0.01972247, 3.284022E-05, 0.02654208, -0.02654823, 0.1000068, 0.01029401, -0.002410519, 1.536608E-05, 0.02676994, -0.02700307, 0.1000065
 209831034, 0.01208038, 0.01990954, 5.429209E-05, 0.02681536, -0.02654381, 0.1000074, 0.0005303918, 0.01972247, 3.284022E-05, 0.02654208, -0.02654823, 0.1000068
 210030954, -0.0006652317, -0.02528312, -4.152137E-05, 0.02651647, -0.02757633, 0.1000053, 0.01208038, 0.01990954, 5.429209E-05, 0.02681536, -0.02654381, 0.1000074
 210230874, -0.01433979, 0.01855767, 3.037529E-06, 0.02623305, -0.0265673, 0.1000064, -0.0006652317, -0.02528312, -4.152137E-05, 0.02651647, -0.02757633, 0.1000053
 210430794, -0.01967863, -0.002168994, -3.959204E-05, 0.02613314, -0.02699412, 0.1000055, -0.01433979, 0.01855767, 3.037529E-06, 0.02623305, -0.0265673, 0.1000064
 210630714, -0.009478996, -0.01037841, -3.371699E-05, 0.02633005, -0.02718691, 0.1000059, -0.01967863, -0.002168994, -3.959204E-05, 0.02613314, -0.02699412, 0.1000055
 210831467, -0.004186871, -0.01670438, -3.379441E-05, 0.02644062, -0.02734487, 0.100006, -0.009478996, -0.01037841, -3.371699E-05, 0.02633005, -0.02718691, 0.1000059
 211031387, -0.01156139, -0.02190185, -5.542418E-05, 0.02628849, -0.02748168, 0.1000054, -0.004186871, -0.01670438, -3.379441E-05, 0.02644062, -0.02734487, 0.100006
 211231307, 0.001647323, 0.01830536, 3.169925E-05, 0.02656994, -0.02656997, 0.1000072, -0.01156139, -0.02190185, -5.542418E-05, 0.02628849, -0.02748168, 0.1000054
 211431227, 0.009682358, 0.007094111, 2.877937E-05, 0.02675903, -0.02679048, 0.1000071, 0.001647323, 0.01830536, 3.169925E-05, 0.02656994, -0.02656997, 0.1000072
 211631147, -0.004828714, 0.0122027, 1.027916E-05, 0.0264284, -0.02668654, 0.1000067, 0.009682358, 0.007094111, 2.877937E-05, 0.02675903, -0.02679048, 0.1000071
 211831067, 0.004012491, 0.01870215, 3.666728E-05, 0.02662492, -0.02656274, 0.1000071, -0.004828714, 0.0122027, 1.027916E-05, 0.0264284, -0.02668654, 0.1000067
 212030987, -0.01903916, 0.01600579, -9.514202E-06, 0.02614663, -0.02661355, 0.100006, 0.004012491, 0.01870215, 3.666728E-05, 0.02662492, -0.02656274, 0.1000071
 212230907, -0.003884648, 0.01754449, 2.055689E-05, 0.02644868, -0.02658474, 0.1000066, -0.01903916, 0.01600579, -9.514202E-06, 0.02614663, -0.02661355, 0.100006
 212430827, -0.006519428, -0.004849077, -1.95616E-05, 0.02639231, -0.02705479, 0.1000059, -0.003884648, 0.01754449, 2.055689E-05, 0.02644868, -0.02658474, 0.1000066
 212630747, 0.01481245, 0.001020051, 2.874235E-05, 0.02688634, -0.02692193, 0.1000069, -0.006519428, -0.004849077, -1.95616E-05, 0.02639231, -0.02705479, 0.1000059
 212830667, -0.02327263, -0.008603473, -5.644386E-05, 0.02606925, -0.02714491, 0.100005, 0.01481245, 0.001020051, 2.874235E-05, 0.02688634, -0.02692193, 0.1000069
 213031420, -0.02145196, -0.006991421, -5.072621E-05, 0.02610085, -0.02710649, 0.1000053, -0.02327263, -0.008603473, -5.644386E-05, 0.02606925, -0.02714491, 0.100005
 213231340, -0.01369649, -0.008804785, -3.942211E-05, 0.02624533, -0.02715029, 0.1000055, -0.02145196, -0.006991421, -5.072621E-05, 0.02610085, -0.02710649, 0.1000053
 213431260, 0.02500249, 0.0165769, 7.300127E-05, 0.02715334, -0.026605, 0.1000081, -0.01369649, -0.008804785, -3.942211E-05, 0.02624533, -0.02715029, 0.1000055
 213631180, -0.01965389, 0.008319263, -2.319315E-05, 0.02613248, -0.02676821, 0.1000058, 0.02500249, 0.0165769, 7.300127E-05, 0.02715334, -0.026605, 0.1000081
 213831100, -0.01515293, 0.02108461, 5.839052E-06, 0.02621662, -0.0265228, 0.1000062, -0.01965389, 0.008319263, -2.319315E-05, 0.02613248, -0.02676821, 0.1000058
 214031020, -0.004597358, 0.01119589, 9.620137E-06, 0.0264306, -0.02671133, 0.1000061, -0.01515293, 0.02108461, 5.839052E-06, 0.02621662, -0.0265228, 0.1000062
 214230940, 0.01407162, 0.02213319, 6.250668E-05, 0.02686459, -0.02650571, 0.1000072, -0.004597358, 0.01119589, 9.620137E-06, 0.0264306, -0.02671133, 0.1000061
 214430860, 0.001773921, -0.00999084, -1.301498E-05, 0.02657038, -0.02718222, 0.1000055, 0.01407162, 0.02213319, 6.250668E-05, 0.02686459, -0.02650571, 0.1000072
 214630780, -0.02533505, 0.02354939, -8.778403E-06, 0.02603259, -0.02647998, 0.1000055, 0.001773921, -0.00999084, -1.301498E-05, 0.02657038, -0.02718222, 0.1000055
 214830700, -0.005006961, -0.01366381, -3.143639E-05, 0.02642303, -0.02727248, 0.1000048, -0.02533505, 0.02354939, -8.778403E-06, 0.02603259, -0.02647998, 0.1000055
 215031453, 0.006841325, 0.01662541, 3.953015E-05, 0.02668994, -0.02660582, 0.1000063, -0.005006961, -0.01366381, -3.143639E-05, 0.02642303, -0.02727248, 0.1000048
 215231373, -0.01594686, -0.01312889, -5.044977E-05, 0.02620278, -0.02725757, 0.1000048, 0.006841325, 0.01662541, 3.953015E-05, 0.02668994, -0.02660582, 0.1000063
 215431293, -0.0002712961, 0.01797887, 2.813642E-05, 0.02652635, -0.02657804, 0.1000067, -0.01594686, -0.01312889, -5.044977E-05, 0.02620278, -0.02725757, 0.1000048
 215631213, 0.01366237, -0.006311108, 1.508041E-05, 0.02685695, -0.02709, 0.1000066, -0.0002712961, 0.01797887, 2.813642E-05, 0.02652635, -0.02657804, 0.1000067
 215831133, 0.02482636, 0.007068348, 5.683456E-05, 0.02714989, -0.02679192, 0.1000079, 0.01366237, -0.006311108, 1.508041E-05, 0.02685695, -0.02709, 0.1000066
 216031053, 0.002653921, -0.004405229, -2.033391E-06, 0.02659223, -0.02704402, 0.1000067, 0.02482636, 0.007068348, 5.683456E-05, 0.02714989, -0.02679192, 0.1000079
 216230973, -0.003844195, 0.02114972, 2.615574E-05, 0.02644891, -0.02651791, 0.100007, 0.002653921, -0.004405229, -2.033391E-06, 0.02659223, -0.02704402, 0.1000067
 216430893, -0.02226491, -0.004239492, -4.725366E-05, 0.0260884, -0.02704024, 0.1000053, -0.003844195, 0.02114972, 2.615574E-05, 0.02644891, -0.02651791, 0.100007
 216630813, 0.004541741, -0.001422449, 6.016118E-06, 0.02663815, -0.02697584, 0.1000062, -0.02226491, -0.004239492, -4.725366E-05, 0.0260884, -0.02704024, 0.1000053
 216830733, -0.02160504, 0.01596317, -1.411715E-05, 0.02610126, -0.02661378, 0.1000057, 0.004541741, -0.001422449, 6.016118E-06, 0.02663815, -0.02697584, 0.1000062
 217031486, 0.01917071, -0.01834883, 6.116232E-06, 0.02700048, -0.0273871, 0.1000064, -0.02160504, 0.01596317, -1.411715E-05, 0.02610126, -0.02661378, 0.1000057
 217231406, -0.0009060731, 0.01478306, 2.149578E-05, 0.0265143, -0.02663592, 0.1000068, 0.01917071, -0.01834883, 6.116232E-06, 0.02700048, -0.0273871, 0.1000064
 217431326, -0.02062585, -0.01765672, -6.528279E-05, 0.02611811, -0.02736985, 0.1000047, -0.0009060731, 0.01478306, 2.149578E-05, 0.0265143, -0.02663592, 0.1000068
 217631246, 0.008002887, -0.01303728, -6.026968E-06, 0.02671934, -0.02725301, 0.1000058, -0.02062585, -0.01765672, -6.528279E-05, 0.02611811, -0.02736985, 0.1000047
 217831166, -0.01878558, -0.01089856, -5.194155E-05, 0.02615032, -0.02720175, 0.1000047, 0.008002887, -0.01303728, -6.026968E-06, 0.02671934, -0.02725301, 0.1000058
 218031086, -0.005413876, 0.001380379, -7.769605E-06, 0.02641455, -0.02691675, 0.1000056, -0.01878558, -0.01089856, -5.194155E-05, 0.02615032, -0.02720175, 0.1000047
 218231006, -0.008715626, 0.01658162, 1.059076E-05, 0.0263451, -0.02660579, 0.1000061, -0.005413876, 0.001380379, -7.769605E-06, 0.02641455, -0.02691675, 0.1000056
 218430926, -0.004591193, -0.01273921, -2.921799E-05, 0.02643097, -0.02724935, 0.1000051, -0.008715626, 0.01658162, 1.059076E-05, 0.0263451, -0.02660579, 0.1000061
 218630846, -0.01340028, 0.01115941, -6.667289E-06, 0.02625055, -0.0267137, 0.1000053, -0.004591193, -0.01273921, -2.921799E-05, 0.02643097, -0.02724935, 0.1000051
 218830766, -0.0008409093, -0.00575125, -1.105024E-05, 0.02651181, -0.02708239, 0.1000051, -0.01340028, 0.01115941, -6.667289E-06, 0.02625055, -0.0267137, 0.1000053
 219030686, 0.003849036, 0.006366299, 1.77612E-05, 0.02661739, -0.02681366, 0.1000056, -0.0008409093, -0.00575125, -1.105024E-05, 0.02651181, -0.02708239, 0.1000051
 219231439, 0.01971717, -0.01730711, 8.267714E-06, 0.02700975, -0.02736874, 0.1000055, 0.003849036, 0.006366299, 1.77612E-05, 0.02661739, -0.02681366, 0.1000056
 219431359, 0.01536856, 0.004917035, 3.710519E-05, 0.0268965, -0.02684473, 0.1000062, 0.01971717, -0.01730711, 8.267714E-06, 0.02700975, -0.02736874, 0.1000055
 219631279, 0.02200919, 0.01317949, 6.322257E-05, 0.02707058, -0.02667594, 0.1000067, 0.01536856, 0.004917035, 3.710519E-05, 0.0268965, -0.02684473, 0.1000062
 219831199, 0.02472599, -0.006733887, 3.488511E-05, 0.0271457, -0.02710663, 0.1000059, 0.02200919, 0.01317949, 6.322257E-05, 0.02707058, -0.02667594, 0.1000067
 220031119, 0.02465807, 0.01912657, 7.728879E-05, 0.02714448, -0.02656275, 0.1000066, 0.02472599, -0.006733887, 3.488511E-05, 0.0271457, -0.02710663, 0.1000059
 220231039, 0.01996628, -0.01645676, 9.735619E-06, 0.0270189, -0.02734603, 0.100005, 0.02465807, 0.01912657, 7.728879E-05, 0.02714448, -0.02656275, 0.1000066
 220430959, 0.01957426, -0.006647576, 2.506949E-05, 0.02700911, -0.02710316, 0.1000054, 0.01996628, -0.01645676, 9.735619E-06, 0.0270189, -0.02734603, 0.100005
 220630879, 0.01835057, -0.01340561, 1.163216E-05, 0.02697767, -0.02726784, 0.1000049, 0.01957426, -0.006647576, 2.506949E-05, 0.02700911, -0.02710316, 0.1000054
 220830799, 0.007833966, 0.01246389, 3.463128E-05, 0.02671522, -0.0266884, 0.1000052, 0.01835057, -0.01340561, 1.163216E-05, 0.02697767, -0.02726784, 0.1000049
 221030719, -0.02026836, 0.0007345849, -3.555436E-05, 0.02612489, -0.02693365, 0.1000037, 0.007833966, 0.01246389, 3.463128E-05, 0.02671522, -0.0266884, 0.1000052
 221231472, -0.01323834, 0.02349929, 1.416064E-05, 0.02625798, -0.0264818, 0.1000047, -0.02026836, 0.0007345849, -3.555436E-05, 0.02612489, -0.02693365, 0.1000037
 221431392, 0.01667681, 0.003156311, 3.523165E-05, 0.02693596, -0.02687993, 0.1000053, -0.01323834, 0.02349929, 1.416064E-05, 0.02625798, -0.0264818, 0.1000047
 221631312, 0.01999833, 0.01365711, 5.824435E-05, 0.02702253, -0.02666419, 0.1000058, 0.01667681, 0.003156311, 3.523165E-05, 0.02693596, -0.02687993, 0.1000053
 221831232, 0.02342103, 0.01415452, 6.516108E-05, 0.02711425, -0.02665429, 0.100006, 0.01999833, 0.01365711, 5.824435E-05, 0.02702253, -0.02666419, 0.1000058
 222031152, 0.01812724, 0.002668576, 3.69546E-05, 0.02697386, -0.02689033, 0.1000053, 0.02342103, 0.01415452, 6.516108E-05, 0.02711425, -0.02665429, 0.100006
 222231072, -0.01066239, 0.02213831, 1.657682E-05, 0.02630975, -0.02650548, 0.1000047, 0.01812724, 0.002668576, 3.69546E-05, 0.02697386, -0.02689033, 0.1000053
 222430992, -0.002930865, 0.02205847, 3.05596E-05, 0.02647133, -0.02650791, 0.1000047, -0.01066239, 0.02213831, 1.657682E-05, 0.02630975, -0.02650548, 0.1000047
 222630912, 0.0003036262, -0.001180678, -1.382847E-06, 0.02654301, -0.02697721, 0.1000038, -0.002930865, 0.02205847, 3.05596E-05, 0.02647133, -0.02650791, 0.1000047
 222830832, 0.0141542, 0.01758035, 5.41244E-05, 0.02687255, -0.02659071, 0.1000049, 0.0003036262, -0.001180678, -1.382847E-06, 0.02654301, -0.02697721, 0.1000038
 223030752, 0.01483588, -0.01847389, -3.601464E-06, 0.0268892, -0.02739893, 0.1000037, 0.0141542, 0.01758035, 5.41244E-05, 0.02687255, -0.02659071, 0.1000049
 223230672, -0.02139232, 0.0146529, -1.451302E-05, 0.02610504, -0.02664725, 0.1000035, 0.01483588, -0.01847389, -3.601464E-06, 0.0268892, -0.02739893, 0.1000037
 223431425, 0.01193865, -0.01455554, -2.40368E-06, 0.02681563, -0.02729901, 0.1000037, -0.02139232, 0.0146529, -1.451302E-05, 0.02610504, -0.02664725, 0.1000035
 223631345, 0.004958796, 0.01723087, 3.754918E-05, 0.02664649, -0.02659915, 0.1000048, 0.01193865, -0.01455554, -2.40368E-06, 0.02681563, -0.02729901, 0.1000037
 223831265, 0.005768578, 0.0132944, 3.264192E-05, 0.02666457, -0.02667508, 0.1000048, 0.004958796, 0.01723087, 3.754918E-05, 0.02664649, -0.02659915, 0.1000048
 224031185, 0.01051839, 0.001078131, 2.114487E-05, 0.02677789, -0.02693037, 0.1000045, 0.005768578, 0.0132944, 3.264192E-05, 0.02666457, -0.02667508, 0.1000048
 224231105, -0.01710926, 0.01269723, -1.032981E-05, 0.02617936, -0.02668858, 0.1000038, 0.01051839, 0.001078131, 2.114487E-05, 0.02677789, -0.02693037, 0.1000045
 224431025, 0.02072321, -0.01462393, 1.395444E-05, 0.02703645, -0.02730386, 0.1000046, -0.01710926, 0.01269723, -1.032981E-05, 0.02617936, -0.02668858, 0.1000038
 224630945, 0.01786408, -0.02299603, -5.368125E-06, 0.02696061, -0.02752316, 0.1000042, 0.02072321, -0.01462393, 1.395444E-05, 0.02703645, -0.02730386, 0.1000046
 224830865, 0.004680165, 0.02238215, 4.644516E-05, 0.02663598, -0.02650802, 0.1000052, 0.01786408, -0.02299603, -5.368125E-06, 0.02696061, -0.02752316, 0.1000042
 225030785, 0.005884675, -0.0056159, 1.469989E-06, 0.02666514, -0.02708402, 0.1000041, 0.004680165, 0.02238215, 4.644516E-05, 0.02663598, -0.02650802, 0.1000052
 225230705, 0.009284824, 0.002084921, 2.060363E-05, 0.02674698, -0.02690908, 0.1000045, 0.005884675, -0.0056159, 1.469989E-06, 0.02666514, -0.02708402, 0.1000041
 225431458, -0.008590849, -0.02018563, -4.953026E-05, 0.02634699, -0.02744762, 0.1000028, 0.009284824, 0.002084921, 2.060363E-05, 0.02674698, -0.02690908, 0.1000045
 225631378, -0.02237083, 0.0103138, -2.373797E-05, 0.02608417, -0.02673629, 0.1000033, -0.008590849, -0.02018563, -4.953026E-05, 0.02634699, -0.02744762, 0.1000028
 225831298, -0.006888458, -0.02523148, -5.452995E-05, 0.02638339, -0.02758366, 0.1000024, -0.02237083, 0.0103138, -2.373797E-05, 0.02608417, -0.02673629, 0.1000033
 226031218, -0.007880701, -0.005296557, -2.312676E-05, 0.02636288, -0.02707561, 0.1000033, -0.006888458, -0.02523148, -5.452995E-05, 0.02638339, -0.02758366, 0.1000024
 226231138, 0.01397237, -0.0001805751, 2.514647E-05, 0.02686393, -0.0269588, 0.1000044, -0.007880701, -0.005296557, -2.312676E-05, 0.02636288, -0.02707561, 0.1000033
 226431058, 0.0145708, -0.01207974, 6.43981E-06, 0.02687935, -0.02723938, 0.1000039, 0.01397237, -0.0001805751, 2.514647E-05, 0.02686393, -0.0269588, 0.1000044
 226630978, 0.01569648, -0.007918097, 1.536483E-05, 0.02690794, -0.02713818, 0.100004, 0.0145708, -0.01207974, 6.43981E-06, 0.02687935, -0.02723938, 0.1000039
 226830898, -0.01806245, 0.01985903, 2.139059E-07, 0.02616247, -0.02655351, 0.1000036, 0.01569648, -0.007918097, 1.536483E-05, 0.02690794, -0.02713818, 0.100004
 227030818, -0.01661034, -0.01370711, -5.312492E-05, 0.02618921, -0.02728134, 0.1000025, -0.01806245, 0.01985903, 2.139059E-07, 0.02616247, -0.02655351, 0.1000036
 227230738, -0.01511992, 0.02383059, 1.201976E-05, 0.02621773, -0.02648229, 0.100004, -0.01661034, -0.01370711, -5.312492E-05, 0.02618921, -0.02728134, 0.1000025
 227430658, -0.01418417, -0.00397013, -3.246415E-05, 0.02623552, -0.02704606, 0.1000031, -0.01511992, 0.02383059, 1.201976E-05, 0.02621773, -0.02648229, 0.100004
 227631411, -0.01336056, 0.009702079, -8.270064E-06, 0.02625081, -0.02674974, 0.1000036, -0.01418417, -0.00397013, -3.246415E-05, 0.02623552, -0.02704606, 0.1000031
 227831331, 0.008085592, 0.01985758, 4.792388E-05, 0.02671715, -0.02655409, 0.1000049, -0.01336056, 0.009702079, -8.270064E-06, 0.02625081, -0.02674974, 0.1000036
 228031251, -0.009996098, 0.0190736, 1.344981E-05, 0.02631731, -0.02656828, 0.1000042, 0.008085592, 0.01985758, 4.792388E-05, 0.02671715, -0.02655409, 0.1000049
 228231171, 0.0214314, 0.02171049, 7.548102E-05, 0.02705539, -0.02652078, 0.1000056, -0.009996098, 0.0190736, 1.344981E-05, 0.02631731, -0.02656828, 0.1000042
 228431091, 0.006219153, 0.02324392, 5.011668E-05, 0.02667301, -0.02649346, 0.1000049, 0.0214314, 0.02171049, 7.548102E-05, 0.02705539, -0.02652078, 0.1000056
 228631011, 0.008604448, 0.009568019, 3.168242E-05, 0.0267303, -0.02675249, 0.1000044, 0.006219153, 0.02324392, 5.011668E-05, 0.02667301, -0.02649346, 0.1000049
 228830931, 0.003057832, 0.01079812, 2.362576E-05, 0.02660036, -0.02672793, 0.100004, 0.008604448, 0.009568019, 3.168242E-05, 0.0267303, -0.02675249, 0.1000044
 229030851, 0.0006245321, -0.0008899217, -3.495536E-07, 0.02654461, -0.02697713, 0.1000035, 0.003057832, 0.01079812, 2.362576E-05, 0.02660036, -0.02672793, 0.100004
 229230771, 0.01119077, 0.01582444, 4.718118E-05, 0.02679271, -0.02663087, 0.1000045, 0.0006245321, -0.0008899217, -3.495536E-07, 0.02654461, -0.02697713, 0.1000035
 229430691, -0.01575627, 0.008688003, -1.411478E-05, 0.02620452, -0.02677331, 0.1000028, 0.01119077, 0.01582444, 4.718118E-05, 0.02679271, -0.02663087, 0.1000045
 229631444, 0.01661806, 0.02219598, 6.850071E-05, 0.02692868, -0.02651596, 0.1000045, -0.01575627, 0.008688003, -1.411478E-05, 0.02620452, -0.02677331, 0.1000028
 229831364, -0.02236616, -0.01023314, -5.877207E-05, 0.02608174, -0.02719974, 0.1000018, 0.01661806, 0.02219598, 6.850071E-05, 0.02692868, -0.02651596, 0.1000045
 230031284, 0.02507639, -0.01327476, 2.329061E-05, 0.0271547, -0.02727462, 0.1000034, -0.02236616, -0.01023314, -5.877207E-05, 0.02608174, -0.02719974, 0.1000018
 230231204, -0.02183054, 0.007612192, -2.68599E-05, 0.02609318, -0.0267956, 0.1000023, 0.02507639, -0.01327476, 2.329061E-05, 0.0271547, -0.02727462, 0.1000034
 230431124, 0.01590501, -0.02155168, -7.33824E-06, 0.02691197, -0.02748714, 0.1000029, -0.02183054, 0.007612192, -2.68599E-05, 0.02609318, -0.0267956, 0.1000023
 230631044, 0.01995241, 0.02321541, 7.511675E-05, 0.02701682, -0.02649553, 0.100005, 0.01590501, -0.02155168, -7.33824E-06, 0.02691197, -0.02748714, 0.1000029
 230830964, 0.01639407, -0.008906238, 1.496062E-05, 0.02692425, -0.02716393, 0.1000039, 0.01995241, 0.02321541, 7.511675E-05, 0.02701682, -0.02649553, 0.100005
 231030884, -0.01775194, -0.005143902, -4.074895E-05, 0.02616723, -0.02707436, 0.1000028, 0.01639407, -0.008906238, 1.496062E-05, 0.02692425, -0.02716393, 0.1000039
 231230804, 0.00286546, 0.02400189, 4.481552E-05, 0.02659571, -0.02648, 0.1000046, -0.01775194, -0.005143902, -4.074895E-05, 0.02616723, -0.02707436, 0.1000028
 231430724, 0.001073869, -0.01900878, -2.916721E-05, 0.02655504, -0.02741616, 0.1000034, 0.00286546, 0.02400189, 4.481552E-05, 0.02659571, -0.02648, 0.1000046
 231631477, -0.01373693, -0.007107693, -3.649064E-05, 0.02624371, -0.02711842, 0.1000034, 0.001073869, -0.01900878, -2.916721E-05, 0.02655504, -0.02741616, 0.1000034
 231831397, 0.007828479, -0.01453936, -9.573868E-06, 0.02671173, -0.02730075, 0.100004, -0.01373693, -0.007107693, -3.649064E-05, 0.02624371, -0.02711842, 0.1000034
 232031317, 0.01228053, 0.002278554, 2.586783E-05, 0.02682065, -0.0269039, 0.1000048, 0.007828479, -0.01453936, -9.573868E-06, 0.02671173, -0.02730075, 0.100004
 232231237, -0.00768228, 0.02052705, 1.944538E-05, 0.02636557, -0.02653931, 0.1000048, 0.01228053, 0.002278554, 2.586783E-05, 0.02682065, -0.0269039, 0.1000048
 232431157, 0.02177468, 0.01687599, 6.681535E-05, 0.02706493, -0.02660665, 0.1000061, -0.00768228, 0.02052705, 1.944538E-05, 0.02636557, -0.02653931, 0.1000048
 232631077, -0.01096762, -5.679099E-05, -1.997099E-05, 0.02629809, -0.02695525, 0.1000041, 0.02177468, 0.01687599, 6.681535E-05, 0.02706493, -0.02660665, 0.1000061
 232830997, 0.01008501, -0.007098124, 6.698294E-06, 0.02676533, -0.02711887, 0.1000044, -0.01096762, -5.679099E-05, -1.997099E-05, 0.02629809, -0.02695525, 0.1000041
 233030917, -0.004226136, -0.02083291, -4.20524E-05, 0.02643711, -0.027466, 0.100003, 0.01008501, -0.007098124, 6.698294E-06, 0.02676533, -0.02711887, 0.1000044
 233230837, 0.006474614, 0.01339415, 3.382837E-05, 0.02667865, -0.02667594, 0.1000047, -0.004226136, -0.02083291, -4.20524E-05, 0.02643711, -0.027466, 0.100003
 233430757, 0.01079722, -0.02189751, -1.637785E-05, 0.02678269, -0.02749384, 0.1000037, 0.006474614, 0.01339415, 3.382837E-05, 0.02667865, -0.02667594, 0.1000047
 233630677, -0.004174228, -0.02095028, -4.215484E-05, 0.02643763, -0.02746889, 0.1000032, 0.01079722, -0.02189751, -1.637785E-05, 0.02678269, -0.02749384, 0.1000037
 233831430, -0.02173391, -0.01218791, -6.002894E-05, 0.02609199, -0.02724395, 0.1000031, -0.004174228, -0.02095028, -4.215484E-05, 0.02643763, -0.02746889, 0.1000032
 234031350, 0.01687593, 0.009393012, 4.66105E-05, 0.02693345, -0.02675627, 0.1000056, -0.02173391, -0.01218791, -6.002894E-05, 0.02609199, -0.02724395, 0.1000031
 234231270, -0.01734284, -0.002091248, -3.550117E-05, 0.02617127, -0.02700433, 0.1000037, 0.01687593, 0.009393012, 4.66105E-05, 0.02693345, -0.02675627, 0.1000056
 234431190, -0.02331263, -0.02191428, -7.979508E-05, 0.02606256, -0.0274971, 0.1000025, -0.01734284, -0.002091248, -3.550117E-05, 0.02617127, -0.02700433, 0.1000037
 234631110, 0.01948395, 0.02510876, 7.85652E-05, 0.02699977, -0.0264646, 0.1000058, -0.02331263, -0.02191428, -7.979508E-05, 0.02606256, -0.0274971, 0.1000025
 234831030, 0.01263118, -0.007397822, 1.107291E-05, 0.02682354, -0.02713101, 0.1000044, 0.01948395, 0.02510876, 7.85652E-05, 0.02699977, -0.0264646, 0.1000058
 235030950, 0.02154487, -0.01245973, 1.911767E-05, 0.02705355, -0.0272553, 0.1000044, 0.01263118, -0.007397822, 1.107291E-05, 0.02682354, -0.02713101, 0.1000044
 235230870, -0.0242295, 0.02417986, -4.12358E-06, 0.02604526, -0.02648187, 0.1000038, 0.02154487, -0.01245973, 1.911767E-05, 0.02705355, -0.0272553, 0.1000044
 235430790, -0.00335295, 0.02460979, 3.540464E-05, 0.02645203, -0.02647375, 0.1000047, -0.0242295, 0.02417986, -4.12358E-06, 0.02604526, -0.02648187, 0.1000038
 235630710, -0.02173637, 0.005415228, -3.133957E-05, 0.02608921, -0.02684244, 0.1000035, -0.00335295, 0.02460979, 3.540464E-05, 0.02645203, -0.02647375, 0.1000047
 235831463, -0.003340449, -0.01371778, -2.926729E-05, 0.02645198, -0.02728518, 0.1000036, -0.02173637, 0.005415228, -3.133957E-05, 0.02608921, -0.02684244, 0.1000035
 236031383, -0.002420397, -0.0222837, -4.180558E-05, 0.02647292, -0.02750781, 0.1000031, -0.003340449, -0.01371778, -2.926729E-05, 0.02645198, -0.02728518, 0.1000036
 236231303, -0.0210367, 0.00415968, -3.170924E-05, 0.02610352, -0.02686813, 0.1000033, -0.002420397, -0.0222837, -4.180558E-05, 0.02647292, -0.02750781, 0.1000031
 236431223, 0.02538345, 0.01766211, 7.608437E-05, 0.02715952, -0.02659716, 0.1000059, -0.0210367, 0.00415968, -3.170924E-05, 0.02610352, -0.02686813, 0.1000033
 236631143, -0.009618296, -0.005958996, -2.759502E-05, 0.02632175, -0.02709529, 0.1000036, 0.02538345, 0.01766211, 7.608437E-05, 0.02715952, -0.02659716, 0.1000059
 236831063, -0.0009630627, -0.0172228, -3.034414E-05, 0.02650586, -0.02737327, 0.1000034, -0.009618296, -0.005958996, -2.759502E-05, 0.02632175, -0.02709529, 0.1000036
 237030983, -0.01045638, 0.002919365, -1.430323E-05, 0.02630541, -0.0268943, 0.1000038, -0.0009630627, -0.0172228, -3.034414E-05, 0.02650586, -0.02737327, 0.1000034
 237230903, 0.0127614, -0.01194871, 3.383322E-06, 0.0268295, -0.02724043, 0.1000038, -0.01045638, 0.002919365, -1.430323E-05, 0.02630541, -0.0268943, 0.1000038
 237430823, -0.02110032, 0.0125141, -1.751407E-05, 0.02610348, -0.02669673, 0.1000031, 0.0127614, -0.01194871, 3.383322E-06, 0.0268295, -0.02724043, 0.1000038
 237630743, -0.01176295, 0.01421919, 2.417286E-06, 0.02628024, -0.02666392, 0.1000034, -0.02110032, 0.0125141, -1.751407E-05, 0.02610348, -0.02669673, 0.1000031
 237830663, -0.009848253, -0.01342603, -4.044109E-05, 0.02631843, -0.0272787, 0.1000024, -0.01176295, 0.01421919, 2.417286E-06, 0.02628024, -0.02666392, 0.1000034
 238031416, 0.007879552, 0.01920412, 4.656431E-05, 0.02670988, -0.02657017, 0.1000044, -0.009848253, -0.01342603, -4.044109E-05, 0.02631843, -0.0272787, 0.1000024
 238231336, -0.02124641, -0.02068803, -7.336859E-05, 0.02610032, -0.02746652, 0.1000017, 0.007879552, 0.01920412, 4.656431E-05, 0.02670988, -0.02657017, 0.1000044
 238431256, -0.0234834, 0.009311857, -2.713719E-05, 0.02606108, -0.02676171, 0.1000028, -0.02124641, -0.02068803, -7.336859E-05, 0.02610032, -0.02746652, 0.1000017
 238631176, 0.01381792, -0.007148109, 1.320521E-05, 0.02685601, -0.02712492, 0.1000037, -0.0234834, 0.009311857, -2.713719E-05, 0.02606108, -0.02676171, 0.1000028
 238831096, -0.005601105, 0.02432767, 3.058323E-05, 0.02640625, -0.02647877, 0.1000039, 0.01381792, -0.007148109, 1.320521E-05, 0.02685601, -0.02712492, 0.1000037
 239031016, -0.005158134, 0.003089035, -4.200287E-06, 0.02641574, -0.02689312, 0.1000031, -0.005601105, 0.02432767, 3.058323E-05, 0.02640625, -0.02647877, 0.1000039
 239230936, 0.007857176, -0.004959728, 5.978835E-06, 0.02670938, -0.0270746, 0.1000033, -0.005158134, 0.003089035, -4.200287E-06, 0.02641574, -0.02689312, 0.1000031
 239430856, 0.008794279, 0.01131431, 3.527675E-05, 0.02673143, -0.02672314, 0.1000038, 0.007857176, -0.004959728, 5.978835E-06, 0.02670938, -0.0270746, 0.1000033
 239630776, 0.01707187, -0.02091688, -4.253558E-06, 0.02693792, -0.02747447, 0.1000029, 0.008794279, 0.01131431, 3.527675E-05, 0.02673143, -0.02672314, 0.1000038
 239830696, -0.02479885, -0.02186524, -8.301811E-05, 0.02603645, -0.02750115, 0.100001, 0.01707187, -0.02091688, -4.253558E-06, 0.02693792, -0.02747447, 0.1000029
 240031449, 0.01656976, -0.02341882, -9.760701E-06, 0.02692422, -0.02754365, 0.1000025, -0.02479885, -0.02186524, -8.301811E-05, 0.02603645, -0.02750115, 0.100001
 240231369, 0.01384834, -0.02549507, -1.815262E-05, 0.02685395, -0.0276002, 0.1000026, 0.01656976, -0.02341882, -9.760701E-06, 0.02692422, -0.02754365, 0.1000025
 240431289, 0.009135776, 0.02242861, 5.51388E-05, 0.02673763, -0.02651468, 0.1000045, 0.01384834, -0.02549507, -1.815262E-05, 0.02685395, -0.0276002, 0.1000026
 240631209, 0.0251018, 0.007001835, 5.810675E-05, 0.02715086, -0.02681113, 0.1000049, 0.009135776, 0.02242861, 5.51388E-05, 0.02673763, -0.02651468, 0.1000045
 240831129, 0.001617821, 0.01449136, 2.732613E-05, 0.02656214, -0.02665949, 0.1000043, 0.0251018, 0.007001835, 5.810675E-05, 0.02715086, -0.02681113, 0.1000049
 241031049, 0.01954141, -0.02336709, -3.030858E-06, 0.02700113, -0.02753779, 0.100004, 0.001617821, 0.01449136, 2.732613E-05, 0.02656214, -0.02665949, 0.1000043
 241230969, 0.0181015, -0.008198446, 1.957301E-05, 0.02696354, -0.02715022, 0.1000044, 0.01954141, -0.02336709, -3.030858E-06, 0.02700113, -0.02753779, 0.100004
 241430889, -0.0146907, -0.00947812, -4.271767E-05, 0.02622117, -0.02718186, 0.1000026, 0.0181015, -0.008198446, 1.957301E-05, 0.02696354, -0.02715022, 0.1000044
 241630809, -0.01882067, 0.02091303, 6.189694E-07, 0.02614355, -0.02653939, 0.1000035, -0.0146907, -0.00947812, -4.271767E-05, 0.02622117, -0.02718186, 0.1000026
 241830729, 0.01296734, -0.01040852, 6.296004E-06, 0.02683318, -0.02720432, 0.1000038, -0.01882067, 0.02091303, 6.189694E-07, 0.02614355, -0.02653939, 0.1000035
 242031482, 0.02097765, 0.02438448, 7.898628E-05, 0.02703988, -0.02647841, 0.1000053, 0.01296734, -0.01040852, 6.296004E-06, 0.02683318, -0.02720432, 0.1000038
 242231402, -0.01142852, 0.01411444, 2.760104E-06, 0.02628578, -0.02666645, 0.1000035, 0.02097765, 0.02438448, 7.898628E-05, 0.02703988, -0.02647841, 0.1000053
 242431322, 0.02123975, 0.01637485, 6.569755E-05, 0.02704817, -0.02662314, 0.1000049, -0.01142852, 0.01411444, 2.760104E-06, 0.02628578, -0.02666645, 0.1000035
 242631242, -0.009409899, -0.01022187, -3.40095E-05, 0.02632739, -0.02719949, 0.1000025, 0.02123975, 0.01637485, 6.569755E-05, 0.02704817, -0.02662314, 0.1000049
 242831162, -0.01071857, 0.0176391, 1.003376E-05, 0.02630072, -0.02659955, 0.1000034, -0.009409899, -0.01022187, -3.40095E-05, 0.02632739, -0.02719949, 0.1000025
 243031082, -0.02440136, -0.01169214, -6.369418E-05, 0.02604467, -0.02723638, 0.1000019, -0.01071857, 0.0176391, 1.003376E-05, 0.02630072, -0.02659955, 0.1000034
 243231002, 0.01895071, -0.0195815, 1.567067E-06, 0.02698774, -0.02743775, 0.1000032, -0.02440136, -0.01169214, -6.369418E-05, 0.02604467, -0.02723638, 0.1000019
 243430922, 0.02098836, 0.01205868, 5.816073E-05, 0.0270416, -0.02670795, 0.1000044, 0.01895071, -0.0195815, 1.567067E-06, 0.02698774, -0.02743775, 0.1000032
 243630842, -0.006780265, 0.01918669, 1.993274E-05, 0.02638133, -0.02657197, 0.1000034, 0.02098836, 0.01205868, 5.816073E-05, 0.0270416, -0.02670795, 0.1000044
 243830762, 0.01443322, 0.02353861, 6.567177E-05, 0.02687105, -0.02649429, 0.1000044, -0.006780265, 0.01918669, 1.993274E-05, 0.02638133, -0.02657197, 0.1000034
 244030682, -0.0219516, -0.01795745, -6.983838E-05, 0.02608792, -0.02739625, 0.1000013, 0.01443322, 0.02353861, 6.567177E-05, 0.02687105, -0.02649429, 0.1000044
 244231435, 0.00241085, 0.01413145, 2.813952E-05, 0.02658226, -0.02666768, 0.1000035, -0.0219516, -0.01795745, -6.983838E-05, 0.02608792, -0.02739625, 0.1000013
 244431355, -0.007756629, -0.01575617, -4.061569E-05, 0.02636057, -0.02733962, 0.100002, 0.00241085, 0.01413145, 2.813952E-05, 0.02658226, -0.02666768, 0.1000035
 244631275, 0.009425852, -0.00812043, 3.497952E-06, 0.02674629, -0.02715038, 0.1000032, -0.007756629, -0.01575617, -4.061569E-05, 0.02636057, -0.02733962, 0.100002
 244831195, -0.01784748, 0.0002786017, -3.215301E-05, 0.02616107, -0.02695621, 0.1000026, 0.009425852, -0.00812043, 3.497952E-06, 0.02674629, -0.02715038, 0.1000032
 245031115, 0.01611143, -0.02315335, -9.644313E-06, 0.0269125, -0.02753459, 0.1000029, -0.01784748, 0.0002786017, -3.215301E-05, 0.02616107, -0.02695621, 0.1000026
 245231035, 0.0215378, -0.007675915, 2.650241E-05, 0.02705436, -0.02714062, 0.1000038, 0.01611143, -0.02315335, -9.644313E-06, 0.0269125, -0.02753459, 0.1000029
 245430955, 0.003295207, 0.0008466323, 7.495871E-06, 0.02660045, -0.02694476, 0.1000033, 0.0215378, -0.007675915, 2.650241E-05, 0.02705436, -0.02714062, 0.1000038
 245630875, -0.01356719, 0.02468259, 1.702066E-05, 0.02624282, -0.02647514, 0.1000034, 0.003295207, 0.0008466323, 7.495871E-06, 0.02660045, -0.02694476, 0.1000033
 245830795, 0.007657944, -0.01699577, -1.456786E-05, 0.02670381, -0.02737059, 0.100003, -0.01356719, 0.02468259, 1.702066E-05, 0.02624282, -0.02647514, 0.1000034
 246030715, -0.002247721, 0.02132466, 3.135709E-05, 0.02647729, -0.02653134, 0.1000043, 0.007657944, -0.01699577, -1.456786E-05, 0.02670381, -0.02737059, 0.100003
 246231468, 0.008884243, 0.01230446, 3.651333E-05, 0.02673334, -0.02670075, 0.1000047, -0.002247721, 0.02132466, 3.135709E-05, 0.02647729, -0.02653134, 0.1000043
 246431388, 0.02182833, -0.01037906, 2.245152E-05, 0.0270636, -0.02720217, 0.1000044, 0.008884243, 0.01230446, 3.651333E-05, 0.02673334, -0.02670075, 0.1000047
 246631308, 0.01449893, 0.02215308, 6.297617E-05, 0.02687229, -0.02651649, 0.100005, 0.02182833, -0.01037906, 2.245152E-05, 0.0270636, -0.02720217, 0.1000044
 246831228, 0.01660763, -0.004987445, 2.183826E-05, 0.02692626, -0.02707414, 0.1000041, 0.01449893, 0.02215308, 6.297617E-05, 0.02687229, -0.02651649, 0.100005
 247031148, 0.001151467, 0.0211357, 3.702733E-05, 0.02655297, -0.02653436, 0.1000045, 0.01660763, -0.004987445, 2.183826E-05, 0.02692626, -0.02707414, 0.1000041
 247231068, 0.01346411, 0.02520691, 6.598065E-05, 0.02684592, -0.02646266, 0.1000053, 0.001151467, 0.0211357, 3.702733E-05, 0.02655297, -0.02653436, 0.1000045
 247430988, -0.0008161262, 0.003107842, 3.644234E-06, 0.02650914, -0.02689113, 0.1000039, 0.01346411, 0.02520691, 6.598065E-05, 0.02684592, -0.02646266, 0.1000053
 247630908, 0.02309571, 0.01372805, 6.444012E-05, 0.02709766, -0.02667296, 0.1000053, -0.0008161262, 0.003107842, 3.644234E-06, 0.02650914, -0.02689113, 0.1000039
 247830828, 0.00926801, -0.02009332, -1.630381E-05, 0.02674306, -0.02744914, 0.1000034, 0.02309571, 0.01372805, 6.444012E-05, 0.02709766, -0.02667296, 0.1000053
 248030748, 0.01329951, -0.02417833, -1.566178E-05, 0.02684264, -0.02755851, 0.1000035, 0.00926801, -0.02009332, -1.630381E-05, 0.02674306, -0.02744914, 0.1000034
 248230668, 0.02371825, 0.01204001, 0.08426506, 0.02754343, -0.02714024, 0.1000052, 0.01329951, -0.02417833, -1.566178E-05, 0.02684264, -0.02755851, 0.1000035
 248431421, -0.01626362, 0.008805853, 0.1059053, 0.02755891, -0.02812788, 0.1000036, 0.02371825, 0.01204001, 0.08426506, 0.02754343, -0.02714024, 0.1000052
 248631341, -0.01986918, 0.01412367, 0.1973078, 0.0295192, -0.02939645, 0.1000117, -0.01626362, 0.008805853, 0.1059053, 0.02755891, -0.02812788, 0.1000036
 248831261, -0.02118427, 0.03064519, 0.5385903, 0.03440854, -0.03334253, 0.1000222, -0.01986918, 0.01412367, 0.1973078, 0.0295192, -0.02939645, 0.1000117
 249031181, -0.02357275, -0.0269227, 0.9409561, 0.043212, -0.04293023, 0.1000356, -0.02118427, 0.03064519, 0.5385903, 0.03440854, -0.03334253, 0.1000222
 249231101, 0.03661345, 0.002841151, 1.323201, 0.05658545, -0.05510569, 0.1000202, -0.02357275, -0.0269227, 0.9409561, 0.043212, -0.04293023, 0.1000356
 249431021, 0.003056569, 0.01762683, 1.591299, 0.07183219, -0.07077156, 0.1000067, 0.03661345, 0.002841151, 1.323201, 0.05658545, -0.05510569, 0.1000202
 249630941, -0.02815253, -0.08471715, 1.874442, 0.08991669, -0.09040388, 0.09999573, 0.003056569, 0.01762683, 1.591299, 0.07183219, -0.07077156, 0.1000067
 249830861, 0.09790947, -0.09621466, 2.127059, 0.1120586, -0.1116471, 0.09996449, -0.02815253, -0.08471715, 1.874442, 0.08991669, -0.09040388, 0.09999573
 250030781, 0.01030277, 0.006400203, 2.347622, 0.1347917, -0.1343685, 0.09993394, 0.09790947, -0.09621466, 2.127059, 0.1120586, -0.1116471, 0.09996449
 250230701, 0.01402866, -0.02528925, 2.577211, 0.1606423, -0.1606457, 0.09989891, 0.01030277, 0.006400203, 2.347622, 0.1347917, -0.1343685, 0.09993394
 250431454, 0.1676155, 0.045327, 2.757968, 0.1896385, -0.188338, 0.09984716, 0.01402866, -0.02528925, 2.577211, 0.1606423, -0.1606457, 0.09989891
 250631374, 0.09805414, -0.04483852, 2.881112, 0.2184498, -0.2185474, 0.09982935, 0.1676155, 0.045327, 2.757968, 0.1896385, -0.188338, 0.09984716
 250831294, -0.1510007, -0.08184969, 3.064541, 0.2483948, -0.2499587, 0.09983224, 0.09805414, -0.04483852, 2.881112, 0.2184498, -0.2185474, 0.09982935
 251031214, 0.2512255, -0.1551612, 3.189195, 0.2850745, -0.2836048, 0.2498116, -0.1510007, -0.08184969, 3.064541, 0.2483948, -0.2499587, 0.09983224
 251231134, -0.06711605, -0.2550349, 3.370198, 0.3161386, -0.3187479, 0.2498255, 0.2512255, -0.1551612, 3.189195, 0.2850745, -0.2836048, 0.2498116
 251431054, 0.3801321, -0.02921977, 3.41438, 0.3546415, -0.351842, 0.2498544, -0.06711605, -0.2550349, 3.370198, 0.3161386, -0.3187479, 0.2498255
 251630974, 0.4583656, 0.2833504, 3.525584, 0.3910331, -0.3867619, 0.2499163, 0.3801321, -0.02921977, 3.41438, 0.3546415, -0.351842, 0.2498544
 251830894, 0.116318, -0.0254582, 3.617384, 0.4241533, -0.425255, 0.2500215, 0.4583656, 0.2833504, 3.525584, 0.3910331, -0.3867619, 0.2499163
 252030814, 0.459417, 0.1146623, 3.674135, 0.4641328, -0.4623519, 0.250101, 0.116318, -0.0254582, 3.617384, 0.4241533, -0.425255, 0.2500215
 252230734, 0.3785856, 0.142331, 3.739404, 0.5008256, -0.5007065, 0.2502468, 0.459417, 0.1146623, 3.674135, 0.4641328, -0.4623519, 0.250101
 252430654, 0.1186137, -0.1767283, 3.757953, 0.5369635, -0.5414995, 0.250478, 0.3785856, 0.142331, 3.739404, 0.5008256, -0.5007065, 0.2502468
 252631407, 0.5922342, 0.3694185, 3.827327, 0.5795019, -0.5789309, 0.2506871, 0.1186137, -0.1767283, 3.757953, 0.5369635, -0.5414995, 0.250478
 252831327, -0.2944178, -0.2421369, 3.862886, 0.6133567, -0.6218984, 0.2509911, 0.5922342, 0.3694185, 3.827327, 0.5795019, -0.5789309, 0.2506871
 253031247, 0.09778312, -0.3194971, 3.903309, 0.6543462, -0.6630826, 0.2511071, -0.2944178, -0.2421369, 3.862886, 0.6133567, -0.6218984, 0.2509911
 253231167, 0.404204, 0.4145547, 3.910887, 0.6960336, -0.7008211, 0.2511809, 0.09778312, -0.3194971, 3.903309, 0.6543462, -0.6630826, 0.2511071
 253431087, -0.24446, -0.5667871, 3.988978, 0.7330164, -0.747283, 0.2513423, 0.404204, 0.4145547, 3.910887, 0.6960336, -0.7008211, 0.2511809
 253631007, 0.3901098, -0.6318385, 3.982239, 0.7764606, -0.7894116, 0.2514193, -0.24446, -0.5667871, 3.988978, 0.7330164, -0.747283, 0.2513423
 253830927, -0.02189463, -0.7553001, 4.036078, 0.8147594, -0.8325498, 0.2513128, 0.3901098, -0.6318385, 3.982239, 0.7764606, -0.7894116, 0.2514193
 254030847, 0.6134561, 0.2452753, 4.007221, 0.859116, -0.8689028, 0.2510075, -0.02189463, -0.7553001, 4.036078, 0.8147594, -0.8325498, 0.2513128
 254230767, -0.5857849, -0.8022653, 4.063002, 0.8948446, -0.9175586, 0.2507988, 0.6134561, 0.2452753, 4.007221, 0.859116, -0.8689028, 0.2510075
 254430687, 0.1643818, -0.09358544, 4.074162, 0.9379042, -0.9554453, 0.2504942, -0.5857849, -0.8022653, 4.063002, 0.8948446, -0.9175586, 0.2507988
 254631440, -0.6990851, -1.026978, 4.097029, 0.9768554, -1.005074, 0.2502622, 0.1643818, -0.09358544, 4.074162, 0.9379042, -0.9554453, 0.2504942
 254831360, 0.5283293, 0.5114093, 4.105345, 1.022362, -1.039859, 0.2499092, -0.6990851, -1.026978, 4.097029, 0.9768554, -1.005074, 0.2502622
 255031280, 0.5155097, -0.6377593, 4.126708, 1.063538, -1.087877, 0.2496388, 0.5283293, 0.5114093, 4.105345, 1.022362, -1.039859, 0.2499092
 255231200, 0.5173511, -0.1449547, 4.129058, 1.104861, -1.128234, 0.249342, 0.5155097, -0.6377593, 4.126708, 1.063538, -1.087877, 0.2496388
 255431120, 0.2635829, 0.3478007, 4.060893, 1.144323, -1.16963, 0.2493899, 0.5173511, -0.1449547, 4.129058, 1.104861, -1.128234, 0.249342
 255631040, -0.04294099, -1.215833, 3.857147, 1.182037, -1.219771, 0.2495159, 0.2635829, 0.3478007, 4.060893, 1.144323, -1.16963, 0.2493899
 255830960, 0.0223397, 0.06195928, 3.495157, 1.218158, -1.249526, 0.2495423, -0.04294099, -1.215833, 3.857147, 1.182037, -1.219771, 0.2495159
 256030880, -0.2738095, 0.2578924, 3.209903, 1.249935, -1.283604, 0.2496418, 0.0223397, 0.06195928, 3.495157, 1.218158, -1.249526, 0.2495423
 256230800, -1.064975, 0.8093199, 2.842251, 1.278466, -1.31382, 0.2498565, -0.2738095, 0.2578924, 3.209903, 1.249935, -1.283604, 0.2496418
 256430720, 1.152461, 0.03811539, 2.441494, 1.312042, -1.34248, 0.2499629, -1.064975, 0.8093199, 2.842251, 1.278466, -1.31382, 0.2498565
 256631473, 1.360714, -0.7216922, 2.094167, 1.334594, -1.370012, 0.251553, 1.152461, 0.03811539, 2.441494, 1.312042, -1.34248, 0.2499629
 256831393, -0.3947159, -0.440377, 1.775947, 1.341787, -1.389398, 0.2543499, 1.360714, -0.7216922, 2.094167, 1.334594, -1.370012, 0.251553
 257031313, 1.366471, -0.5497476, 1.511491, 1.366057, -1.407676, 0.2554758, -0.3947159, -0.440377, 1.775947, 1.341787, -1.389398, 0.2543499
 257231233, 1.320093, -0.8635029, 1.286276, 1.378508, -1.42463, 0.2521325, 1.366471, -0.5497476, 1.511491, 1.366057, -1.407676, 0.2554758
 257431153, -0.8979443, 0.1600475, 0.9975892, 1.379037, -1.43243, 0.24509, 1.320093, -0.8635029, 1.286276, 1.378508, -1.42463, 0.2521325
 257631073, 0.4568275, -0.5140769, 0.8135152, 1.390652, -1.445779, 0.2403726, -0.8979443, 0.1600475, 0.9975892, 1.379037, -1.43243, 0.24509
 257830993, 1.218858, -0.9973724, 0.6754207, 1.402242, -1.457311, 0.2386695, 0.4568275, -0.5140769, 0.8135152, 1.390652, -1.445779, 0.2403726
 258030913, -0.3808199, -1.260131, 0.486192, 1.39881, -1.465738, 0.238224, 1.218858, -0.9973724, 0.6754207, 1.402242, -1.457311, 0.2386695
 258230833, 0.5207731, -0.1656225, 0.4636417, 1.406745, -1.464301, 0.2380733, -0.3808199, -1.260131, 0.486192, 1.39881, -1.465738, 0.238224
 258430753, 1.126378, 1.395361, 0.3619725, 1.413951, -1.46675, 0.2377216, 0.5207731, -0.1656225, 0.4636417, 1.406745, -1.464301, 0.2380733
 258630673, 0.426593, -1.032495, 0.2431576, 1.411993, -1.476752, 0.2377805, 1.126378, 1.395361, 0.3619725, 1.413951, -1.46675, 0.2377216
 258831426, 0.7744935, -0.5901723, 0.1829415, 1.415576, -1.476336, 0.238619, 0.426593, -1.032495, 0.2431576, 1.411993, -1.476752, 0.2377805
 259031346, 0.9730707, 1.150553, 0.1508833, 1.417562, -1.474041, 0.2405257, 0.7744935, -0.5901723, 0.1829415, 1.415576, -1.476336, 0.238619
 259231266, 0.4959975, 0.220574, 0.1051184, 1.41524, -1.47629, 0.2424076, 0.9730707, 1.150553, 0.1508833, 1.417562, -1.474041, 0.2405257
 259431186, -1.281121, -0.1457622, 0.07217892, 1.411953, -1.478665, 0.2432636, 0.4959975, 0.220574, 0.1051184, 1.41524, -1.47629, 0.2424076
 259631106, -1.303821, 1.223136, 0.06089662, 1.412311, -1.477309, 0.2436518, -1.281121, -0.1457622, 0.07217892, 1.411953, -1.478665, 0.2432636
 259831026, -1.176293, 1.384473, 0.04655605, 1.412111, -1.478297, 0.2445447, -1.303821, 1.223136, 0.06089662, 1.412311, -1.477309, 0.2436518
 260030946, -0.3312933, 0.7024654, 0.03280896, 1.412205, -1.478988, 0.2464598, -1.176293, 1.384473, 0.04655605, 1.412111, -1.478297, 0.2445447
 260230866, -0.4178431, -0.6447839, 0.01973854, 1.411548, -1.484426, 0.2472233, -0.3312933, 0.7024654, 0.03280896, 1.412205, -1.478988, 0.2464598
 260430786, 0.5831786, -0.8215277, 0.01515031, 1.415081, -1.486096, 0.2477646, -0.4178431, -0.6447839, 0.01973854, 1.411548, -1.484426, 0.2472233
 260630706, 1.370023, 0.5152731, 0.01527667, 1.420247, -1.481304, 0.2483042, 0.5831786, -0.8215277, 0.01515031, 1.415081, -1.486096, 0.2477646
 260831459, -1.07056, 0.6111993, 0.009187886, 1.410043, -1.481532, 0.2482676, 1.370023, 0.5152731, 0.01527667, 1.420247, -1.481304, 0.2483042
 261031379, 0.2886917, -0.9722724, 0.004513341, 1.412499, -1.488755, 0.2476123, -1.07056, 0.6111993, 0.009187886, 1.410043, -1.481532, 0.2482676
 261231299, -0.450949, -0.2281681, 0.00382794, 1.409664, -1.485039, 0.2476765, 0.2886917, -0.9722724, 0.004513341, 1.412499, -1.488755, 0.2476123
 261431219, 0.5026784, 0.7136536, 0.006271135, 1.412274, -1.483113, 0.2495195, -0.450949, -0.2281681, 0.00382794, 1.409664, -1.485039, 0.2476765
 261631139, 1.30428, -0.823085, 0.004089061, 1.417001, -1.489595, 0.2502522, 0.5026784, 0.7136536, 0.006271135, 1.412274, -1.483113, 0.2495195
 261831059, -0.2255963, 0.8033777, 0.003143215, 1.407831, -1.484479, 0.2499285, 1.30428, -0.823085, 0.004089061, 1.417001, -1.489595, 0.2502522
 262030979, 1.272589, -1.129969, 0.00204311, 1.41553, -1.492981, 0.2502073, -0.2255963, 0.8033777, 0.003143215, 1.407831, -1.484479, 0.2499285
 262230899, 0.9348003, 0.8062418, 0.004543025, 1.412267, -1.485621, 0.2503684, 1.272589, -1.129969, 0.00204311, 1.41553, -1.492981, 0.2502073
 262430819, -0.694285, -0.6729818, -0.001865621, 1.405393, -1.490983, 0.2496693, 0.9348003, 0.8062418, 0.004543025, 1.412267, -1.485621, 0.2503684
 262630739, 0.9427504, 0.8185505, 0.004393885, 1.411165, -1.486863, 0.2496296, -0.694285, -0.6729818, -0.001865621, 1.405393, -1.490983, 0.2496693
 262830659, 0.5368527, 0.1521138, 0.0008464621, 1.408126, -1.486396, 0.2619574, 0.9427504, 0.8185505, 0.004393885, 1.411165, -1.486863, 0.2496296
 263031412, 1.085997, 0.2280693, -0.004130918, 1.411714, -1.479736, 0.2964371, 0.5368527, 0.1521138, 0.0008464621, 1.408126, -1.486396, 0.2619574
 263231332, -0.9742758, -0.06376091, -0.02415438, 1.404239, -1.473321, 0.3281972, 1.085997, 0.2280693, -0.004130918, 1.411714, -1.479736, 0.2964371
 263431252, -0.3260326, -1.512121, 0.0948315, 1.404793, -1.479761, 0.3402895, -0.9742758, -0.06376091, -0.02415438, 1.404239, -1.473321, 0.3281972
 263631172, -0.864194, -1.223491, 0.103562, 1.403694, -1.478497, 0.3398847, -0.3260326, -1.512121, 0.0948315, 1.404793, -1.479761, 0.3402895
 263831092, -0.5834117, -0.3662986, 0.04527493, 1.403362, -1.473662, 0.3413559, -0.864194, -1.223491, 0.103562, 1.403694, -1.478497, 0.3398847
 264031012, 0.5285092, 0.2776712, -0.01265925, 1.406422, -1.47011, 0.3500607, -0.5834117, -0.3662986, 0.04527493, 1.403362, -1.473662, 0.3413559
 264230932, -0.9711096, -1.582041, 0.09527057, 1.401216, -1.478704, 0.3636313, 0.5285092, 0.2776712, -0.01265925, 1.406422, -1.47011, 0.3500607
 264430852, 1.058983, -0.8140361, 0.07085826, 1.408042, -1.469792, 0.3761508, -0.9711096, -1.582041, 0.09527057, 1.401216, -1.478704, 0.3636313
 264630772, -1.122709, -0.8147367, 0.08161116, 1.399804, -1.46814, 0.386842, 1.058983, -0.8140361, 0.07085826, 1.408042, -1.469792, 0.3761508
 264830692, 0.196822, 0.5235143, -0.07002249, 1.40147, -1.4604, 0.3964476, -1.122709, -0.8147367, 0.08161116, 1.399804, -1.46814, 0.386842
 265031445, -0.1378119, -1.635515, 0.2043716, 1.399816, -1.470828, 0.4080437, 0.196822, 0.5235143, -0.07002249, 1.40147, -1.4604, 0.3964476
 265231365, 0.5313588, -1.73039, 0.1869429, 1.402078, -1.469221, 0.4191931, -0.1378119, -1.635515, 0.2043716, 1.399816, -1.470828, 0.4080437
 265431285, 0.5788268, -0.5059478, 0.0884413, 1.401696, -1.45784, 0.4305936, 0.5313588, -1.73039, 0.1869429, 1.402078, -1.469221, 0.4191931
 265631205, -0.2897788, -1.438284, 0.2514233, 1.396876, -1.462301, 0.445117, 0.5788268, -0.5059478, 0.0884413, 1.401696, -1.45784, 0.4305936
 265831125, -1.379548, -1.976551, 0.3126312, 1.394717, -1.465558, 0.4597294, -0.2897788, -1.438284, 0.2514233, 1.396876, -1.462301, 0.445117
 266031045, 1.141109, -0.9435682, 0.1530795, 1.402147, -1.453344, 0.4710714, -1.379548, -1.976551, 0.3126312, 1.394717, -1.465558, 0.4597294
 266230965, -1.229795, -0.4670272, 0.1076892, 1.39275, -1.448105, 0.4837829, 1.141109, -0.9435682, 0.1530795, 1.402147, -1.453344, 0.4710714
 266430885, -0.6630254, -0.4983803, 0.1275337, 1.391554, -1.445584, 0.4977751, -1.229795, -0.4670272, 0.1076892, 1.39275, -1.448105, 0.4837829
 266630805, -1.267894, -1.166935, 0.2538037, 1.390073, -1.447675, 0.5134124, -0.6630254, -0.4983803, 0.1275337, 1.391554, -1.445584, 0.4977751
 266830725, -1.113431, -1.556315, 0.3733155, 1.388878, -1.448213, 0.5293447, -1.267894, -1.166935, 0.2538037, 1.390073, -1.447675, 0.5134124
 267031478, -1.086528, -1.261517, 0.3095466, 1.387816, -1.442497, 0.543753, -1.113431, -1.556315, 0.3733155, 1.388878, -1.448213, 0.5293447
 267231398, -1.388864, -2.564289, 0.6282114, 1.386055, -1.45405, 0.5616989, -1.086528, -1.261517, 0.3095466, 1.387816, -1.442497, 0.543753
 267431318, -1.143608, -1.752283, 0.4775114, 1.385439, -1.441749, 0.5739256, -1.388864, -2.564289, 0.6282114, 1.386055, -1.45405, 0.5616989
 267631238, -1.305868, -1.481412, 0.4402123, 1.38431, -1.436134, 0.5884506, -1.143608, -1.752283, 0.4775114, 1.385439, -1.441749, 0.5739256
 267831158, -1.271747, -1.39416, 0.4293699, 1.38288, -1.432156, 0.6044093, -1.305868, -1.481412, 0.4402123, 1.38431, -1.436134, 0.5884506
 268031078, 0.7643939, -2.916344, 0.8696966, 1.38692, -1.446046, 0.6255332, -1.271747, -1.39416, 0.4293699, 1.38288, -1.432156, 0.6044093
 268230998, 0.3580427, -2.448473, 0.795594, 1.38338, -1.436296, 0.6413214, 0.7643939, -2.916344, 0.8696966, 1.38692, -1.446046, 0.6255332
 268430918, -0.9126067, -2.357483, 0.8036039, 1.378474, -1.432303, 0.6581051, 0.3580427, -2.448473, 0.795594, 1.38338, -1.436296, 0.6413214
 268630838, 1.101518, -2.683321, 0.909603, 1.385891, -1.431737, 0.6761413, -0.9126067, -2.357483, 0.8036039, 1.378474, -1.432303, 0.6581051
 268830758, 0.6450556, -4.608858, 1.578892, 1.380186, -1.461878, 0.7040935, 1.101518, -2.683321, 0.909603, 1.385891, -1.431737, 0.6761413
 269030678, 0.737584, -2.51431, 0.9860691, 1.381095, -1.422036, 0.7106056, 0.6450556, -4.608858, 1.578892, 1.380186, -1.461878, 0.7040935
 269231431, -0.006262334, -2.362916, 0.9617688, 1.376017, -1.416302, 0.7277402, 0.737584, -2.51431, 0.9860691, 1.381095, -1.422036, 0.7106056
 269431351, 0.6044836, -3.977775, 1.55186, 1.376962, -1.437138, 0.7544101, -0.006262334, -2.362916, 0.9617688, 1.376017, -1.416302, 0.7277402
 269631271, -0.3414405, -2.602402, 1.144993, 1.372394, -1.411218, 0.764995, 0.6044836, -3.977775, 1.55186, 1.376962, -1.437138, 0.7544101
 269831191, 0.8293792, -4.571963, 1.898, 1.375989, -1.440606, 0.7955782, -0.3414405, -2.602402, 1.144993, 1.372394, -1.411218, 0.764995
 270031111, 0.453714, -3.867026, 1.709505, 1.372841, -1.422487, 0.809031, 0.8293792, -4.571963, 1.898, 1.375989, -1.440606, 0.7955782
 270231031, 0.2015781, -3.359254, 1.585559, 1.370722, -1.409379, 0.8246922, 0.453714, -3.867026, 1.709505, 1.372841, -1.422487, 0.809031
 270430951, 0.4377059, -3.925495, 1.865078, 1.370148, -1.414509, 0.8479264, 0.2015781, -3.359254, 1.585559, 1.370722, -1.409379, 0.8246922
 270630871, -1.673143, -2.939651, 1.579581, 1.365112, -1.39563, 0.8611298, 0.4377059, -3.925495, 1.865078, 1.370148, -1.414509, 0.8479264
 270830791, -1.787991, -4.980493, 2.542947, 1.36042, -1.432553, 0.8988788, -1.673143, -2.939651, 1.579581, 1.365112, -1.39563, 0.8611298
 271030711, -1.828686, -3.770201, 2.070126, 1.361564, -1.402004, 0.9071844, -1.787991, -4.980493, 2.542947, 1.36042, -1.432553, 0.8988788
 271231464, -1.548549, -4.608962, 2.50575, 1.358215, -1.414835, 0.9342472, -1.828686, -3.770201, 2.070126, 1.361564, -1.402004, 0.9071844
 271431384, 0.6469132, -4.825692, 2.700237, 1.364445, -1.412837, 0.9540221, -1.548549, -4.608962, 2.50575, 1.358215, -1.414835, 0.9342472
 271631304, -1.114703, -4.637555, 2.708903, 1.355582, -1.407394, 0.9729066, 0.6469132, -4.825692, 2.700237, 1.364445, -1.412837, 0.9540221
 271831224, -0.2459948, -3.69306, 2.323155, 1.358315, -1.382169, 0.9825405, -1.114703, -4.637555, 2.708903, 1.355582, -1.407394, 0.9729066
 272031144, -1.155309, -4.362263, 2.743467, 1.353272, -1.392852, 1.011033, -0.2459948, -3.69306, 2.323155, 1.358315, -1.382169, 0.9825405
 272231064, -1.194026, -5.415901, 3.409421, 1.349143, -1.415012, 1.044761, -1.155309, -4.362263, 2.743467, 1.353272, -1.392852, 1.011033
 272430984, -0.6100937, -5.426704, 3.56124, 1.349371, -1.411258, 1.064781, -1.194026, -5.415901, 3.409421, 1.349143, -1.415012, 1.044761
 272630904, 0.4017376, -4.205216, 2.920327, 1.356258, -1.376364, 1.067066, -0.6100937, -5.426704, 3.56124, 1.349371, -1.411258, 1.064781
 272830824, 0.5441911, -4.189376, 3.025312, 1.356352, -1.372372, 1.087092, 0.4017376, -4.205216, 2.920327, 1.356258, -1.376364, 1.067066
 273030744, -2.551517, -5.898938, 4.224471, 1.342297, -1.419524, 1.138819, 0.5441911, -4.189376, 3.025312, 1.356352, -1.372372, 1.087092
