TimeUS,COFN,COFE,CNe,CEe,POFN,POFE,PNe,PEe
 8425795, 0.001468834, 0.01468042, 0.01976104, -0.03124137, 0, 0, 0, 0
 8606556, -0.001022073, 0.002944859, 0.01981312, -0.03116922, 0.001468834, 0.01468042, 0.01976104, -0.03124137
 8806476, 0.0004596444, 0.00526663, 0.02013501, -0.03096571, -0.001022073, 0.002944859, 0.01981312, -0.03116922
 9006396, 0.0006394697, 0.005311148, 0.02068199, -0.03060322, 0.0004596444, 0.00526663, 0.02013501, -0.03096571
 9206316, -0.0007397359, 0.002987267, 0.02130869, -0.03016648, 0.0006394697, 0.005311148, 0.02068199, -0.03060322
 9406236, -0.004326323, 0.0008389795, 0.02192088, -0.02972656, -0.0007397359, 0.002987267, 0.02130869, -0.03016648
 9606156, -0.002543308, 0.000213005, 0.02247328, -0.02930859, -0.004326323, 0.0008389795, 0.02192088, -0.02972656
 9806076, -0.002156785, 0.001110284, 0.02297377, -0.02891782, -0.002543308, 0.000213005, 0.02247328, -0.02930859
 10005996, -0.002656176, 0.003653374, 0.02343054, -0.02855197, -0.002156785, 0.001110284, 0.02297377, -0.02891782
 10205916, -0.001890064, 0.003867594, 0.02385144, -0.02820092, -0.002656176, 0.003653374, 0.02343054, -0.02855197
 10405836, -0.002881273, 0.003341964, 0.02424171, -0.02786635, -0.001890064, 0.003867594, 0.02385144, -0.02820092
 10606589, -0.0009328577, 0.00546439, 0.02459672, -0.02755591, -0.002881273, 0.003341964, 0.02424171, -0.02786635
 10806509, -0.003490184, 0.01220049, 0.02492661, -0.02728592, -0.0009328577, 0.00546439, 0.02459672, -0.02755591
 11006429, 0.01944314, 0.001906276, 0.02531617, -0.02697295, -0.003490184, 0.01220049, 0.02492661, -0.02728592
 11206349, -0.0188413, -0.000875524, 0.02558569, -0.02671173, 0.01944314, 0.001906276, 0.02531617, -0.02697295
 11406269, -0.02145405, 0.01361336, 0.02586035, -0.0265102, -0.0188413, -0.000875524, 0.02558569, -0.02671173
 11606189, -0.004721944, -0.01591489, 0.02598705, -0.02630353, -0.02145405, 0.01361336, 0.02586035, -0.0265102
 11806109, 0.01934591, 0.001264693, 0.02627122, -0.02604233, -0.004721944, -0.01591489, 0.02598705, -0.02630353
 12006029, -0.009939783, -0.014195, 0.02639611, -0.02589862, 0.01934591, 0.001264693, 0.02627122, -0.02604233
 12205949, 0.01188045, -0.006682509, 0.02657219, -0.02569176, -0.009939783, -0.014195, 0.02639611, -0.02589862
 12405869, -0.01110299, 0.004114074, 0.02671868, -0.0255289, 0.01188045, -0.006682509, 0.02657219, -0.02569176
 12605789, 0.006079161, -0.02119434, 0.026836, -0.02548538, -0.01110299, 0.004114074, 0.02671868, -0.0255289
 12806542, 0.002612765, -0.02189537, 0.02695236, -0.02536231, 0.006079161, -0.02119434, 0.026836, -0.02548538
 13006462, 0.01505062, -0.01165028, 0.02710784, -0.02516715, 0.002612765, -0.02189537, 0.02695236, -0.02536231
 13206382, -0.009355704, -0.0216096, 0.02718205, -0.02513194, 0.01505062, -0.01165028, 0.02710784, -0.02516715
 13406302, 0.008553432, -0.006383772, 0.0272556, -0.02494866, -0.009355704, -0.0216096, 0.02718205, -0.02513194
 13606222, 0.01792241, -0.01782447, 0.02738466, -0.02493091, 0.008553432, -0.006383772, 0.0272556, -0.02494866
 13806142, -0.01127585, 0.01435237, 0.02741032, -0.02483048, 0.01792241, -0.01782447, 0.02738466, -0.02493091
 14006062, 0.004819213, -0.006230018, 0.02744669, -0.02472597, -0.01127585, 0.01435237, 0.02741032, -0.02483048
 14205982, -0.01546247, 0.0008794436, 0.02754714, -0.02465639, 0.004819213, -0.006230018, 0.02744669, -0.02472597
 14405902, -0.003903215, -0.005968321, 0.0275443, -0.02461451, -0.01546247, 0.0008794436, 0.02754714, -0.02465639
 14605822, 0.01836992, 0.01174175, 0.02766233, -0.0245834, -0.003903215, -0.005968321, 0.0275443, -0.02461451
 14806575, -0.001645173, 0.01417034, 0.02761829, -0.02456798, 0.01836992, 0.01174175, 0.02766233, -0.0245834
 15006495, -0.009868128, -0.01809484, 0.02767794, -0.02455375, -0.001645173, 0.01417034, 0.02761829, -0.02456798
 15206415, -0.009474901, -0.01413011, 0.02769879, -0.0244978, -0.009868128, -0.01809484, 0.02767794, -0.02455375
 15406335, -0.01177677, -0.01146675, 0.02773047, -0.0244573, -0.009474901, -0.01413011, 0.02769879, -0.0244978
 15606255, -0.0105567, -0.01336243, 0.02774369, -0.02444708, -0.01177677, -0.01146675, 0.02773047, -0.0244573
 15806175, -0.01017893, -0.01364825, 0.02775741, -0.02443146, -0.0105567, -0.01336243, 0.02774369, -0.02444708
 16006095, -0.009489801, -0.01513699, 0.0277674, -0.02442715, -0.01017893, -0.01364825, 0.02775741, -0.02443146
 16206015, -0.007628161, -0.01400673, 0.02776901, -0.02440974, -0.009489801, -0.01513699, 0.0277674, -0.02442715
 16405935, -0.01048475, -0.01025168, 0.02778704, -0.02437973, -0.007628161, -0.01400673, 0.02776901, -0.02440974
 16605855, -0.009250808, -0.01328816, 0.02778972, -0.02438803, -0.01048475, -0.01025168, 0.02778704, -0.02437973
 16805775, -0.008659119, -0.01748162, 0.02779674, -0.02440855, -0.009250808, -0.01328816, 0.02778972, -0.02438803
 17006528, -0.007333452, -0.0161743, 0.02779492, -0.02439492, -0.008659119, -0.01748162, 0.02779674, -0.02440855
 17206448, -0.01099819, -0.01763767, 0.02781386, -0.02440143, -0.007333452, -0.0161743, 0.02779492, -0.02439492
 17406368, -0.01163912, -0.01322078, 0.02781346, -0.02437255, -0.01099819, -0.01763767, 0.02781386, -0.02440143
 17606288, -0.00773882, -0.00984857, 0.02779141, -0.02436074, -0.01163912, -0.01322078, 0.02781346, -0.02437255
 17806208, -0.009559105, -0.01153374, 0.02779716, -0.02437046, -0.00773882, -0.00984857, 0.02779141, -0.02436074
 18006128, -0.008962334, -0.0164196, 0.02779421, -0.02440405, -0.009559105, -0.01153374, 0.02779716, -0.02437046
 18206048, -0.01056614, -0.01518358, 0.02779621, -0.02439991, -0.008962334, -0.0164196, 0.02779421, -0.02440405
 18405968, -0.01073528, -0.01425857, 0.02779131, -0.0243998, -0.01056614, -0.01518358, 0.02779621, -0.02439991
 18605888, -0.01150014, -0.01399245, 0.02778923, -0.02440445, -0.01073528, -0.01425857, 0.02779131, -0.0243998
 18805808, -0.01350208, -0.01357272, 0.0277939, -0.0244084, -0.01150014, -0.01399245, 0.02778923, -0.02440445
 19006561, -0.01172788, -0.009409831, 0.02777363, -0.02439768, -0.01350208, -0.01357272, 0.0277939, -0.0244084
 19206481, -0.01153416, -0.01311828, 0.02776828, -0.02442278, -0.01172788, -0.009409831, 0.02777363, -0.02439768
 19406401, -0.009222912, -0.01490215, 0.02774983, -0.02444422, -0.01153416, -0.01311828, 0.02776828, -0.02442278
 19606321, -0.009523619, -0.01528061, 0.02774277, -0.02445633, -0.009222912, -0.01490215, 0.02774983, -0.02444422
 19806241, -0.01009315, -0.01285324, 0.02773492, -0.02445152, -0.009523619, -0.01528061, 0.02774277, -0.02445633
 20006161, -0.01081663, -0.0132795, 0.02772973, -0.0244637, -0.01009315, -0.01285324, 0.02773492, -0.02445152
 20206081, -0.00999904, -0.01183833, 0.02771515, -0.02446745, -0.01081663, -0.0132795, 0.02772973, -0.0244637
 20406001, -0.01164013, -0.01471091, 0.02771612, -0.02449318, -0.00999904, -0.01183833, 0.02771515, -0.02446745
 20605921, -0.01072682, -0.01245129, 0.02770019, -0.02449159, -0.01164013, -0.01471091, 0.02771612, -0.02449318
 20805841, -0.01023564, -0.01191169, 0.02768745, -0.02450036, -0.01072682, -0.01245129, 0.02770019, -0.02449159
 21005761, -0.01041039, -0.01313438, 0.02767915, -0.02451794, -0.01023564, -0.01191169, 0.02768745, -0.02450036
 21206514, -0.01094164, -0.01408552, 0.02767286, -0.02453395, -0.01041039, -0.01313438, 0.02767915, -0.02451794
 21406434, -0.01114563, -0.01458429, 0.02766407, -0.02454837, -0.01094164, -0.01408552, 0.02767286, -0.02453395
 21606354, -0.009588086, -0.01449963, 0.02764566, -0.02456079, -0.01114563, -0.01458429, 0.02766407, -0.02454837
 21806274, -0.01280574, -0.01308588, 0.02765147, -0.02456215, -0.009588086, -0.01449963, 0.02764566, -0.02456079
 22006194, -0.01075269, -0.01236217, 0.02762917, -0.02457127, -0.01280574, -0.01308588, 0.02765147, -0.02456215
 22206114, -0.01071312, -0.01160679, 0.02761817, -0.02457911, -0.01075269, -0.01236217, 0.02762917, -0.02457127
 22406034, -0.01093425, -0.01502554, 0.0276109, -0.02461015, -0.01071312, -0.01160679, 0.02761817, -0.02457911
 22605954, -0.009950429, -0.01242996, 0.02759401, -0.02460719, -0.01093425, -0.01502554, 0.0276109, -0.02461015
 22805874, -0.01257137, -0.01348178, 0.02759814, -0.02462315, -0.009950429, -0.01242996, 0.02759401, -0.02460719
 23005794, -0.01082594, -0.01169822, 0.02757683, -0.02462657, -0.01257137, -0.01348178, 0.02759814, -0.02462315
 23206547, -0.01098778, -0.01238872, 0.02756814, -0.0246411, -0.01082594, -0.01169822, 0.02757683, -0.02462657
 23406467, -0.008455841, -0.01343309, 0.02754709, -0.02465933, -0.01098778, -0.01238872, 0.02756814, -0.0246411
 23606387, -0.009015866, -0.01147786, 0.02753795, -0.02466027, -0.008455841, -0.01343309, 0.02754709, -0.02465933
 23806307, -0.009144927, -0.01340597, 0.02752923, -0.02468198, -0.009015866, -0.01147786, 0.02753795, -0.02466027
 24006227, -0.008110662, -0.0126488, 0.02751437, -0.02468962, -0.009144927, -0.01340597, 0.02752923, -0.02468198
 24206147, -0.01172052, -0.01764954, 0.02752463, -0.02473121, -0.008110662, -0.0126488, 0.02751437, -0.02468962
 24406067, -0.01237064, -0.01259039, 0.02751486, -0.02470946, -0.01172052, -0.01764954, 0.02752463, -0.02473121
 24605987, -0.01260082, -0.01197688, 0.02750597, -0.02471715, -0.01237064, -0.01259039, 0.02751486, -0.02470946
 24805907, -0.01387003, -0.01592251, 0.02750665, -0.02475052, -0.01260082, -0.01197688, 0.02750597, -0.02471715
 25005827, -0.01141043, -0.01146127, 0.02747903, -0.02473745, -0.01387003, -0.01592251, 0.02750665, -0.02475052
 25206580, -0.01039377, -0.01217668, 0.02746454, -0.02475229, -0.01141043, -0.01146127, 0.02747903, -0.02473745
 25406500, -0.01043956, -0.01109257, 0.02745506, -0.02475706, -0.01039377, -0.01217668, 0.02746454, -0.02475229
 25606420, -0.009977384, -0.01275577, 0.02744413, -0.02477634, -0.01043956, -0.01109257, 0.02745506, -0.02475706
 25806340, -0.008831128, -0.01513293, 0.02743066, -0.02480184, -0.009977384, -0.01275577, 0.02744413, -0.02477634
 26006260, -0.008109957, -0.01355631, 0.02741748, -0.02480282, -0.008831128, -0.01513293, 0.02743066, -0.02480184
 26206180, -0.009610256, -0.01438242, 0.02741505, -0.02481727, -0.008109957, -0.01355631, 0.02741748, -0.02480282
 26406100, -0.010353, -0.01465795, 0.02740943, -0.02482888, -0.009610256, -0.01438242, 0.02741505, -0.02481727
 26606020, -0.01056295, -0.01227114, 0.02740014, -0.02482496, -0.010353, -0.01465795, 0.02740943, -0.02482888
 26805940, -0.009247312, -0.01241228, 0.02738506, -0.02483626, -0.01056295, -0.01227114, 0.02740014, -0.02482496
 27005860, -0.01087376, -0.01297606, 0.02738394, -0.02484862, -0.009247312, -0.01241228, 0.02738506, -0.02483626
 27205780, -0.008079939, -0.01246789, 0.02736222, -0.02485698, -0.01087376, -0.01297606, 0.02738394, -0.02484862
 27406533, -0.008737319, -0.01171498, 0.02735613, -0.02486199, -0.008079939, -0.01246789, 0.02736222, -0.02485698
 27606453, -0.008522343, -0.01526676, 0.02734824, -0.02489242, -0.008737319, -0.01171498, 0.02735613, -0.02486199
 27806373, -0.006095763, -0.01709737, 0.02733179, -0.02491609, -0.008522343, -0.01526676, 0.02734824, -0.02489242
 28006293, -0.009357642, -0.01502873, 0.02733459, -0.02490924, -0.006095763, -0.01709737, 0.02733179, -0.02491609
 28206213, -0.01395528, -0.01168602, 0.0273497, -0.02489687, -0.009357642, -0.01502873, 0.02733459, -0.02490924
 28406133, -0.01217192, -0.01194146, 0.02733076, -0.02490809, -0.01395528, -0.01168602, 0.0273497, -0.02489687
 28606053, -0.0106836, -0.01305287, 0.02731508, -0.02492382, -0.01217192, -0.01194146, 0.02733076, -0.02490809
 28805973, -0.008909504, -0.01398899, 0.02729925, -0.02493894, -0.0106836, -0.01305287, 0.02731508, -0.02492382
 29005893, -0.007947051, -0.01229118, 0.0272867, -0.02493835, -0.008909504, -0.01398899, 0.02729925, -0.02493894
 29205813, -0.007356319, -0.01593675, 0.02727826, -0.02496967, -0.007947051, -0.01229118, 0.0272867, -0.02493835
 29406566, -0.009766825, -0.01308765, 0.02727909, -0.02495901, -0.007356319, -0.01593675, 0.02727826, -0.02496967
 29606486, -0.009944975, -0.01648912, 0.0272742, -0.02498884, -0.009766825, -0.01308765, 0.02727909, -0.02495901
 29806406, -0.007943354, -0.01690736, 0.02725778, -0.02500162, -0.009944975, -0.01648912, 0.0272742, -0.02498884
 30006326, -0.008477653, -0.01273953, 0.02725036, -0.02498275, -0.007943354, -0.01690736, 0.02725778, -0.02500162
 30206246, -0.00799787, -0.01386595, 0.0272415, -0.0249976, -0.008477653, -0.01273953, 0.02725036, -0.02498275
 30406166, -0.008811367, -0.01270046, 0.02723692, -0.02499853, -0.00799787, -0.01386595, 0.0272415, -0.0249976
 30606086, -0.0091241, -0.0135019, 0.02723125, -0.02501095, -0.008811367, -0.01270046, 0.02723692, -0.02499853
 30806006, -0.009846242, -0.01620659, 0.02722866, -0.02503585, -0.0091241, -0.0135019, 0.02723125, -0.02501095
 31005926, -0.008873578, -0.01688952, 0.0272175, -0.02504902, -0.009846242, -0.01620659, 0.02722866, -0.02503585
 31205846, -0.009952656, -0.01477658, 0.02721449, -0.02504136, -0.008873578, -0.01688952, 0.0272175, -0.02504902
 31405766, -0.00962517, -0.01647758, 0.02720775, -0.02505964, -0.009952656, -0.01477658, 0.02721449, -0.02504136
 31606519, -0.01059039, -0.01178189, 0.02720426, -0.0250369, -0.00962517, -0.01647758, 0.02720775, -0.02505964
 31806439, -0.01340929, -0.01461386, 0.02721469, -0.02505896, -0.01059039, -0.01178189, 0.02720426, -0.0250369
 32006359, -0.009503777, -0.01313977, 0.02718619, -0.02505935, -0.01340929, -0.01461386, 0.02721469, -0.02505896
 32206279, -0.008257264, -0.01487621, 0.02717488, -0.02507781, -0.009503777, -0.01313977, 0.02718619, -0.02505935
 32406199, -0.0112356, -0.01560134, 0.02718236, -0.02508848, -0.008257264, -0.01487621, 0.02717488, -0.02507781
 32606119, -0.0104575, -0.01350946, 0.02717086, -0.02508273, -0.0112356, -0.01560134, 0.02718236, -0.02508848
 32806039, -0.0114368, -0.01317433, 0.02716921, -0.02508744, -0.0104575, -0.01350946, 0.02717086, -0.02508273
 33005959, -0.009225865, -0.01648659, 0.02715354, -0.02511669, -0.0114368, -0.01317433, 0.02716921, -0.02508744
 33205879, -0.01073155, -0.01470539, 0.02715337, -0.0251109, -0.009225865, -0.01648659, 0.02715354, -0.02511669
 33405799, -0.01189126, -0.01487331, 0.0271533, -0.02511829, -0.01073155, -0.01470539, 0.02715337, -0.0251109
 33606552, -0.009622582, -0.0146461, 0.02713571, -0.02512431, -0.01189126, -0.01487331, 0.0271533, -0.02511829
 33806472, -0.009951286, -0.01511419, 0.02713133, -0.0251338, -0.009622582, -0.0146461, 0.02713571, -0.02512431
 34006392, -0.01008128, -0.01368797, 0.02712527, -0.02513135, -0.009951286, -0.01511419, 0.02713133, -0.0251338
 34206312, -0.01168797, -0.01066114, 0.02712625, -0.02512124, -0.01008128, -0.01368797, 0.02712527, -0.02513135
 34406232, -0.011723, -0.01533301, 0.02712254, -0.02515382, -0.01168797, -0.01066114, 0.02712625, -0.02512124
 34606152, -0.01068055, -0.01465492, 0.02711095, -0.02515611, -0.011723, -0.01533301, 0.02712254, -0.02515382
 34806072, -0.009615794, -0.01291488, 0.02709934, -0.02515238, -0.01068055, -0.01465492, 0.02711095, -0.02515611
 35005992, -0.008891344, -0.01488893, 0.0270913, -0.02517072, -0.009615794, -0.01291488, 0.02709934, -0.02515238
 35205912, -0.01053153, -0.01416029, 0.02709288, -0.0251715, -0.008891344, -0.01488893, 0.0270913, -0.02517072
 35405832, -0.01082201, -0.01178994, 0.02708768, -0.0251642, -0.01053153, -0.01416029, 0.02709288, -0.0251715
 35606585, -0.00925353, -0.01344832, 0.02707548, -0.02517975, -0.01082201, -0.01178994, 0.02708768, -0.0251642
 35806505, -0.006858235, -0.01435178, 0.02706143, -0.02519171, -0.00925353, -0.01344832, 0.02707548, -0.02517975
 36006425, -0.009913578, -0.01264076, 0.02706746, -0.02518641, -0.006858235, -0.01435178, 0.02706143, -0.02519171
 36206345, -0.01342929, -0.01165849, 0.02708078, -0.02518566, -0.009913578, -0.01264076, 0.02706746, -0.02518641
 36406265, -0.01091004, -0.01039969, 0.02706087, -0.02518629, -0.01342929, -0.01165849, 0.02708078, -0.02518566
 36606185, -0.008251234, -0.01354092, 0.02704485, -0.02520914, -0.01091004, -0.01039969, 0.02706087, -0.02518629
 36806105, -0.008531857, -0.01451792, 0.02704114, -0.0252206, -0.008251234, -0.01354092, 0.02704485, -0.02520914
 37006025, -0.0106088, -0.01345931, 0.02704504, -0.02521878, -0.008531857, -0.01451792, 0.02704114, -0.0252206
 37205945, -0.01176963, -0.01481984, 0.02704673, -0.02523199, -0.0106088, -0.01345931, 0.02704504, -0.02521878
 37405865, -0.009410394, -0.01528328, 0.02703019, -0.02524132, -0.01176963, -0.01481984, 0.02704673, -0.02523199
 37605785, -0.0105371, -0.0133155, 0.02702983, -0.02523384, -0.009410394, -0.01528328, 0.02703019, -0.02524132
 37806538, -0.01127041, -0.011203, 0.02702809, -0.02522737, -0.0105371, -0.0133155, 0.02702983, -0.02523384
 38006458, -0.01096746, -0.01280061, 0.02702222, -0.02524102, -0.01127041, -0.011203, 0.02702809, -0.02522737
 38206378, -0.01313677, -0.01355968, 0.02702985, -0.02524967, -0.01096746, -0.01280061, 0.02702222, -0.02524102
 38406298, -0.009193847, -0.0129584, 0.02700442, -0.02525268, -0.01313677, -0.01355968, 0.02702985, -0.02524967
 38606218, -0.01226232, -0.01275258, 0.02701506, -0.02525539, -0.009193847, -0.0129584, 0.02700442, -0.02525268
 38806138, -0.01138538, -0.01508999, 0.02700658, -0.02527476, -0.01226232, -0.01275258, 0.02701506, -0.02525539
 39006058, -0.01043754, -0.01393245, 0.02699671, -0.02527268, -0.01138538, -0.01508999, 0.02700658, -0.02527476
 39205978, -0.01095112, -0.01509749, 0.02699528, -0.02528462, -0.01043754, -0.01393245, 0.02699671, -0.02527268
 39405898, -0.008794221, -0.01727481, 0.02698152, -0.02530578, -0.01095112, -0.01509749, 0.02699528, -0.02528462
 39605818, -0.01027604, -0.01568596, 0.02698313, -0.02529847, -0.008794221, -0.01727481, 0.02698152, -0.02530578
 39806571, -0.01250889, -0.014006, 0.02699016, -0.02529119, -0.01027604, -0.01568596, 0.02698313, -0.02529847
 40006491, -0.01218166, -0.01508979, 0.02698459, -0.02530259, -0.01250889, -0.014006, 0.02699016, -0.02529119
 40206411, -0.008092416, -0.01433823, 0.0269605, -0.02530389, -0.01218166, -0.01508979, 0.02698459, -0.02530259
 40406331, -0.01048822, -0.0150066, 0.02696699, -0.02531186, -0.008092416, -0.01433823, 0.0269605, -0.02530389
 40606251, -0.009488229, -0.01596827, 0.0269585, -0.02532317, -0.01048822, -0.0150066, 0.02696699, -0.02531186
 40806171, -0.009196625, -0.01383514, 0.02695238, -0.02531368, -0.009488229, -0.01596827, 0.0269585, -0.02532317
 41006091, -0.01214022, -0.01436396, 0.0269631, -0.02532029, -0.009196625, -0.01383514, 0.02695238, -0.02531368
 41206011, -0.008550256, -0.01544176, 0.0269421, -0.02533286, -0.01214022, -0.01436396, 0.0269631, -0.02532029
 41405931, -0.01201858, -0.01743872, 0.02695564, -0.02535021, -0.008550256, -0.01544176, 0.0269421, -0.02533286
 41605851, -0.008424755, -0.01355277, 0.02693291, -0.02532944, -0.01201858, -0.01743872, 0.02695564, -0.02535021
 41805771, -0.008601416, -0.01361691, 0.02692977, -0.02533389, -0.008424755, -0.01355277, 0.02693291, -0.02532944
 42006524, -0.007612317, -0.01593272, 0.026923, -0.02535321, -0.008601416, -0.01361691, 0.02692977, -0.02533389
 42206444, -0.009753374, -0.01256044, 0.02692675, -0.02533558, -0.007612317, -0.01593272, 0.026923, -0.02535321
 42406364, -0.009933683, -0.01118369, 0.02692324, -0.02533253, -0.009753374, -0.01256044, 0.02692675, -0.02533558
 42606284, -0.007544517, -0.01192011, 0.02690985, -0.02534103, -0.009933683, -0.01118369, 0.02692324, -0.02533253
 42806204, -0.01028055, -0.01268089, 0.02691759, -0.02534843, -0.007544517, -0.01192011, 0.02690985, -0.02534103
 43006124, -0.01081394, -0.01391053, 0.02691676, -0.02535949, -0.01028055, -0.01268089, 0.02691759, -0.02534843
 43206044, -0.01241595, -0.01043429, 0.0269204, -0.02534465, -0.01081394, -0.01391053, 0.02691676, -0.02535949
 43405964, -0.009829569, -0.01346233, 0.02690426, -0.0253652, -0.01241595, -0.01043429, 0.0269204, -0.02534465
 43605884, -0.01365134, -0.01189172, 0.02692063, -0.02535938, -0.009829569, -0.01346233, 0.02690426, -0.0253652
 43805804, -0.0139147, -0.01344106, 0.02691954, -0.0253713, -0.01365134, -0.01189172, 0.02692063, -0.02535938
 44006557, -0.01363083, -0.01531932, 0.02691526, -0.02538654, -0.0139147, -0.01344106, 0.02691954, -0.0253713
 44206477, -0.01063313, -0.01166349, 0.02689375, -0.02536968, -0.01363083, -0.01531932, 0.02691526, -0.02538654
 44406397, -0.01090297, -0.0133296, 0.026892, -0.02538252, -0.01063313, -0.01166349, 0.02689375, -0.02536968
 44606317, -0.01193709, -0.01501471, 0.02689438, -0.02539651, -0.01090297, -0.0133296, 0.026892, -0.02538252
 44806237, -0.01090701, -0.01448057, 0.02688512, -0.02539722, -0.01193709, -0.01501471, 0.02689438, -0.02539651
 45006157, -0.008361111, -0.01224783, 0.02686946, -0.02538865, -0.01090701, -0.01448057, 0.02688512, -0.02539722
 45206077, -0.008740073, -0.01062866, 0.02686699, -0.0253842, -0.008361111, -0.01224783, 0.02686946, -0.02538865
 45405997, -0.006535472, -0.01588152, 0.02685693, -0.02541923, -0.008740073, -0.01062866, 0.02686699, -0.0253842
 45605917, -0.008649145, -0.01519711, 0.02686078, -0.02541766, -0.006535472, -0.01588152, 0.02685693, -0.02541923
 45805837, -0.01096075, -0.01587048, 0.026868, -0.02542532, -0.008649145, -0.01519711, 0.02686078, -0.02541766
 46006590, -0.01337486, -0.0128518, 0.026877, -0.02540934, -0.01096075, -0.01587048, 0.026868, -0.02542532
 46206510, -0.01204634, -0.01162805, 0.02686536, -0.02540692, -0.01337486, -0.0128518, 0.026877, -0.02540934
 46406430, -0.01219579, -0.01187794, 0.02686254, -0.02541208, -0.01204634, -0.01162805, 0.02686536, -0.02540692
 46606350, -0.0144951, -0.01240888, 0.0272913, -0.0258145, -0.01219579, -0.01187794, 0.02686254, -0.02541208
 46806270, -0.01403996, -0.0147287, 0.03075568, -0.02911778, -0.0144951, -0.01240888, 0.0272913, -0.0258145
 47006190, -0.01726796, -0.02003665, 0.0403281, -0.03819836, -0.01403996, -0.0147287, 0.03075568, -0.02911778
 47206110, -0.02297961, -0.03139665, 0.0590172, -0.055925, -0.01726796, -0.02003665, 0.0403281, -0.03819836
 47406030, -0.03515887, -0.05205296, 0.08754072, -0.08298489, -0.02297961, -0.03139665, 0.0590172, -0.055925
 47605950, -0.04865081, -0.07448681, 0.1242598, -0.1178284, -0.03515887, -0.05205296, 0.08754072, -0.08298489
 47805870, -0.05236998, -0.09093039, 0.1636352, -0.1646995, -0.04865081, -0.07448681, 0.1242598, -0.1178284
 48005790, -0.07281388, -0.1050206, 0.2122, -0.2135402, -0.05236998, -0.09093039, 0.1636352, -0.1646995
 48206543, -0.08399128, -0.1662103, 0.2673622, -0.2690044, -0.07281388, -0.1050206, 0.2122, -0.2135402
 48406463, -0.0947069, -0.1967036, 0.3269958, -0.3288248, -0.08399128, -0.1662103, 0.2673622, -0.2690044
 48606383, 0.09792293, -0.3283087, 0.3909679, -0.3931135, -0.0947069, -0.1967036, 0.3269958, -0.3288248
 48806303, -0.2067269, 0.03331479, 0.4583595, -0.4600853, 0.09792293, -0.3283087, 0.3909679, -0.3931135
 49006223, -0.1438909, -0.1465911, 0.525379, -0.527168, -0.2067269, 0.03331479, 0.4583595, -0.4600853
 49206143, 0.154828, -0.1791398, 0.5899607, -0.5923065, -0.1438909, -0.1465911, 0.525379, -0.527168
 49406063, -0.1572208, -0.279821, 0.6500545, -0.6530504, 0.154828, -0.1791398, 0.5899607, -0.5923065
 49605983, 0.2491916, 0.3549705, 0.7065504, -0.7101442, -0.1572208, -0.279821, 0.6500545, -0.6530504
 49805903, -0.03663813, -0.1665966, 0.7583309, -0.7624738, 0.2491916, 0.3549705, 0.7065504, -0.7101442
 50005823, 0.4147305, 0.2026068, 0.8067102, -0.8112039, -0.03663813, -0.1665966, 0.7583309, -0.7624738
 50206576, -0.1148334, 0.3911106, 0.8513425, -0.856804, 0.4147305, 0.2026068, 0.8067102, -0.8112039
 50406496, 0.3470815, 0.4863393, 0.8930938, -0.8990365, -0.1148334, 0.3911106, 0.8513425, -0.856804
 50606416, 0.4067572, 0.05274633, 0.9324071, -0.93771, 0.3470815, 0.4863393, 0.8930938, -0.8990365
 50806336, 0.06344162, 0.3365828, 0.9698029, -0.9741116, 0.4067572, 0.05274633, 0.9324071, -0.93771
 51006256, -0.6894265, 0.4608073, 1.005315, -1.00773, 0.06344162, 0.3365828, 0.9698029, -0.9741116
 51206176, -0.385823, -0.5837366, 1.037151, -1.040266, -0.6894265, 0.4608073, 1.005315, -1.00773
 51406096, 0.5024462, 0.1693467, 1.066008, -1.071573, -0.385823, -0.5837366, 1.037151, -1.040266
 51606016, 0.405317, -0.9780115, 1.090129, -1.100124, 0.5024462, 0.1693467, 1.066008, -1.071573
 51805936, 0.8078045, -0.9017248, 1.112506, -1.12148, 0.405317, -0.9780115, 1.090129, -1.100124
 52005856, -0.08135108, 0.8226502, 1.132164, -1.137783, 0.8078045, -0.9017248, 1.112506, -1.12148
 52205776, 0.263641, -0.6391926, 1.149823, -1.150086, -0.08135108, 0.8226502, 1.132164, -1.137783
 52406529, 1.18055, 0.551348, 1.164787, -1.158957, 0.263641, -0.6391926, 1.149823, -1.150086
 52606449, -0.1890751, -0.3693993, 1.175079, -1.165495, 1.18055, 0.551348, 1.164787, -1.158957
 52806369, 1.360245, 0.1328692, 1.189838, -1.167323, -0.1890751, -0.3693993, 1.175079, -1.165495
 53006289, 0.8690858, -0.5021643, 1.205364, -1.167488, 1.360245, 0.1328692, 1.189838, -1.167323
 53206209, 1.484444, -0.5125948, 1.223739, -1.165167, 0.8690858, -0.5021643, 1.205364, -1.167488
 53406129, 0.9745721, 0.5533282, 1.239344, -1.159727, 1.484444, -0.5125948, 1.223739, -1.165167
 53606049, 1.249271, -0.9626915, 1.254733, -1.151804, 0.9745721, 0.5533282, 1.239344, -1.159727
 53805969, 1.636694, 0.07073431, 1.271565, -1.140839, 1.249271, -0.9626915, 1.254733, -1.151804
 54005889, 2.103485, -0.3996753, 1.28883, -1.124656, 1.636694, 0.07073431, 1.271565, -1.140839
 54205809, 3.303778, -0.3091119, 1.313208, -1.100312, 2.103485, -0.3996753, 1.28883, -1.124656
 54406562, 2.723089, -0.0691908, 1.329155, -1.0718, 3.303778, -0.3091119, 1.313208, -1.100312
 54606482, 3.493296, 0.6708174, 1.365695, -1.036881, 2.723089, -0.0691908, 1.329155, -1.0718
 54806402, 4.413987, -0.4896764, 1.40215, -0.9983487, 3.493296, 0.6708174, 1.365695, -1.036881
 55006322, 4.841626, 0.6275336, 1.436472, -0.9559281, 4.413987, -0.4896764, 1.40215, -0.9983487
 55206242, 4.571661, -0.03052443, 1.459648, -0.9136904, 4.841626, 0.6275336, 1.436472, -0.9559281
 55406162, 5.159424, 0.501147, 1.495296, -0.8657119, 4.571661, -0.03052443, 1.459648, -0.9136904
 55606082, 5.205897, 1.565362, 1.526694, -0.8157092, 5.159424, 0.501147, 1.495296, -0.8657119
 55806002, 4.308975, 0.3190819, 1.543435, -0.7682264, 5.205897, 1.565362, 1.526694, -0.8157092
 56005922, 4.655659, 0.3342925, 1.568814, -0.7109147, 4.308975, 0.3190819, 1.543435, -0.7682264
 56205842, 5.484363, 0.5474265, 1.598736, -0.6502368, 4.655659, 0.3342925, 1.568814, -0.7109147
 56405762, 4.245144, 1.498601, 1.61157, -0.5916511, 5.484363, 0.5474265, 1.598736, -0.6502368
 56606515, 5.37293, 1.478774, 1.642984, -0.5234058, 4.245144, 1.498601, 1.61157, -0.5916511
 56806435, 4.75702, 2.484408, 1.663575, -0.4502314, 5.37293, 1.478774, 1.642984, -0.5234058
 57006355, 4.755795, 2.640167, 1.6854, -0.3772774, 4.75702, 2.484408, 1.663575, -0.4502314
 57206275, 4.744427, 2.907936, 1.705289, -0.3008383, 4.755795, 2.640167, 1.6854, -0.3772774
 57406195, 4.531155, 3.073683, 1.717955, -0.2307872, 4.744427, 2.907936, 1.705289, -0.3008383
 57606115, 4.295491, 3.307207, 1.726002, -0.1616724, 4.531155, 3.073683, 1.717955, -0.2307872
 57806035, 4.365046, 3.507871, 1.734847, -0.08662897, 4.295491, 3.307207, 1.726002, -0.1616724
 58005955, 4.118599, 3.633037, 1.739361, -0.008675992, 4.365046, 3.507871, 1.734847, -0.08662897
 58205875, 3.903812, 3.923889, 1.742007, 0.07097089, 4.118599, 3.633037, 1.739361, -0.008675992
 58405795, 3.746125, 4.093656, 1.740432, 0.1542431, 3.903812, 3.923889, 1.742007, 0.07097089
 58606548, 3.551986, 4.268757, 1.733585, 0.2391721, 3.746125, 4.093656, 1.740432, 0.1542431
 58806468, 3.508139, 4.456907, 1.729521, 0.2807489, 3.551986, 4.268757, 1.733585, 0.2391721
 59006388, 3.265474, 4.629314, 1.715827, 0.3598514, 3.508139, 4.456907, 1.729521, 0.2807489
 59206308, 3.181486, 4.754399, 1.701307, 0.4405738, 3.265474, 4.629314, 1.715827, 0.3598514
 59406228, 2.774354, 4.815928, 1.680435, 0.5167809, 3.181486, 4.754399, 1.701307, 0.4405738
 59606148, 2.672148, 5.134602, 1.656894, 0.5959327, 2.774354, 4.815928, 1.680435, 0.5167809
 59806068, 2.390517, 5.258343, 1.6282, 0.6727111, 2.672148, 5.134602, 1.656894, 0.5959327
 60005988, 2.016264, 5.263112, 1.593681, 0.7460556, 2.390517, 5.258343, 1.6282, 0.6727111
 60205908, 1.857495, 5.435091, 1.553743, 0.8218096, 2.016264, 5.263112, 1.593681, 0.7460556
 60405828, 1.725161, 5.3161, 1.512568, 0.8979015, 1.857495, 5.435091, 1.553743, 0.8218096
 60606581, 1.429487, 5.335004, 1.468045, 0.9629372, 1.725161, 5.3161, 1.512568, 0.8979015
 60806501, 1.171599, 5.376658, 1.419158, 1.033396, 1.429487, 5.335004, 1.468045, 0.9629372
 61006421, 0.7728145, 5.455623, 1.367793, 1.11181, 1.171599, 5.376658, 1.419158, 1.033396
 61206341, 0.433093, 5.502921, 1.314716, 1.175505, 0.7728145, 5.455623, 1.367793, 1.11181
 61406261, 0.135458, 5.657424, 1.260378, 1.238314, 0.433093, 5.502921, 1.314716, 1.175505
 61606181, -0.09802703, 5.645168, 1.200532, 1.292533, 0.135458, 5.657424, 1.260378, 1.238314
 61806101, -0.256215, 5.69697, 1.141688, 1.346603, -0.09802703, 5.645168, 1.200532, 1.292533
 62006021, -0.5501553, 5.712001, 1.076923, 1.401941, -0.256215, 5.69697, 1.141688, 1.346603
 62205941, -0.7995999, 5.511992, 1.009097, 1.449821, -0.5501553, 5.712001, 1.076923, 1.401941
 62405861, -1.127934, 5.47857, 0.9336472, 1.499948, -0.7995999, 5.511992, 1.009097, 1.449821
 62605781, -1.39531, 5.5201, 0.8584977, 1.544604, -1.127934, 5.47857, 0.9336472, 1.499948
 62806534, -1.62622, 5.43179, 0.7861593, 1.584579, -1.39531, 5.5201, 0.8584977, 1.544604
 63006454, -1.939317, 5.424919, 0.7107005, 1.623857, -1.62622, 5.43179, 0.7861593, 1.584579
 63206374, -2.224446, 5.234391, 0.6317407, 1.657767, -1.939317, 5.424919, 0.7107005, 1.623857
 63406294, -2.454054, 5.181206, 0.5578611, 1.685587, -2.224446, 5.234391, 0.6317407, 1.657767
 63606214, -2.711722, 5.027898, 0.4817069, 1.707709, -2.454054, 5.181206, 0.5578611, 1.685587
 63806134, -2.823051, 4.748055, 0.3993286, 1.724804, -2.711722, 5.027898, 0.4817069, 1.707709
 64006054, -3.063625, 4.794411, 0.3146554, 1.744711, -2.823051, 4.748055, 0.3993286, 1.724804
 64205974, -3.403462, 4.536848, 0.2282139, 1.758681, -3.063625, 4.794411, 0.3146554, 1.744711
 64405894, -3.656328, 4.532039, 0.1448113, 1.770056, -3.403462, 4.536848, 0.2282139, 1.758681
 64605814, -3.785042, 4.453661, 0.06443846, 1.771643, -3.656328, 4.532039, 0.1448113, 1.770056
 64806567, -3.846361, 4.274404, -0.02089465, 1.771928, -3.785042, 4.453661, 0.06443846, 1.771643
 65006487, -4.235034, 4.109581, -0.1088883, 1.770273, -3.846361, 4.274404, -0.02089465, 1.771928
 65206407, -4.325627, 3.758316, -0.1972213, 1.763399, -4.235034, 4.109581, -0.1088883, 1.770273
 65406327, -4.525174, 3.585822, -0.283218, 1.756354, -4.325627, 3.758316, -0.1972213, 1.763399
 65606247, -4.740088, 3.318557, -0.3649751, 1.742294, -4.525174, 3.585822, -0.283218, 1.756354
 65806167, -4.79524, 3.128061, -0.4411604, 1.723016, -4.740088, 3.318557, -0.3649751, 1.742294
 66006087, -5.027487, 2.961811, -0.5230443, 1.702989, -4.79524, 3.128061, -0.4411604, 1.723016
 66206007, -5.164442, 2.714875, -0.6031029, 1.675143, -5.027487, 2.961811, -0.5230443, 1.702989
 66405927, -5.157907, 2.381104, -0.6779671, 1.640443, -5.164442, 2.714875, -0.6031029, 1.675143
 66605847, -5.391794, 2.085892, -0.7574206, 1.605742, -5.157907, 2.381104, -0.6779671, 1.640443
 66805767, -5.444486, 1.91806, -0.8348687, 1.570079, -5.391794, 2.085892, -0.7574206, 1.605742
 67006520, -5.617502, 1.643797, -0.9149997, 1.523903, -5.444486, 1.91806, -0.8348687, 1.570079
 67206440, -5.625332, 1.183247, -0.9935266, 1.47707, -5.617502, 1.643797, -0.9149997, 1.523903
 67406360, -5.723294, 0.8802416, -1.065297, 1.428723, -5.625332, 1.183247, -0.9935266, 1.47707
 67606280, -5.617332, 0.8135062, -1.129157, 1.379156, -5.723294, 0.8802416, -1.065297, 1.428723
 67806200, -5.684384, 0.4676089, -1.192972, 1.326288, -5.617332, 0.8135062, -1.129157, 1.379156
 68006120, -5.675184, 0.2365426, -1.252635, 1.268861, -5.684384, 0.4676089, -1.192972, 1.326288
 68206040, -5.745095, -0.06763331, -1.310488, 1.208013, -5.675184, 0.2365426, -1.252635, 1.268861
 68405960, -5.848212, -0.4298702, -1.367755, 1.143805, -5.745095, -0.06763331, -1.310488, 1.208013
 68605880, -5.894238, -0.6984683, -1.419309, 1.075004, -5.848212, -0.4298702, -1.367755, 1.143805
 68805800, -5.565421, -0.8963013, -1.46963, 1.006336, -5.894238, -0.6984683, -1.419309, 1.075004
 69006553, -5.58344, -1.223167, -1.520054, 0.9338508, -5.565421, -0.8963013, -1.46963, 1.006336
 69206473, -5.631366, -1.266183, -1.563205, 0.856248, -5.58344, -1.223167, -1.520054, 0.9338508
 69406393, -5.470775, -1.480827, -1.598716, 0.7822793, -5.631366, -1.266183, -1.563205, 0.856248
 69606313, -5.527261, -1.939401, -1.63462, 0.7070433, -5.470775, -1.480827, -1.598716, 0.7822793
 69806233, -5.377049, -2.206132, -1.66554, 0.6298499, -5.527261, -1.939401, -1.63462, 0.7070433
 70006153, -5.090926, -2.464671, -1.695514, 0.5493516, -5.377049, -2.206132, -1.66554, 0.6298499
 70206073, -4.973161, -2.759257, -1.718858, 0.4671206, -5.090926, -2.464671, -1.695514, 0.5493516
 70405993, -4.971974, -2.90847, -1.738817, 0.382811, -4.973161, -2.759257, -1.718858, 0.4671206
 70605913, -4.768604, -3.050799, -1.752018, 0.3048759, -4.971974, -2.90847, -1.738817, 0.382811
 70805833, -4.513791, -3.429573, -1.760562, 0.2259984, -4.768604, -3.050799, -1.752018, 0.3048759
 71006586, -4.486972, -3.661794, -1.772115, 0.1412061, -4.513791, -3.429573, -1.760562, 0.2259984
 71206506, -4.339824, -3.8058, -1.77767, 0.05288064, -4.486972, -3.661794, -1.772115, 0.1412061
 71406426, -4.189455, -3.95646, -1.774055, -0.029441, -4.339824, -3.8058, -1.77767, 0.05288064
 71606346, -3.893504, -4.208615, -1.770037, -0.1186263, -4.189455, -3.95646, -1.774055, -0.029441
 71806266, -3.73484, -4.373287, -1.761617, -0.2055517, -3.893504, -4.208615, -1.770037, -0.1186263
 72006186, -3.570475, -4.559884, -1.74906, -0.2884336, -3.73484, -4.373287, -1.761617, -0.2055517
 72206106, -3.229846, -4.653957, -1.734377, -0.3700297, -3.570475, -4.559884, -1.74906, -0.2884336
 72406026, -3.218467, -4.700651, -1.715587, -0.4499428, -3.229846, -4.653957, -1.734377, -0.3700297
 72605946, -2.867058, -5.088445, -1.692773, -0.5361589, -3.218467, -4.700651, -1.715587, -0.4499428
 72805866, -2.517539, -5.197595, -1.662224, -0.6095524, -2.867058, -5.088445, -1.692773, -0.5361589
 73005786, -2.363302, -5.248168, -1.6296, -0.6832892, -2.517539, -5.197595, -1.662224, -0.6095524
 73206539, -2.106188, -5.388168, -1.591722, -0.7597839, -2.363302, -5.248168, -1.6296, -0.6832892
 73406459, -1.788277, -5.463386, -1.554412, -0.839251, -2.106188, -5.388168, -1.591722, -0.7597839
 73606379, -1.628487, -5.495177, -1.510766, -0.9137187, -1.788277, -5.463386, -1.554412, -0.839251
 73806299, -1.407453, -5.65171, -1.464334, -0.9828872, -1.628487, -5.495177, -1.510766, -0.9137187
 74006219, -1.12364, -5.679835, -1.41571, -1.048523, -1.407453, -5.65171, -1.464334, -0.9828872
 74206139, -0.7342843, -5.717536, -1.362498, -1.110949, -1.12364, -5.679835, -1.41571, -1.048523
 74406059, -0.4165933, -5.733942, -1.308195, -1.171775, -0.7342843, -5.717536, -1.362498, -1.110949
 74605979, -0.1226229, -5.61367, -1.247028, -1.234594, -0.4165933, -5.733942, -1.308195, -1.171775
 74805899, 0.05285303, -5.675191, -1.184243, -1.292978, -0.1226229, -5.61367, -1.247028, -1.234594
 75005819, 0.3428106, -5.768835, -1.122064, -1.346789, 0.05285303, -5.675191, -1.184243, -1.292978
 75206572, 0.5660595, -5.755785, -1.053849, -1.398661, 0.3428106, -5.768835, -1.122064, -1.346789
 75406492, 1.010368, -5.503384, -0.9831911, -1.444569, 0.5660595, -5.755785, -1.053849, -1.398661
 75606412, 1.167395, -5.620975, -0.9112442, -1.488802, 1.010368, -5.503384, -0.9831911, -1.444569
 75806332, 1.324681, -5.576701, -0.8386509, -1.528939, 1.167395, -5.620975, -0.9112442, -1.488802
 76006252, 1.768314, -5.236878, -0.7622093, -1.563978, 1.324681, -5.576701, -0.8386509, -1.528939
 76206172, 2.037479, -5.218882, -0.681361, -1.602802, 1.768314, -5.236878, -0.7622093, -1.563978
 76406092, 2.235327, -5.174093, -0.6033612, -1.634297, 2.037479, -5.218882, -0.681361, -1.602802
 76606012, 2.435135, -5.154315, -0.5299054, -1.663292, 2.235327, -5.174093, -0.6033612, -1.634297
 76805932, 2.683659, -5.013048, -0.4455658, -1.68581, 2.435135, -5.154315, -0.5299054, -1.663292
 77005852, 2.856353, -4.889857, -0.3634508, -1.704576, 2.683659, -5.013048, -0.4455658, -1.68581
 77205772, 3.10195, -4.566521, -0.2852103, -1.718803, 2.856353, -4.889857, -0.3634508, -1.704576
 77406525, 3.324673, -4.490231, -0.2062531, -1.729624, 3.10195, -4.566521, -0.2852103, -1.718803
 77606445, 3.585099, -4.30399, -0.1292606, -1.734256, 3.324673, -4.490231, -0.2062531, -1.729624
 77806365, 3.7449, -4.193658, -0.0516631, -1.734385, 3.585099, -4.30399, -0.1292606, -1.734256
 78006285, 4.032082, -3.96228, 0.0360049, -1.737489, 3.7449, -4.193658, -0.0516631, -1.734385
 78206205, 4.080148, -3.800095, 0.1188534, -1.735569, 4.032082, -3.96228, 0.0360049, -1.737489
 78406125, 4.272815, -3.639019, 0.1984824, -1.724169, 4.080148, -3.800095, 0.1188534, -1.735569
 78606045, 4.529162, -3.455608, 0.280421, -1.712628, 4.272815, -3.639019, 0.1984824, -1.724169
 78805965, 4.695737, -3.09154, 0.3594411, -1.694206, 4.529162, -3.455608, 0.280421, -1.712628
 79005885, 4.725792, -2.946831, 0.4364104, -1.675794, 4.695737, -3.09154, 0.3594411, -1.694206
 79205805, 4.889076, -2.819455, 0.5156806, -1.652787, 4.725792, -2.946831, 0.4364104, -1.675794
 79406558, 5.161939, -2.433344, 0.5988984, -1.623694, 4.889076, -2.819455, 0.5156806, -1.652787
 79606478, 5.234788, -2.305513, 0.682843, -1.593011, 5.161939, -2.433344, 0.5988984, -1.623694
 79806398, 5.250976, -2.015538, 0.7567863, -1.557821, 5.234788, -2.305513, 0.682843, -1.593011
 80006318, 5.197381, -1.802309, 0.8236873, -1.516752, 5.250976, -2.015538, 0.7567863, -1.557821
 80206238, 5.367198, -1.529684, 0.8993734, -1.475247, 5.197381, -1.802309, 0.8236873, -1.516752
 80406158, 5.481658, -1.317244, 0.9705006, -1.431282, 5.367198, -1.529684, 0.8993734, -1.475247
 80606078, 5.482518, -0.9596173, 1.040989, -1.384377, 5.481658, -1.317244, 0.9705006, -1.431282
 80805998, 5.619359, -0.7658695, 1.105758, -1.333618, 5.482518, -0.9596173, 1.040989, -1.384377
 81005918, 5.684329, -0.447888, 1.16459, -1.278137, 5.619359, -0.7658695, 1.105758, -1.333618
 81205838, 5.606143, -0.2622086, 1.219646, -1.220237, 5.684329, -0.447888, 1.16459, -1.278137
 81406591, 5.642273, 0.1373179, 1.27625, -1.165061, 5.606143, -0.2622086, 1.219646, -1.220237
 81606511, 5.656602, 0.4489375, 1.329191, -1.103783, 5.642273, 0.1373179, 1.27625, -1.165061
 81806431, 5.569619, 0.7292359, 1.380235, -1.03855, 5.656602, 0.4489375, 1.329191, -1.103783
 82006351, 5.473166, 1.006647, 1.430551, -0.9684276, 5.569619, 0.7292359, 1.380235, -1.03855
 82206271, 5.468664, 1.389241, 1.478186, -0.8973781, 5.473166, 1.006647, 1.430551, -0.9684276
 82406191, 5.532187, 1.522887, 1.519035, -0.8281519, 5.468664, 1.389241, 1.478186, -0.8973781
 82606111, 5.32781, 1.764902, 1.551678, -0.7596264, 5.532187, 1.522887, 1.519035, -0.8281519
 82806031, 5.130916, 2.031312, 1.583016, -0.6865242, 5.32781, 1.764902, 1.551678, -0.7596264
 83005951, 5.05694, 2.096906, 1.609934, -0.6082267, 5.130916, 2.031312, 1.583016, -0.6865242
 83205871, 4.990901, 2.40018, 1.639575, -0.5267702, 5.05694, 2.096906, 1.609934, -0.6082267
 83405791, 4.929429, 2.742663, 1.666427, -0.4446545, 4.990901, 2.40018, 1.639575, -0.5267702
 83606544, 4.866071, 2.925027, 1.68777, -0.3621803, 4.929429, 2.742663, 1.666427, -0.4446545
 83806464, 4.645424, 3.087771, 1.702479, -0.2804405, 4.866071, 2.925027, 1.68777, -0.3621803
 84006384, 4.477858, 3.410777, 1.716654, -0.1985264, 4.645424, 3.087771, 1.702479, -0.2804405
 84206304, 4.444675, 3.516318, 1.723381, -0.1148289, 4.477858, 3.410777, 1.716654, -0.1985264
 84406224, 4.062584, 3.760978, 1.72719, -0.03649408, 4.444675, 3.516318, 1.723381, -0.1148289
 84606144, 3.969035, 3.878854, 1.727719, 0.04116607, 4.062584, 3.760978, 1.72719, -0.03649408
 84806064, 3.845548, 4.035953, 1.726105, 0.12356, 3.969035, 3.878854, 1.727719, 0.04116607
 85005984, 3.724998, 4.3206, 1.72179, 0.2124928, 3.845548, 4.035953, 1.726105, 0.12356
 85205904, 3.480955, 4.430562, 1.709165, 0.2994637, 3.724998, 4.3206, 1.72179, 0.2124928
 85405824, 3.083472, 4.633078, 1.695301, 0.3833916, 3.480955, 4.430562, 1.709165, 0.2994637
 85606577, 2.819105, 4.86094, 1.67848, 0.4671187, 3.083472, 4.633078, 1.695301, 0.3833916
 85806497, 2.660532, 4.886689, 1.658669, 0.5486739, 2.819105, 4.86094, 1.67848, 0.4671187
 86006417, 2.371292, 5.101929, 1.634126, 0.6271886, 2.660532, 4.886689, 1.658669, 0.5486739
 86206337, 2.155442, 5.193914, 1.605987, 0.7028517, 2.371292, 5.101929, 1.634126, 0.6271886
 86406257, 1.871463, 5.231825, 1.569949, 0.7729689, 2.155442, 5.193914, 1.605987, 0.7028517
 86606177, 1.711292, 5.286547, 1.530647, 0.8426042, 1.871463, 5.231825, 1.569949, 0.7729689
 86806097, 1.581921, 5.466854, 1.491359, 0.9153914, 1.711292, 5.286547, 1.530647, 0.8426042
 87006017, 1.16428, 5.563709, 1.444525, 0.9885266, 1.581921, 5.466854, 1.491359, 0.9153914
 87205937, 0.9238343, 5.684137, 1.394802, 1.060135, 1.16428, 5.563709, 1.444525, 0.9885266
 87405857, 0.7099866, 5.645343, 1.342448, 1.122454, 0.9238343, 5.684137, 1.394802, 1.060135
 87605777, 0.450261, 5.645144, 1.290724, 1.188971, 0.7099866, 5.645343, 1.342448, 1.122454
 87806530, 0.2749311, 5.600168, 1.234893, 1.247954, 0.450261, 5.645144, 1.290724, 1.188971
 88006450, -0.09991542, 5.758112, 1.173772, 1.309048, 0.2749311, 5.600168, 1.234893, 1.247954
 88206370, -0.4533524, 5.676795, 1.114985, 1.355902, -0.09991542, 5.758112, 1.173772, 1.309048
 88406290, -0.6429753, 5.626105, 1.053502, 1.404783, -0.4533524, 5.676795, 1.114985, 1.355902
 88606210, -0.8082619, 5.663783, 0.9878026, 1.453886, -0.6429753, 5.626105, 1.053502, 1.404783
 88806130, -1.154061, 5.708516, 0.9172747, 1.501376, -0.8082619, 5.663783, 0.9878026, 1.453886
 89006050, -1.378479, 5.569194, 0.8414184, 1.544551, -1.154061, 5.708516, 0.9172747, 1.501376
 89205970, -1.825245, 5.451031, 0.762933, 1.584342, -1.378479, 5.569194, 0.8414184, 1.544551
 89405890, -1.965083, 5.24637, 0.6875328, 1.614715, -1.825245, 5.451031, 0.762933, 1.584342
 89605810, -2.343551, 5.227992, 0.6104181, 1.64967, -1.965083, 5.24637, 0.6875328, 1.614715
 89806563, -2.622206, 5.086709, 0.5317163, 1.67645, -2.343551, 5.227992, 0.6104181, 1.64967
 90006483, -2.857444, 5.059391, 0.4430714, 1.701592, -2.622206, 5.086709, 0.5317163, 1.67645
 90206403, -3.820051, 6.007889, 0.3486243, 1.736531, -2.857444, 5.059391, 0.4430714, 1.701592
 90406323, -2.554025, 5.231057, 0.2754341, 1.739302, -3.820051, 6.007889, 0.3486243, 1.736531
 90606243, -4.522836, 5.601761, 0.1791815, 1.767423, -2.554025, 5.231057, 0.2754341, 1.739302
 90806163, -3.309085, 5.301438, 0.1031427, 1.764403, -4.522836, 5.601761, 0.1791815, 1.767423
 91006083, -4.141272, 3.166188, 0.02672017, 1.758474, -3.309085, 5.301438, 0.1031427, 1.764403
 91206003, -4.333628, 2.895599, -0.05326247, 1.756716, -4.141272, 3.166188, 0.02672017, 1.758474
 91405923, -4.373851, 3.446454, -0.1374738, 1.753703, -4.333628, 2.895599, -0.05326247, 1.756716
 91605843, -4.662473, 5.164537, -0.2312664, 1.755938, -4.373851, 3.446454, -0.1374738, 1.753703
 91805763, -4.978712, 2.954314, -0.3026453, 1.733652, -4.662473, 5.164537, -0.2312664, 1.755938
 92006516, -4.660093, 4.448229, -0.3921378, 1.719871, -4.978712, 2.954314, -0.3026453, 1.733652
 92206436, -6.05672, 3.864623, -0.4905233, 1.703659, -4.660093, 4.448229, -0.3921378, 1.719871
 92406356, -5.730499, 2.211387, -0.5642771, 1.673484, -6.05672, 3.864623, -0.4905233, 1.703659
 92606276, -5.503556, 2.530133, -0.6445046, 1.647721, -5.730499, 2.211387, -0.5642771, 1.673484
 92806196, -5.282419, 3.110246, -0.7218392, 1.622168, -5.503556, 2.530133, -0.6445046, 1.647721
 93006116, -5.201481, 0.8546464, -0.7894947, 1.585336, -5.282419, 3.110246, -0.7218392, 1.622168
 93206036, -6.217349, 1.348293, -0.874854, 1.55159, -5.201481, 0.8546464, -0.7894947, 1.585336
 93405956, -4.985525, 1.353468, -0.9335597, 1.50591, -6.217349, 1.348293, -0.874854, 1.55159
 93605876, -6.765837, 0.9911829, -1.020259, 1.465295, -4.985525, 1.353468, -0.9335597, 1.50591
 93805796, -6.441728, 0.5865231, -1.080204, 1.418978, -6.765837, 0.9911829, -1.020259, 1.465295
 94006549, -5.450548, 1.252785, -1.136687, 1.365234, -6.441728, 0.5865231, -1.080204, 1.418978
 94206469, -6.492624, -0.3013691, -1.216016, 1.309342, -5.450548, 1.252785, -1.136687, 1.365234
 94406389, -5.910243, -0.1008762, -1.271039, 1.248849, -6.492624, -0.3013691, -1.216016, 1.309342
 94606309, -5.501565, -1.056228, -1.324271, 1.188429, -5.910243, -0.1008762, -1.271039, 1.248849
 94806229, -6.720736, 0.06862468, -1.394673, 1.125115, -5.501565, -1.056228, -1.324271, 1.188429
 95006149, -6.365395, -1.588698, -1.439453, 1.059988, -6.720736, 0.06862468, -1.394673, 1.125115
 95206069, -6.435785, -0.4922369, -1.482113, 0.9902198, -6.365395, -1.588698, -1.439453, 1.059988
 95405989, -5.773019, -0.1606498, -1.519375, 0.9238505, -6.435785, -0.4922369, -1.482113, 0.9902198
 95605909, -6.574906, -0.823135, -1.573515, 0.8441753, -5.773019, -0.1606498, -1.519375, 0.9238505
 95805829, -5.776765, -1.141781, -1.606024, 0.7614439, -6.574906, -0.823135, -1.573515, 0.8441753
 96006582, -4.928754, -2.481836, -1.641417, 0.6784874, -5.776765, -1.141781, -1.606024, 0.7614439
 96206502, -4.736482, -2.738481, -1.671929, 0.5989705, -4.928754, -2.481836, -1.641417, 0.6784874
 96406422, -6.468026, -3.00086, -1.715296, 0.5092168, -4.736482, -2.738481, -1.671929, 0.5989705
 96606342, -4.901382, -2.057423, -1.716429, 0.4448183, -6.468026, -3.00086, -1.715296, 0.5092168
 96806262, -5.325639, -3.658863, -1.746978, 0.3584474, -4.901382, -2.057423, -1.716429, 0.4448183
 97006182, -4.607478, -4.253996, -1.760203, 0.277588, -5.325639, -3.658863, -1.746978, 0.3584474
 97206102, -5.426634, -4.618142, -1.781944, 0.1822559, -4.607478, -4.253996, -1.760203, 0.277588
 97406022, -4.578227, -3.66865, -1.773792, 0.1026683, -5.426634, -4.618142, -1.781944, 0.1822559
 97605942, -5.603365, -4.486095, -1.791149, 0.008045375, -4.578227, -3.66865, -1.773792, 0.1026683
 97805862, -3.62614, -3.900573, -1.773433, -0.05416393, -5.603365, -4.486095, -1.791149, 0.008045375
 98005782, -4.06752, -4.412073, -1.770965, -0.1341938, -3.62614, -3.900573, -1.773433, -0.05416393
 98206535, -3.134289, -4.972123, -1.757125, -0.2118033, -4.06752, -4.412073, -1.770965, -0.1341938
 98406455, -4.790226, -5.189659, -1.749345, -0.315671, -3.134289, -4.972123, -1.757125, -0.2118033
 98606375, -4.384394, -5.420499, -1.728142, -0.4053894, -4.790226, -5.189659, -1.749345, -0.315671
 98806295, -4.14807, -5.397058, -1.704103, -0.4856676, -4.384394, -5.420499, -1.728142, -0.4053894
 99006215, -3.77739, -5.643508, -1.67658, -0.5660865, -4.14807, -5.397058, -1.704103, -0.4856676
 99206135, -3.538548, -5.932888, -1.64843, -0.6475104, -3.77739, -5.643508, -1.67658, -0.5660865
 99406055, -3.392122, -6.186687, -1.618036, -0.7247955, -3.538548, -5.932888, -1.64843, -0.6475104
 99605975, -3.126136, -6.302732, -1.578752, -0.8025238, -3.392122, -6.186687, -1.618036, -0.7247955
 99805895, -2.670028, -6.299002, -1.535413, -0.8807707, -3.126136, -6.302732, -1.578752, -0.8025238
 100005815, -2.386999, -6.474768, -1.491355, -0.9517574, -2.670028, -6.299002, -1.535413, -0.8807707
 100206568, -2.245383, -6.585045, -1.4445, -1.014398, -2.386999, -6.474768, -1.491355, -0.9517574
 100406488, -1.986623, -6.66255, -1.419582, -1.046069, -2.245383, -6.585045, -1.4445, -1.014398
 100606408, -1.651493, -6.773887, -1.367495, -1.112833, -1.986623, -6.66255, -1.419582, -1.046069
 100806328, -1.368141, -6.701572, -1.310609, -1.177291, -1.651493, -6.773887, -1.367495, -1.112833
 101006248, -0.8714184, -6.662129, -1.24849, -1.239579, -1.368141, -6.701572, -1.310609, -1.177291
 101206168, -0.6489491, -6.777561, -1.188646, -1.297873, -0.8714184, -6.662129, -1.24849, -1.239579
 101406088, -0.2455021, -6.874658, -1.1237, -1.355613, -0.6489491, -6.777561, -1.188646, -1.297873
 101606008, 0.04873455, -7.003453, -1.057639, -1.410601, -0.2455021, -6.874658, -1.1237, -1.355613
 101805928, 0.2392331, -6.904434, -0.9912943, -1.457669, 0.04873455, -7.003453, -1.057639, -1.410601
 102005848, 0.7167586, -6.749066, -0.9194033, -1.501175, 0.2392331, -6.904434, -0.9912943, -1.457669
 102205768, 0.9142396, -6.819537, -0.8525822, -1.537231, 0.7167586, -6.749066, -0.9194033, -1.501175
 102406521, 1.155413, -6.752787, -0.7827325, -1.569693, 0.9142396, -6.819537, -0.8525822, -1.537231
 102606441, 1.686946, -6.749861, -0.7015159, -1.606467, 1.155413, -6.752787, -0.7827325, -1.569693
 102806361, 1.988781, -6.542503, -0.6205106, -1.638018, 1.686946, -6.749861, -0.7015159, -1.606467
 103006281, 2.407115, -6.426508, -0.5361003, -1.667475, 1.988781, -6.542503, -0.6205106, -1.638018
 103206201, 2.457211, -6.178349, -0.4590003, -1.684042, 2.407115, -6.426508, -0.5361003, -1.667475
 103406121, 2.837909, -6.091449, -0.3800309, -1.701539, 2.457211, -6.178349, -0.4590003, -1.684042
 103606041, 3.202423, -6.027048, -0.297827, -1.718855, 2.837909, -6.091449, -0.3800309, -1.701539
 103805961, 3.34821, -5.802547, -0.2161043, -1.725767, 3.202423, -6.027048, -0.297827, -1.718855
 104005881, 3.665052, -5.682906, -0.1301311, -1.735862, 3.34821, -5.802547, -0.2161043, -1.725767
 104205801, 3.890956, -5.420686, -0.04454118, -1.737917, 3.665052, -5.682906, -0.1301311, -1.735862
 104406554, 4.239094, -5.163499, 0.04281813, -1.739193, 3.890956, -5.420686, -0.04454118, -1.737917
 104606474, 4.309968, -4.934673, 0.1232598, -1.735729, 4.239094, -5.163499, 0.04281813, -1.739193
 104806394, 4.554179, -4.93197, 0.2070323, -1.728639, 4.309968, -4.934673, 0.1232598, -1.735729
 105006314, 4.888963, -4.693664, 0.2876661, -1.718088, 4.554179, -4.93197, 0.2070323, -1.728639
 105206234, 5.203914, -4.432031, 0.3699407, -1.704666, 4.888963, -4.693664, 0.2876661, -1.718088
 105406154, 5.424696, -4.174, 0.4487225, -1.685318, 5.203914, -4.432031, 0.3699407, -1.704666
 105606074, 5.610037, -4.131529, 0.5235221, -1.662959, 5.424696, -4.174, 0.4487225, -1.685318
 105805994, 5.850324, -3.721182, 0.6028931, -1.635417, 5.610037, -4.131529, 0.5235221, -1.662959
 106005914, 6.048318, -3.440802, 0.6797869, -1.603343, 5.850324, -3.721182, 0.6028931, -1.635417
 106205834, 6.205894, -3.119313, 0.7536062, -1.566511, 6.048318, -3.440802, 0.6797869, -1.603343
 106406587, 6.265501, -2.937018, 0.8239137, -1.531669, 6.205894, -3.119313, 0.7536062, -1.566511
 106606507, 6.349835, -2.624125, 0.8947969, -1.490151, 6.265501, -2.937018, 0.8239137, -1.531669
 106806427, 6.239414, -2.308634, 0.9657801, -1.441952, 6.349835, -2.624125, 0.8947969, -1.490151
 107006347, 6.396477, -2.01108, 1.027611, -1.39635, 6.239414, -2.308634, 0.9657801, -1.441952
 107206267, 6.554813, -1.657573, 1.090379, -1.347651, 6.396477, -2.01108, 1.027611, -1.39635
 107406187, 6.517317, -1.219216, 1.154387, -1.29092, 6.554813, -1.657573, 1.090379, -1.347651
 107606107, 6.613744, -0.9370757, 1.219074, -1.232631, 6.517317, -1.219216, 1.154387, -1.29092
 107806027, 6.695455, -0.6796067, 1.277974, -1.172112, 6.613744, -0.9370757, 1.219074, -1.232631
 108005947, 6.751196, -0.2934662, 1.332806, -1.110832, 6.695455, -0.6796067, 1.277974, -1.172112
 108205867, 6.84459, 0.104193, 1.385332, -1.045905, 6.751196, -0.2934662, 1.332806, -1.110832
 108405787, 6.875336, 0.3676705, 1.434725, -0.9790432, 6.84459, 0.104193, 1.385332, -1.045905
 108606540, 6.679738, 0.7074397, 1.481197, -0.9037122, 6.875336, 0.3676705, 1.434725, -0.9790432
 108806460, 6.525163, 0.8932449, 1.521601, -0.8332541, 6.679738, 0.7074397, 1.481197, -0.9037122
 109006380, 6.515032, 1.152402, 1.558654, -0.7584491, 6.525163, 0.8932449, 1.521601, -0.8332541
 109206300, 6.435693, 1.599151, 1.59485, -0.6809419, 6.515032, 1.152402, 1.558654, -0.7584491
 109406220, 6.50697, 2.024787, 1.625224, -0.6091421, 6.435693, 1.599151, 1.59485, -0.6809419
 109606140, 6.390734, 2.174309, 1.650665, -0.5345984, 6.50697, 2.024787, 1.625224, -0.6091421
 109806060, 6.275783, 2.494733, 1.676632, -0.4504236, 6.390734, 2.174309, 1.650665, -0.5345984
 110005980, 6.19598, 2.80947, 1.698699, -0.3697792, 6.275783, 2.494733, 1.676632, -0.4504236
 110205900, 6.079659, 3.103156, 1.714861, -0.2869242, 6.19598, 2.80947, 1.698699, -0.3697792
 110405820, 5.86931, 3.519206, 1.72305, -0.2091027, 6.079659, 3.103156, 1.714861, -0.2869242
 110606573, 5.617359, 3.738514, 1.729188, -0.1320686, 5.86931, 3.519206, 1.72305, -0.2091027
 110806493, 5.431772, 3.982336, 1.7344, -0.05185491, 5.617359, 3.738514, 1.729188, -0.1320686
 111006413, 5.26753, 4.28906, 1.738925, 0.03710592, 5.431772, 3.982336, 1.7344, -0.05185491
 111206333, 4.931241, 4.445018, 1.735598, 0.1227219, 5.26753, 4.28906, 1.738925, 0.03710592
 111406253, 4.742282, 4.719207, 1.729443, 0.2093303, 4.931241, 4.445018, 1.735598, 0.1227219
 111606173, 4.553062, 5.06779, 1.720438, 0.2936868, 4.742282, 4.719207, 1.729443, 0.2093303
 111806093, 4.308265, 5.227564, 1.706872, 0.377558, 4.553062, 5.06779, 1.720438, 0.2936868
 112006013, 4.149576, 5.423786, 1.689716, 0.4613173, 4.308265, 5.227564, 1.706872, 0.377558
 112205933, 3.927717, 5.47231, 1.665815, 0.5340762, 4.149576, 5.423786, 1.689716, 0.4613173
 112405853, 3.702705, 5.748341, 1.639035, 0.6108444, 3.927717, 5.47231, 1.665815, 0.5340762
 112605773, 3.328703, 6.06851, 1.610717, 0.6894425, 3.702705, 5.748341, 1.639035, 0.6108444
 112806526, 2.937806, 6.063917, 1.57639, 0.7675952, 3.328703, 6.06851, 1.610717, 0.6894425
 113006446, 2.75149, 6.073144, 1.537991, 0.8466581, 2.937806, 6.063917, 1.57639, 0.7675952
 113206366, 2.377751, 6.339764, 1.494807, 0.9221044, 2.75149, 6.073144, 1.537991, 0.8466581
 113406286, 2.239902, 6.486622, 1.452996, 0.9893769, 2.377751, 6.339764, 1.494807, 0.9221044
 113606206, 2.006118, 6.424445, 1.410583, 1.046715, 2.239902, 6.486622, 1.452996, 0.9893769
 113806126, 1.642188, 6.673095, 1.363403, 1.112374, 2.006118, 6.424445, 1.410583, 1.046715
 114006046, 1.246724, 6.777328, 1.307442, 1.17599, 1.642188, 6.673095, 1.363403, 1.112374
 114205966, 0.8808217, 6.904676, 1.244997, 1.240066, 1.246724, 6.777328, 1.307442, 1.17599
 114405886, 0.636044, 6.984191, 1.179556, 1.304806, 0.8808217, 6.904676, 1.244997, 1.240066
 114605806, 0.2561671, 6.931044, 1.116763, 1.360511, 0.636044, 6.984191, 1.179556, 1.304806
 114806559, -0.08204657, 6.812923, 1.051955, 1.413788, 0.2561671, 6.931044, 1.116763, 1.360511
 115006479, -0.5075024, 6.866416, 0.9808425, 1.467887, -0.08204657, 6.812923, 1.051955, 1.413788
 115206399, -0.7865676, 6.939852, 0.9093363, 1.515665, -0.5075024, 6.866416, 0.9808425, 1.467887
 115406319, -1.026834, 6.679398, 0.8405436, 1.551522, -0.7865676, 6.939852, 0.9093363, 1.515665
 115606239, -1.196957, 6.710648, 0.7653855, 1.590754, -1.026834, 6.679398, 0.8405436, 1.551522
 115806159, -1.626907, 6.47204, 0.6911514, 1.623299, -1.196957, 6.710648, 0.7653855, 1.590754
 116006079, -1.945102, 6.380352, 0.6104217, 1.656989, -1.626907, 6.47204, 0.6911514, 1.623299
 116205999, -2.13625, 6.360409, 0.5294165, 1.684997, -1.945102, 6.380352, 0.6104217, 1.656989
 116405919, -2.589197, 6.332581, 0.4460082, 1.71292, -2.13625, 6.360409, 0.5294165, 1.684997
 116605839, -3.062116, 6.201803, 0.365205, 1.733645, -2.589197, 6.332581, 0.4460082, 1.71292
 116806592, -3.427714, 6.023497, 0.2835661, 1.746963, -3.062116, 6.201803, 0.365205, 1.733645
 117006512, -3.654082, 5.863707, 0.2027961, 1.75769, -3.427714, 6.023497, 0.2835661, 1.746963
 117206432, -3.698763, 5.640901, 0.1196487, 1.764509, -3.654082, 5.863707, 0.2027961, 1.75769
 117406352, -4.1619, 5.504094, 0.03371763, 1.770514, -3.698763, 5.640901, 0.1196487, 1.764509
 117606272, -4.447015, 5.339483, -0.0573926, 1.770324, -4.1619, 5.504094, 0.03371763, 1.770514
 117806192, -4.709439, 5.046576, -0.1397499, 1.763151, -4.447015, 5.339483, -0.0573926, 1.770324
 118006112, -4.790543, 4.771132, -0.2203493, 1.752911, -4.709439, 5.046576, -0.1397499, 1.763151
 118206032, -5.063905, 4.691795, -0.30209, 1.744738, -4.790543, 4.771132, -0.2203493, 1.752911
 118405952, -5.187855, 4.443819, -0.3838913, 1.730811, -5.063905, 4.691795, -0.30209, 1.744738
 118605872, -5.420761, 4.310129, -0.4671519, 1.709284, -5.187855, 4.443819, -0.3838913, 1.730811
 118805792, -5.583885, 3.88979, -0.5487434, 1.683277, -5.420761, 4.310129, -0.4671519, 1.709284
 119006545, -5.838585, 3.759823, -0.6259575, 1.657664, -5.583885, 3.88979, -0.5487434, 1.683277
 119206465, -6.002458, 3.406246, -0.701902, 1.626595, -5.838585, 3.759823, -0.6259575, 1.657664
 119406385, -6.101031, 2.939409, -0.7782749, 1.590751, -6.002458, 3.406246, -0.701902, 1.626595
 119606305, -6.353009, 2.745553, -0.8600428, 1.554288, -6.101031, 2.939409, -0.7782749, 1.590751
 119806225, -6.488333, 2.409624, -0.9403633, 1.509206, -6.353009, 2.745553, -0.8600428, 1.554288
 120006145, -6.549372, 1.977581, -1.014305, 1.46301, -6.488333, 2.409624, -0.9403633, 1.509206
 120206065, -6.626774, 1.670372, -1.081989, 1.417348, -6.549372, 1.977581, -1.014305, 1.46301
 120405985, -6.572933, 1.447739, -1.145007, 1.367585, -6.626774, 1.670372, -1.081989, 1.417348
 120605905, -6.775588, 1.180931, -1.2113, 1.314467, -6.572933, 1.447739, -1.145007, 1.367585
 120805825, -6.947631, 0.803432, -1.276105, 1.257684, -6.775588, 1.180931, -1.2113, 1.314467
 121006578, -6.915948, 0.5173693, -1.332033, 1.19679, -6.947631, 0.803432, -1.276105, 1.257684
 121206498, -6.92256, 0.2547449, -1.38554, 1.132002, -6.915948, 0.5173693, -1.332033, 1.19679
 121406418, -6.977171, -0.1027446, -1.438058, 1.062858, -6.92256, 0.2547449, -1.38554, 1.132002
 121606338, -6.982115, -0.3373526, -1.489641, 0.9929071, -6.977171, -0.1027446, -1.438058, 1.062858
 121806258, -6.893648, -0.7210533, -1.532618, 0.9215215, -6.982115, -0.3373526, -1.489641, 0.9929071
 122006178, -6.877927, -1.078025, -1.575521, 0.8437683, -6.893648, -0.7210533, -1.532618, 0.9215215
 122206098, -6.756014, -1.339711, -1.610313, 0.7725059, -6.877927, -1.078025, -1.575521, 0.8437683
 122406018, -6.839711, -1.675345, -1.643102, 0.6954508, -6.756014, -1.339711, -1.610313, 0.7725059
 122605938, -6.810585, -2.062239, -1.675315, 0.6152898, -6.839711, -1.675345, -1.643102, 0.6954508
 122805858, -6.439187, -2.464367, -1.699824, 0.535291, -6.810585, -2.062239, -1.675315, 0.6152898
 123005778, -6.322165, -2.6179, -1.720145, 0.4526133, -6.439187, -2.464367, -1.699824, 0.535291
 123206531, -6.271292, -2.917667, -1.739083, 0.3697765, -6.322165, -2.6179, -1.720145, 0.4526133
 123406451, -6.07955, -3.349334, -1.752941, 0.2836242, -6.271292, -2.917667, -1.739083, 0.3697765
 123606371, -5.94397, -3.636235, -1.762607, 0.1983081, -6.07955, -3.349334, -1.752941, 0.2836242
 123806291, -5.745413, -4.004617, -1.773327, 0.1074829, -5.94397, -3.636235, -1.762607, 0.1983081
 124006211, -5.640895, -4.211925, -1.776331, 0.01994801, -5.745413, -4.004617, -1.773327, 0.1074829
 124206131, -5.361274, -4.301229, -1.771868, -0.05992633, -5.640895, -4.211925, -1.776331, 0.01994801
 124406051, -5.1226, -4.41104, -1.76584, -0.1394336, -5.361274, -4.301229, -1.771868, -0.05992633
 124605971, -4.818149, -4.708439, -1.754966, -0.2250413, -5.1226, -4.41104, -1.76584, -0.1394336
 124805891, -4.724625, -5.125001, -1.743153, -0.3167789, -4.818149, -4.708439, -1.754966, -0.2250413
 125005811, -4.309854, -5.364558, -1.724352, -0.3986847, -4.724625, -5.125001, -1.743153, -0.3167789
 125206564, -4.064969, -5.505967, -1.703414, -0.4802894, -4.309854, -5.364558, -1.724352, -0.3986847
 125406484, -3.97542, -5.598578, -1.678905, -0.5529878, -4.064969, -5.505967, -1.703414, -0.4802894
 125606404, -3.699597, -5.677683, -1.651473, -0.6342773, -3.97542, -5.598578, -1.678905, -0.5529878
 125806324, -3.442262, -6.034971, -1.621019, -0.7147212, -3.699597, -5.677683, -1.651473, -0.6342773
 126006244, -3.061381, -6.241789, -1.584233, -0.7938666, -3.442262, -6.034971, -1.621019, -0.7147212
 126206164, -2.850891, -6.233445, -1.543887, -0.8640792, -3.061381, -6.241789, -1.584233, -0.7938666
 126406084, -2.452783, -6.319828, -1.500975, -0.9317203, -2.850891, -6.233445, -1.543887, -0.8640792
 126606004, -2.148064, -6.35505, -1.456791, -0.9969603, -2.452783, -6.319828, -1.500975, -0.9317203
