TimeUS,CAN,CAE,CAD,CAe
 1900906, 0, 0, 0, 0
 1940890, -0.008596797, -0.009840873, -0.009979006, 0.3572391
 2040850, -0.000683966, -0.000770737, -0.0006797931, 0.01859007
 2140810, -0.0005580046, -0.0005808945, -0.0009233118, 0.01859007
 2240770, -0.0004127045, -0.0005742786, -0.001003179, 0.01859007
 2340730, -0.0003781361, -0.0003366835, -0.001029613, 0.01859007
 2440690, -0.0002829468, -0.0001488631, -0.001130872, 0.01859007
 2540650, -0.0001297487, -0.0002259269, -0.0009144176, 0.01859007
 2640610, -0.0002863307, -0.0001124871, -0.001061873, 0.01859007
 2740570, -0.0001989641, -0.0001775674, -0.001058403, 0.01859007
 2840530, -0.0002386546, 9.875826E-06, -0.001012988, 0.01859007
 2940490, -0.0002322835, -3.565142E-05, -0.001048813, 0.01859007
 3040450, -0.0002515618, -4.669258E-05, -0.0009208713, 0.01859007
 3140410, -0.0001235728, 0.0001568105, -0.0008023675, 0.01859007
 3240370, -0.000208512, 6.545273E-05, -0.0008477157, 0.01859937
 3340330, -5.009122E-05, 0.0001344704, -0.0009109667, 0.01859937
 3440290, -1.728416E-05, 4.056585E-05, -0.0007941502, 0.01859937
 3540250, -9.774975E-05, 0.0002153619, -0.0008693364, 0.01859937
 3640210, -0.0001012565, -3.393849E-05, -0.000874017, 0.01859937
 3740170, -6.378624E-05, 5.749457E-05, -0.001024447, 0.01859937
 3840963, -5.87756E-05, 6.374445E-05, -0.0009802198, 0.01875436
 3940923, -0.0001337899, 2.406721E-05, -0.001017421, 0.01859937
 4040883, -0.0001955183, 3.812335E-05, -0.0008993269, 0.01859937
 4140843, -9.449072E-06, -6.003785E-05, -0.001132722, 0.01859937
 4240803, -0.0001036252, 0.0001307419, -0.00106521, 0.01859007
 4340763, 9.909093E-05, 8.582932E-05, -0.001040719, 0.01859007
 4440723, -2.807134E-05, 5.950821E-05, -0.001023074, 0.01859007
 4540683, 3.742971E-07, -3.958411E-05, -0.001063103, 0.01859007
 4640643, -6.936335E-05, 2.644554E-05, -0.000821033, 0.01859007
 4740603, -7.404562E-05, 0.0001183094, -0.001037078, 0.01859007
 4840563, 7.436646E-05, 0.0001354383, -0.0009369344, 0.01859007
 4940523, -8.299637E-05, 1.202022E-05, -0.001062197, 0.01859007
 5040483, -5.318461E-05, 0.000149204, -0.0009842272, 0.01859007
 5140443, -2.598904E-05, 7.333558E-05, -0.0008585451, 0.01859007
 5240403, 4.097634E-05, 0.0001602372, -0.001094266, 0.01859007
 5340363, -2.477368E-05, 5.802285E-06, -0.0009776495, 0.01859007
 5440323, -1.820776E-05, 4.038413E-05, -0.0009483644, 0.01859007
 5540283, 5.08087E-05, 0.0001548575, -0.0009148751, 0.01859007
 5640243, -0.0001012506, 0.0001038945, -0.0008581732, 0.01859007
 5740203, -8.985219E-05, 7.118174E-05, -0.001030328, 0.01859007
 5840163, -4.222652E-05, 0.0003020092, -0.0009907001, 0.01859007
 5940956, -0.0001178955, 2.679684E-06, -0.001170212, 0.01874498
 6040916, 0.0001030881, 3.684238E-05, -0.001008365, 0.01859007
 6140876, -5.508718E-05, 0.0001749143, -0.001076668, 0.01859007
 6240836, -5.383607E-05, 8.883818E-05, -0.001084685, 0.01859937
 6340796, -4.996351E-05, 0.000155676, -0.001009327, 0.01859937
 6440756, -5.661484E-06, 6.899158E-05, -0.001029909, 0.01859937
 6540716, -0.0001040401, 8.78052E-06, -0.0009752091, 0.01859937
 6640676, -6.891642E-07, -4.728974E-05, -0.0008999943, 0.01859937
 6740636, -5.352593E-05, 0.0001432928, -0.0009032736, 0.01859937
 6840596, -1.684185E-05, 5.303219E-05, -0.001076191, 0.01859937
 6940556, 6.793132E-05, 0.0001711375, -0.001053579, 0.01859937
 7040516, -9.093914E-05, 0.0001078705, -0.0008778874, 0.01859937
 7140476, -1.595321E-05, 0.0001232504, -0.0008765623, 0.01859937
 7240436, -0.0001880758, 8.134306E-05, -0.000929756, 0.01859007
 7340396, -3.841078E-05, 0.0002379695, -0.001017621, 0.01859007
 7440356, 7.769674E-05, 3.643559E-05, -0.0009829212, 0.01859007
 7540316, -9.109013E-05, 0.0001391198, -0.0009965914, 0.01859007
 7640276, 2.519386E-05, 0.0001399705, -0.0009178685, 0.01859007
 7740236, -0.0001180544, 0.0001632687, -0.0009765531, 0.01859007
 7840196, -0.0001139439, 6.403094E-05, -0.0008614145, 0.01859007
 7940156, -0.0001413757, 7.929932E-05, -0.001082521, 0.01859007
 8040949, -7.861937E-05, 2.760125E-05, -0.0008453332, 0.01874498
 8140909, -0.0001319086, -6.580095E-05, -0.001023827, 0.01859007
 8240869, -4.237121E-06, 3.856899E-05, -0.0009620822, 0.01859937
 8340829, 8.662832E-05, 3.829547E-05, -0.0009455903, 0.01859937
 8440789, 4.912793E-05, -6.005598E-05, -0.0009063622, 0.01859937
 8540749, -4.449012E-05, 6.240548E-05, -0.0009302804, 0.01859937
 8640709, -3.484918E-05, 0.0002150753, -0.0009366674, 0.01859937
 8740669, -0.0001838185, 0.0002017697, -0.001014666, 0.01859937
 8840629, -2.328871E-05, 0.0001105393, -0.0008964289, 0.01859937
 8940589, -0.000145301, 0.000310249, -0.001010881, 0.01859937
 9040549, -9.22769E-05, 0.000191301, -0.0008982878, 0.01859937
 9140509, -7.467976E-05, 0.0002074277, -0.0009462576, 0.01859937
 9240469, -2.995532E-05, 0.0001968422, -0.000971596, 0.01859007
 9340429, -4.651435E-05, 0.0001910708, -0.0009752949, 0.01859007
 9440389, -0.0001292201, 0.0002395716, -0.0009190506, 0.01859007
 9540349, -0.0001631256, 0.0002708294, -0.0009575159, 0.01859007
 9640309, -6.295598E-05, 0.0001286915, -0.0009939031, 0.01859007
 9740269, 1.841783E-05, 0.0002379398, -0.0009597181, 0.01859007
 9840229, -0.0001626728, 3.511343E-05, -0.001080357, 0.01859007
 9940189, -4.690225E-05, 0.000142954, -0.0009225015, 0.01859007
 10040149, -3.121779E-05, 0.0001675184, -0.0008371341, 0.01859007
 10140942, -0.0001266203, 0.0001328477, -0.0009280739, 0.01874498
 10240902, -6.504558E-05, 5.57602E-05, -0.0009620822, 0.01859007
 10340862, -0.0001907316, 0.0002197395, -0.0009231498, 0.01859007
 10440822, 2.684454E-05, 0.000177644, -0.0009613005, 0.01859007
 10540782, -6.183395E-05, 0.0002831036, -0.000938412, 0.01859007
 10640742, 2.457605E-05, 0.0001248851, -0.001018412, 0.01859007
 10740702, -0.0001477175, 0.0001682786, -0.001022006, 0.01859007
 10840662, 1.57606E-05, 0.0002347587, -0.000912654, 0.01859007
 10940622, 0.0001125087, 0.0001452991, -0.001018546, 0.01859007
 11040582, -3.818656E-05, 6.282778E-05, -0.0008042646, 0.01859007
 11140542, -0.0001185459, 0.0002430385, -0.001002807, 0.01859007
 11240502, -7.110935E-05, 6.296075E-05, -0.0009830642, 0.01859937
 11340462, -0.0001005823, 0.0001161646, -0.000940576, 0.01859937
 11440422, -0.0001275148, 0.0001026832, -0.0009893845, 0.01859937
 11540382, 8.713308E-05, -1.318358E-05, -0.001031234, 0.01859937
 11640342, -0.0002539325, 0.0001675379, -0.00110235, 0.01859937
 11740302, 1.593457E-05, 8.119447E-05, -0.0009797562, 0.01859937
 11840262, -0.0001136297, 6.723437E-05, -0.0009317293, 0.01859937
 11940222, -7.936445E-05, 0.0001782306, -0.001056258, 0.01859937
 12040182, -4.317252E-05, 0.0001121832, -0.0008926825, 0.01859937
 12140975, 6.715298E-06, 0.0003340546, -0.0009384882, 0.01859937
 12240935, -0.0001036645, 2.816375E-05, -0.0009774072, 0.01874498
 12340895, -2.001519E-05, 0.0002480308, -0.001038069, 0.01859007
 12440855, -8.858118E-05, 0.0002403091, -0.0008897082, 0.01859007
 12540815, -2.394957E-05, 0.0001364633, -0.0009695656, 0.01859007
 12640775, -5.728891E-05, 4.897852E-05, -0.0008941982, 0.01859007
 12740735, -0.0001372107, 3.819788E-05, -0.001028317, 0.01859007
 12840695, 5.834625E-05, 0.0001140034, -0.001035457, 0.01859007
 12940655, -6.564562E-05, 0.0001426687, -0.0008913765, 0.01859007
 13040615, -0.0001710673, 2.892069E-05, -0.0009521012, 0.01859007
 13140575, -9.086201E-05, 0.0001508144, -0.0009079733, 0.01859007
 13240535, -0.0001048346, 0.0001817197, -0.0009587648, 0.01859937
 13340495, -0.0001314815, 0.0001135386, -0.0009112526, 0.01859937
 13440455, -7.798762E-05, 0.0002250633, -0.0009489172, 0.01859937
 13540415, 3.788786E-05, 0.0002173633, -0.0009683167, 0.01859937
 13640375, -0.0001716066, 0.000233119, -0.0008696796, 0.01859937
 13740335, 3.90793E-05, 0.000214055, -0.001028803, 0.01859937
 13840295, -0.0001197643, 7.244827E-05, -0.00105315, 0.01859937
 13940255, -0.0001407933, 5.69711E-05, -0.001012159, 0.01859937
 14040215, -0.0001979829, 7.523644E-05, -0.0009488219, 0.01859937
 14140175, -0.0002392591, 0.0003152782, -0.0009297847, 0.01859937
 14240968, -0.000103478, 0.0001531651, -0.0008635415, 0.01874498
 14340928, -0.0002362835, 0.0002823363, -0.0009374968, 0.01859007
 14440888, 9.579475E-06, 0.0002031241, -0.0009517675, 0.01859007
 14540848, -0.0001513834, 0.0003287867, -0.0009436264, 0.01859007
 14640808, 2.049289E-05, 0.0003125159, -0.001071835, 0.01859007
 14740768, 5.426327E-05, -3.183224E-06, -0.001016372, 0.01859007
 14840728, -1.634933E-05, 0.0001753251, -0.0008855709, 0.01859007
 14940688, -0.0001017045, 6.113888E-05, -0.0009978021, 0.01859007
 15040648, -0.0002102214, 0.0001860382, -0.001158003, 0.01859007
 15140608, -4.041535E-05, 0.0001280743, -0.0009941225, 0.01859007
 15240568, -8.575352E-05, 0.0002484203, -0.001125715, 0.01859007
 15340528, -3.764647E-05, 0.0002899207, -0.0009422537, 0.01859007
 15440488, -9.683109E-05, 0.0001893011, -0.001113894, 0.01859007
 15540448, -9.271519E-05, 5.309152E-05, -0.0009015767, 0.01859007
 15640408, -1.710232E-05, 0.0002068528, -0.0009237598, 0.01859007
 15740368, 7.769201E-05, 0.0001424878, -0.0009672967, 0.01859007
 15840328, -1.937021E-05, 0.0001943168, -0.0009179829, 0.01859007
 15940288, -2.007525E-05, 0.0001678249, -0.001026716, 0.01859007
 16040248, -7.616055E-05, 0.0001958399, -0.001047964, 0.01859007
 16140208, -9.688546E-05, 9.651404E-05, -0.0009387837, 0.01859007
 16240168, -0.000201115, 0.0002311127, -0.0009635884, 0.01859937
 16340961, -4.594468E-06, 0.0003251834, -0.001032701, 0.01875436
 16440921, 0.0001281601, 0.0001564999, -0.0009031401, 0.01859937
 16540881, -0.0001496849, 0.0002718239, -0.0008904517, 0.01859937
 16640841, -0.0001548523, 2.070157E-05, -0.000964351, 0.01859937
 16740801, -5.071294E-05, 0.0002146048, -0.0009052088, 0.01859937
 16840761, -0.0002066536, 0.0002030919, -0.0009696895, 0.01859937
 16940721, -0.0003102664, 0.0002539275, -0.0008729303, 0.01859937
 17040681, -5.472323E-05, 0.0002167836, -0.001012788, 0.01859937
 17140641, -0.0001136587, 0.0001593736, -0.0009025777, 0.01859937
 17240601, -0.0002580795, 0.0003772851, -0.0009124252, 0.01859007
 17340561, -0.000194339, 9.170097E-05, -0.0009288219, 0.01859007
 17440521, -0.0001318848, 0.000300602, -0.001014265, 0.01859007
 17540481, -0.0001235093, 0.0002264476, -0.0009623111, 0.01859007
 17640441, -9.783475E-05, 0.0002123827, -0.00102214, 0.01859007
 17740401, -0.0001126333, 0.0002654538, -0.0008788502, 0.01859007
 17840361, -0.000120574, 0.0002019536, -0.0008969533, 0.01859007
 17940321, -0.0001236246, 0.0001511765, -0.0009329687, 0.01859007
 18040281, -0.0001751811, 0.0002106166, -0.0009331498, 0.01859007
 18140241, -6.810629E-05, 0.0001437845, -0.0009142079, 0.01859007
 18240201, -0.000115389, 0.0003415659, -0.0008909189, 0.01859937
 18340161, -0.0003676336, 0.0001214392, -0.001061339, 0.01859937
 18440954, -6.701893E-05, 0.0002503778, -0.001014229, 0.01875436
 18540914, -0.0002654904, 0.0002177997, -0.001020309, 0.01859937
 18640874, -7.362528E-05, 0.0003937893, -0.001062769, 0.01859937
 18740834, -0.0001606345, 0.0001604241, -0.001088174, 0.01859937
 18840794, -0.0002544725, 0.0001729635, -0.0008806805, 0.01859937
 18940754, -6.804476E-05, 9.384778E-05, -0.0009734646, 0.01859937
 19040714, -0.0002858806, 0.0002090436, -0.001009003, 0.01859937
 19140674, -0.0002571123, 7.915554E-05, -0.000973169, 0.01859937
 19240634, -0.0001891033, 0.0002484721, -0.001184209, 0.01859007
 19340594, -0.0003399173, 0.0002648939, -0.0009467628, 0.01859007
 19440554, -0.0002376882, 8.535692E-05, -0.0008752657, 0.01859007
 19540514, -0.0001932668, 0.0002383016, -0.00103866, 0.01859007
 19640474, -8.236279E-05, 0.0002294085, -0.001019794, 0.01859007
 19740434, -0.0003062401, 0.0003592614, -0.0009575541, 0.01859007
 19840394, -0.0003134198, 0.0002710317, -0.001059099, 0.01859007
 19940354, -0.0001028137, 0.0002049817, -0.0009268771, 0.01859007
 20040314, -0.0001375842, 0.0004229251, -0.000811052, 0.01859007
 20140274, -0.0001810542, 0.0002626383, -0.001067555, 0.01859007
 20240234, 6.35455E-05, 0.0003464345, -0.0009821013, 0.01859007
 20340194, -1.495084E-06, 0.0002995846, -0.001275563, 0.01859007
 20440154, -0.0003593513, 0.0003558918, -0.001056982, 0.01859007
 20540947, -0.0001200708, 0.0002416312, -0.001014282, 0.01874498
 20640907, 0.01330959, -0.002093647, -0.0009296226, 0.01859007
 20740867, 0.07515816, -0.01410185, -0.001016658, 0.01859007
 20840827, 0.165168, -0.03108973, -0.0001229748, 0.01859007
 20940787, 0.266621, -0.04928612, 0.002752805, 0.01859007
 21040747, 0.371554, -0.07011731, 0.004796341, 0.01859007
 21140707, 0.4733031, -0.08932588, 0.005005512, 0.01859007
 21240667, 0.5698925, -0.1075812, 0.003166448, 0.01859937
 21340627, 0.6600976, -0.1239381, -0.001918702, 0.01859937
 21440587, 0.7517906, -0.1406717, -0.009313623, 0.01859937
 21540547, 0.8270885, -0.1513702, -0.01911455, 0.01859937
 21640507, 0.8862924, -0.1685395, -0.03141557, 0.01859937
 21740467, 0.8905094, -0.1639114, -0.04214308, 0.01859937
 21840427, 0.8552289, -0.1630165, -0.05202428, 0.01859937
 21940387, 0.8103656, -0.1485429, -0.06111585, 0.01859937
 22040347, 0.7468979, -0.1422859, -0.06762499, 0.01859937
 22140307, 0.6930428, -0.1295023, -0.07394476, 0.01859937
 22240267, 0.6214414, -0.1154686, -0.09966663, 0.01859007
 22340227, 0.562156, -0.105065, -0.1430559, 0.01859007
 22440187, 0.5054453, -0.09139071, -0.1158768, 0.01859007
 22540147, 0.4576562, -0.08661684, -0.06915271, 0.01859007
 22640940, 0.4100251, -0.08117685, -0.05174534, 0.01874498
 22740900, 0.5411661, -0.1003081, -0.2075818, 0.01859007
 22840860, 0.5435051, -0.0970138, -0.7896919, 0.01859007
 22940820, 0.396861, -0.07427607, -0.9712045, 0.01859007
 23040780, 0.3370628, -0.0715633, -0.8016586, 0.01859007
 23140740, 0.3262375, -0.07099739, -0.5228451, 0.01859007
 23240700, 0.3120731, -0.06157314, -0.302509, 0.01859937
 23340660, 0.3400173, -0.06173401, -0.1611663, 0.01859937
 23440620, 0.3469002, -0.07611847, -0.1194426, 0.01859937
 23540580, 0.3200481, -0.07342403, -0.1298205, 0.01859937
 23640540, 0.2613466, -0.05105987, -0.1935133, 0.01859937
 23740500, 0.1834445, -0.04098996, -0.2835658, 0.01859937
 23840460, 0.1203508, -0.03220176, -0.3085977, 0.01859937
 23940420, 0.07756592, -0.03017393, -0.3121334, 0.01859937
 24040380, 0.04282957, -0.02036634, -0.2951369, 0.01859937
 24140340, 0.01552836, -0.08199018, -0.2418648, 0.01859937
 24240300, -0.03473948, -0.1225603, -0.2195653, 0.01859007
 24340260, -0.08524772, -0.116793, -0.2111617, 0.01859007
 24440220, -0.1233362, -0.08897411, -0.1704367, 0.01859007
 24540180, -0.1341244, -0.06612407, -0.09360741, 0.01859007
 24640973, -0.1399391, -0.04948657, -0.03645234, 0.01859007
 24740933, -0.1686108, -0.03462503, -0.03272574, 0.01874498
 24840893, -0.2056305, -0.04885889, -0.03564627, 0.01859007
 24940853, -0.2115288, -0.07086343, -0.003574228, 0.01859007
 25040813, -0.2077939, -0.07362261, 0.03105463, 0.01859007
 25140773, -0.2145746, -0.06043291, 0.02575233, 0.01859007
 25240733, -0.2239232, -0.05675346, 0.01341974, 0.01859007
 25340693, -0.2352587, -0.04912157, 0.01335598, 0.01859007
 25440653, -0.2345634, -0.04767886, 0.01911193, 0.01859007
 25540613, -0.2434082, -0.04905641, 0.00932737, 0.01859007
 25640573, -0.2384675, -0.04388548, 0.02325859, 0.01859007
 25740533, -0.2370939, -0.03373115, 0.02617868, 0.01859007
 25840493, -0.2497936, -0.02454171, 0.0002278847, 0.01859007
 25940453, -0.2291812, -0.01898322, 0.02497992, 0.01859007
 26040413, -0.2209807, -0.01612466, 0.044868, 0.01859007
 26140373, -0.2165013, -0.01626964, 0.04450703, 0.01859007
 26240333, -0.2165768, -0.01785925, 0.05010863, 0.01859937
 26340293, -0.2093227, -0.01308409, 0.04798891, 0.01859937
 26440253, -0.2146806, -0.003166073, 0.06758305, 0.01859937
 26540213, -0.2651987, 0.02068191, 0.07930154, 0.01859937
 26640173, -0.3350444, 0.04111717, 0.1117146, 0.01859937
 26740966, -0.4134911, 0.07139756, 0.1609735, 0.01875436
 26840926, -0.4623712, 0.09048381, 0.1784117, 0.01859937
 26940886, -0.459821, 0.1001704, 0.175828, 0.01859937
 27040846, -0.4200758, 0.09487858, 0.1691722, 0.01859937
 27140806, -0.3823559, 0.08585434, 0.1355683, 0.01859937
 27240766, -0.3417274, 0.07609047, 0.1152239, 0.01859007
 27340726, -0.2914459, 0.06851546, 0.1365885, 0.01859007
 27440686, -0.2587129, 0.05375652, 0.1409892, 0.01859007
 27540646, -0.2411995, 0.05012686, 0.1131702, 0.01859007
 27640606, -0.2264987, 0.04606684, 0.1063312, 0.01859007
 27740566, -0.2103387, 0.04486461, 0.1036071, 0.01859007
 27840526, -0.1964746, 0.04344275, 0.09443703, 0.01859007
 27940486, -0.1910679, 0.040924, 0.04981102, 0.01859007
 28040446, -0.1826311, 0.04124935, 0.05045215, 0.01859007
 28140406, -0.1774524, 0.04386701, 0.04296158, 0.01859007
 28240366, -0.1693744, 0.04491492, 0.03504654, 0.01859937
 28340326, -0.1555109, 0.04643735, 0.03368425, 0.01859937
 28440286, -0.15154, 0.04515052, 0.03897486, 0.01859937
 28540246, -0.1428227, 0.05067439, 0.03073641, 0.01859937
 28640206, -0.1218329, 0.04493605, 0.03645457, 0.01859937
 28740166, -0.08220857, 0.02672915, 0.03982583, 0.01859937
 28840959, -0.1009697, 0.03576262, 0.03555108, 0.01875436
 28940919, -0.1136541, 0.04789303, 0.04818824, 0.01859937
 29040879, -0.1226299, 0.04818604, 0.04475478, 0.01859937
 29140839, -0.1283021, 0.05377265, 0.03444613, 0.01859937
 29240799, -0.125737, 0.05615511, 0.03126865, 0.01859007
 29340759, -0.1211973, 0.0579837, 0.03372508, 0.01859007
 29440719, -0.1155209, 0.05462522, 0.0246565, 0.01859007
 29540679, -0.1044014, 0.06125979, 0.03562963, 0.01859007
 29640639, -0.10195, 0.05908117, 0.04088724, 0.01859007
 29740599, -0.09426944, 0.05833703, 0.05470754, 0.01859007
 29840559, -0.09467505, 0.05149269, 0.0484028, 0.01859007
 29940519, -0.09353178, 0.05242515, 0.02305669, 0.01859007
 30040479, -0.08703396, 0.05212337, 0.02614723, 0.01859007
 30140439, -0.08112782, 0.04984309, 0.03380192, 0.01859007
 30240399, -0.06432645, 0.04292784, 0.06003547, 0.01859007
 30340359, 0.02528988, -0.0332132, 0.536084, 0.01859007
 30440319, 0.1007828, -0.1160428, 1.456406, 0.01859007
 30540279, 0.0001825783, -0.1355413, 2.166445, 0.01859007
 30640239, -0.1989969, -0.1405637, 2.295354, 0.01859007
 30740199, -0.2338339, -0.1163786, 1.868644, 0.01859007
 30840159, 0.01783979, -0.04234856, 1.121169, 0.01859007
 30940952, 0.4293249, 0.07497282, 0.2697359, 0.01874498
 31040912, 0.7570426, 0.1872304, -0.4802244, 0.01859007
 31140872, 0.8415008, 0.2446139, -0.9221143, 0.01859007
 31240832, 0.746212, 0.2556432, -1.011742, 0.01859007
 31340792, 0.5876497, 0.2048129, -0.7638273, 0.01859007
 31440752, 0.454026, 0.1277363, -0.3616721, 0.01859007
 31540712, 0.3550203, 0.05138287, 0.03824861, 0.01859007
 31640672, 0.283433, -0.01485221, 0.3544862, 0.01859007
 31740632, 0.2379775, -0.04625599, 0.4911319, 0.01859007
 31840592, 0.2353848, -0.03518728, 0.4461562, 0.01859007
 31940552, 0.2485284, 0.005924527, 0.261444, 0.01859007
 32040512, 0.2771558, 0.0550413, 0.02296152, 0.01859007
 32140472, 0.3064252, 0.1032635, -0.2578632, 0.01859007
 32240432, 0.3110515, 0.1560943, -0.524377, 0.01859007
 32340392, 0.2857626, 0.2134067, -0.7191656, 0.01859007
 32440352, 0.2336972, 0.2276284, -0.7545444, 0.01859007
 32540312, 0.1741394, 0.2198273, -0.6678293, 0.01859007
 32640272, 0.1313419, 0.1928036, -0.5359998, 0.01859007
 32740232, 0.1004657, 0.1564477, -0.4177191, 0.01859007
 32840192, 0.06965672, 0.1295746, -0.3321075, 0.01859007
 32940152, 0.05031411, 0.09995583, -0.2253863, 0.01859007
 33040945, 0.03079847, 0.08412733, -0.2135539, 0.01874498
 33140905, 0.01871862, 0.0833393, -0.1956967, 0.01859007
 33240865, 0.003525425, 0.08859757, -0.2068899, 0.01859007
 33340825, -0.007866397, 0.09538992, -0.2100313, 0.01859007
 33440785, -0.01920548, 0.1001697, -0.2163914, 0.01859007
 33540745, -0.02324741, 0.1000289, -0.2152902, 0.01859007
 33640705, -0.02653843, 0.1079875, -0.2075621, 0.01859007
 33740665, -0.03819697, 0.1040178, -0.2135737, 0.01859007
 33840625, -0.0434569, 0.09347083, -0.2069079, 0.01859007
 33940585, -0.04130231, 0.09822598, -0.1965654, 0.01859007
 34040545, -0.0348602, 0.08570457, -0.1553494, 0.01859007
 34140505, -0.03821309, 0.0580643, -0.1112457, 0.01859007
 34240465, -0.0435039, 0.04155736, -0.1054692, 0.01859007
 34340425, -0.04348129, 0.03765027, -0.0932383, 0.01859007
 34440385, -0.05004361, 0.04499705, -0.101146, 0.01859007
 34540345, -0.04919884, 0.05089207, -0.113177, 0.01859007
 34640305, -0.05925585, 0.04106674, -0.1309649, 0.01859007
 34740265, -0.06872042, 0.03788525, -0.1355692, 0.01859007
 34840225, -0.06042008, 0.04811298, -0.1398883, 0.01859007
 34940185, -0.05782769, 0.05337348, -0.1008593, 0.01859007
 35040145, -0.05993176, 0.05215254, -0.1027547, 0.01859007
 35140938, -0.07385179, 0.02985115, -0.1165859, 0.01874498
 35240898, -0.060879, 0.02317124, -0.07000381, 0.01859007
 35340858, -0.07610126, 0.02341039, -0.0876085, 0.01859007
 35440818, -0.08033993, 0.02771808, -0.08348724, 0.01859007
 35540778, -0.0660586, 0.0347376, -0.05344353, 0.01859007
 35640738, -0.07013556, 0.03268291, -0.02319656, 0.01859007
 35740698, -0.0894539, 0.02704733, -0.0718424, 0.01859007
 35840658, -0.09252326, 0.0161327, -0.07412978, 0.01859007
 35940618, -0.07787693, 0.002889073, -0.01048676, 0.01859007
 36040578, -0.08511403, 0.006129885, -0.01447813, 0.01859007
 36140538, -0.09650446, 0.01036382, -0.06950785, 0.01859007
 36240498, -0.09494091, 0.004148151, -0.07256635, 0.01859007
 36340458, -0.0844476, -0.0005678831, -0.01880457, 0.01859007
 36440418, -0.08272617, -0.00473861, 0.04536285, 0.01859007
 36540378, -0.07981071, 0.007271057, 0.09037923, 0.01859007
 36640338, -0.08567163, 0.006912148, 0.1617529, 0.01859007
 36740298, -0.1116989, 0.002057339, 0.1344018, 0.01859007
 36840258, -0.1234225, 0.0009627057, 0.1378753, 0.01859007
 36940218, -0.128138, 0.000615055, 0.1594192, 0.01859007
 37040178, -0.1391222, 0.008767711, 0.1344279, 0.01859007
 37140971, -0.1405523, -0.0001444654, 0.1253169, 0.01859007
 37240931, -0.1431359, -0.005484608, 0.1321037, 0.01874498
 37340891, -0.1350709, -0.01223278, 0.1378894, 0.01859007
 37440851, -0.1236847, -0.01584185, 0.1521551, 0.01859007
 37540811, -0.1224619, -0.01037597, 0.1360941, 0.01859007
 37640771, -0.1202546, -0.0005766962, 0.1678449, 0.01859007
 37740731, -0.1085504, -0.000650859, 0.162379, 0.01859007
 37840691, -0.1073376, 0.009139298, 0.1487416, 0.01859007
 37940651, -0.1003915, 0.004033628, 0.1307443, 0.01859007
 38040611, -0.09263396, -0.006048115, 0.1159584, 0.01859007
 38140571, -0.08606018, -0.00978285, 0.1213734, 0.01859007
 38240531, -0.07892351, -0.01054862, 0.1429562, 0.01859007
 38340491, -0.07566062, -0.01270367, 0.1427596, 0.01859007
 38440451, -0.06582907, -0.002488172, 0.09713195, 0.01859007
 38540411, -0.06507218, -0.003461404, 0.06729667, 0.01859007
 38640371, -0.06035527, -0.009729164, 0.03171294, 0.01859007
 38740331, -0.05402139, -0.01897037, 0.02673411, 0.01859007
 38840291, -0.05292426, -0.01391926, 0.05865389, 0.01859007
 38940251, -0.04657193, -0.0206047, 0.1154113, 0.01859007
 39040211, -0.03363559, -0.01870584, 0.08885445, 0.01859007
 39140171, -0.0359018, -0.02137251, 0.07624224, 0.01859007
 39240964, -0.03806352, -0.01896064, 0.03294095, 0.01874498
 39340924, -0.03401006, -0.01324627, 0.01313304, 0.01859007
 39440884, -0.03559546, -0.02216075, 0.01886924, 0.01859007
 39540844, -0.03305089, -0.01884952, 0.05712906, 0.01859007
 39640804, -0.02390897, -0.01306805, 0.04957648, 0.01859007
 39740764, -0.02827859, -0.01517883, 0.04774747, 0.01859007
 39840724, -0.02024087, -0.02113535, 0.05123455, 0.01859007
 39940684, -0.01302571, -0.02317425, 0.0151466, 0.01859007
 40040644, -0.01229375, -0.01933406, 0.01381062, 0.01859007
 40140604, -0.00587325, -0.03235127, 0.0138564, 0.01859007
 40240564, -0.001786462, -0.02972232, 0.001345258, 0.01859007
 40340524, -0.00435076, -0.02785575, -0.01653984, 0.01859007
 40440484, -0.004430355, -0.03443969, -0.005346314, 0.01859007
 40540444, -0.006488919, -0.03272437, -0.005714619, 0.01859007
 40640404, -0.005753971, -0.03808475, -0.0008187162, 0.01859007
 40740364, -0.003265827, -0.03051021, -0.01107146, 0.01859007
 40840324, -0.006057225, -0.02285753, -0.0007215284, 0.01859007
 40940284, -0.005997408, -0.02061512, 0.01709053, 0.01859007
 41040244, -0.009149366, -0.01726362, 0.03230032, 0.01859007
 41140204, -0.005058722, -0.01714083, 0.03253544, 0.01859007
 41240164, 0.001473407, -0.02097296, 0.05116034, 0.01859007
 41340957, 0.001503244, -0.02267821, -0.008416593, 0.01874498
 41440917, -0.005241982, -0.02591129, -0.02097968, 0.01859007
 41540877, -0.003470581, -0.01814438, -0.01112545, 0.01859007
 41640837, -0.00591868, -0.0214958, -0.02573997, 0.01859007
 41740797, -0.0130026, -0.02427667, -0.04734017, 0.01859007
 41840757, -0.009516296, -0.03038352, -0.04724817, 0.01859007
 41940717, -0.0101315, -0.03204133, -0.01734723, 0.01859007
 42040677, -0.01313135, -0.02721636, -0.01597447, 0.01859007
 42140637, -0.01497938, -0.02224145, -0.01715689, 0.01859007
 42240597, -0.01417236, -0.01945069, 0.01371631, 0.01859007
 42340557, -0.01042341, -0.02002477, 0.04093301, 0.01859007
 42440517, -0.007321394, -0.01815008, 0.01649343, 0.01859007
 42540477, -0.01272634, -0.0238833, -0.01691277, 0.01859007
 42640437, -0.008458128, -0.0262113, -0.01310696, 0.01859007
 42740397, -0.002675005, -0.02336838, -0.02349797, 0.01859007
 42840357, -5.994539E-05, -0.02000034, -0.00853176, 0.01859007
 42940317, 0.002362178, -0.01258198, -0.002700297, 0.01859007
 43040277, 0.002441891, -0.01031706, -0.03068059, 0.01859007
 43140237, -0.005138147, -0.01269537, -0.0363206, 0.01859007
 43240197, -0.003737104, -0.02049193, -0.001462246, 0.01859007
 43340157, -0.005388612, -0.02097332, 0.00897266, 0.01859007
 43440950, -0.006327881, -0.0133806, -0.02649424, 0.01874498
 43540910, -0.001007449, -0.00953848, -0.01702455, 0.01859007
 43640870, -0.006129832, -0.007655717, 0.01196308, 0.01859007
 43740830, -0.006234515, -0.003232917, 0.02034574, 0.01859007
 43840790, -0.001182536, -0.00941082, -0.01754258, 0.01859007
 43940750, -0.005910239, -0.01296351, -0.02238028, 0.01859007
 44040710, -0.000633055, -0.02064761, -0.0170226, 0.01859007
 44140670, -0.001889181, -0.03173932, -0.01424163, 0.01859007
 44240630, 0.001265288, -0.02343272, -0.01992653, 0.01859007
 44340590, -6.883906E-05, -0.01366127, -0.01453817, 0.01859007
 44440550, 0.002713869, -0.01090938, -0.007440288, 0.01859007
 44540510, 0.001925114, -0.008755181, -0.01089883, 0.01859007
 44640470, -0.003205538, -0.03093599, 0.0001643095, 0.01859007
 44740430, 0.005042566, -0.03985431, 0.02321274, 0.01859007
 44840390, 0.0005204728, -0.04178471, -0.01259591, 0.01859007
 44940350, -0.008477645, -0.1701462, -0.01669164, 0.01859007
 45040310, -0.02158686, -0.2952091, 0.002076844, 0.01859007
 45140270, -0.01135897, -0.1589004, -0.01560878, 0.01859007
 45240230, -0.00633022, 0.02434892, -0.0828976, 0.01859007
 45340190, -0.003810668, 0.1501515, -0.09734526, 0.01859007
 45440150, 0.003362006, 0.1978222, -0.02781456, 0.01859007
 45540943, 0.007604055, 0.1888574, 0.0317894, 0.01874498
 45640903, 0.01357641, 0.1431207, 0.03419521, 0.01859007
 45740863, 0.004875882, 0.09532517, 0.007984247, 0.01859007
 45840823, 0.001542048, 0.04596138, -0.03060524, 0.01859007
 45940783, 0.002057277, 0.01514083, -0.01566466, 0.01859007
 46040743, -0.0007750646, -0.00606555, -0.003472855, 0.01859007
 46140703, -0.003323375, -0.008430107, -0.003001376, 0.01859007
 46240663, -0.0003561591, 0.006239126, -0.01753111, 0.01859007
 46340623, 0.0008892822, 0.01565621, 0.03060349, 0.01859007
 46440583, 0.002839323, 0.02911266, 0.01209234, 0.01859007
 46540543, -0.0005534079, 0.03565012, -0.01971412, 0.01859007
 46640503, -0.0002353216, 0.03714343, -0.02891856, 0.01859007
 46740463, -0.001429449, 0.03252603, -0.0349155, 0.01859007
 46840423, 0.002154283, 0.02901498, -0.03934961, 0.01859007
 46940383, 0.005650912, 0.02715131, -0.02460674, 0.01859007
 47040343, 0.005538795, 0.02102904, 0.01929633, 0.01859007
 47140303, 0.003458696, 0.02691711, 0.03103919, 0.01859007
 47240263, -0.002480821, 0.02628371, -0.01476611, 0.01859007
 47340223, -0.004427771, 0.03080012, -0.01624411, 0.01859007
 47440183, -0.001081725, 0.02822946, -0.02848977, 0.01859007
 47540976, -0.001587025, 0.01201626, -0.05741467, 0.01859007
 47640936, -0.002553314, 0.01323308, -0.01055109, 0.01874498
 47740896, 0.003354127, 0.02706327, -0.02837213, 0.01859007
 47840856, -0.002226355, 0.02393422, -0.01472496, 0.01859007
 47940816, 0.00168159, 0.02062339, 0.01224431, 0.01859007
 48040776, 0.002847049, 0.0149859, 0.01372811, 0.01859007
 48140736, 0.00588288, 0.02049807, 0.008406155, 0.01859007
 48240696, 0.005846179, 0.01457101, -0.003355057, 0.01859007
 48340656, 0.002455338, 0.02066343, -0.04874989, 0.01859007
 48440616, -0.0002130347, 0.01971627, -0.02957247, 0.01859007
 48540576, -0.001091017, 0.006080755, -0.009235263, 0.01859007
 48640536, -0.0005964157, 0.005633585, -0.02043764, 0.01859007
 48740496, 0.00144893, 0.005449354, -0.02175041, 0.01859007
 48840456, -0.003566825, 0.0102845, -0.02484827, 0.01859007
 48940416, -0.006033558, 0.01132543, -0.04431089, 0.01859007
 49040376, -0.000529807, 0.01176278, -0.004068568, 0.01859007
 49140336, -0.003852007, 0.007849199, 0.04140161, 0.01859007
 49240296, -0.002644063, 0.007241922, 0.02990196, 0.01859007
 49340256, -0.002559205, 0.006076361, -0.002331831, 0.01859007
 49440216, -0.001295229, 0.004838798, -0.04047678, 0.01859007
 49540176, 0.001168055, -0.004980179, -0.03677707, 0.01859007
 49640969, 0.002527087, -0.007266173, -0.02702361, 0.01874498
 49740929, 0.004993973, -0.003135215, -0.03679583, 0.01859007
 49840889, 0.001527418, -0.004201192, 0.00357726, 0.01859007
 49940849, -0.002135606, -0.009794865, 0.008516594, 0.01859007
 50040809, 6.91548E-05, -0.007575632, -0.01055711, 0.01859007
 50140769, 0.004135532, 0.002570271, 0.03414518, 0.01859007
 50240729, 0.00275733, -0.0003228554, 0.04867312, 0.01859007
 50340689, 0.004398345, -0.004427492, -0.01111211, 0.01859007
 50440649, -0.001018388, 0.006059789, -0.02217279, 0.01859007
 50540609, -0.002234061, 0.003151081, -0.040022, 0.01859007
 50640569, 0.001379168, -0.002042461, -0.02290804, 0.01859007
 50740529, 0.006542225, -0.0053646, -0.032358, 0.01859007
 50840489, 0.003087627, -0.0117526, -0.02552983, 0.01859007
 50940449, 0.003030686, -0.01564908, -0.03560401, 0.01859007
 51040409, -0.005355711, -0.007337769, -0.04044207, 0.01859007
 51140369, -0.007056929, 0.00516981, -0.01134867, 0.01859007
 51240329, 9.098375E-05, -0.002324793, 0.02202526, 0.01859007
 51340289, 0.002232534, -0.008738866, 0.02778597, 0.01859007
 51440249, 0.002615852, -0.02128689, -0.008354001, 0.01859007
 51540209, -0.002396901, -0.01935555, 0.01958052, 0.01859007
 51640169, -0.001730731, -0.02012719, 0.02526696, 0.01859007
 51740962, 0.003291117, -0.01221553, -0.02423494, 0.01874498
 51840922, -0.001079447, -0.008191988, -0.02249393, 0.01859007
 51940882, -0.008169666, -0.01602041, -0.02775141, 0.01859007
 52040842, -0.0002984263, -0.01192744, -0.004217606, 0.01859007
 52140802, 0.001694741, -0.008470904, -0.02098065, 0.01859007
 52240762, 0.002480923, 0.001448086, -0.02856581, 0.01859007
 52340722, 0.009411565, 0.005939464, -0.018543, 0.01859007
 52440682, 0.003779421, -0.01162126, 0.01959978, 0.01859007
 52540642, 0.006133763, -0.02132261, 0.01165811, 0.01859007
 52640602, 0.002574243, -0.02199849, -0.01340701, 0.01859007
 52740562, 0.001995774, -0.01547973, -0.01733271, 0.01859007
 52840522, 0.002086793, -0.01315453, 0.004803614, 0.01859007
 52940482, 0.0001855298, -0.01146376, 0.01163926, 0.01859007
 53040442, -0.001388409, -0.0154992, -0.008065239, 0.01859007
 53140402, 0.002060761, -0.009560003, -0.02394582, 0.01859007
 53240362, -0.002257999, -0.016037, -0.02300168, 0.01859007
 53340322, -0.004211736, -0.01048989, -0.04638225, 0.01859007
 53440282, -0.006587196, -0.003840485, -0.003695144, 0.01859007
 53540242, -0.006768213, -0.002970077, -0.0131434, 0.01859007
 53640202, -0.003683635, -0.008557591, 0.01895213, 0.01859007
 53740162, -0.004833192, -0.02188128, 0.006349055, 0.01859007
 53840955, -0.006153653, -0.01382213, -0.0202958, 0.01874498
 53940915, -0.005080001, -0.01393635, -0.01424129, 0.01859007
 54040875, -0.001949504, -0.01403631, 0.05239772, 0.01859007
 54140835, -0.005619453, -0.01582431, -0.007825905, 0.01859007
 54240795, 0.0006849194, -0.006998103, 0.02554702, 0.01859007
 54340755, -0.001293652, 0.0009544824, 0.02467748, 0.01859007
 54440715, 0.0001529059, -0.001163987, 0.03704877, 0.01859007
 54540675, -0.002967818, 0.003995128, -0.00929492, 0.01859007
 54640635, -0.001817874, 0.008177644, -0.02947854, 0.01859007
 54740595, 0.001478207, -0.0009918489, -0.007304311, 0.01859007
 54840555, 0.005688299, -0.01551023, -0.01047703, 0.01859007
 54940515, 0.004376355, -0.01800458, -0.03274839, 0.01859007
 55040475, 0.007220744, -0.008490521, 0.01425616, 0.01859007
 55140435, 0.003843711, -0.00722821, 0.01699439, 0.01859007
 55240395, 0.003522024, 0.002525014, 0.01238288, 0.01859007
 55340355, -0.003408037, -0.00587161, -0.03024501, 0.01859007
 55440315, -0.002488552, -0.007906253, -0.0126568, 0.01859007
 55540275, 0.0002474101, 0.004189524, 0.02158736, 0.01859007
 55640235, 0.001985929, 0.006392018, 0.00230816, 0.01859007
 55740195, 0.001519165, 0.0002948614, -0.03531364, 0.01859007
 55840155, 0.001262555, -0.004920797, -0.04521443, 0.01859007
 55940948, 0.005434817, -0.01712862, -0.04545902, 0.01874498
 56040908, 0.006747264, -0.01048551, 0.01384211, 0.01859007
 56140868, 0.006737702, -0.00671536, 0.02528005, 0.01859007
 56240828, 0.005012431, -0.01071349, 0.05313792, 0.01859007
 56340788, 0.006631691, -0.007504233, 0.0390735, 0.01859007
 56440748, 0.0105928, -0.0037559, 0.01449856, 0.01859007
 56540708, 0.001098537, 0.001291452, -0.01150669, 0.01859007
 56640668, -0.005479467, 0.01498313, -0.0369664, 0.01859007
 56740628, -0.009963132, 0.01171, -0.03432086, 0.01859007
 56840588, -0.006018038, -0.001709244, 0.01351572, 0.01859007
 56940548, -0.01401448, -0.001290203, -0.03324414, 0.01859007
 57040508, -0.01076586, 0.00800856, -0.07181849, 0.01859007
 57140468, -0.0101396, 0.0114999, -0.04080635, 0.01859007
 57240428, -0.002333852, -0.002330048, -0.003149775, 0.01859007
 57340388, -0.004986991, -0.006489297, 0.0122726, 0.01859007
 57440348, 0.0008357016, -0.01338294, 0.03793334, 0.01859007
 57540308, 0.0003153848, -0.004294166, 0.0178426, 0.01859007
 57640268, -0.002188473, -0.009305274, 0.04711243, 0.01859007
 57740228, -0.002161791, 0.009175172, 0.03793883, 0.01859007
 57840188, -0.003726918, 0.001829949, -0.01225067, 0.01859007
 57940148, 0.00123633, 0.005990814, -0.003195848, 0.01859007
 58040941, -0.00102276, 0.002517242, 0.01266604, 0.01874498
 58140901, 0.006018308, 0.003031638, 0.03522859, 0.01859007
 58240861, -0.0028724, 0.009864997, -0.005625962, 0.01859007
 58340821, 3.789377E-05, 0.006221731, -0.02051466, 0.01859007
 58440781, -0.0008114203, 0.003824905, -0.0502648, 0.01859007
 58540741, -0.007927625, -0.0005131515, -0.0535491, 0.01859007
 58640701, -0.003709571, -0.004961212, -0.02589002, 0.01859007
 58740661, -0.007618937, 0.009243134, 0.02629561, 0.01859007
 58840621, -0.007122408, 0.01213989, 0.03418855, 0.01859007
 58940581, -0.008968981, 0.02241263, -0.001552628, 0.01859007
 59040541, -0.01237757, 0.01426674, 0.04990546, 0.01859007
 59140501, -0.008585999, 0.007359859, 0.04883255, 0.01859007
 59240461, -0.01202526, 0.005429797, 0.003560683, 0.01859007
 59340421, -0.009340172, 0.001786999, 0.006676367, 0.01859007
 59440381, -0.01368355, 0.006168491, 0.01812504, 0.01859007
 59540341, -0.01024382, -0.005289175, -0.01371259, 0.01859007
 59640301, -0.009075659, 0.0115309, -0.006417969, 0.01859007
 59740261, -0.008892545, 0.01303391, 0.03455463, 0.01859007
 59840221, 0.0001392046, 0.00118459, 0.0001578555, 0.01859007
 59940181, -0.006378508, -0.01279391, -0.01152177, 0.01859007
 60040974, -0.005870428, -0.02236791, -0.04547238, 0.01859007
 60140934, -0.009157327, -0.00401664, -0.03318849, 0.01874498
 60240894, 0.002980583, 0.003816527, 0.02748872, 0.01859007
 60340854, -0.00205346, 0.0007696543, 0.03605729, 0.01859007
 60440814, 0.001110772, 0.002806731, 0.04242338, 0.01859007
 60540774, -0.004796376, 0.001675377, 0.00829012, 0.01859007
 60640734, -0.004365559, -0.001566822, 0.02771763, 0.01859007
 60740694, -0.00504214, -0.002099905, -0.013397, 0.01859007
 60840654, -0.005439972, -0.003460145, -0.01117309, 0.01859007
 60940614, -0.004485719, 0.005693955, 0.006248567, 0.01859007
 61040574, -0.008182149, 0.01580141, 0.0184753, 0.01859007
 61140534, -0.005712145, 0.01133944, 0.004060427, 0.01859007
 61240494, -0.006091963, 0.007294106, -0.02837569, 0.01859007
 61340454, -0.002944912, -0.001630939, 0.0006126044, 0.01859007
 61440414, -0.001649767, -0.0007815799, 0.0544924, 0.01859007
 61540374, -0.002562589, -0.002571859, 0.03152365, 0.01859007
 61640334, -0.001627601, -0.001252109, 0.01173209, 0.01859007
 61740294, -0.002003508, 0.003342318, -0.01562317, 0.01859007
 61840254, -0.01141109, 0.01305991, -0.02847067, 0.01859007
 61940214, -0.01060726, 0.01282124, -0.02052803, 0.01859007
 62040174, -0.008243925, 0.01518731, -0.005768022, 0.01859007
 62140967, -0.004270433, 0.01480359, -0.01685455, 0.01874498
 62240927, -0.000681487, 0.01112615, -0.02957985, 0.01859007
 62340887, -0.003696362, 0.007469442, -0.03653689, 0.01859007
 62440847, -0.00546146, 0.004311685, -0.007954819, 0.01859007
 62540807, -0.007834889, 0.01635948, 0.04364906, 0.01859007
 62640767, -0.0003787203, 0.01451979, 0.07452283, 0.01859007
 62740727, -0.002427332, 0.001383666, 0.05583173, 0.01859007
 62840687, -0.006400148, -0.001196463, 0.01529829, 0.01859007
 62940647, -0.004909805, -0.007623832, 0.000511861, 0.01859007
 63040607, -0.005329471, 0.0002038635, -0.01700256, 0.01859007
 63140567, -0.006962037, 0.007288911, -0.02679788, 0.01859007
 63240527, -0.01373981, 0.002729794, -0.04122194, 0.01859007
 63340487, -0.005928984, 0.007673363, -0.007311661, 0.01859007
 63440447, -0.003074812, 0.008681176, -0.02826647, 0.01859007
 63540407, -0.001223311, 0.007818161, 0.01654052, 0.01859007
 63640367, 0.003610828, 0.006552595, 0.002503871, 0.01859007
 63740327, -0.001438408, 0.001365959, 0.02875254, 0.01859007
 63840287, 0.001247912, 0.004811549, 0.04459883, 0.01859007
 63940247, 0.0003535042, 0.01470623, 0.04025988, 0.01859007
 64040207, -0.0002826096, 0.009425327, 0.03998394, 0.01859007
 64140167, -0.002835772, -0.006314044, 0.01637431, 0.01859007
 64240960, -0.002032103, -0.006593073, -0.007511476, 0.01874498
 64340920, -0.001732039, -0.007048062, -0.04446182, 0.01859007
 64440880, -0.002605176, -0.002004253, -0.05166905, 0.01859007
 64540840, -0.005846366, -0.003784463, -0.02814782, 0.01859007
 64640800, -0.01048315, 0.001159853, -0.009318962, 0.01859007
 64740760, -0.008305197, -0.0003966423, -0.008320006, 0.01859007
 64840720, -0.006438623, -0.005121595, 0.01624454, 0.01859007
 64940680, 0.001053998, -4.075834E-05, 0.01567431, 0.01859007
 65040640, -0.006908823, 0.002249531, 0.02709568, 0.01859007
 65140600, -0.0006015367, 0.003569643, 0.03389375, 0.01859007
 65240560, 0.0009495929, 0.0001193227, 0.01034111, 0.01859007
 65340520, -0.0004798679, 0.001173359, 0.00506413, 0.01859007
 65440480, -0.005032822, 0.002424263, 0.007153939, 0.01859007
 65540440, 0.000747173, 0.003048399, 0.01742849, 0.01859007
 65640400, -0.0009822784, 0.003361604, 0.005977394, 0.01859007
 65740360, 0.001059165, 0.0004298096, -0.02741302, 0.01859007
 65840320, -0.001369977, 0.002040994, 0.01803982, 0.01859007
 65940280, -0.00264204, 0.003718016, -0.02656597, 0.01859007
 66040240, -1.030089E-05, -0.002608016, -0.01053198, 0.01859007
 66140200, 0.00118792, 0.008557263, 0.01076001, 0.01859007
 66240160, 0.0048628, 0.01526956, 0.02461146, 0.01859007
 66340953, 0.01159815, 0.01010369, 0.02679178, 0.01874498
 66440913, 0.01018164, 0.008707603, 0.009144928, 0.01859007
 66540873, 0.003505051, 0.007296402, 0.008097918, 0.01859007
 66640833, 0.001054224, -0.002691955, 0.01458287, 0.01859007
 66740793, 0.005487285, -0.00972699, -0.0002004585, 0.01859007
 66840753, 0.005386012, -0.007199572, 0.02348481, 0.01859007
 66940713, 0.006475162, -0.002615688, 0.002862347, 0.01859007
 67040673, 0.001442055, 0.006932832, 0.006172895, 0.01859007
 67140633, -0.0003200186, 0.005694516, -0.02889089, 0.01859007
 67240593, -0.00107523, 0.009045239, -0.02365497, 0.01859007
 67340553, -0.003165632, 0.006902075, -0.03637043, 0.01859007
 67440513, 0.00421221, 0.006972999, -0.02773381, 0.01859007
 67540473, -0.002613737, -0.0007629658, -0.04433968, 0.01859007
 67640433, -0.005357299, -0.003842512, 0.01572969, 0.01859007
 67740393, -0.006943133, -0.004653646, 0.04013105, 0.01859007
 67840353, -0.0005246067, -0.01066706, 0.04493216, 0.01859007
 67940313, -0.001699591, -0.01487589, 0.0106063, 0.01859007
 68040273, -0.001950303, -0.01941231, 0.004991031, 0.01859007
 68140233, -0.0006102926, -0.01712102, 0.0171054, 0.01859007
 68240193, -0.002239685, -0.013191, -0.01333093, 0.01859007
 68340153, -0.007616262, -0.002719942, -0.06590632, 0.01859007
 68440946, -0.009584458, 0.009307868, -0.06291523, 0.01874498
 68540906, -0.002761645, 0.003233755, 0.003836546, 0.01859007
 68640866, 0.000858324, 0.001960844, 0.005466696, 0.01859007
 68740826, -0.001874034, 0.009881185, -0.01262274, 0.01859007
 68840786, -0.005397687, 0.045812, -0.0123863, 0.01859007
 68940746, 0.005130561, -0.01282087, -0.03126677, 0.01859007
 69040706, 0.0249876, -0.2231152, -0.001428443, 0.01859007
 69140666, 0.05308706, -0.4047972, 0.03036718, 0.01859007
 69240626, 0.06903814, -0.5448655, 0.04266455, 0.01859007
 69340586, 0.08069795, -0.6613236, 0.05557223, 0.01859007
 69440546, 0.06004822, -0.8356303, 0.02189345, 0.01859007
 69540506, 0.0002005752, -1.068801, -0.001594621, 0.01859007
 69640466, -0.09070574, -1.244439, -0.0114546, 0.01859007
 69740426, -0.237238, -1.462127, -0.131383, 0.01859007
 69840386, -0.4284534, -1.662216, -0.298277, 0.01859007
 69940346, -0.6738486, -1.809951, -0.5049647, 0.01859007
 70040306, -0.9263828, -1.852817, -0.6877465, 0.01859007
 70140266, -1.101122, -1.70825, -0.773048, 0.01859007
 70240226, -1.170133, -1.456938, -0.7368613, 0.01859007
 70340186, -1.194756, -1.222092, -0.6884396, 0.01859007
 70440146, -1.127053, -0.9920754, -0.5448344, 0.01859007
 70540939, -1.111172, -0.8358213, -0.4647927, 0.01874498
 70640899, -1.033944, -0.6827672, -0.3503376, 0.01859007
 70740859, -1.023193, -0.5879058, -0.3180496, 0.01859007
 70840819, -1.023845, -0.5181732, -0.2833287, 0.01859007
 70940779, -1.032687, -0.4490298, -0.2668014, 0.01859007
 71040739, -1.015405, -0.3783423, -0.2382924, 0.01859007
 71140699, -1.029164, -0.3267026, -0.2366055, 0.01859007
 71240659, -1.107263, -0.2710105, -0.3002542, 0.01859007
 71340619, -1.15702, -0.203729, -0.3479672, 0.01859007
 71440579, -1.155153, -0.1283243, -0.3445624, 0.01859007
 71540539, -1.138356, -0.05344327, -0.3304326, 0.01859007
 71640499, -1.125189, 0.01220076, -0.3153969, 0.01859007
 71740459, -1.08422, 0.06905927, -0.2890961, 0.01859007
 71840419, -1.065449, 0.12647, -0.2711122, 0.01859007
 71940379, -1.075951, 0.184089, -0.2795441, 0.01859007
 72040339, -1.057523, 0.2347586, -0.2603335, 0.01859007
 72140299, -1.036796, 0.2994195, -0.2672243, 0.01859007
 72240259, -1.0431, 0.3641614, -0.2869728, 0.01859007
 72340219, -1.019619, 0.4236557, -0.2778601, 0.01859007
 72440179, -1.009418, 0.4900795, -0.2973364, 0.01859007
 72540972, -0.9757579, 0.5446447, -0.2818788, 0.01859007
 72640932, -0.9322157, 0.5817299, -0.2732578, 0.01874498
 72740892, -0.9162552, 0.6467956, -0.2823934, 0.01859007
 72840852, -0.8708533, 0.688948, -0.2636976, 0.01859007
 72940812, -0.8253666, 0.7158993, -0.2445094, 0.01859007
 73040772, -0.795908, 0.7782401, -0.2581144, 0.01859007
 73140732, -0.7587509, 0.8211854, -0.2574981, 0.01859007
 73240692, -0.7013559, 0.8406163, -0.2328573, 0.01859007
 73340652, -0.6552359, 0.8773392, -0.2404862, 0.01859007
 73440612, -0.5831532, 0.8867825, -0.2296522, 0.01859007
 73540572, -0.5405073, 0.9242736, -0.2284879, 0.01859007
 73640532, -0.4780707, 0.9149324, -0.1988801, 0.01859007
 73740492, -0.4032192, 0.8940742, -0.1705267, 0.01859007
 73840452, -0.346764, 0.8800185, -0.1576807, 0.01859007
 73940412, -0.2967016, 0.8865322, -0.1602887, 0.01859007
 74040372, -0.2251777, 0.8526946, -0.1405136, 0.01859007
 74140332, -0.1877042, 0.8775383, -0.1712504, 0.01859007
 74240292, -0.1411134, 0.861181, -0.1582497, 0.01859007
 74340252, -0.1025168, 0.8123198, -0.1142645, 0.01859007
 74440212, -0.05175794, 0.7346195, -0.06410847, 0.01859007
 74540172, 0.002726499, 0.7092013, -0.07685044, 0.01859007
 74640965, 0.02779876, 0.677323, -0.06544871, 0.01874498
 74740925, 0.05667147, 0.6464261, -0.05501646, 0.01859007
 74840885, 0.07448328, 0.6203727, -0.04143294, 0.01859007
 74940845, 0.1045134, 0.6359736, -0.07669069, 0.01859007
 75040805, 0.1236027, 0.5680286, -0.03170669, 0.01859007
 75140765, 0.1572448, 0.5750844, -0.06794245, 0.01859007
 75240725, 0.1767332, 0.5495633, -0.06761006, 0.01859007
 75340685, 0.1925029, 0.5078469, -0.05225152, 0.01859007
 75440645, 0.1980069, 0.4687337, -0.02718061, 0.01859007
 75540605, 0.2058021, 0.4029945, 0.01497331, 0.01859007
 75640565, 0.2270228, 0.3981766, -0.01509241, 0.01859007
 75740525, 0.2168175, 0.3423446, 0.03166581, 0.01859007
 75840485, 0.2227571, 0.3221592, 0.03442106, 0.01859007
 75940445, 0.2458405, 0.3517075, -0.02443589, 0.01859007
 76040405, 0.2673363, 0.3314439, -0.0383726, 0.01859007
 76140365, 0.277896, 0.3234558, -0.06312647, 0.01859007
 76240325, 0.2890763, 0.3115593, -0.06236746, 0.01859007
 76340285, 0.2779655, 0.2928898, -0.03939709, 0.01859007
 76440245, 0.2792142, 0.2672629, -0.03362769, 0.01859007
 76540205, 0.2751012, 0.2288471, -0.003628976, 0.01859007
 76640165, 0.2942049, 0.2057568, -0.02905073, 0.01859007
 76740958, 0.2857096, 0.1844079, -0.01097947, 0.01874498
 76840918, 0.2609947, 0.1441205, 0.04081914, 0.01859007
 76940878, 0.2799674, 0.1292631, 0.00525067, 0.01859007
 77040838, 0.2792673, 0.1168455, 0.005154187, 0.01859007
 77140798, 0.2784482, 0.1018491, 0.01466556, 0.01859007
 77240758, 0.2925375, 0.1052219, -0.02379294, 0.01859007
 77340718, 0.2880242, 0.09761422, -0.01591916, 0.01859007
 77440678, 0.2630221, 0.08577981, 0.01888889, 0.01859007
 77540638, 0.2676314, 0.0801946, 0.009888411, 0.01859007
 77640598, 0.2893004, 0.07635617, -0.03751687, 0.01859007
 77740558, 0.283935, 0.05771407, -0.03820495, 0.01859007
 77840518, 0.2742539, 0.0340636, -0.01055299, 0.01859007
 77940478, 0.2711557, 0.02588063, -0.01270787, 0.01859007
 78040438, 0.2677075, 0.01136646, 0.002106224, 0.01859007
 78140398, 0.2444786, -0.005965152, 0.04021931, 0.01859007
 78240358, 0.2368382, -0.00297987, 0.04761167, 0.01859007
 78340318, 0.2269713, -0.0154328, 0.05452619, 0.01859007
 78440278, 0.2439702, -0.01972947, 0.01112942, 0.01859007
 78540238, 0.2445006, -0.01919648, 0.0003006209, 0.01859007
 78640198, 0.2336723, -0.02429954, 0.01652855, 0.01859007
 78740158, 0.2460762, -0.03271942, -0.02853157, 0.01859007
 78840951, 0.2339457, -0.04018926, 0.004964348, 0.01874498
 78940911, 0.1899861, -0.04394804, 0.09461139, 0.01859007
 79040871, 0.1906425, -0.04232496, 0.06649417, 0.01859007
 79140831, 0.2171126, -0.04418665, -0.003339623, 0.01859007
 79240791, 0.2352927, -0.05993463, -0.03618425, 0.01859007
 79340751, 0.2200755, -0.05876296, -0.01616843, 0.01859007
 79440711, 0.214196, -0.05273747, -0.00319763, 0.01859007
 79540671, 0.209528, -0.06649017, 0.0002787145, 0.01859007
 79640631, 0.1951743, -0.06682461, 0.03181805, 0.01859007
 79740591, 0.1878572, -0.0730326, 0.03829834, 0.01859007
 79840551, 0.1749944, -0.07976647, 0.04198197, 0.01859007
 79940511, 0.1711064, -0.06928609, 0.03491478, 0.01859007
 80040471, 0.1886516, -0.05852864, -0.01746724, 0.01859007
 80140431, 0.1762963, -0.06243519, 0.0083385, 0.01859007
 80240391, 0.178625, -0.07042924, -0.005478336, 0.01859007
 80340351, 0.177793, -0.07419363, -0.007272662, 0.01859007
 80440311, 0.1879035, -0.09628957, -0.02109625, 0.01859007
 80540271, 0.1647715, -0.0871671, 0.02363899, 0.01859007
 80640231, 0.1483553, -0.07053647, 0.0444833, 0.01859007
 80740191, 0.1329914, -0.07001419, 0.07708257, 0.01859007
 80840151, 0.1391889, -0.07647656, 0.04746368, 0.01859007
 80940944, 0.1466838, -0.07653541, 0.02847493, 0.01874498
 81040904, 0.1475898, -0.0729552, 0.001476021, 0.01859007
 81140864, 0.1699668, -0.08210385, -0.05586854, 0.01859007
 81240824, 0.1907258, -0.08854724, -0.118455, 0.01859007
 81340784, 0.1772535, -0.07121149, -0.08179469, 0.01859007
 81440744, 0.1599465, -0.07700858, -0.02343158, 0.01859007
 81540704, 0.1326347, -0.0938658, 0.02599726, 0.01859007
 81640664, 0.118505, -0.08024739, 0.06370755, 0.01859007
 81740624, 0.1092716, -0.07918097, 0.07978527, 0.01859007
 81840584, 0.1181286, -0.0760079, 0.03525595, 0.01859007
 81940544, 0.1062181, -0.07223848, 0.06418714, 0.01859007
 82040504, 0.1074351, -0.07530278, 0.05229804, 0.01859007
 82140464, 0.1099266, -0.07407066, 0.02242664, 0.01859007
 82240424, 0.1308676, -0.08343668, -0.05298292, 0.01859007
 82340384, 0.1241555, -0.07626717, -0.006012151, 0.01859007
 82440344, 0.113109, -0.07202851, 0.0158262, 0.01859007
 82540304, 0.1107232, -0.07580303, -0.0106379, 0.01859007
 82640264, 0.107903, -0.08089108, 0.001032673, 0.01859007
 82740224, 0.09919356, -0.08268642, 0.01467394, 0.01859007
 82840184, 0.1199526, -0.08953131, -0.0373025, 0.01859007
 82940977, 0.1089223, -0.08718395, 0.005011422, 0.01859007
 83040937, 0.1033623, -0.0759256, -0.0003761419, 0.01874498
 83140897, 0.08807658, -0.07713887, 0.04018893, 0.01859007
 83240857, 0.07205904, -0.08086814, 0.07712299, 0.01859565
 83340817, 0.04241439, -0.06516372, 0.1589483, 0.01859937
 83440777, 0.03943068, -0.05991249, 0.1597223, 0.01859937
 83540737, 0.03512586, -0.05166655, 0.1607114, 0.01859937
 83640697, 0.03523599, -0.05371498, 0.1336089, 0.01859937
 83740657, 0.02919702, -0.05901074, 0.1645622, 0.01859937
 83840617, 0.04383458, -0.0553519, 0.1295707, 0.01859937
 83940577, 0.07291663, -0.05567378, 0.07149296, 0.01859937
 84040537, 0.1078546, -0.06054696, 0.02820954, 0.01859937
 84140497, 0.1260048, -0.05739974, 0.03136561, 0.01859937
 84240457, 0.1480279, -0.05265308, 0.03166086, 0.01859379
 84340417, 0.1417035, -0.04708944, 0.09624106, 0.01859007
 84440377, 0.1417022, -0.03911821, 0.1233959, 0.01859007
 84540337, 0.1364787, -0.04826809, 0.1245112, 0.01859007
 84640297, 0.135389, -0.05002503, 0.1508837, 0.01859007
 84740257, 0.1298369, -0.04669467, 0.1677965, 0.01859007
 84840217, 0.1238614, -0.04192133, 0.1917119, 0.01859007
 84940177, 0.1202479, -0.05013012, 0.1946212, 0.01859007
 85040970, 0.1213138, -0.05668737, 0.1511933, 0.01859007
 85140930, 0.1292956, -0.05876699, 0.0950731, 0.01874498
 85240890, 0.1198014, -0.04727747, 0.1003371, 0.01859007
 85340850, 0.1158762, -0.0408306, 0.09755372, 0.01859007
 85440810, 0.1029958, -0.03630071, 0.1226555, 0.01859007
 85540770, 0.09943957, -0.04148789, 0.1365362, 0.01859007
 85640730, 0.09187388, -0.0519534, 0.1425373, 0.01859007
 85740690, 0.09008107, -0.0532705, 0.1420396, 0.01859007
 85840650, 0.08041001, -0.05223182, 0.1500451, 0.01859007
 85940610, 0.08205142, -0.04953646, 0.09091002, 0.01859007
 86040570, 0.07844552, -0.05226967, 0.08173648, 0.01859007
 86140530, 0.07565578, -0.04940146, 0.0792055, 0.01859007
 86240490, 0.07087782, -0.03947154, 0.07084166, 0.01859007
 86340450, 0.07035218, -0.04221616, 0.06339964, 0.01859007
 86440410, 0.06229905, -0.03772165, 0.07692452, 0.01859007
 86540370, 0.03335834, -0.04218204, 0.09083608, 0.01859007
 86640330, -0.006005063, -0.04198786, 0.127654, 0.01859007
 86740290, 0.01241063, -0.04079064, 0.1659342, 0.01859007
 86840250, 0.03682257, -0.03769042, 0.1129943, 0.01859007
 86940210, 0.0556173, -0.03800894, 0.04857101, 0.01859007
 87040170, 0.06627262, -0.04027068, -0.004803004, 0.01859007
 87140963, 0.06392808, -0.04211763, -0.008447057, 0.01874498
 87240923, 0.05746526, -0.04430518, -0.03727575, 0.01859007
 87340883, 0.0509775, -0.04535665, -0.03288337, 0.01859007
 87440843, 0.04244364, -0.03907984, 0.006457768, 0.01859007
 87540803, 0.02966984, -0.02875307, 0.07468021, 0.01859007
 87640763, 0.02766443, -0.03285951, 0.1123288, 0.01859007
 87740723, 0.03249674, -0.03457958, 0.1044419, 0.01859007
 87840683, 0.02937683, -0.03459813, 0.06321246, 0.01859007
 87940643, 0.0237497, -0.03891906, 0.03787435, 0.01859007
 88040603, 0.02124318, -0.04118062, 0.06551559, 0.01859007
 88140563, 0.0151889, -0.04098853, 0.04601252, 0.01859007
 88240523, 0.01246804, -0.03094129, -0.004918581, 0.01859565
 88340483, 0.01723155, -0.03928357, 0.003285905, 0.01859937
 88440443, 0.0147905, -0.04035419, 0.02530301, 0.01859937
 88540403, 0.01017427, -0.02995147, 0.01777661, 0.01859937
 88640363, 0.002924135, -0.03395738, 0.005012881, 0.01859937
 88740323, -0.002199119, -0.03658767, 0.02397945, 0.01859937
 88840283, 0.0003663344, -0.02934431, 0.0309671, 0.01859937
 88940243, 0.002926356, -0.03215283, 0.0390085, 0.01859937
 89040203, 0.00454553, -0.03767732, 0.05154465, 0.01859937
 89140163, 0.004783212, -0.03415561, 0.02280098, 0.01859937
 89240956, -0.0002942738, -0.02997089, 0.02595763, 0.0187487
 89340916, 0.003440672, -0.0327743, -0.003303798, 0.01859007
 89440876, 0.001371672, -0.03217671, -0.005755915, 0.01859007
 89540836, 0.0003822668, -0.02822128, -0.005628966, 0.01859007
 89640796, 0.007573079, -0.02635052, 0.01220547, 0.01859007
 89740756, -0.001171713, -0.03839959, -4.261215E-05, 0.01859007
 89840716, 0.003260932, -0.03780994, 0.004228492, 0.01859007
 89940676, -0.002226338, -0.03441044, 0.01370798, 0.01859007
 90040636, 0.001134964, -0.02707773, 0.003152358, 0.01859007
 90140596, 0.002832429, -0.02546789, -0.007620852, 0.01859007
 90240556, -0.00174956, -0.0237658, -0.005455839, 0.01859007
 90340516, -0.0009733471, -0.0215892, 0.0207683, 0.01859007
 90440476, -0.00700907, -0.0259259, 0.007180363, 0.01859007
 90540436, -0.01224547, -0.02686641, 3.902781E-05, 0.01859007
 90640396, -0.008936969, -0.02593923, 0.03351945, 0.01859007
 90740356, -0.006827124, -0.02642899, -0.005117333, 0.01859007
 90840316, 0.001416006, -0.02594571, -0.02961999, 0.01859007
 90940276, -0.001311966, -0.02494, -0.009857304, 0.01859007
 91040236, -0.004186461, -0.02330311, 0.01791335, 0.01859007
 91140196, -0.003239173, -0.02112101, -0.01126125, 0.01859007
 91240156, -0.008923281, -0.02026388, 0.01341914, 0.01859007
 91340949, -0.01072104, -0.01801879, 0.02270758, 0.01874498
 91440909, -0.008723082, -0.02161339, 0.009189123, 0.01859007
 91540869, -0.009064655, -0.03128884, -0.03647094, 0.01859007
 91640829, -0.006523361, -0.03030859, -0.002778267, 0.01859007
 91740789, -0.007858404, -0.02592613, 0.002437446, 0.01859007
 91840749, -0.002759897, -0.02948271, -0.0106964, 0.01859007
 91940709, -0.009307544, -0.02291221, -0.01894609, 0.01859007
 92040669, -0.01231714, -0.023069, -0.006884281, 0.01859007
 92140629, -0.01194154, -0.02101583, 0.002997029, 0.01859007
 92240589, -0.01247489, -0.01873509, 0.02111518, 0.01859007
 92340549, -0.01183599, -0.02071721, 0.01579039, 0.01859007
 92440509, -0.01540474, -0.01249128, -0.002162516, 0.01859007
 92540469, -0.009505112, -0.007167191, 0.01212514, 0.01859007
 92640429, -0.01099203, -0.01286926, -0.005715543, 0.01859007
 92740389, -0.008010242, -0.02969264, -0.01701385, 0.01859007
 92840349, -0.009243526, -0.0328941, -0.03389433, 0.01859007
 92940309, -0.009140586, -0.02291046, 0.01347039, 0.01859007
 93040269, -0.006664068, -0.018391, 0.006297033, 0.01859007
 93140229, -0.009913184, -0.03613761, -0.01277773, 0.01859007
 93240189, -0.01515102, -0.03955475, -0.007925705, 0.01859565
 93340149, -0.01459205, -0.02550844, 0.01533735, 0.01859937
 93440942, -0.009073194, -0.01951478, 0.03257597, 0.01875436
 93540902, -0.004607552, -0.009676553, 0.007541414, 0.01859937
 93640862, -0.008121731, -0.01072933, -0.02211844, 0.01859937
 93740822, -0.01067703, -0.01749122, -0.02633836, 0.01859937
 93840782, -0.0133549, -0.01519714, -0.02648141, 0.01859937
 93940742, -0.009040164, -0.00910936, -0.007362519, 0.01859937
 94040702, -0.01285205, -0.02044319, 0.005239603, 0.01859937
 94140662, -0.01062433, -0.01554816, -0.01146801, 0.01859937
 94240622, -0.008011939, -0.008028594, 0.01524051, 0.01859379
 94340582, -0.006683393, -0.00497531, 0.0001802868, 0.01859007
 94440542, -0.009536157, -0.005617975, 0.03702896, 0.01859007
 94540502, -0.02183898, -0.01702351, 0.03898068, 0.01859007
 94640462, -0.02168545, -0.01493482, 0.04038237, 0.01859007
 94740422, -0.01810298, -0.02020121, -0.02347314, 0.01859007
 94840382, -0.008857302, -0.02345398, -0.04306886, 0.01859007
 94940342, -0.01051087, -0.01730209, -0.01081945, 0.01859007
 95040302, -0.01028023, -0.01669571, -0.02202938, 0.01859007
 95140262, -0.01278613, -0.02321924, -0.05416296, 0.01859007
 95240222, -0.01126357, -0.01692829, -0.05181415, 0.01859007
 95340182, -0.007156033, -0.01129287, -0.02597136, 0.01859007
 95440975, -0.007119971, -0.003400733, -0.02997402, 0.01859007
 95540935, -0.00429743, -0.003018567, -0.02927218, 0.01874498
 95640895, -0.002486156, -0.005052625, -0.02000074, 0.01859007
 95740855, -0.00719888, -0.01809173, 0.007016807, 0.01859007
 95840815, -0.006103388, -0.02733998, 0.05752126, 0.01859007
 95940775, -0.004409491, -0.01906131, 0.02222311, 0.01859007
 96040735, 0.0002773468, -0.01537603, 0.01518233, 0.01859007
 96140695, -0.000113853, -0.01582314, -0.003623714, 0.01859007
 96240655, -0.0006690328, -0.01428421, -0.006851601, 0.01859007
 96340615, -0.001381988, -0.01043076, -0.03319488, 0.01859007
 96440575, -0.0003462728, -0.01928186, -0.03757003, 0.01859007
 96540535, -0.003562413, -0.01706649, -0.03118137, 0.01859007
 96640495, 0.0006984682, -0.01616202, -0.0176621, 0.01859007
 96740455, -0.004852699, -0.02145199, 0.04129628, 0.01859007
 96840415, -0.003521748, -0.02371919, 0.02178667, 0.01859007
 96940375, -0.003387186, -0.02814424, 0.008608673, 0.01859007
 97040335, -0.006700113, -0.01925932, 0.01133561, 0.01859007
 97140295, -0.0006602363, -0.01297121, 0.02127431, 0.01859007
 97240255, -0.008080848, -0.01408618, 0.03954709, 0.01859007
 97340215, -0.009106765, -0.01288982, -0.009391354, 0.01859007
 97440175, -0.01524413, -0.001997551, -0.01723115, 0.01859007
 97540968, -0.01093679, -0.005947675, -0.001120008, 0.01874498
 97640928, -0.01085083, 0.001864008, 0.01742053, 0.01859007
 97740888, -0.009331946, -0.003700842, 0.007890185, 0.01859007
 97840848, -0.01062956, -0.004079173, 0.007786181, 0.01859007
 97940808, -0.01300268, -0.002908701, -0.006262715, 0.01859007
 98040768, -0.01098262, -0.007382779, -0.007614627, 0.01859007
 98140728, -0.01173299, -0.01340168, 0.005292424, 0.01859007
 98240688, -0.009980251, -0.006884658, -0.006949772, 0.01859565
 98340648, -0.007261477, -0.002009843, -0.05359689, 0.01859937
 98440608, -0.006128316, 0.001179542, -0.04904147, 0.01859937
 98540568, -9.462261E-05, -0.008159905, -0.03608281, 0.01859937
 98640528, 0.002060006, -0.01351099, 0.006169749, 0.01859937
 98740488, -0.0001395275, -0.01820885, 0.0009698705, 0.01859937
 98840448, -0.001549166, -0.0147942, 0.01490455, 0.01859937
 98940408, -0.009908174, -0.01345534, 0.03486787, 0.01859937
 99040368, -0.007447543, -0.008891876, -0.007873827, 0.01859937
 99140328, -0.008926351, -0.004817579, -0.03880484, 0.01859937
 99240288, -0.007089769, -0.001938851, -0.0180995, 0.01859379
 99340248, -0.008146087, -0.005266995, -0.01098484, 0.01859007
 99440208, -0.01513898, -0.006854873, 0.02251647, 0.01859007
 99540168, -0.01398937, -0.00530312, 0.01169048, 0.01859007
 99640961, -0.009236651, -0.005923696, -0.0329499, 0.01874498
 99740921, -0.008527935, -0.01455638, 0.004729439, 0.01859007
 99840881, -0.009523365, -0.009499166, 0.01794405, 0.01859007
 99940841, -0.009227082, -0.006199545, 0.01977601, 0.01859007
 100040801, -0.007094407, -0.007558201, 0.005972303, 0.01859007
 100140761, 0.0003729848, -0.006857742, 0.005000097, 0.01859007
 100240721, 0.002029333, -0.003583481, 0.001140987, 0.01859007
 100340681, -0.003417037, 0.0006079145, -0.01607964, 0.01859007
 100440641, -0.006185288, -0.009725276, -0.01525365, 0.01859007
 100540601, -0.003863313, -0.003945092, -0.05034915, 0.01859007
 100640561, -0.002265272, 0.003516414, -0.04281519, 0.01859007
