TimeUS,CGpN,CGpE,CGpD,CGpe,PGpN,PGpE,PGpD,PGpe
 8040949, 0, 0, 0, 2.5, 0, 0, 0, 0
 8220877, 0, 0, 0, 2.5, 0, 0, 0, 2.5
 8420797, 0, 0, 0, 2.5, 0, 0, 0, 2.5
 8620717, 0, 0, 0, 2.5, 0, 0, 0, 2.5
 8820637, 0, 0, 0, 2.5, 0, 0, 0, 2.5
 9020557, 0, 0, 0, 2.5, 0, 0, 0, 2.5
 9220477, 0, 0, 0, 2.5, 0, 0, 0, 2.5
 9420397, 0, 0, 0, 2.5, 0, 0, 0, 2.5
 9620317, 0, 0, 0, 2.5, 0, 0, 0, 2.5
 9820237, 0, 0, 0, 2.5, 0, 0, 0, 2.5
 10020157, 0, 0, 0, 2.5, 0, 0, 0, 2.5
 10220910, 0, 0, 0, 2.5, 0, 0, 0, 2.5
 10420830, 0, 0, 0, 2.5, 0, 0, 0, 2.5
 10620750, 0, 0, 0, 2.5, 0, 0, 0, 2.5
 10820670, 0, 0, 0, 2.5, 0, 0, 0, 2.5
 11020590, 0, 0, 0, 2.5, 0, 0, 0, 2.5
 11220510, 0, 0, 0, 2.5, 0, 0, 0, 2.5
 11420430, 0, 0, 0, 2.5, 0, 0, 0, 2.5
 11620350, 0, 0, 0, 2.5, 0, 0, 0, 2.5
 11820270, 0, 0, 0, 2.5, 0, 0, 0, 2.5
 12020190, 0, 0, 0, 2.5, 0, 0, 0, 2.5
 12220943, 0, 0, 0, 2.5, 0, 0, 0, 2.5
 12420863, 0, 0, 0, 2.5, 0, 0, 0, 2.5
 12620783, 0, 0, 0, 2.5, 0, 0, 0, 2.5
 12820703, 0, 0, 0, 2.5, 0, 0, 0, 2.5
 13020623, 0, 0, 0, 2.5, 0, 0, 0, 2.5
 13220543, 0, 0, 0, 2.5, 0, 0, 0, 2.5
 13420463, 0, 0, 0, 2.5, 0, 0, 0, 2.5
 13620383, 0, 0, 0, 2.5, 0, 0, 0, 2.5
 13820303, 0, 0, 0, 2.5, 0, 0, 0, 2.5
 14020223, 0, 0, 0, 2.5, 0, 0, 0, 2.5
 14220976, 0, 0, 0, 2.5, 0, 0, 0, 2.5
 14420896, 0, 0, 0, 2.5, 0, 0, 0, 2.5
 14620816, 0, 0, 0, 2.5, 0, 0, 0, 2.5
 14820736, 0, 0, 0, 2.5, 0, 0, 0, 2.5
 15020656, 0, 0, 0, 2.5, 0, 0, 0, 2.5
 15220576, 0, 0, 0, 2.5, 0, 0, 0, 2.5
 15420496, 0, 0, 0, 2.5, 0, 0, 0, 2.5
 15620416, 0, 0, 0, 2.5, 0, 0, 0, 2.5
 15820336, 0, 0, 0, 2.5, 0, 0, 0, 2.5
 16020256, 0, 0, 0, 2.5, 0, 0, 0, 2.5
 16220176, 0, 0, 0, 2.5, 0, 0, 0, 2.5
 16420929, 0, 0, 0, 2.5, 0, 0, 0, 2.5
 16620849, 0, 0, 0, 2.5, 0, 0, 0, 2.5
 16820769, 0, 0, 0, 2.5, 0, 0, 0, 2.5
 17020689, 0, 0, 0, 2.5, 0, 0, 0, 2.5
 17220609, 0, 0, 0, 2.5, 0, 0, 0, 2.5
 17420529, 0, 0, 0, 2.5, 0, 0, 0, 2.5
 17620449, 0, 0, 0, 2.5, 0, 0, 0, 2.5
 17820369, 0, 0, 0, 2.5, 0, 0, 0, 2.5
 18020289, 0, 0, 0, 2.5, 0, 0, 0, 2.5
 18220209, 0, 0, 0, 2.5, 0, 0, 0, 2.5
 18420962, 0, 0, 0, 2.5, 0, 0, 0, 2.5
 18620882, 0, 0, 0, 2.5, 0, 0, 0, 2.5
 18820802, 0, 0, 0, 2.5, 0, 0, 0, 2.5
 19020722, 0, 0, 0, 2.5, 0, 0, 0, 2.5
 19220642, 0, 0, 0, 2.5, 0, 0, 0, 2.5
 19420562, 0, 0, 0, 2.5, 0, 0, 0, 2.5
 19620482, 0, 0, 0, 2.5, 0, 0, 0, 2.5
 19820402, 0, 0, 0, 2.5, 0, 0, 0, 2.5
 20020322, 0, 0, 0, 2.5, 0, 0, 0, 2.5
 20220242, 0, 0, 0, 2.5, 0, 0, 0, 2.5
 20420162, 0, 0, 0, 2.5, 0, 0, 0, 2.5
 20620915, 0, 0, 0, 2.5, 0, 0, 0, 2.5
 20820835, 0.01, -0.001, 0, 2.5, 0, 0, 0, 2.5
 21020755, 0.251, -0.026, 0, 2.5, 0.01, -0.001, 0, 2.5
 21220675, 0.943, -0.09900001, 0.012, 2.5, 0.251, -0.026, 0, 2.5
 21420595, 2.108, -0.22, 0.038, 2.5, 0.943, -0.09900001, 0.012, 2.5
 21620515, 3.719, -0.391, 0.07600001, 2.5, 2.108, -0.22, 0.038, 2.5
 21820435, 5.726, -0.6020001, 0.126, 2.5, 3.719, -0.391, 0.07600001, 2.5
 22020355, 7.846, -0.8240001, 0.185, 2.5, 5.726, -0.6020001, 0.126, 2.5
 22220275, 9.822001, -1.033, 0.244, 2.5, 7.846, -0.8240001, 0.185, 2.5
 22420195, 11.589, -1.218, 0.278, 2.5, 9.822001, -1.033, 0.244, 2.5
 22620948, 13.135, -1.378, 0.207, 2.5, 11.589, -1.218, 0.278, 2.5
 22820868, 14.475, -1.522, 0.273, 2.5, 13.135, -1.378, 0.207, 2.5
 23020788, 16.232, -1.704, -0.396, 2.5, 14.475, -1.522, 0.273, 2.5
 23220708, 17.911, -1.886, -2.131, 2.5, 16.232, -1.704, -0.396, 2.5
 23420628, 19.269, -2.04, -2.875, 2.5, 17.911, -1.886, -2.131, 2.5
 23620548, 20.547, -2.179, -2.966, 2.5, 19.269, -2.04, -2.875, 2.5
 23820468, 21.757, -2.32, -3.073, 2.5, 20.547, -2.179, -2.966, 2.5
 24020388, 22.77, -2.439, -3.537, 2.5, 21.757, -2.32, -3.073, 2.5
 24220308, 23.608, -2.541, -4.076, 2.5, 22.77, -2.439, -3.537, 2.5
 24420228, 24.285, -2.8, -4.496, 2.5, 23.608, -2.541, -4.076, 2.5
 24620148, 24.745, -3.107, -4.884, 2.5, 24.285, -2.8, -4.496, 2.5
 24820901, 25.035, -3.322, -5.038, 2.5, 24.745, -3.107, -4.884, 2.5
 25020821, 25.19, -3.508, -5.139, 2.5, 25.035, -3.322, -5.038, 2.5
 25220741, 25.257, -3.768, -5.158, 2.5, 25.19, -3.508, -5.139, 2.5
 25420661, 25.283, -4.014, -5.154, 2.5, 25.257, -3.768, -5.158, 2.5
 25620581, 25.253, -4.251, -5.175, 2.5, 25.283, -4.014, -5.154, 2.5
 25820501, 25.19, -4.493, -5.199, 2.5, 25.253, -4.251, -5.175, 2.5
 26020421, 25.101, -4.708, -5.229, 2.5, 25.19, -4.493, -5.199, 2.5
 26220341, 25.011, -4.889, -5.21, 2.5, 25.101, -4.708, -5.229, 2.5
 26420261, 24.918, -5.067, -5.155, 2.5, 25.011, -4.889, -5.21, 2.5
 26620181, 24.811, -5.23, -5.075, 2.5, 24.918, -5.067, -5.155, 2.5
 26820934, 24.489, -5.34, -4.951, 2.5, 24.811, -5.23, -5.075, 2.5
 27020854, 23.804, -5.378, -4.724, 2.5, 24.489, -5.34, -4.951, 2.5
 27220774, 23.046, -5.376, -4.472, 2.5, 23.804, -5.378, -4.724, 2.5
 27420694, 22.435, -5.388, -4.282, 2.5, 23.046, -5.376, -4.472, 2.5
 27620614, 21.984, -5.409, -4.033, 2.5, 22.435, -5.388, -4.282, 2.5
 27820534, 21.615, -5.448, -3.825, 2.5, 21.984, -5.409, -4.033, 2.5
 28020454, 21.296, -5.486, -3.633, 2.5, 21.615, -5.448, -3.825, 2.5
 28220374, 21.004, -5.527, -3.542, 2.5, 21.296, -5.486, -3.633, 2.5
 28420294, 20.725, -5.557, -3.472, 2.5, 21.004, -5.527, -3.542, 2.5
 28620214, 20.475, -5.579, -3.407, 2.5, 20.725, -5.557, -3.472, 2.5
 28820967, 20.251, -5.588, -3.344, 2.5, 20.475, -5.579, -3.407, 2.5
 29020887, 20.118, -5.618, -3.266, 2.5, 20.251, -5.588, -3.344, 2.5
 29220807, 19.909, -5.62, -3.168, 2.5, 20.118, -5.618, -3.266, 2.5
 29420727, 19.669, -5.607, -3.101, 2.5, 19.909, -5.62, -3.168, 2.5
 29620647, 19.435, -5.584, -3.043, 2.5, 19.669, -5.607, -3.101, 2.5
 29820567, 19.221, -5.546, -2.964, 2.5, 19.435, -5.584, -3.043, 2.5
 30020487, 19.019, -5.512, -2.853, 2.5, 19.221, -5.546, -2.964, 2.5
 30220407, 18.82, -5.481, -2.798, 2.5, 19.019, -5.512, -2.853, 2.5
 30420327, 18.636, -5.448, -2.734, 2.5, 18.82, -5.481, -2.798, 2.5
 30620247, 18.46, -5.407, -2.676, 2.5, 18.636, -5.448, -2.734, 2.5
 30820167, 18.283, -5.363, -2.618, 2.5, 18.46, -5.407, -2.676, 2.5
 31020920, 18.103, -5.323, -2.561, 2.5, 18.283, -5.363, -2.618, 2.5
 31220840, 17.933, -5.281, -2.479, 2.5, 18.103, -5.323, -2.561, 2.5
 31420760, 17.769, -5.231, -2.415, 2.5, 17.933, -5.281, -2.479, 2.5
 31620680, 17.598, -5.182, -2.391, 2.5, 17.769, -5.231, -2.415, 2.5
 31820600, 17.429, -5.134, -2.346, 2.5, 17.598, -5.182, -2.391, 2.5
 32020520, 17.263, -5.093, -2.251, 2.5, 17.429, -5.134, -2.346, 2.5
 32220440, 17.096, -5.045, -2.195, 2.5, 17.263, -5.093, -2.251, 2.5
 32420360, 16.931, -4.994, -2.146, 2.5, 17.096, -5.045, -2.195, 2.5
 32620280, 16.774, -4.941, -2.108, 2.5, 16.931, -4.994, -2.146, 2.5
 32820200, 16.623, -4.893, -2.03, 2.5, 16.774, -4.941, -2.108, 2.5
 33020953, 16.487, -4.846, -1.954, 2.5, 16.623, -4.893, -2.03, 2.5
 33220873, 16.345, -4.804, -1.904, 2.5, 16.487, -4.846, -1.954, 2.5
 33420793, 16.198, -4.763, -1.874, 2.5, 16.345, -4.804, -1.904, 2.5
 33620713, 16.052, -4.716, -1.829, 2.5, 16.198, -4.763, -1.874, 2.5
 33820633, 15.91, -4.664, -1.765, 2.5, 16.052, -4.716, -1.829, 2.5
 34020553, 15.766, -4.608, -1.714, 2.5, 15.91, -4.664, -1.765, 2.5
 34220473, 15.623, -4.553, -1.685, 2.5, 15.766, -4.608, -1.714, 2.5
 34420393, 15.482, -4.506, -1.642, 2.5, 15.623, -4.553, -1.685, 2.5
 34620313, 15.341, -4.467, -1.588, 2.5, 15.482, -4.506, -1.642, 2.5
 34820233, 15.283, -4.48, -1.209, 2.5, 15.341, -4.467, -1.588, 2.5
 35020153, 15.414, -4.694, 1.643, 2.5, 15.283, -4.48, -1.209, 2.5
 35220906, 15.139, -4.96, 5.667, 2.5, 15.414, -4.694, 1.643, 2.5
 35420826, 15.615, -4.872, 7.468, 2.5, 15.139, -4.96, 5.667, 2.5
 35620746, 17.502, -4.167, 6.06, 2.5, 15.615, -4.872, 7.468, 2.5
 35820666, 19.102, -3.452, 4.04, 2.5, 17.502, -4.167, 6.06, 2.5
 36020586, 20.047, -3.093, 3.837, 2.5, 19.102, -3.452, 4.04, 2.5
 36220506, 20.701, -3.055, 4.991, 2.5, 20.047, -3.093, 3.837, 2.5
 36420426, 21.398, -2.973, 5.876, 2.5, 20.701, -3.055, 4.991, 2.5
 36620346, 22.252, -2.706, 5.972, 2.5, 21.398, -2.973, 5.876, 2.5
 36820266, 23.12, -2.314, 5.712, 2.5, 22.252, -2.706, 5.972, 2.5
 37020186, 23.89, -1.91, 5.518, 2.5, 23.12, -2.314, 5.712, 2.5
 37220939, 24.549, -1.58, 5.598, 2.5, 23.89, -1.91, 5.518, 2.5
 37420859, 25.18, -1.256, 5.623, 2.5, 24.549, -1.58, 5.598, 2.5
 37620779, 25.857, -0.837, 5.126, 2.5, 25.18, -1.256, 5.623, 2.5
 37820699, 26.509, -0.302, 4.147, 2.5, 25.857, -0.837, 5.126, 2.5
 38020619, 27.042, 0.251, 3.145, 2.5, 26.509, -0.302, 4.147, 2.5
 38220539, 27.458, 0.73, 2.345, 2.5, 27.042, 0.251, 3.145, 2.5
 38420459, 27.779, 1.071, 1.853, 2.5, 27.458, 0.73, 2.345, 2.5
 38620379, 28.048, 1.355, 1.496, 2.5, 27.779, 1.071, 1.853, 2.5
 38820299, 28.278, 1.667, 0.961, 2.5, 28.048, 1.355, 1.496, 2.5
 39020219, 28.46, 1.945, 0.379, 2.5, 28.278, 1.667, 0.961, 2.5
 39220972, 28.618, 2.17, 0.011, 2.5, 28.46, 1.945, 0.379, 2.5
 39420892, 28.744, 2.369, -0.351, 2.5, 28.618, 2.17, 0.011, 2.5
 39620812, 28.811, 2.549, -0.724, 2.5, 28.744, 2.369, -0.351, 2.5
 39820732, 28.843, 2.699, -0.936, 2.5, 28.811, 2.549, -0.724, 2.5
 40020652, 28.856, 2.829, -1.115, 2.5, 28.843, 2.699, -0.936, 2.5
 40220572, 28.844, 2.944, -1.338, 2.5, 28.856, 2.829, -1.115, 2.5
 40420492, 28.812, 3.017, -1.534, 2.5, 28.844, 2.944, -1.338, 2.5
 40620412, 28.768, 3.083, -1.731, 2.5, 28.812, 3.017, -1.534, 2.5
 40820332, 28.715, 3.124, -1.853, 2.5, 28.768, 3.083, -1.731, 2.5
 41020252, 28.669, 3.173, -1.939, 2.5, 28.715, 3.124, -1.853, 2.5
 41220172, 28.628, 3.229, -1.937, 2.5, 28.669, 3.173, -1.939, 2.5
 41420925, 28.597, 3.272, -1.886, 2.5, 28.628, 3.229, -1.937, 2.5
 41620845, 28.558, 3.295, -1.967, 2.5, 28.597, 3.272, -1.886, 2.5
 41820765, 28.524, 3.333, -2.06, 2.5, 28.558, 3.295, -1.967, 2.5
 42020685, 28.473, 3.348, -2.233, 2.5, 28.524, 3.333, -2.06, 2.5
 42220605, 28.428, 3.351, -2.335, 2.5, 28.473, 3.348, -2.233, 2.5
 42420525, 28.385, 3.364, -2.383, 2.5, 28.428, 3.351, -2.335, 2.5
 42620445, 28.37, 3.379, -2.34, 2.5, 28.385, 3.364, -2.383, 2.5
 42820365, 28.351, 3.379, -2.399, 2.5, 28.37, 3.379, -2.34, 2.5
 43020285, 28.348, 3.38, -2.386, 2.5, 28.351, 3.379, -2.399, 2.5
 43220205, 28.367, 3.408, -2.248, 2.5, 28.348, 3.38, -2.386, 2.5
 43420958, 28.416, 3.416, -2.054, 2.5, 28.367, 3.408, -2.248, 2.5
 43620878, 28.478, 3.413, -1.842, 2.5, 28.416, 3.416, -2.054, 2.5
 43820798, 28.535, 3.422, -1.703, 2.5, 28.478, 3.413, -1.842, 2.5
 44020718, 28.584, 3.437, -1.597, 2.5, 28.535, 3.422, -1.703, 2.5
 44220638, 28.576, 3.436, -1.568, 2.5, 28.584, 3.437, -1.597, 2.5
 44420558, 28.51, 3.407, -1.515, 2.5, 28.576, 3.436, -1.568, 2.5
 44620478, 28.406, 3.416, -1.408, 2.5, 28.51, 3.407, -1.515, 2.5
 44820398, 28.294, 3.421, -1.228, 2.5, 28.406, 3.416, -1.408, 2.5
 45020318, 28.196, 3.4, -0.992, 2.5, 28.294, 3.421, -1.228, 2.5
 45220238, 28.089, 3.389, -0.84, 2.5, 28.196, 3.4, -0.992, 2.5
 45420158, 27.993, 3.37, -0.686, 2.5, 28.089, 3.389, -0.84, 2.5
 45620911, 27.891, 3.349, -0.617, 2.5, 27.993, 3.37, -0.686, 2.5
 45820831, 27.807, 3.342, -0.508, 2.5, 27.891, 3.349, -0.617, 2.5
 46020751, 27.731, 3.32, -0.421, 2.5, 27.807, 3.342, -0.508, 2.5
 46220671, 27.661, 3.301, -0.293, 2.5, 27.731, 3.32, -0.421, 2.5
 46420591, 27.601, 3.278, -0.173, 2.5, 27.661, 3.301, -0.293, 2.5
 46620511, 27.56, 3.268, 0.009000001, 2.5, 27.601, 3.278, -0.173, 2.5
 46820431, 27.531, 3.257, 0.071, 2.5, 27.56, 3.268, 0.009000001, 2.5
 47020351, 27.508, 3.231, 0.082, 2.5, 27.531, 3.257, 0.071, 2.5
 47220271, 27.493, 3.209, 0.131, 2.5, 27.508, 3.231, 0.082, 2.5
 47420191, 27.472, 3.204, 0.223, 2.5, 27.493, 3.209, 0.131, 2.5
 47620944, 27.448, 3.211, 0.237, 2.5, 27.472, 3.204, 0.223, 2.5
 47820864, 27.446, 3.193, 0.222, 2.5, 27.448, 3.211, 0.237, 2.5
 48020784, 27.451, 3.197, 0.239, 2.5, 27.446, 3.193, 0.222, 2.5
 48220704, 27.45, 3.196, 0.305, 2.5, 27.451, 3.197, 0.239, 2.5
 48420624, 27.447, 3.195, 0.336, 2.5, 27.45, 3.196, 0.305, 2.5
 48620544, 27.452, 3.203, 0.269, 2.5, 27.447, 3.195, 0.336, 2.5
 48820464, 27.453, 3.191, 0.272, 2.5, 27.452, 3.203, 0.269, 2.5
 49020384, 27.457, 3.18, 0.26, 2.5, 27.453, 3.191, 0.272, 2.5
 49220304, 27.455, 3.185, 0.218, 2.5, 27.457, 3.18, 0.26, 2.5
 49420224, 27.453, 3.186, 0.292, 2.5, 27.455, 3.185, 0.218, 2.5
 49620977, 27.451, 3.189, 0.258, 2.5, 27.453, 3.186, 0.292, 2.5
 49820897, 27.46, 3.177, 0.202, 2.5, 27.451, 3.189, 0.258, 2.5
 50020817, 27.481, 3.173, 0.169, 2.5, 27.46, 3.177, 0.202, 2.5
 50220737, 27.494, 3.159, 0.176, 2.5, 27.481, 3.173, 0.169, 2.5
 50420657, 27.512, 3.164, 0.257, 2.5, 27.494, 3.159, 0.176, 2.5
 50620577, 27.532, 3.166, 0.244, 2.5, 27.512, 3.164, 0.257, 2.5
 50820497, 27.541, 3.177, 0.184, 2.5, 27.532, 3.166, 0.244, 2.5
 51020417, 27.552, 3.169, 0.124, 2.5, 27.541, 3.177, 0.184, 2.5
 51220337, 27.579, 3.156, 0.044, 2.5, 27.552, 3.169, 0.124, 2.5
 51420257, 27.598, 3.172, 0.052, 2.5, 27.579, 3.156, 0.044, 2.5
 51620177, 27.621, 3.166, 0.07300001, 2.5, 27.598, 3.172, 0.052, 2.5
 51820930, 27.635, 3.145, 0.103, 2.5, 27.621, 3.166, 0.07300001, 2.5
 52020850, 27.653, 3.14, 0.041, 2.5, 27.635, 3.145, 0.103, 2.5
 52220770, 27.66, 3.13, 0.003, 2.5, 27.653, 3.14, 0.041, 2.5
 52420690, 27.677, 3.144, -0.048, 2.5, 27.66, 3.13, 0.003, 2.5
 52620610, 27.7, 3.165, -0.052, 2.5, 27.677, 3.144, -0.048, 2.5
 52820530, 27.727, 3.144, -0.051, 2.5, 27.7, 3.165, -0.052, 2.5
 53020450, 27.743, 3.14, -0.078, 2.5, 27.727, 3.144, -0.051, 2.5
 53220370, 27.758, 3.137, -0.086, 2.5, 27.743, 3.14, -0.078, 2.5
 53420290, 27.769, 3.131, -0.146, 2.5, 27.758, 3.137, -0.086, 2.5
 53620210, 27.776, 3.132, -0.205, 2.5, 27.769, 3.131, -0.146, 2.5
 53820963, 27.794, 3.141, -0.203, 2.5, 27.776, 3.132, -0.205, 2.5
 54020883, 27.812, 3.126, -0.219, 2.5, 27.794, 3.141, -0.203, 2.5
 54220803, 27.83, 3.114, -0.216, 2.5, 27.812, 3.126, -0.219, 2.5
 54420723, 27.851, 3.108, -0.215, 2.5, 27.83, 3.114, -0.216, 2.5
 54620643, 27.872, 3.123, -0.165, 2.5, 27.851, 3.108, -0.215, 2.5
 54820563, 27.888, 3.154, -0.192, 2.5, 27.872, 3.123, -0.165, 2.5
 55020483, 27.91, 3.16, -0.211, 2.5, 27.888, 3.154, -0.192, 2.5
 55220403, 27.945, 3.149, -0.26, 2.5, 27.91, 3.16, -0.211, 2.5
 55420323, 27.97, 3.158, -0.255, 2.5, 27.945, 3.149, -0.26, 2.5
 55620243, 27.983, 3.161, -0.328, 2.5, 27.97, 3.158, -0.255, 2.5
 55820163, 27.994, 3.186, -0.323, 2.5, 27.983, 3.161, -0.328, 2.5
 56020916, 28.003, 3.201, -0.412, 2.5, 27.994, 3.186, -0.323, 2.5
 56220836, 28.021, 3.185, -0.461, 2.5, 28.003, 3.201, -0.412, 2.5
 56420756, 28.049, 3.181, -0.375, 2.5, 28.021, 3.185, -0.461, 2.5
 56620676, 28.083, 3.178, -0.289, 2.5, 28.049, 3.181, -0.375, 2.5
 56820596, 28.109, 3.205, -0.333, 2.5, 28.083, 3.178, -0.289, 2.5
 57020516, 28.13, 3.232, -0.373, 2.5, 28.109, 3.205, -0.333, 2.5
 57220436, 28.14, 3.244, -0.473, 2.5, 28.13, 3.232, -0.373, 2.5
 57420356, 28.143, 3.266, -0.532, 2.5, 28.14, 3.244, -0.473, 2.5
 57620276, 28.169, 3.254, -0.489, 2.5, 28.143, 3.266, -0.532, 2.5
 57820196, 28.199, 3.245, -0.441, 2.5, 28.169, 3.254, -0.489, 2.5
 58020949, 28.222, 3.263, -0.425, 2.5, 28.199, 3.245, -0.441, 2.5
 58220869, 28.242, 3.279, -0.443, 2.5, 28.222, 3.263, -0.425, 2.5
 58420789, 28.265, 3.295, -0.424, 2.5, 28.242, 3.279, -0.443, 2.5
 58620709, 28.28, 3.316, -0.506, 2.5, 28.265, 3.295, -0.424, 2.5
 58820629, 28.288, 3.316, -0.598, 2.5, 28.28, 3.316, -0.506, 2.5
 59020549, 28.289, 3.339, -0.532, 2.5, 28.288, 3.316, -0.598, 2.5
 59220469, 28.307, 3.383, -0.491, 2.5, 28.289, 3.339, -0.532, 2.5
 59420389, 28.339, 3.406, -0.44, 2.5, 28.307, 3.383, -0.491, 2.5
 59620309, 28.365, 3.426, -0.446, 2.5, 28.339, 3.406, -0.44, 2.5
 59820229, 28.39, 3.445, -0.49, 2.5, 28.365, 3.426, -0.446, 2.5
 60020149, 28.408, 3.469, -0.471, 2.5, 28.39, 3.445, -0.49, 2.5
 60220902, 28.428, 3.436, -0.546, 2.5, 28.408, 3.469, -0.471, 2.5
 60420822, 28.439, 3.435, -0.587, 2.5, 28.428, 3.436, -0.546, 2.5
 60620742, 28.453, 3.439, -0.522, 2.5, 28.439, 3.435, -0.587, 2.5
 60820662, 28.449, 3.573, -0.506, 2.5, 28.453, 3.439, -0.522, 2.5
 61020582, 28.484, 3.311, -0.574, 2.5, 28.449, 3.573, -0.506, 2.5
 61220502, 28.563, 2.747, -0.494, 2.5, 28.484, 3.311, -0.574, 2.5
 61420422, 28.646, 2.267, -0.49, 2.5, 28.563, 2.747, -0.494, 2.5
 61620342, 28.713, 1.95, -0.509, 2.5, 28.646, 2.267, -0.49, 2.5
 61820262, 28.759, 1.746, -0.497, 2.5, 28.713, 1.95, -0.509, 2.5
 62020182, 28.786, 1.558, -0.531, 2.5, 28.759, 1.746, -0.497, 2.5
 62220935, 28.8, 1.353, -0.544, 2.5, 28.786, 1.558, -0.531, 2.5
 62420855, 28.82, 1.124, -0.592, 2.5, 28.8, 1.353, -0.544, 2.5
 62620775, 28.828, 0.878, -0.666, 2.5, 28.82, 1.124, -0.592, 2.5
 62820695, 28.844, 0.703, -0.575, 2.5, 28.828, 0.878, -0.666, 2.5
 63020615, 28.869, 0.516, -0.491, 2.5, 28.844, 0.703, -0.575, 2.5
 63220535, 28.884, 0.318, -0.503, 2.5, 28.869, 0.516, -0.491, 2.5
 63420455, 28.889, 0.143, -0.589, 2.5, 28.884, 0.318, -0.503, 2.5
 63620375, 28.903, -0.007, -0.641, 2.5, 28.889, 0.143, -0.589, 2.5
 63820295, 28.91, -0.137, -0.634, 2.5, 28.903, -0.007, -0.641, 2.5
 64020215, 28.903, -0.263, -0.559, 2.5, 28.91, -0.137, -0.634, 2.5
 64220968, 28.912, -0.359, -0.457, 2.5, 28.903, -0.263, -0.559, 2.5
 64420888, 28.919, -0.48, -0.419, 2.5, 28.912, -0.359, -0.457, 2.5
 64620808, 28.925, -0.601, -0.509, 2.5, 28.919, -0.48, -0.419, 2.5
 64820728, 28.922, -0.703, -0.5420001, 2.5, 28.925, -0.601, -0.509, 2.5
 65020648, 28.917, -0.779, -0.525, 2.5, 28.922, -0.703, -0.5420001, 2.5
 65220568, 28.911, -0.839, -0.48, 2.5, 28.917, -0.779, -0.525, 2.5
 65420488, 28.896, -0.8890001, -0.427, 2.5, 28.911, -0.839, -0.48, 2.5
 65620408, 28.878, -0.933, -0.41, 2.5, 28.896, -0.8890001, -0.427, 2.5
 65820328, 28.873, -0.9670001, -0.364, 2.5, 28.878, -0.933, -0.41, 2.5
 66020248, 28.873, -0.992, -0.349, 2.5, 28.873, -0.9670001, -0.364, 2.5
 66220168, 28.866, -1.013, -0.362, 2.5, 28.873, -0.992, -0.349, 2.5
 66420921, 28.871, -1.008, -0.329, 2.5, 28.866, -1.013, -0.362, 2.5
 66620841, 28.871, -0.9960001, -0.303, 2.5, 28.871, -1.008, -0.329, 2.5
 66820761, 28.861, -0.997, -0.291, 2.5, 28.871, -0.9960001, -0.303, 2.5
 67020681, 28.87, -1.013, -0.257, 2.5, 28.861, -0.997, -0.291, 2.5
 67220601, 28.872, -1.006, -0.215, 2.5, 28.87, -1.013, -0.257, 2.5
 67420521, 28.875, -0.978, -0.244, 2.5, 28.872, -1.006, -0.215, 2.5
 67620441, 28.872, -0.946, -0.299, 2.5, 28.875, -0.978, -0.244, 2.5
 67820361, 28.864, -0.927, -0.328, 2.5, 28.872, -0.946, -0.299, 2.5
 68020281, 28.873, -0.92, -0.217, 2.5, 28.864, -0.927, -0.328, 2.5
 68220201, 28.876, -0.924, -0.173, 2.5, 28.873, -0.92, -0.217, 2.5
 68420954, 28.879, -0.932, -0.147, 2.5, 28.876, -0.924, -0.173, 2.5
 68620874, 28.871, -0.8930001, -0.28, 2.5, 28.879, -0.932, -0.147, 2.5
 68820794, 28.872, -0.8570001, -0.28, 2.5, 28.871, -0.8930001, -0.28, 2.5
 69020714, 28.83, -0.8050001, -0.283, 2.5, 28.872, -0.8570001, -0.28, 2.5
 69220634, 28.662, -0.767, -0.148, 2.5, 28.83, -0.8050001, -0.283, 2.5
 69420554, 28.407, -0.749, 0.259, 2.5, 28.662, -0.767, -0.148, 2.5
 69620474, 28.111, -0.735, 0.749, 2.5, 28.407, -0.749, 0.259, 2.5
 69820394, 27.809, -0.6950001, 1.169, 2.5, 28.111, -0.735, 0.749, 2.5
 70020314, 27.534, -0.64, 1.583, 2.5, 27.809, -0.6950001, 1.169, 2.5
 70220234, 27.342, -0.609, 1.942, 2.5, 27.534, -0.64, 1.583, 2.5
 70420154, 27.229, -0.588, 2.251, 2.5, 27.342, -0.609, 1.942, 2.5
 70620907, 27.159, -0.55, 2.534, 2.5, 27.229, -0.588, 2.251, 2.5
 70820827, 27.132, -0.512, 2.747, 2.5, 27.159, -0.55, 2.534, 2.5
 71020747, 27.125, -0.471, 2.904, 2.5, 27.132, -0.512, 2.747, 2.5
 71220667, 27.136, -0.442, 2.964, 2.5, 27.125, -0.471, 2.904, 2.5
 71420587, 27.165, -0.424, 2.907, 2.5, 27.136, -0.442, 2.964, 2.5
 71620507, 27.219, -0.368, 2.641, 2.5, 27.165, -0.424, 2.907, 2.5
 71820427, 27.262, -0.315, 2.449, 2.5, 27.219, -0.368, 2.641, 2.5
 72020347, 27.334, -0.277, 2.398, 2.5, 27.262, -0.315, 2.449, 2.5
 72220267, 27.452, -0.267, 2.345, 2.5, 27.334, -0.277, 2.398, 2.5
 72420187, 27.607, -0.256, 2.247, 2.5, 27.452, -0.267, 2.345, 2.5
 72620940, 27.774, -0.235, 2.039, 2.5, 27.607, -0.256, 2.247, 2.5
 72820860, 27.936, -0.198, 1.802, 2.5, 27.774, -0.235, 2.039, 2.5
 73020780, 28.083, -0.157, 1.588, 2.5, 27.936, -0.198, 1.802, 2.5
 73220700, 28.224, -0.125, 1.445, 2.5, 28.083, -0.157, 1.588, 2.5
 73420620, 28.356, -0.104, 1.285, 2.5, 28.224, -0.125, 1.445, 2.5
 73620540, 28.482, -0.078, 1.142, 2.5, 28.356, -0.104, 1.285, 2.5
 73820460, 28.589, -0.061, 0.9770001, 2.5, 28.482, -0.078, 1.142, 2.5
 74020380, 28.684, -0.054, 0.883, 2.5, 28.589, -0.061, 0.9770001, 2.5
 74220300, 28.772, -0.041, 0.767, 2.5, 28.684, -0.054, 0.883, 2.5
 74420220, 28.843, -0.01, 0.524, 2.5, 28.772, -0.041, 0.767, 2.5
 74620973, 28.902, -0.011, 0.383, 2.5, 28.843, -0.01, 0.524, 2.5
 74820893, 28.959, 0.015, 0.376, 2.5, 28.902, -0.011, 0.383, 2.5
 75020813, 29.025, 0.022, 0.367, 2.5, 28.959, 0.015, 0.376, 2.5
 75220733, 29.067, 0.022, 0.261, 2.5, 29.025, 0.022, 0.367, 2.5
 75420653, 29.105, 0.033, 0.113, 2.5, 29.067, 0.022, 0.261, 2.5
 75620573, 29.138, 0.049, 0.026, 2.5, 29.105, 0.033, 0.113, 2.5
 75820493, 29.164, 0.06500001, 0.072, 2.5, 29.138, 0.049, 0.026, 2.5
 76020413, 29.191, 0.079, 0.07300001, 2.5, 29.164, 0.06500001, 0.072, 2.5
 76220333, 29.208, 0.085, -0.029, 2.5, 29.191, 0.079, 0.07300001, 2.5
 76420253, 29.225, 0.103, -0.094, 2.5, 29.208, 0.085, -0.029, 2.5
 76620173, 29.153, 0.081, -0.039, 2.5, 29.225, 0.103, -0.094, 2.5
 76820926, 28.955, 0.06500001, 0.207, 2.5, 29.153, 0.081, -0.039, 2.5
 77020846, 28.682, 0.052, 0.577, 2.5, 28.955, 0.06500001, 0.207, 2.5
 77220766, 28.39, 0.057, 0.993, 2.5, 28.682, 0.052, 0.577, 2.5
 77420686, 28.116, 0.068, 1.391, 2.5, 28.39, 0.057, 0.993, 2.5
 77620606, 27.926, 0.067, 1.754, 2.5, 28.116, 0.068, 1.391, 2.5
 77820526, 27.806, 0.05, 2.075, 2.5, 27.926, 0.067, 1.754, 2.5
 78020446, 27.738, 0.048, 2.305, 2.5, 27.806, 0.05, 2.075, 2.5
 78220366, 27.702, 0.049, 2.496, 2.5, 27.738, 0.048, 2.305, 2.5
 78420286, 27.665, 0.047, 2.701, 2.5, 27.702, 0.049, 2.496, 2.5
 78620206, 27.653, 0.04, 2.839, 2.5, 27.665, 0.047, 2.701, 2.5
 78820959, 27.673, 0.034, 2.795, 2.5, 27.653, 0.04, 2.839, 2.5
 79020879, 27.719, 0.039, 2.615, 2.5, 27.673, 0.034, 2.795, 2.5
 79220799, 27.744, 0.033, 2.572, 2.5, 27.719, 0.039, 2.615, 2.5
 79420719, 27.791, 0.026, 2.406, 2.5, 27.744, 0.033, 2.572, 2.5
 79620639, 27.87, 0.019, 2.261, 2.5, 27.791, 0.026, 2.406, 2.5
 79820559, 27.978, 0.014, 2.145, 2.5, 27.87, 0.019, 2.261, 2.5
 80020479, 28.115, 0.018, 2.036, 2.5, 27.978, 0.014, 2.145, 2.5
 80220399, 28.269, -0.001, 1.84, 2.5, 28.115, 0.018, 2.036, 2.5
 80420319, 28.413, -0.015, 1.629, 2.5, 28.269, -0.001, 1.84, 2.5
 80620239, 28.548, -0.003, 1.398, 2.5, 28.413, -0.015, 1.629, 2.5
 80820159, 28.673, 0.013, 1.258, 2.5, 28.548, -0.003, 1.398, 2.5
 81020912, 28.786, 0.014, 1.114, 2.5, 28.673, 0.013, 1.258, 2.5
 81220832, 28.884, 0.01, 0.96, 2.5, 28.786, 0.014, 1.114, 2.5
 81420752, 28.975, 0.017, 0.7500001, 2.5, 28.884, 0.01, 0.96, 2.5
 81620672, 29.057, 0.004, 0.575, 2.5, 28.975, 0.017, 0.7500001, 2.5
 81820592, 29.129, 0.014, 0.545, 2.5, 29.057, 0.004, 0.575, 2.5
 82020512, 29.187, 0.006, 0.5100001, 2.5, 29.129, 0.014, 0.545, 2.5
 82220432, 29.247, -0.014, 0.462, 2.5, 29.187, 0.006, 0.5100001, 2.5
 82420352, 29.307, -0.029, 0.335, 2.5, 29.247, -0.014, 0.462, 2.5
 82620272, 29.344, -0.036, 0.254, 2.5, 29.307, -0.029, 0.335, 2.5
 82820192, 29.381, -0.039, 0.175, 2.5, 29.344, -0.036, 0.254, 2.5
 83020945, 29.455, -0.023, 0.072, 2.5, 29.381, -0.039, 0.175, 2.5
 83220865, 29.65, -0.005, -0.15, 2.5, 29.455, -0.023, 0.072, 2.5
 83420785, 29.913, 0.014, -0.5330001, 2.5, 29.65, -0.005, -0.15, 2.5
 83620705, 30.144, 0.026, -0.928, 2.5, 29.913, 0.014, -0.5330001, 2.5
 83820625, 30.311, 0.014, -1.38, 2.5, 30.144, 0.026, -0.928, 2.5
 84020545, 30.421, 0.014, -1.711, 2.5, 30.311, 0.014, -1.38, 2.5
 84220465, 30.497, 0.013, -2.091, 2.5, 30.421, 0.014, -1.711, 2.5
 84420385, 30.533, 0.014, -2.459, 2.5, 30.497, 0.013, -2.091, 2.5
 84620305, 30.544, 0.002, -2.676, 2.5, 30.533, 0.014, -2.459, 2.5
 84820225, 30.542, 0.012, -2.89, 2.5, 30.544, 0.002, -2.676, 2.5
 85020145, 30.526, 0.014, -3.008, 2.5, 30.542, 0.012, -2.89, 2.5
 85220898, 30.529, 0.041, -2.979, 2.5, 30.526, 0.014, -3.008, 2.5
 85420818, 30.505, 0.06, -2.959, 2.5, 30.529, 0.041, -2.979, 2.5
 85620738, 30.422, 0.043, -2.815, 2.5, 30.505, 0.06, -2.959, 2.5
 85820658, 30.313, 0.053, -2.557, 2.5, 30.422, 0.043, -2.815, 2.5
 86020578, 30.183, 0.082, -2.275, 2.5, 30.313, 0.053, -2.557, 2.5
 86220498, 30.042, 0.1, -2.13, 2.5, 30.183, 0.082, -2.275, 2.5
 86420418, 29.899, 0.107, -1.99, 2.5, 30.042, 0.1, -2.13, 2.5
 86620338, 29.757, 0.105, -1.841, 2.5, 29.899, 0.107, -1.99, 2.5
 86820258, 29.643, 0.107, -1.619, 2.5, 29.757, 0.105, -1.841, 2.5
 87020178, 29.542, 0.112, -1.358, 2.5, 29.643, 0.107, -1.619, 2.5
 87220931, 29.441, 0.112, -1.153, 2.5, 29.542, 0.112, -1.358, 2.5
 87420851, 29.338, 0.119, -1.021, 2.5, 29.441, 0.112, -1.153, 2.5
 87620771, 29.242, 0.127, -0.989, 2.5, 29.338, 0.119, -1.021, 2.5
 87820691, 29.174, 0.121, -0.7960001, 2.5, 29.242, 0.127, -0.989, 2.5
 88020611, 29.102, 0.122, -0.632, 2.5, 29.174, 0.121, -0.7960001, 2.5
 88220531, 29.044, 0.135, -0.531, 2.5, 29.102, 0.122, -0.632, 2.5
 88420451, 28.995, 0.137, -0.456, 2.5, 29.044, 0.135, -0.531, 2.5
 88620371, 28.939, 0.147, -0.403, 2.5, 28.995, 0.137, -0.456, 2.5
 88820291, 28.892, 0.131, -0.366, 2.5, 28.939, 0.147, -0.403, 2.5
 89020211, 28.858, 0.117, -0.304, 2.5, 28.892, 0.131, -0.366, 2.5
 89220964, 28.832, 0.111, -0.179, 2.5, 28.858, 0.117, -0.304, 2.5
 89420884, 28.821, 0.09900001, -0.08800001, 2.5, 28.832, 0.111, -0.179, 2.5
 89620804, 28.801, 0.09, -0.074, 2.5, 28.821, 0.09900001, -0.08800001, 2.5
 89820724, 28.77, 0.064, -0.06500001, 2.5, 28.801, 0.09, -0.074, 2.5
 90020644, 28.742, 0.062, -0.058, 2.5, 28.77, 0.064, -0.06500001, 2.5
 90220564, 28.719, 0.048, -0.022, 2.5, 28.742, 0.062, -0.058, 2.5
 90420484, 28.704, 0.021, -0.028, 2.5, 28.719, 0.048, -0.022, 2.5
 90620404, 28.69, 0.001, 0.025, 2.5, 28.704, 0.021, -0.028, 2.5
 90820324, 28.683, -0.01, 0.06900001, 2.5, 28.69, 0.001, 0.025, 2.5
 91020244, 28.678, -0.019, 0.052, 2.5, 28.683, -0.01, 0.06900001, 2.5
 91220164, 28.671, -0.025, 0.07, 2.5, 28.678, -0.019, 0.052, 2.5
 91420917, 28.664, -0.04, 0.06900001, 2.5, 28.671, -0.025, 0.07, 2.5
 91620837, 28.662, -0.054, 0.11, 2.5, 28.664, -0.04, 0.06900001, 2.5
 91820757, 28.657, -0.044, 0.063, 2.5, 28.662, -0.054, 0.11, 2.5
 92020677, 28.666, -0.04, 0.061, 2.5, 28.657, -0.044, 0.063, 2.5
 92220597, 28.679, -0.046, 0.041, 2.5, 28.666, -0.04, 0.061, 2.5
 92420517, 28.694, -0.052, 0.082, 2.5, 28.679, -0.046, 0.041, 2.5
 92620437, 28.702, -0.06900001, 0.09500001, 2.5, 28.694, -0.052, 0.082, 2.5
 92820357, 28.706, -0.09500001, 0.09100001, 2.5, 28.702, -0.06900001, 0.09500001, 2.5
 93020277, 28.761, -0.075, 0.012, 2.5, 28.706, -0.09500001, 0.09100001, 2.5
 93220197, 28.936, -0.078, -0.08000001, 2.5, 28.761, -0.075, 0.012, 2.5
 93420950, 29.189, -0.04, -0.425, 2.5, 28.936, -0.078, -0.08000001, 2.5
 93620870, 29.474, -0.026, -0.8190001, 2.5, 29.189, -0.04, -0.425, 2.5
 93820790, 29.725, -0.054, -1.324, 2.5, 29.474, -0.026, -0.8190001, 2.5
 94020710, 29.92, -0.066, -1.83, 2.5, 29.725, -0.054, -1.324, 2.5
 94220630, 30.057, -0.08400001, -2.183, 2.5, 29.92, -0.066, -1.83, 2.5
 94420550, 30.155, -0.102, -2.452, 2.5, 30.057, -0.08400001, -2.183, 2.5
 94620470, 30.223, -0.142, -2.631, 2.5, 30.155, -0.102, -2.452, 2.5
 94820390, 30.286, -0.141, -2.728, 2.5, 30.223, -0.142, -2.631, 2.5
 95020310, 30.304, -0.125, -3.004, 2.5, 30.286, -0.141, -2.728, 2.5
 95220230, 30.326, -0.12, -3.085, 2.5, 30.304, -0.125, -3.004, 2.5
 95420150, 30.315, -0.104, -3.105, 2.5, 30.326, -0.12, -3.085, 2.5
 95620903, 30.234, -0.122, -2.979, 2.5, 30.315, -0.104, -3.105, 2.5
 95820823, 30.091, -0.15, -2.842, 2.5, 30.234, -0.122, -2.979, 2.5
 96020743, 29.939, -0.125, -2.561, 2.5, 30.091, -0.15, -2.842, 2.5
 96220663, 29.787, -0.11, -2.303, 2.5, 29.939, -0.125, -2.561, 2.5
 96420583, 29.633, -0.105, -2.083, 2.5, 29.787, -0.11, -2.303, 2.5
 96620503, 29.471, -0.094, -1.942, 2.5, 29.633, -0.105, -2.083, 2.5
 96820423, 29.335, -0.07600001, -1.789, 2.5, 29.471, -0.094, -1.942, 2.5
 97020343, 29.221, -0.039, -1.508, 2.5, 29.335, -0.07600001, -1.789, 2.5
 97220263, 29.112, 0.003, -1.295, 2.5, 29.221, -0.039, -1.508, 2.5
 97420183, 29.021, 0.018, -1.056, 2.5, 29.112, 0.003, -1.295, 2.5
 97620936, 28.933, 0.017, -0.9220001, 2.5, 29.021, 0.018, -1.056, 2.5
 97820856, 28.86, 0.005, -0.771, 2.5, 28.933, 0.017, -0.9220001, 2.5
 98020776, 28.795, -0.004, -0.618, 2.5, 28.86, 0.005, -0.771, 2.5
 98220696, 28.739, -0.006, -0.5100001, 2.5, 28.795, -0.004, -0.618, 2.5
 98420616, 28.696, 0.011, -0.392, 2.5, 28.739, -0.006, -0.5100001, 2.5
 98620536, 28.647, 0.012, -0.399, 2.5, 28.696, 0.011, -0.392, 2.5
 98820456, 28.591, 0.032, -0.362, 2.5, 28.647, 0.012, -0.399, 2.5
 99020376, 28.542, 0.062, -0.285, 2.5, 28.591, 0.032, -0.362, 2.5
 99220296, 28.499, 0.089, -0.198, 2.5, 28.542, 0.062, -0.285, 2.5
 99420216, 28.369, 0.09100001, -0.156, 2.5, 28.499, 0.089, -0.198, 2.5
 99620969, 28.127, 0.09500001, 0.124, 2.5, 28.369, 0.09100001, -0.156, 2.5
 99820889, 27.826, 0.093, 0.544, 2.5, 28.127, 0.09500001, 0.124, 2.5
 100020809, 27.503, 0.102, 1.041, 2.5, 27.826, 0.093, 0.544, 2.5
 100220729, 27.177, 0.1, 1.527, 2.5, 27.503, 0.102, 1.041, 2.5
 100420649, 26.879, 0.096, 1.948, 2.5, 27.177, 0.1, 1.527, 2.5
 100620569, 26.684, 0.09200001, 2.319, 2.5, 26.879, 0.096, 1.948, 2.5
 100820489, 26.571, 0.089, 2.604, 2.5, 26.684, 0.09200001, 2.319, 2.5
 101020409, 26.501, 0.064, 2.869, 2.5, 26.571, 0.089, 2.604, 2.5
 101220329, 26.467, 0.044, 3.14, 2.5, 26.501, 0.064, 2.869, 2.5
 101420249, 26.476, 0.039, 3.297, 2.5, 26.467, 0.044, 3.14, 2.5
 101620169, 26.515, 0.056, 3.275, 2.5, 26.476, 0.039, 3.297, 2.5
 101820922, 26.577, 0.061, 3.089, 2.5, 26.515, 0.056, 3.275, 2.5
 102020842, 26.643, 0.06, 2.88, 2.5, 26.577, 0.061, 3.089, 2.5
 102220762, 26.742, 0.058, 2.699, 2.5, 26.643, 0.06, 2.88, 2.5
 102420682, 26.876, 0.046, 2.634, 2.5, 26.742, 0.058, 2.699, 2.5
 102620602, 27.035, 0.05, 2.562, 2.5, 26.876, 0.046, 2.634, 2.5
 102820522, 27.219, 0.058, 2.359, 2.5, 27.035, 0.05, 2.562, 2.5
 103020442, 27.403, 0.07700001, 2.11, 2.5, 27.219, 0.058, 2.359, 2.5
 103220362, 27.578, 0.101, 1.862, 2.5, 27.403, 0.07700001, 2.11, 2.5
 103420282, 27.744, 0.09500001, 1.671, 2.5, 27.578, 0.101, 1.862, 2.5
 103620202, 27.893, 0.104, 1.497, 2.5, 27.744, 0.09500001, 1.671, 2.5
 103820955, 28.034, 0.09900001, 1.338, 2.5, 27.893, 0.104, 1.497, 2.5
 104020875, 28.151, 0.093, 1.12, 2.5, 28.034, 0.09900001, 1.338, 2.5
 104220795, 28.254, 0.09500001, 1.028, 2.5, 28.151, 0.093, 1.12, 2.5
 104420715, 28.355, 0.09, 0.8940001, 2.5, 28.254, 0.09500001, 1.028, 2.5
 104620635, 28.446, 0.094, 0.723, 2.5, 28.355, 0.09, 0.8940001, 2.5
 104820555, 28.522, 0.06500001, 0.604, 2.5, 28.446, 0.094, 0.723, 2.5
 105020475, 28.588, 0.03, 0.452, 2.5, 28.522, 0.06500001, 0.604, 2.5
 105220395, 28.653, -0.002, 0.343, 2.5, 28.588, 0.03, 0.452, 2.5
 105420315, 28.715, -0.021, 0.313, 2.5, 28.653, -0.002, 0.343, 2.5
 105620235, 28.763, -0.047, 0.204, 2.5, 28.715, -0.021, 0.313, 2.5
 105820155, 28.802, -0.058, 0.114, 2.5, 28.763, -0.047, 0.204, 2.5
 106020908, 28.84, -0.081, 0.082, 2.5, 28.802, -0.058, 0.114, 2.5
 106220828, 28.884, -0.09500001, 0.09200001, 2.5, 28.84, -0.081, 0.082, 2.5
 106420748, 28.921, -0.09200001, 0.09, 2.5, 28.884, -0.09500001, 0.09200001, 2.5
 106620668, 28.957, -0.07600001, 0.051, 2.5, 28.921, -0.09200001, 0.09, 2.5
 106820588, 28.982, -0.057, -0.039, 2.5, 28.957, -0.07600001, 0.051, 2.5
 107020508, 29.001, -0.019, -0.113, 2.5, 28.982, -0.057, -0.039, 2.5
 107220428, 29.018, -0.017, -0.124, 2.5, 29.001, -0.019, -0.113, 2.5
 107420348, 29, -0.028, -0.157, 2.5, 29.018, -0.017, -0.124, 2.5
 107620268, 28.843, -0.033, -0.08400001, 2.5, 29, -0.028, -0.157, 2.5
 107820188, 28.59, -0.023, 0.168, 2.5, 28.843, -0.033, -0.08400001, 2.5
 108020941, 28.292, -0.02, 0.673, 2.5, 28.59, -0.023, 0.168, 2.5
 108220861, 27.989, -0.02, 1.123, 2.5, 28.292, -0.02, 0.673, 2.5
 108420781, 27.735, -0.004, 1.427, 2.5, 27.989, -0.02, 1.123, 2.5
 108620701, 27.572, 0.001, 1.748, 2.5, 27.735, -0.004, 1.427, 2.5
 108820621, 27.47, -0.019, 2.109, 2.5, 27.572, 0.001, 1.748, 2.5
 109020541, 27.406, -0.032, 2.438, 2.5, 27.47, -0.019, 2.109, 2.5
 109220461, 27.367, -0.029, 2.721, 2.5, 27.406, -0.032, 2.438, 2.5
 109420381, 27.364, -0.037, 2.843, 2.5, 27.367, -0.029, 2.721, 2.5
 109620301, 27.388, -0.027, 2.851, 2.5, 27.364, -0.037, 2.843, 2.5
 109820221, 27.435, -0.011, 2.735, 2.5, 27.388, -0.027, 2.851, 2.5
 110020974, 27.486, -0.013, 2.501, 2.5, 27.435, -0.011, 2.735, 2.5
 110220894, 27.517, -0.018, 2.372, 2.5, 27.486, -0.013, 2.501, 2.5
 110420814, 27.578, -0.004, 2.256, 2.5, 27.517, -0.018, 2.372, 2.5
 110620734, 27.685, 0.009000001, 2.187, 2.5, 27.578, -0.004, 2.256, 2.5
 110820654, 27.825, 0, 2.074, 2.5, 27.685, 0.009000001, 2.187, 2.5
 111020574, 27.979, -0.018, 1.889, 2.5, 27.825, 0, 2.074, 2.5
 111220494, 28.134, -0.044, 1.678, 2.5, 27.979, -0.018, 1.889, 2.5
 111420414, 28.283, -0.037, 1.447, 2.5, 28.134, -0.044, 1.678, 2.5
 111620334, 28.414, -0.034, 1.295, 2.5, 28.283, -0.037, 1.447, 2.5
 111820254, 28.535, -0.042, 1.123, 2.5, 28.414, -0.034, 1.295, 2.5
 112020174, 28.649, -0.026, 0.9400001, 2.5, 28.535, -0.042, 1.123, 2.5
 112220927, 28.743, -0.047, 0.826, 2.5, 28.649, -0.026, 0.9400001, 2.5
 112420847, 28.834, -0.067, 0.679, 2.5, 28.743, -0.047, 0.826, 2.5
 112620767, 28.915, -0.08800001, 0.55, 2.5, 28.834, -0.067, 0.679, 2.5
 112820687, 28.974, -0.079, 0.464, 2.5, 28.915, -0.08800001, 0.55, 2.5
 113020607, 29.033, -0.07700001, 0.317, 2.5, 28.974, -0.079, 0.464, 2.5
 113220527, 29.089, -0.078, 0.22, 2.5, 29.033, -0.07700001, 0.317, 2.5
 113420447, 29.136, -0.066, 0.141, 2.5, 29.089, -0.078, 0.22, 2.5
 113620367, 29.174, -0.045, 0.079, 2.5, 29.136, -0.066, 0.141, 2.5
 113820287, 29.198, -0.031, 0.055, 2.5, 29.174, -0.045, 0.079, 2.5
 114020207, 29.231, -0.028, 0.059, 2.5, 29.198, -0.031, 0.055, 2.5
 114220960, 29.221, -0.016, -0.034, 2.5, 29.231, -0.028, 0.059, 2.5
 114420880, 29.078, -0.017, 0.041, 2.5, 29.221, -0.016, -0.034, 2.5
 114620800, 28.845, -0.02, 0.412, 2.5, 29.078, -0.017, 0.041, 2.5
 114820720, 28.562, -0.012, 0.752, 2.5, 28.845, -0.02, 0.412, 2.5
 115020640, 28.281, -0.01, 1.133, 2.5, 28.562, -0.012, 0.752, 2.5
 115220560, 28.064, -0.017, 1.553, 2.5, 28.281, -0.01, 1.133, 2.5
 115420480, 27.932, -0.016, 1.959, 2.5, 28.064, -0.017, 1.553, 2.5
 115620400, 27.854, -0.018, 2.209, 2.5, 27.932, -0.016, 1.959, 2.5
 115820320, 27.804, 0.009000001, 2.363, 2.5, 27.854, -0.018, 2.209, 2.5
 116020240, 27.782, 0.025, 2.55, 2.5, 27.804, 0.009000001, 2.363, 2.5
 116220160, 27.756, 0.014, 2.767, 2.5, 27.782, 0.025, 2.55, 2.5
 116420913, 27.762, 0.018, 2.85, 2.5, 27.756, 0.014, 2.767, 2.5
 116620833, 27.794, 0.034, 2.753, 2.5, 27.762, 0.018, 2.85, 2.5
 116820753, 27.823, 0.038, 2.585, 2.5, 27.794, 0.034, 2.753, 2.5
 117020673, 27.862, 0.02, 2.393, 2.5, 27.823, 0.038, 2.585, 2.5
 117220593, 27.916, 0.001, 2.23, 2.5, 27.862, 0.02, 2.393, 2.5
 117420513, 28.007, -0.004, 2.107, 2.5, 27.916, 0.001, 2.23, 2.5
 117620433, 28.13, -0.005, 1.957, 2.5, 28.007, -0.004, 2.107, 2.5
 117820353, 28.263, -0.014, 1.837, 2.5, 28.13, -0.005, 1.957, 2.5
 118020273, 28.405, -0.016, 1.632, 2.5, 28.263, -0.014, 1.837, 2.5
 118220193, 28.544, -0.002, 1.469, 2.5, 28.405, -0.016, 1.632, 2.5
 118420946, 28.674, 0.004, 1.296, 2.5, 28.544, -0.002, 1.469, 2.5
 118620866, 28.792, 0.01, 1.22, 2.5, 28.674, 0.004, 1.296, 2.5
 118820786, 28.908, 0.001, 1.076, 2.5, 28.792, 0.01, 1.22, 2.5
 119020706, 29.014, -0.002, 0.872, 2.5, 28.908, 0.001, 1.076, 2.5
 119220626, 29.106, 0.005, 0.696, 2.5, 29.014, -0.002, 0.872, 2.5
 119420546, 29.172, 0.028, 0.537, 2.5, 29.106, 0.005, 0.696, 2.5
 119620466, 29.231, 0.02, 0.407, 2.5, 29.172, 0.028, 0.537, 2.5
 119820386, 29.288, 0.016, 0.369, 2.5, 29.231, 0.02, 0.407, 2.5
 120020306, 29.344, 0.017, 0.306, 2.5, 29.288, 0.016, 0.369, 2.5
 120220226, 29.379, 0.025, 0.254, 2.5, 29.344, 0.017, 0.306, 2.5
 120420146, 29.416, 0.018, 0.255, 2.5, 29.379, 0.025, 0.254, 2.5
 120620899, 28.99, 0.059, 0.181, 2.5, 29.416, 0.018, 0.255, 2.5
 120820819, 27.339, -0.105, 0.086, 2.5, 28.99, 0.059, 0.181, 2.5
 121020739, 25.516, -0.851, 0.234, 2.5, 27.339, -0.105, 0.086, 2.5
 121220659, 23.826, -1.823, 0.668, 2.5, 25.516, -0.851, 0.234, 2.5
