TimeUS,CAN,CAE,CAD,CAe,NAN,NAE,NAD,NAe,m10,m00,Gye
 8425795, 0.01136754, 0.0003521068, -0.05493043, 1.567772, 0.00214025, -8.148794E-05, -0.07671443, 1.566978, -0.9757831, -0.2187405, 11.72367
 8606556, 0.002325439, 0.0001522965, -0.07869605, 1.60108, -0.0001053945, 9.190226E-05, -0.001018357, 0.03363385, -0.9814997, -0.1914634, 28227.99
 8806476, 0.0001526288, 1.658939E-05, -0.003313043, 0.07129171, 8.807565E-05, 8.436442E-05, -0.001067009, 0.03718013, -0.9869645, -0.160938, 43.18072
 9006396, 5.226103E-05, 0.0002111727, -0.00309779, 0.07482506, 0.000116906, 5.071903E-05, -0.001133804, 0.03718013, -0.990826, -0.1351437, 44.76286
 9206316, 0.0005031109, 0.0001864772, -0.003193448, 0.07482506, 0.0003678887, 8.2218E-05, -0.0008983558, 0.03718013, -0.9935443, -0.1134446, 44.76286
 9406236, 0.0005420728, 0.0003032014, -0.003284474, 0.07482506, -3.343616E-05, 0.0005853602, -0.001335766, 0.03718013, -0.9954585, -0.09519687, 44.76286
 9606156, 0.0001312213, 0.0008702832, -0.003551504, 0.07482506, -0.0001152051, 0.0004466574, -0.0010094, 0.03718013, -0.9968081, -0.07983479, 44.76286
 9806076, 5.263524E-05, 0.000377942, -0.003474504, 0.07483085, -0.0001722829, 0.0001099787, -0.001350016, 0.03719873, -0.9977587, -0.06691508, 44.76818
 10005996, -0.0001037189, 0.0002400373, -0.003611882, 0.07486238, 3.640034E-05, -0.000185404, -0.0009554735, 0.03719873, -0.9984273, -0.0560624, 44.78527
 10205916, 8.293641E-05, -2.691506E-05, -0.003034302, 0.07486238, 0.0002475821, 0.0002614036, -0.0009464041, 0.03719873, -0.9988958, -0.04697924, 44.78527
 10405836, 0.0004009313, 0.0004642816, -0.003147727, 0.07486238, 0.0004971712, 1.742695E-07, -0.001453383, 0.03719873, -0.999225, -0.03936258, 44.78527
 10606589, 0.0007124525, 0.0002679877, -0.003627812, 0.07501738, 4.992101E-05, -0.000181214, -0.001026505, 0.03735372, -0.9994572, -0.0329418, 43.19506
 10806509, 0.0002143866, 8.024039E-05, -0.003433048, 0.07501159, 0.0002959419, 0.0001425361, -0.00127683, 0.03718014, -0.9996195, -0.02758489, 44.8735
 11006429, 0.000402274, 0.0004013733, -0.003603744, 0.07482506, -0.000110588, 0.0001023422, -0.001170498, 0.03718014, -0.9997336, -0.02308024, 44.76286
 11206349, 0.0001281963, 0.0001565158, -0.003352269, 0.07482506, 0.0002471704, 0.0001468803, -0.001289152, 0.03718014, -0.9998137, -0.01930197, 44.76286
 11406269, 0.0006466609, 0.0002571243, -0.003499218, 0.07482506, 0.0007056731, -0.0001980052, -0.001373446, 0.03718014, -0.9998698, -0.01613139, 44.76286
 11606189, 0.0008814077, -0.0001023157, -0.003605867, 0.07482506, 0.0002685707, 2.200547E-05, -0.001246641, 0.03718014, -0.9999092, -0.01347738, 44.76286
 11806109, 0.0007648391, 0.0004360591, -0.003483331, 0.07482506, 0.0002325424, 0.0004736943, -0.001172951, 0.03718014, -0.9999366, -0.01125279, 44.76286
 12006029, 0.0006231914, 0.0008420207, -0.00330473, 0.07482506, 8.441087E-05, 0.0001814903, -0.001405026, 0.03718014, -0.9999559, -0.009397981, 44.76286
 12205949, 0.0004669423, 0.0005310419, -0.003733362, 0.07482506, 0.0002268599, 3.172009E-05, -0.0009188384, 0.03718014, -0.9999693, -0.007837355, 44.76286
 12405869, 0.0005707584, 0.00026182, -0.003047529, 0.07482506, -0.0001682003, 0.000236069, -0.001125913, 0.03718014, -0.9999789, -0.006499079, 44.76286
 12605789, 0.0001451683, 0.0005954994, -0.003379921, 0.07482506, 0.0003876385, 7.538E-05, -0.0008679469, 0.03718014, -0.9999863, -0.005251723, 44.76286
 12806542, 0.0008105272, 0.0001631803, -0.003020172, 0.07498554, 0.0002294454, -1.453093E-05, -0.001121595, 0.03735372, -0.9999912, -0.004203362, 44.85975
 13006462, 0.0005984776, -1.904193E-05, -0.003290223, 0.07501738, 0.0003140419, -0.0001349918, -0.001639623, 0.03719873, -0.9999945, -0.003337318, 44.87799
 13206382, 0.000625449, 0.000264302, -0.003655956, 0.07486238, 3.809598E-05, 0.0001331003, -0.001090912, 0.03719873, -0.9999965, -0.002628197, 44.78527
 13406302, 3.576167E-05, 0.0003033827, -0.003271178, 0.07486238, -0.0001554833, 0.0002642378, -0.00119937, 0.03719873, -0.9999979, -0.002042319, 44.78527
 13606222, -3.620963E-05, 0.0007375128, -0.003216675, 0.07486238, -9.250687E-05, 0.0002738802, -0.001055044, 0.03719873, -0.9999988, -0.001544292, 44.78527
 13806142, 0.0002866502, 0.0006540554, -0.003267542, 0.07485683, 0.0005481223, 0.0002013227, -0.001206357, 0.03718014, -0.9999994, -0.001115899, 44.78107
 14006062, 0.0009291701, 0.0004710962, -0.00325474, 0.07482506, 2.546396E-05, 0.0001844161, -0.001150745, 0.03718014, -0.9999998, -0.0007448239, 44.76286
 14205982, 0.0003315968, 0.0002959724, -0.003409654, 0.07482506, 2.933769E-05, -0.0001078892, -0.00127615, 0.03718014, -0.9999999, -0.0004276571, 44.76286
 14405902, 0.0004143098, 0.0001984321, -0.003377521, 0.07482506, -4.842255E-05, 0.000205967, -0.001191329, 0.03718014, -1, -0.000162959, 44.76286
 14605822, -4.227813E-05, 0.0003002167, -0.003419831, 0.07482506, 7.952865E-05, -1.534786E-05, -0.001146852, 0.03718014, -1, 5.774075E-05, 44.76286
 14806575, 0.0002899414, 0.0001966047, -0.003301312, 0.07498562, 0.0002453736, -3.794531E-05, -0.001226106, 0.03735372, -1, 0.0002462029, 44.85975
 15006495, 0.0005315608, 7.423061E-05, -0.003490733, 0.07501738, 0.0002984325, -3.197269E-05, -0.001049418, 0.03719873, -0.9999999, 0.0003988513, 44.87799
 15206415, 0.0003147924, 0.0002240375, -0.003445995, 0.07486238, 0.0001085602, 0.0003893249, -0.001273013, 0.03719873, -0.9999999, 0.0005139707, 44.78527
 15406335, 0.0003454663, 0.000799865, -0.003354484, 0.07486238, 0.000333152, -1.129607E-05, -0.0009245176, 0.03719873, -0.9999999, 0.0005968719, 44.78527
 15606255, 0.0004353459, 0.0004031418, -0.002988982, 0.07486238, 0.0002408119, 0.0001085836, -0.0008051654, 0.03719873, -0.9999998, 0.0006542532, 44.78527
 15806175, 0.0005083146, 0.0005019779, -0.002940749, 0.07485683, 0.0002137036, 0.0001671457, -0.001402499, 0.03718014, -0.9999998, 0.0007011264, 44.78107
 16006095, 0.0004759173, 0.0005343875, -0.003274767, 0.07482506, 0.0001123353, 0.0002637647, -0.001076699, 0.03718014, -0.9999998, 0.0007479471, 44.76286
 16206015, 0.0003844604, 0.0005046764, -0.003657165, 0.07482506, 0.0001212451, 5.81687E-05, -0.001575886, 0.03718014, -0.9999996, 0.0007880292, 44.76286
 16405935, 0.0003692169, 0.0004024758, -0.003746707, 0.07482506, 0.0002670289, 1.45131E-05, -0.001301402, 0.03718014, -0.9999996, 0.0008229357, 44.76286
 16605855, 0.0004012337, 0.0002281388, -0.003484115, 0.07482506, -8.266417E-05, 0.000124061, -0.001250935, 0.03718014, -0.9999996, 0.0008573325, 44.76286
 16805775, 0.0002981247, 0.0007869707, -0.003245867, 0.07482506, 0.0002832909, 0.0004537048, -0.0009446537, 0.03718014, -0.9999996, 0.0008903495, 44.76286
 17006528, 0.000661766, 0.0008448507, -0.003079935, 0.07497998, 0.0005163376, 0.0003682422, -0.001423629, 0.03733505, -0.9999996, 0.0009195436, 44.85553
 17206448, 0.0008105674, 0.0006191021, -0.003518992, 0.07497998, 6.107269E-05, -0.0001027306, -0.0008103084, 0.03718014, -0.9999995, 0.0009556332, 44.85553
 17406368, 0.0006698247, 1.082214E-05, -0.003182785, 0.07482506, 0.0004045739, -6.638966E-05, -0.001400893, 0.03718014, -0.9999995, 0.0009926322, 44.76286
 17606288, 0.0008508277, 0.0002412355, -0.003732138, 0.07482506, 0.0006103707, 0.0002420132, -0.001308211, 0.03718014, -0.9999995, 0.00102251, 44.76286
 17806208, 0.0007191725, 0.000659028, -0.003416051, 0.07483039, 0.000113127, 0.0002914048, -0.001087771, 0.03719873, -0.9999995, 0.001042175, 44.76678
 18006128, 0.0002559898, 0.0005315491, -0.003405297, 0.07486238, 0.0001798129, -0.0001556013, -0.001437612, 0.03719873, -0.9999995, 0.001058535, 44.78527
 18206048, 0.0004556709, 0.0002725318, -0.003480032, 0.07486238, 0.000147494, 0.0003445468, -0.001194018, 0.03719873, -0.9999994, 0.00106099, 44.78527
 18405968, 0.0006767873, 0.0009734423, -0.003347478, 0.07486238, 6.093727E-05, 0.0006086956, -0.000921609, 0.03719873, -0.9999994, 0.00104129, 44.78527
 18605888, 0.000409278, 0.001406714, -0.002959919, 0.07486238, 0.000195562, 0.0001901164, -0.00138291, 0.03719873, -0.9999995, 0.001004742, 44.78527
 18805808, 0.0005926372, 0.0009181021, -0.003505065, 0.07485706, 0.0003465708, 0.0003181109, -0.001252823, 0.03718014, -0.9999995, 0.0009889487, 44.78135
 19006561, 0.0008966654, 0.000683351, -0.003241016, 0.07497998, 0.0006665385, 9.056439E-05, -0.001212298, 0.03733505, -0.9999995, 0.001003108, 44.85553
 19206481, 0.001051981, 0.0005073251, -0.003385386, 0.07497998, 6.902724E-05, 0.0005595773, -0.0009688482, 0.03718014, -0.9999995, 0.001020817, 44.85553
 19406401, 0.0003800043, 0.0007295155, -0.003281909, 0.07482506, 0.0001836462, 0.0002933033, -0.001303809, 0.03718014, -0.9999995, 0.0010334, 44.76286
 19606321, 0.0004297792, 0.0006982348, -0.003472204, 0.07482506, -0.0001948605, 0.0006199525, -0.001340219, 0.03718014, -0.9999995, 0.001040635, 44.76286
 19806241, 0.0001825838, 0.0008155527, -0.00376965, 0.07483039, 0.000250736, 0.0002260647, -0.001036544, 0.03719873, -0.9999994, 0.001038826, 44.76678
 20006161, 0.0005870929, 0.0004627644, -0.003198085, 0.07486238, -0.0001312332, 0.0004106775, -0.001340061, 0.03719873, -0.9999994, 0.001039519, 44.78527
 20206081, 0.0003109698, 0.001010516, -0.003443941, 0.07486238, 1.044778E-05, 0.0003886699, -0.0008396711, 0.03719873, -0.9999994, 0.001035334, 44.78527
 20406001, 0.0002349678, 0.0009160521, -0.003066175, 0.07486238, 0.0002608317, 0.0002949278, -0.001157495, 0.03719873, -0.9999994, 0.001022566, 44.78527
 20605921, 0.0005885873, 0.0008888828, -0.003187925, 0.07486238, 0.0001197546, 0.0002241219, -0.001147432, 0.03719873, -0.9999995, 0.001008189, 44.78527
 20805841, 0.0003579087, 0.0006235765, -0.003222814, 0.07485729, -0.0002329477, 0.0003565222, -0.001367497, 0.03718014, -0.9999995, 0.001009426, 44.78163
 21005761, 0.0002116845, 0.0006122376, -0.003482174, 0.07482506, 0.0002591765, -5.231618E-05, -0.001048676, 0.03718014, -0.9999995, 0.00102511, 44.76286
 21206514, 0.0007542126, 0.0001703298, -0.003019683, 0.07497998, 0.0004874153, 0.0003142946, -0.001131755, 0.03733505, -0.9999995, 0.001040431, 44.85553
 21406434, 0.001010424, 0.0009614163, -0.003340373, 0.07497998, 0.0005835527, 0.0002944592, -0.0009297584, 0.03718014, -0.9999994, 0.001034823, 44.85553
 21606354, 0.001091442, 0.0007957506, -0.003055856, 0.07482506, 0.0002730738, 0.0002554067, -0.0009953855, 0.03718014, -0.9999994, 0.001030316, 44.76286
 21806274, 0.0006393003, 0.0008982531, -0.003160861, 0.07482506, 0.0004184576, 0.0001344703, -0.001268048, 0.03718014, -0.9999994, 0.001043113, 44.76286
 22006194, 0.0009081842, 0.0004150371, -0.003289777, 0.07482506, 0.0001188373, 0.0001109267, -0.0009940723, 0.03718014, -0.9999994, 0.001064567, 44.76286
 22206114, 0.0006846374, 0.0006393504, -0.003430417, 0.07482506, 0.0003962349, 0.0002952365, -0.001245226, 0.03718014, -0.9999994, 0.001084416, 44.76286
 22406034, 0.0008464984, 0.0006822122, -0.003395627, 0.07482506, 0.000398567, 0.0006236103, -0.001374392, 0.03718014, -0.9999993, 0.001234876, 44.76286
 22605954, 0.0008969046, 0.001167585, -0.003616513, 0.07482506, 0.0003107574, 0.0004331303, -0.001035013, 0.03718014, -0.999999, 0.001411744, 44.76286
 22805874, 0.00113277, 0.0009406514, -0.003263367, 0.07483016, 0.0006161331, -2.714242E-05, -0.001226807, 0.03719873, -0.9999987, 0.001578239, 44.7665
 23005794, 0.001259226, 0.0008158197, -0.003750171, 0.07486238, 0.0002972364, 0.0002877461, -0.001267468, 0.03719873, -0.9999985, 0.001739922, 44.78527
 23206547, 0.001231001, 0.001136617, -0.003460628, 0.07501738, 0.0005485329, 0.0004268111, -0.001047561, 0.03735372, -0.9999982, 0.001898242, 44.87799
 23406467, 0.001353205, 0.00118778, -0.003133287, 0.07501738, 0.0004140198, 0.0004026853, -0.001265858, 0.03719873, -0.9999979, 0.002051129, 44.87799
 23606387, 0.001211423, 0.001188901, -0.003424931, 0.07486238, 0.0003739243, 0.0002337308, -0.001211801, 0.03719873, -0.9999975, 0.002200424, 44.78527
 23806307, 0.001348806, 0.001165401, -0.003293114, 0.07485729, 0.0005449326, 0.0005789797, -0.0009987805, 0.03718014, -0.9999971, 0.00234453, 44.78163
 24006227, 0.001749014, 0.00176583, -0.003176724, 0.07482506, 0.0007314585, 0.0006929276, -0.001421694, 0.03718014, -0.9999968, 0.0024856, 44.76286
 24206147, 0.001910332, 0.00162104, -0.0034547, 0.07482506, 0.000628954, 0.0006976874, -0.001102341, 0.03718014, -0.9999964, 0.00262208, 44.76286
 24406067, 0.001941173, 0.001951155, -0.003325575, 0.07482506, 0.0007505413, 0.000531201, -0.001112853, 0.03718014, -0.9999961, 0.002755019, 44.76286
 24605987, 0.001890208, 0.001879004, -0.003366481, 0.07482506, 0.0006227911, 0.0006891292, -0.00133198, 0.03718014, -0.9999957, 0.002885084, 44.76286
 24805907, 0.00210806, 0.002114644, -0.003491405, 0.07482993, 0.00095971, 0.001093612, -0.001195607, 0.03719873, -0.9999954, 0.003010433, 44.76622
 25005827, 0.002311019, 0.002825289, -0.003422588, 0.07486238, 0.000487603, 0.0009938388, -0.001085533, 0.03719873, -0.9999949, 0.003132051, 44.78527
 25206580, 0.00229338, 0.002682155, -0.003267018, 0.07501738, 0.0009539665, 0.0008324851, -0.001070267, 0.03735372, -0.9999945, 0.003251815, 44.87799
 25406500, 0.002841892, 0.002416638, -0.003098007, 0.07501738, 0.0009967816, 0.0008925172, -0.001035539, 0.03719873, -0.999994, 0.003367682, 44.87799
 25606420, 0.002726467, 0.002699098, -0.003322542, 0.07486238, 0.0008354341, 0.001151515, -0.001359096, 0.03719873, -0.9999937, 0.00348062, 44.78527
 25806340, 0.00245925, 0.003151918, -0.003575476, 0.07485752, 0.0006899321, 0.0009993237, -0.001041915, 0.03718014, -0.9999932, 0.003591739, 44.78191
 26006260, 0.002560616, 0.002759136, -0.003344081, 0.07482506, 0.001023843, 0.001027491, -0.001014755, 0.03718014, -0.9999928, 0.003699449, 44.76286
 26206180, 0.002962223, 0.00301118, -0.003262154, 0.07482506, 0.001356252, 0.001003051, -0.001298562, 0.03718014, -0.9999924, 0.003805609, 44.76286
 26406100, 0.003405347, 0.002933331, -0.003414768, 0.07482506, 0.001079948, 0.001544031, -0.0009293748, 0.03718014, -0.999992, 0.003907031, 44.76286
 26606020, 0.003208686, 0.003593907, -0.003147992, 0.07482506, 0.001023283, 0.001140958, -0.0009425778, 0.03718014, -0.9999915, 0.004005427, 44.76286
 26805940, 0.003301403, 0.003178864, -0.00316228, 0.07482506, 0.00130286, 0.001286117, -0.001116092, 0.03718014, -0.9999911, 0.004102241, 44.76286
 27005860, 0.003648689, 0.003317129, -0.003298784, 0.07482506, 0.001198897, 0.001238128, -0.001256579, 0.03718014, -0.9999907, 0.004195524, 44.76286
 27205780, 0.003316596, 0.003376144, -0.003577087, 0.07482506, 0.0009917096, 0.0007429227, -0.001435207, 0.03718014, -0.9999903, 0.004287119, 44.76286
 27406533, 0.003214094, 0.003031349, -0.003601428, 0.07497998, 0.001364323, 0.001161871, -0.001028894, 0.03733505, -0.9999899, 0.004377414, 44.85553
 27606453, 0.003640375, 0.00365066, -0.003077052, 0.07497998, 0.001508218, 0.001782124, -0.000938761, 0.03718014, -0.9999895, 0.004451449, 44.85553
 27806373, 0.003904354, 0.00426848, -0.003100917, 0.07482993, 0.00114629, 0.001358045, -0.001262257, 0.03719873, -0.9999893, 0.004496224, 44.76622
 28006293, 0.003512416, 0.003790342, -0.00345896, 0.07486238, 0.001262052, 0.001324168, -0.001172957, 0.03719873, -0.999989, 0.004540402, 44.78527
 28206213, 0.00370764, 0.003847867, -0.003293814, 0.07486238, 0.001357333, 0.001214295, -0.001236925, 0.03719873, -0.9999889, 0.004582881, 44.78527
 28406133, 0.003840295, 0.003515485, -0.003650244, 0.07486238, 0.001277993, 0.001269234, -0.001019542, 0.03719873, -0.9999887, 0.004624933, 44.78527
 28606053, 0.004021712, 0.003717057, -0.003300327, 0.07486238, 0.001189507, 0.001488251, -0.001224028, 0.03719873, -0.9999884, 0.004665749, 44.78527
 28805973, 0.003687998, 0.004164292, -0.003452282, 0.07485775, 0.001086251, 0.001371127, -0.001282616, 0.03718014, -0.9999882, 0.004705607, 44.78219
 29005893, 0.003786523, 0.004111934, -0.003503426, 0.07482506, 0.001411496, 0.001433748, -0.0009694012, 0.03718014, -0.9999881, 0.004744184, 44.76286
 29205813, 0.003964526, 0.00417268, -0.003150454, 0.07482506, 0.001269278, 0.001168906, -0.001196673, 0.03718014, -0.9999878, 0.004782421, 44.76286
 29406566, 0.003950536, 0.004090013, -0.003479297, 0.07497998, 0.001767588, 0.001303087, -0.001224681, 0.03733505, -0.9999876, 0.004820853, 44.85553
 29606486, 0.0045065, 0.0039969, -0.003316448, 0.07497998, 0.001398316, 0.001628339, -0.0009627459, 0.03718014, -0.9999875, 0.00485821, 44.85553
 29806406, 0.003996258, 0.004493108, -0.003037589, 0.0748297, 0.001654394, 0.001535408, -0.001073501, 0.03719873, -0.9999872, 0.004894508, 44.76594
 30006326, 0.004405144, 0.004284069, -0.003057382, 0.07486238, 0.001522643, 0.001619855, -0.001329099, 0.03719873, -0.999987, 0.004929573, 44.78527
 30206246, 0.004292539, 0.004338573, -0.003614763, 0.07486238, 0.001552017, 0.001738226, -0.001110432, 0.03719873, -0.9999868, 0.004964238, 44.78527
 30406166, 0.004405674, 0.004692636, -0.003327725, 0.07486238, 0.001587222, 0.001454732, -0.001561946, 0.03719873, -0.9999866, 0.004997752, 44.78527
 30606086, 0.004657156, 0.004487249, -0.003774582, 0.07486238, 0.001776609, 0.001612222, -0.001038642, 0.03719873, -0.9999864, 0.005031563, 44.78527
 30806006, 0.004366802, 0.004472852, -0.003144989, 0.07486238, 0.001357292, 0.001759054, -0.0009893237, 0.03719873, -0.9999863, 0.005063409, 44.78527
 31005926, 0.004125135, 0.004401491, -0.003465316, 0.07486238, 0.001552161, 0.001365494, -0.001412889, 0.03719873, -0.9999861, 0.005094532, 44.78527
 31205846, 0.004551229, 0.004367311, -0.003694602, 0.07486238, 0.001614921, 0.001737587, -0.001119876, 0.03719873, -0.9999859, 0.005124879, 44.78527
 31405766, 0.004684448, 0.0049183, -0.003481864, 0.07486238, 0.00178267, 0.001424719, -0.001554398, 0.03719873, -0.9999857, 0.005154415, 44.78527
 31606519, 0.004996324, 0.004453631, -0.003802278, 0.07501738, 0.001572462, 0.001672673, -0.001385235, 0.03735372, -0.9999855, 0.005183309, 44.87799
 31806439, 0.004783502, 0.004650986, -0.003537596, 0.07501738, 0.001691149, 0.001744577, -0.001229628, 0.03719873, -0.9999853, 0.005212603, 44.87799
 32006359, 0.004707009, 0.004997982, -0.00325503, 0.07486238, 0.001761263, 0.001644485, -0.001062498, 0.03719873, -0.9999852, 0.005241489, 44.78527
 32206279, 0.004830976, 0.004692158, -0.003257508, 0.07486238, 0.001616583, 0.001475616, -0.001583149, 0.03719873, -0.999985, 0.005269045, 44.78527
 32406199, 0.00492879, 0.004643495, -0.003982359, 0.07486238, 0.00160974, 0.0020333, -0.001327686, 0.03719873, -0.9999849, 0.005296445, 44.78527
 32606119, 0.004857378, 0.005394419, -0.003627018, 0.07486238, 0.001931155, 0.001815194, -0.0009198, 0.03719873, -0.9999847, 0.005322096, 44.78527
 32806039, 0.005296142, 0.005007105, -0.003170318, 0.07486238, 0.001929573, 0.001762273, -0.001463481, 0.03719873, -0.9999849, 0.005277697, 44.78527
 33005959, 0.005287717, 0.004958045, -0.00341501, 0.07486238, 0.001845207, 0.001580064, -0.0007972936, 0.03719873, -0.9999851, 0.005234006, 44.78527
 33205879, 0.005063602, 0.00491869, -0.002821246, 0.07486238, 0.00183856, 0.001769082, -0.001183674, 0.03719873, -0.9999853, 0.005191488, 44.78527
 33405799, 0.005054162, 0.005252012, -0.002991384, 0.07486238, 0.001780248, 0.002057219, -0.0008620009, 0.03719873, -0.9999856, 0.005149389, 44.78527
 33606552, 0.004898524, 0.005669317, -0.003262918, 0.07501738, 0.001531936, 0.001628786, -0.001281012, 0.03735372, -0.9999857, 0.005109171, 44.87799
 33806472, 0.004845862, 0.005097017, -0.003678082, 0.07501738, 0.001987397, 0.001829422, -0.001376328, 0.03719873, -0.9999859, 0.005070532, 44.87799
 34006392, 0.005247287, 0.005110423, -0.003532663, 0.07486238, 0.001570316, 0.001686848, -0.001066357, 0.03719873, -0.9999862, 0.005032675, 44.78527
 34206312, 0.004972299, 0.00517715, -0.003228449, 0.07486238, 0.001708328, 0.00192283, -0.00121722, 0.03719873, -0.9999863, 0.004996319, 44.78527
 34406232, 0.004832663, 0.005254977, -0.003476714, 0.07486238, 0.001904949, 0.001848355, -0.00124432, 0.03719873, -0.9999864, 0.004960863, 44.78527
 34606152, 0.00517008, 0.00542637, -0.003433374, 0.07486238, 0.001714217, 0.001936728, -0.001528932, 0.03719873, -0.9999865, 0.00492609, 44.78527
 34806072, 0.004854308, 0.005356348, -0.003541687, 0.07486238, 0.001601722, 0.002066075, -0.001251715, 0.03719873, -0.9999868, 0.004891564, 44.78527
 35005992, 0.004837785, 0.005362305, -0.003682246, 0.07486238, 0.001899135, 0.00177844, -0.00152582, 0.03719873, -0.9999869, 0.004858976, 44.78527
 35205912, 0.005143307, 0.005337016, -0.003974258, 0.07486238, 0.001793918, 0.001845874, -0.00147353, 0.03719873, -0.999987, 0.00482712, 44.78527
 35405832, 0.005401935, 0.005313269, -0.003599825, 0.07486238, 0.001996069, 0.00177988, -0.0008675359, 0.03719873, -0.9999871, 0.004795655, 44.78527
 35606585, 0.005268024, 0.005383687, -0.002895364, 0.07501738, 0.002149032, 0.002110294, -0.0008353845, 0.03735372, -0.9999874, 0.004765858, 44.87799
 35806505, 0.005452667, 0.005541282, -0.003280144, 0.07501738, 0.001947428, 0.002029216, -0.001229627, 0.03719873, -0.9999874, 0.004737705, 44.87799
 36006425, 0.005305834, 0.005515628, -0.003427805, 0.07486238, 0.001795375, 0.001620748, -0.001197804, 0.03719873, -0.9999875, 0.004710549, 44.78527
 36206345, 0.005057015, 0.005178645, -0.003274597, 0.07486238, 0.001649407, 0.001831581, -0.001173537, 0.03719873, -0.9999876, 0.004683944, 44.78527
 36406265, 0.005096413, 0.005419862, -0.003473194, 0.07486238, 0.002058672, 0.001959972, -0.001048181, 0.03719873, -0.9999877, 0.004657712, 44.78527
 36606185, 0.005696879, 0.005405219, -0.003152096, 0.07486238, 0.001935289, 0.002016523, -0.001179061, 0.03719873, -0.9999878, 0.004632576, 44.78527
 36806105, 0.005333437, 0.00552619, -0.003304282, 0.07486238, 0.002178532, 0.00190533, -0.001069582, 0.03719873, -0.999988, 0.004607844, 44.78527
 37006025, 0.005698191, 0.005540949, -0.003323754, 0.07486238, 0.001772767, 0.001970181, -0.001354918, 0.03719873, -0.9999881, 0.004584684, 44.78527
 37205945, 0.005093893, 0.005705282, -0.003584607, 0.07486238, 0.001518371, 0.002274352, -0.0009132509, 0.03719873, -0.9999881, 0.004561408, 44.78527
 37405865, 0.005240791, 0.005760777, -0.003228501, 0.07486238, 0.001828805, 0.001928985, -0.001259458, 0.03719873, -0.9999882, 0.004539065, 44.78527
 37605785, 0.005562044, 0.005559888, -0.003579822, 0.07486238, 0.002013711, 0.001949698, -0.001526641, 0.03719873, -0.9999883, 0.00451549, 44.78527
 37806538, 0.005616437, 0.005729298, -0.003682823, 0.07501738, 0.002007999, 0.001831186, -0.0009965942, 0.03735372, -0.9999887, 0.004438743, 44.87799
 38006458, 0.005520661, 0.005558122, -0.002971386, 0.07501738, 0.001956905, 0.001733344, -0.0007776546, 0.03719873, -0.999989, 0.004345523, 44.87799
 38206378, 0.005622642, 0.005310741, -0.00327206, 0.07486238, 0.001810777, 0.001378837, -0.001768134, 0.03719873, -0.9999895, 0.004255631, 44.78527
 38406298, 0.005270561, 0.005021372, -0.00393424, 0.07486238, 0.00187301, 0.001909674, -0.001337976, 0.03719873, -0.9999899, 0.00416726, 44.78527
 38606218, 0.005481398, 0.005526865, -0.00347734, 0.07486238, 0.002138376, 0.002218993, -0.00107288, 0.03719873, -0.9999902, 0.004080795, 44.78527
 38806138, 0.005636603, 0.005946212, -0.003213352, 0.07486238, 0.002067724, 0.001993507, -0.0007000566, 0.03719873, -0.9999905, 0.00399702, 44.78527
 39006058, 0.005815659, 0.005634934, -0.002779993, 0.07486238, 0.00223711, 0.001861284, -0.001303966, 0.03719873, -0.9999908, 0.003915661, 44.78527
 39205978, 0.005972599, 0.005563149, -0.003538231, 0.07486238, 0.00203471, 0.001872212, -0.001346496, 0.03719873, -0.9999912, 0.003837107, 44.78527
 39405898, 0.005686329, 0.005395003, -0.003611893, 0.07486238, 0.002075561, 0.001976935, -0.001019615, 0.03719873, -0.9999914, 0.003760391, 44.78527
 39605818, 0.005651972, 0.005386281, -0.003110902, 0.07486238, 0.001846835, 0.001666485, -0.001047134, 0.03719873, -0.9999917, 0.003685569, 44.78527
 39806571, 0.005431452, 0.005392849, -0.003215808, 0.07501738, 0.001904547, 0.002078255, -0.00115471, 0.03735372, -0.9999919, 0.003611946, 44.87799
 40006491, 0.00551331, 0.005985688, -0.003223594, 0.07501738, 0.001723151, 0.002245537, -0.001124506, 0.03719873, -0.9999923, 0.003540606, 44.87799
 40206411, 0.005250175, 0.005651474, -0.003197062, 0.07486238, 0.001974113, 0.001801478, -0.0008889289, 0.03719873, -0.9999925, 0.003471543, 44.78527
 40406331, 0.005396612, 0.005445369, -0.003117498, 0.07486238, 0.001907827, 0.00223014, -0.000881318, 0.03719873, -0.9999926, 0.003404745, 44.78527
 40606251, 0.005390641, 0.006047096, -0.003030287, 0.07486238, 0.001947546, 0.002181546, -0.00123199, 0.03719873, -0.9999928, 0.003340068, 44.78527
 40806171, 0.005438085, 0.006010172, -0.003447507, 0.07486238, 0.001631526, 0.002381988, -0.00113651, 0.03719873, -0.9999931, 0.003276616, 44.78527
 41006091, 0.005167217, 0.006238367, -0.003152698, 0.07486238, 0.001906655, 0.002157094, -0.001145461, 0.03719873, -0.9999932, 0.003214351, 44.78527
 41206011, 0.005524925, 0.0060131, -0.003123923, 0.07486238, 0.001872718, 0.001948104, -0.001250146, 0.03719873, -0.9999934, 0.003154733, 44.78527
 41405931, 0.0056383, 0.005619785, -0.003518243, 0.07486238, 0.002036934, 0.001929943, -0.001173674, 0.03719873, -0.9999936, 0.003095295, 44.78527
 41605851, 0.005722167, 0.005876226, -0.003323246, 0.07486238, 0.002246165, 0.002407731, -0.001001313, 0.03719873, -0.9999938, 0.003037595, 44.78527
 41805771, 0.005926964, 0.006392526, -0.00335492, 0.07486238, 0.002173533, 0.002073298, -0.00121433, 0.03719873, -0.9999939, 0.002981633, 44.78527
 42006524, 0.005762902, 0.005853411, -0.003230344, 0.07501738, 0.00218752, 0.002166697, -0.001148803, 0.03735372, -0.9999942, 0.002926313, 44.87799
 42206444, 0.006016833, 0.006256111, -0.003085724, 0.07501738, 0.00210631, 0.002019377, -0.001034926, 0.03719873, -0.9999942, 0.002873438, 44.87799
 42406364, 0.005750872, 0.005839155, -0.003204047, 0.07486238, 0.001672551, 0.002048676, -0.001323365, 0.03719873, -0.9999944, 0.002822091, 44.78527
 42606284, 0.005444202, 0.005851952, -0.003455979, 0.07486238, 0.001991541, 0.002081226, -0.001257582, 0.03719873, -0.9999945, 0.00277226, 44.78527
 42806204, 0.00560759, 0.005938114, -0.00347273, 0.07486238, 0.001482436, 0.002194893, -0.001126849, 0.03719873, -0.9999946, 0.002694489, 44.78527
 43006124, 0.004973025, 0.006307377, -0.003440469, 0.07486238, 0.001845042, 0.002555975, -0.001047265, 0.03719873, -0.999995, 0.00258242, 44.78527
 43206044, 0.005547905, 0.00640273, -0.003328218, 0.07486238, 0.001821572, 0.002183409, -0.001110898, 0.03719873, -0.9999952, 0.002474172, 44.78527
 43405964, 0.005545198, 0.006122841, -0.003337828, 0.07486238, 0.00175588, 0.002307557, -0.001142767, 0.03719873, -0.9999956, 0.002369525, 44.78527
 43605884, 0.005435176, 0.0062946, -0.003150747, 0.07486238, 0.001607315, 0.002123653, -0.0009926008, 0.03719873, -0.9999958, 0.00226761, 44.78527
 43805804, 0.005146625, 0.00583781, -0.003056342, 0.07486238, 0.002014445, 0.002020815, -0.001187849, 0.03719873, -0.9999961, 0.002168958, 44.78527
 44006557, 0.005556055, 0.006057549, -0.003309756, 0.07501738, 0.002091679, 0.001986479, -0.001229051, 0.03735372, -0.9999962, 0.002072575, 44.87799
 44206477, 0.005797395, 0.005847746, -0.003437595, 0.07501738, 0.002134552, 0.002103863, -0.0009686968, 0.03719873, -0.9999964, 0.001979703, 44.87799
 44406397, 0.005929574, 0.005650811, -0.003047789, 0.07486238, 0.00230184, 0.001809957, -0.0007556157, 0.03719873, -0.9999967, 0.001890126, 44.78527
 44606317, 0.005930386, 0.005377252, -0.003018196, 0.07486238, 0.00219803, 0.002199237, -0.001527139, 0.03719873, -0.9999968, 0.001802263, 44.78527
 44806237, 0.005743218, 0.005689367, -0.003570104, 0.07486238, 0.001822016, 0.001918135, -0.001142897, 0.03719873, -0.9999969, 0.001717173, 44.78527
 45006157, 0.005204124, 0.005618558, -0.003314437, 0.07486238, 0.001680572, 0.002136318, -0.001309586, 0.03719873, -0.999997, 0.00163435, 44.78527
 45206077, 0.005299447, 0.005718119, -0.003253928, 0.07486238, 0.002149878, 0.00209766, -0.000806649, 0.03719873, -0.9999973, 0.001553725, 44.78527
 45405997, 0.005894709, 0.005870846, -0.00301606, 0.07486238, 0.001997611, 0.002044513, -0.001050881, 0.03719873, -0.9999974, 0.001475292, 44.78527
 45605917, 0.005275979, 0.005934556, -0.003146164, 0.07486238, 0.001740211, 0.002222315, -0.001525148, 0.03719873, -0.9999974, 0.001399071, 44.78527
 45805837, 0.005389022, 0.005884876, -0.003694024, 0.07486238, 0.002226473, 0.001898546, -0.0012069, 0.03719873, -0.9999975, 0.001324235, 44.78527
 46006590, 0.005936929, 0.005630109, -0.003412875, 0.07501738, 0.002001224, 0.002190081, -0.001220971, 0.03735372, -0.9999976, 0.001251108, 44.87799
 46206510, 0.00565702, 0.006068589, -0.003466411, 0.07501738, 0.001877924, 0.001813647, -0.001252001, 0.03719873, -0.9999976, 0.001180923, 44.87799
 46406430, 0.005479049, 0.005543087, -0.03586649, 0.07486238, 0.001950129, 0.00216636, -0.07866862, 0.03719873, -0.9999977, 0.00111278, 44.78527
 46606350, 0.007070802, 0.007210327, -0.7309984, 0.07486238, 0.002253268, 0.002363196, -0.2003524, 0.03719873, -0.9999979, 0.001045916, 44.78527
 46806270, 0.006497368, 0.006034504, -1.158384, 0.07486238, 0.001993564, 0.001468383, -0.9180063, 0.03719873, -0.9999996, 0.0009031235, 44.78527
 47006190, 0.002960249, 0.0009146135, -2.401073, 0.07486238, -0.0003317799, -0.001136199, -0.63144, 0.03719873, -0.9999992, 0.0006975199, 44.78527
 47206110, -0.002177162, -0.004623431, -1.447903, 0.07486238, -0.001124822, -0.002501247, -0.3732803, 0.03719873, -0.9999986, 0.0004856502, 44.78527
 47406030, -0.002810428, -0.006253513, -1.049108, 0.07486238, -0.0009132152, -0.001868275, -0.3699019, 0.03719873, -0.9999986, 0.0002644418, 44.78527
 47605950, -0.001752165, -0.005468164, -1.022098, 0.07486238, -0.0002314281, -0.002008899, -0.3364367, 0.03719873, -0.9999985, 8.917708E-05, 44.78527
 47805870, -0.0001653083, -0.004751237, -0.8891242, 0.07486238, 0.0002417098, -0.001061103, -0.2764859, 0.03719873, -0.999999, 0.0004064226, 44.78527
 48005790, 0.001061957, -0.0018674, -0.731992, 0.07486238, 0.0005672931, -0.0001758621, -0.2292272, 0.03719873, -0.999999, 0.001182638, 44.78527
 48206543, 0.00257063, 0.001612096, -0.6123881, 0.07501738, 0.001161225, 0.001594629, -0.1940073, 0.03735372, -0.9999981, 0.001927053, 44.87799
 48406463, 0.003813639, 0.004490334, -0.512166, 0.07501738, 0.001659765, 0.001310331, -0.1596248, 0.03719873, -0.9999981, 0.001985562, 44.87799
 48606383, 0.005334493, 0.004468953, -0.4209367, 0.07486238, 0.002354219, 0.001602033, -0.1310566, 0.03719873, -0.9999992, 0.001308358, 44.78527
 48806303, 0.006105717, 0.004788481, -0.3449601, 0.07486238, 0.001735762, 0.001823465, -0.1061618, 0.03719873, -1, 9.455514E-05, 44.78527
 49006223, 0.004719758, 0.004216454, -0.2796212, 0.07486238, 0.00139296, 0.001214325, -0.08647139, 0.03719873, -0.9999992, -0.001218404, 44.78527
 49206143, 0.003043612, 0.00332568, -0.2268394, 0.07486238, 0.0005209988, 0.001272387, -0.06927671, 0.03719873, -0.9999971, -0.002389094, 44.78527
 49406063, 0.00143578, 0.004325124, -0.1808082, 0.07486238, 0.0005452811, 0.001540711, -0.05476388, 0.03719873, -0.9999967, -0.002593936, 44.78527
 49605983, 0.001886896, 0.005405225, -0.1423891, 0.07486238, 0.0005362377, 0.002552785, -0.0433527, 0.03719873, -0.9999979, -0.002061988, 44.78527
 49805903, 0.00171171, 0.006912495, -0.1135467, 0.07486238, 0.000317801, 0.00224984, -0.03504783, 0.03719873, -0.9999987, -0.001492634, 44.78527
 50005823, 0.001789755, 0.007568061, -0.09115404, 0.07486238, 0.001253285, 0.002995037, -0.02723464, 0.03719873, -0.9999993, -0.001012685, 44.78527
 50206576, 0.00377641, 0.00788114, -0.07135649, 0.07501738, 0.001664854, 0.002629296, -0.02173957, 0.03735372, -0.9999993, -0.001229317, 44.87799
 50406496, 0.004648267, 0.005897083, -0.05649575, 0.07501738, 0.00172973, 0.001671549, -0.01683765, 0.03719873, -0.9999973, -0.002254674, 44.87799
 50606416, 0.004590322, 0.003432096, 0.4294523, 0.07486238, 0.001669011, 0.0005482429, 0.3855129, 0.03719873, -0.9999939, -0.003333838, 44.78527
 50806336, 0.004558501, 0.001627297, 1.014268, 0.07486238, 0.001518601, 0.0006210402, 0.3144282, 0.03719873, -0.9999904, -0.00414428, 44.78527
 51006256, 0.004244106, 0.001521392, 0.8344799, 0.07486238, 0.001310342, 0.0005898185, 0.2626924, 0.03719873, -0.9999905, -0.004170687, 44.78527
 51206176, 0.009901015, 0.01291428, 0.6228521, 0.07486238, 0.007572876, 0.01498349, 0.1789546, 0.03719873, -0.999892, -0.003785115, 44.78527
 51406096, 0.02091775, 0.05064127, 0.5958253, 0.07486238, 0.009459621, 0.0191018, 0.2636332, 0.03719873, -0.9998249, -0.003823421, 44.78527
 51606016, 0.03813912, 0.04744045, 0.8686337, 0.07486238, 0.01701677, 0.01268821, 0.3754933, 0.03719873, -0.9998859, -0.004125139, 44.78527
 51805936, 0.04334868, 0.03109631, 1.15213, 0.07486238, 0.01203381, 0.007951336, 0.4296847, 0.03719873, -0.999949, -0.004689055, 44.78527
 52005856, 0.02767391, 0.01504877, 1.196829, 0.07486238, 0.006435378, 0.001489429, 0.4035532, 0.03719873, -0.9999856, -0.005229922, 44.78527
 52205776, 0.01449329, 0.0003939974, 1.094803, 0.07486238, 0.003769154, -0.001712701, 0.3548373, 0.03719873, -0.9999796, -0.00558745, 44.78527
 52406529, 0.01136612, -0.007565879, 0.9484513, 0.07501738, 0.00478979, -0.0031801, 0.2988877, 0.03735372, -0.9999762, -0.005789819, 44.87799
 52606449, 0.01574589, -0.006603699, 0.7754719, 0.07501738, 0.007264986, -0.001910969, 0.2239597, 0.03719873, -0.9999777, -0.00596536, 44.87799
 52806369, 0.02622312, -0.01085166, 0.520031, 0.07486238, 0.01039508, -0.008143337, 0.1280749, 0.03719873, -0.9999261, -0.006171943, 44.78527
 53006289, 0.02219748, -0.03442778, 0.3214758, 0.07486238, 0.002611568, -0.01626123, 0.09250345, 0.03719873, -0.9998256, -0.006354108, 44.78527
 53206209, -0.003310022, -0.04463618, 0.2424451, 0.07486238, -0.006667072, -0.0143107, 0.07583081, 0.03719873, -0.9998511, -0.006502569, 44.78527
 53406129, -0.02403355, -0.0378921, 0.2088553, 0.07486238, -0.009491455, -0.01134582, 0.07058465, 0.03719873, -0.9998907, -0.00666136, 44.78527
 53606049, -0.02304681, -0.02461715, 0.202227, 0.07486238, -0.007730072, -0.003842507, 0.07297914, 0.03719873, -0.9999585, -0.006820316, 44.78527
 53805969, -0.02917821, 0.00115504, 0.2123279, 0.07486238, -0.01379876, 0.007573484, 0.07783414, 0.03719873, -0.9999612, -0.007098736, 44.78527
 54005889, -0.04073561, 0.03386283, 0.2283211, 0.07486238, -0.01318344, 0.01746332, 0.08339065, 0.03719873, -0.9998673, -0.007490047, 44.78527
 54205809, -0.02810538, 0.0523325, 0.2454085, 0.07486238, -0.003610207, 0.02107427, 0.09008812, 0.03719873, -0.9997716, -0.007616893, 44.78527
 54406562, 0.003300265, 0.0681449, 0.2628516, 0.07501738, 0.005152015, 0.02651219, 0.09535733, 0.03735372, -0.9996536, -0.007684, 44.87799
 54606482, 0.004925091, 0.06905448, 0.2748308, 0.07501738, -0.001761536, 0.01941841, 0.09937903, 0.03719873, -0.9997952, -0.007831036, 44.87799
 54806402, -0.001849953, 0.04468561, 0.2720648, 0.07486238, 0.0002161374, 0.01033219, 0.07986625, 0.03719873, -0.9999233, -0.008178137, 44.78527
 55006322, 0.000719329, 0.02013424, 0.1702462, 0.07486238, 0.002324055, 0.002909469, 0.03186444, 0.03719873, -0.9999574, -0.008724372, 44.78527
 55206242, 0.01796131, 0.003203223, 0.05491685, 0.07486238, 0.01117247, -0.002959481, 0.001868136, 0.03719873, -0.9999496, -0.009497346, 44.78527
 55406162, 0.03543239, -0.02008531, -0.01290152, 0.07486238, 0.01520091, -0.01205559, -0.01321974, 0.03719873, -0.9998828, -0.01048271, 44.78527
 55606082, 0.04853146, -0.03685838, -0.04552306, 0.07486238, 0.01688667, -0.01499854, -0.01994918, 0.03719873, -0.9998274, -0.01158241, 44.78527
 55806002, 0.03552847, -0.04782315, -0.05748364, 0.07486238, 0.008693517, -0.01764535, -0.02019592, 0.03719873, -0.9997825, -0.0125147, 44.78527
 56005922, 0.03359607, -0.04268585, -0.05592345, 0.07486238, 0.01703446, -0.01004762, -0.01907009, 0.03719873, -0.9998649, -0.01325344, 44.78527
 56205842, 0.05291097, -0.01680996, -0.04941491, 0.07486238, 0.01909976, 0.001069112, -0.01502844, 0.03719873, -0.9999038, -0.0138509, 44.78527
 56405762, 0.04578392, 0.01920414, -0.03886606, 0.07486238, 0.008550208, 0.01595931, -0.011092, 0.03719873, -0.9997941, -0.01434795, 44.78527
 56606515, 0.00541538, 0.05873945, -0.02840818, 0.07501738, -0.005781417, 0.02634191, -0.007560342, 0.03735372, -0.99962, -0.01484982, 44.87799
 56806435, -0.01778025, 0.07420446, -0.02019805, 0.07501738, -0.00886376, 0.02502999, -0.006241592, 0.03719873, -0.9996213, -0.01492913, 44.87799
 57006355, -0.03582864, 0.06573229, -0.01514161, 0.07486238, -0.01557941, 0.0179594, -0.004592818, 0.03719873, -0.9997697, -0.01451237, 44.78527
 57206275, -0.03475355, 0.03325194, -0.01118133, 0.07486238, -0.006786177, 0.002558629, -0.002805865, 0.03719873, -0.9999074, -0.01333034, 44.78527
 57406195, -0.01431934, -0.002903957, -0.008458858, 0.07486238, -0.00256209, -0.005050854, -0.003259126, 0.03719873, -0.9999191, -0.01218527, 44.78527
 57606115, -0.002464851, -0.01602506, -0.007755174, 0.07486238, 0.002092296, -0.005709917, -0.002834995, 0.03719873, -0.9999277, -0.0115028, 44.78527
 57806035, 0.01260374, -0.01273587, -0.007014651, 0.07486238, 0.008514364, -0.003167167, -0.002000288, 0.03719873, -0.9999328, -0.01139911, 44.78527
 58005955, 0.02835113, -0.01080856, -0.006120166, 0.07486238, 0.01034515, -0.004718362, -0.002164623, 0.03719873, -0.9999254, -0.01173243, 44.78527
 58205875, 0.02107993, -0.01354562, -0.00668605, 0.07486238, 0.001858082, -0.004439638, -0.001961449, 0.03719873, -0.9999177, -0.0124148, 44.78527
 58405795, -0.003545842, -0.01121035, -0.006646253, 0.07486238, -0.004291747, -0.003798472, -0.002357971, 0.03719873, -0.9999054, -0.01329353, 44.78527
 58606548, -0.01115047, -0.01400558, -0.006248321, 0.07501738, -0.003120915, -0.006063511, -0.002278362, 0.03735372, -0.999887, -0.0141764, 44.87799
 58806468, -0.008341958, -0.01433738, -0.004834853, 0.07501738, -0.003460503, -0.003066103, -0.001478086, 0.03719873, -0.9998845, -0.01498559, 44.87799
 59006388, -0.01166781, -0.006679187, -0.003150817, 0.07486238, -0.004460478, -0.002521832, -0.0006209749, 0.03719873, -0.9998779, -0.01525755, 44.78527
 59206308, -0.009962481, -0.01351328, -0.003372576, 0.07486238, -0.001789772, -0.007008228, -0.001149435, 0.03719873, -0.9998593, -0.01527229, 44.78527
 59406228, -0.003356662, -0.01844359, -0.003844995, 0.07486238, 6.165152E-05, -0.004609787, -0.001622405, 0.03719873, -0.9998721, -0.01529814, 44.78527
 59606148, 0.003138764, -0.007464954, -0.005092383, 0.07486238, 0.002874599, 0.0005418399, -0.001967977, 0.03719873, -0.999881, -0.01542505, 44.78527
 59806068, 0.01062335, 0.006488397, -0.005986107, 0.07486238, 0.004142998, 0.004625197, -0.002184629, 0.03719873, -0.9998693, -0.01562729, 44.78527
 60005988, 0.009162313, 0.01877611, -0.00625943, 0.07486238, 0.002307544, 0.01070758, -0.002532605, 0.03719873, -0.9998233, -0.01590852, 44.78527
 60205908, 0.007055636, 0.03671003, -0.006154312, 0.07486238, 0.002976215, 0.01393149, -0.001756487, 0.03719873, -0.9997961, -0.01624857, 44.78527
 60405828, 0.006572433, 0.03215973, -0.005393988, 0.07486238, -0.002686726, 0.009032497, -0.001615178, 0.03719873, -0.9998221, -0.01639295, 44.78527
 60606581, -0.02520513, 0.03119578, -0.005012787, 0.07501738, -0.01595003, 0.01250974, -0.001600196, 0.03735372, -0.9997885, -0.01665341, 44.87799
 60806501, -0.04334563, 0.03084161, -0.004750887, 0.07501738, -0.01135432, 0.005961662, -0.001461233, 0.03719873, -0.9998478, -0.0166838, 44.87799
 61006421, -0.01951493, 0.003532469, -0.004334166, 0.07486238, -0.002326578, -0.004185024, -0.001111999, 0.03719873, -0.9998581, -0.01659876, 44.78527
 61206341, -0.003679313, -0.01171245, -0.003799104, 0.07486238, 0.0007699843, -0.004160811, -0.0017682, 0.03719873, -0.9998534, -0.01684274, 44.78527
 61406261, 0.008129709, -0.0108099, -0.004245496, 0.07486238, 0.006007491, -0.0007429402, -0.001632285, 0.03719873, -0.9998491, -0.01729006, 44.78527
 61606181, 0.01917157, 0.01086449, -0.003724736, 0.07486238, 0.006751919, 0.008116236, -0.001328329, 0.03719873, -0.9998029, -0.01805532, 44.78527
 61806101, 0.01407121, 0.01797894, -0.003679351, 0.07486238, 0.002909026, 0.003849736, -0.001514822, 0.03719873, -0.9998146, -0.01884126, 44.78527
 62006021, 0.005982907, 0.005633898, -0.003721379, 0.07486238, -0.0001261828, -0.001001089, -0.001288311, 0.03719873, -0.9998094, -0.01951381, 44.78527
 62205941, -0.008451293, -0.008550475, -0.003260508, 0.07486238, -0.00529759, -0.003980127, -0.001212621, 0.03719873, -0.9997964, -0.01999117, 44.78527
 62405861, -0.008365264, -0.008131703, -0.003368925, 0.07486238, -0.0002547469, -0.0009098802, -0.001887235, 0.03719873, -0.9997936, -0.02028991, 44.78527
 62605781, -0.0001128088, 0.001663245, -0.00386082, 0.07486238, -0.0001912461, 0.001771889, -0.0005194159, 0.03719873, -0.9997878, -0.02048401, 44.78527
 62806534, -0.001376727, 0.001422515, -0.002520708, 0.07501738, -0.0008086481, -0.002011985, -0.001469532, 0.03735372, -0.9997908, -0.02032455, 44.87799
 63006454, -1.913466E-05, -0.01341297, -0.002641745, 0.07501738, 0.003106736, -0.007090227, -0.001322838, 0.03719873, -0.99978, -0.02017875, 44.87799
 63206374, 0.01657078, -0.0188435, -0.002909302, 0.07486238, 0.007303592, -0.007128066, -0.0006826267, 0.03719873, -0.999772, -0.02026573, 44.78527
 63406294, 0.01283691, -0.02618105, -0.002478149, 0.07486238, -0.0003514748, -0.01247472, -0.00138169, 0.03719873, -0.9997146, -0.02042785, 44.78527
 63606214, -0.005857299, -0.03771393, -0.002751575, 0.07486238, -0.003969405, -0.0119673, -0.0006052992, 0.03719873, -0.9997262, -0.02051906, 44.78527
 63806134, -0.0110412, -0.02448879, -0.002564765, 0.07486238, -0.003008335, -0.004171712, -0.001178762, 0.03719873, -0.9997752, -0.02060239, 44.78527
 64006054, -0.003774911, -0.008569414, -0.002352022, 0.07486238, 0.002156945, -0.000694385, -0.00161997, 0.03719873, -0.9997869, -0.02058452, 44.78527
 64205974, 0.01286677, 0.002562094, -0.003470972, 0.07486238, 0.007536063, 0.001462829, -0.0008314202, 0.03719873, -0.9997901, -0.02047796, 44.78527
 64405894, 0.02174534, -0.001893425, -0.00266524, 0.07486238, 0.00494233, -0.003073279, -0.0005199104, 0.03719873, -0.9997903, -0.02000256, 44.78527
 64605814, 0.002787737, -0.006347676, -0.002109731, 0.07486238, -0.00331754, -0.0004426684, -0.00155113, 0.03719873, -0.9998071, -0.01955492, 44.78527
 64806567, -0.005617111, 0.003004178, -0.003470337, 0.07501738, 0.0001417778, 0.002356695, -0.00100758, 0.03735372, -0.999819, -0.01902752, 44.87799
 65006487, 0.005590852, 0.006803724, -0.002332974, 0.07501738, 0.005632207, 0.002801815, -0.001370903, 0.03719873, -0.9998353, -0.018138, 44.87799
 65206407, 0.02533403, 0.008749398, -0.002828606, 0.07486238, 0.01491057, 0.002791462, -0.001135699, 0.03719873, -0.9998449, -0.01760845, 44.78527
 65406327, 0.0506861, 0.006308328, -0.002819203, 0.07486238, 0.02072989, 0.00243259, -0.0007269668, 0.03719873, -0.9998497, -0.01732989, 44.78527
 65606247, 0.05440034, 0.008501994, -0.001947768, 0.07486238, 0.01570124, 0.003110946, -0.0005294088, 0.03719873, -0.9998547, -0.01703111, 44.78527
 65806167, 0.03666308, 0.007248509, -0.002043458, 0.07486238, 0.009888981, 0.002572677, -0.000681347, 0.03719873, -0.9998612, -0.01664832, 44.78527
 66006087, 0.02545789, 0.01082413, -0.002104848, 0.07486238, 0.006606345, 0.006442248, -0.001044914, 0.03719873, -0.9998593, -0.01619208, 44.78527
 66206007, 0.008285665, 0.02252324, -0.002353098, 0.07486238, -0.004296971, 0.009561118, -0.001492836, 0.03719873, -0.9998498, -0.01586785, 44.78527
 66405927, -0.02635191, 0.02694204, -0.002599478, 0.07486238, -0.01554785, 0.009177133, -0.000480767, 0.03719873, -0.9998561, -0.0155334, 44.78527
 66605847, -0.04565482, 0.0230294, -0.002052112, 0.07486238, -0.01489893, 0.004123467, -0.001379974, 0.03719873, -0.999887, -0.01499625, 44.78527
 66805767, -0.03642553, 0.001927507, -0.003144709, 0.07486238, -0.01159047, -0.001849847, -0.001026719, 0.03719873, -0.9998955, -0.01417107, 44.78527
 67006520, -0.0384588, 0.001709909, -0.002530036, 0.07501738, -0.01368093, 0.003604155, -0.001081777, 0.03735372, -0.9999062, -0.01349213, 44.87799
 67206440, -0.02828266, 0.0131617, -0.002772816, 0.07501738, -0.005165082, 0.006186573, -0.001234465, 0.03719873, -0.9999053, -0.01303817, 44.87799
 67406360, -0.01137141, 0.01896876, -0.002736227, 0.07486238, -0.001870844, 0.006326517, -0.001695946, 0.03719873, -0.9999046, -0.0130466, 44.78527
 67606280, 0.0005830608, 0.01492858, -0.003018393, 0.07486238, 0.002641211, 0.003727923, -0.0004796683, 0.03719873, -0.9999097, -0.01323534, 44.78527
 67806200, 0.007486961, 0.009569034, -0.001955846, 0.07486238, 0.002032564, 0.002429964, -0.0007707253, 0.03719873, -0.9999062, -0.01361146, 44.78527
 68006120, 0.003228817, 0.005977602, -0.002421431, 0.07486238, -0.0003490812, 0.001322441, -0.0004502795, 0.03719873, -0.9998993, -0.01419168, 44.78527
 68206040, -0.00291934, 0.002702611, -0.002264435, 0.07486238, -0.000665029, 0.0003455213, -0.001473979, 0.03719873, -0.9998899, -0.01481547, 44.78527
 68405960, -0.0003303219, -0.001008205, -0.00318683, 0.07486238, -0.0007126348, -0.002012426, -0.001039111, 0.03719873, -0.9998769, -0.01528006, 44.78527
 68605880, -0.008343852, -0.009708928, -0.003243679, 0.07486238, -0.003118651, -0.004844693, -0.001460588, 0.03719873, -0.9998611, -0.01575538, 44.78527
 68805800, 0.004811101, -0.01057277, -0.003189668, 0.07486238, 0.009032317, -0.001985593, -0.0005227489, 0.03719873, -0.9998622, -0.01635682, 44.78527
 69006553, 0.029496, -0.001131874, -0.002074204, 0.07501738, 0.009556742, 0.003231234, -0.0005004203, 0.03735372, -0.9998538, -0.01691371, 44.87799
 69206473, 0.01495928, 0.01895764, -0.002135489, 0.07501738, 0.0003781728, 0.01025672, -0.001307072, 0.03719873, -0.9998131, -0.01758814, 44.87799
 69406393, 0.001364257, 0.02745946, -0.003375786, 0.07486238, 0.001033408, 0.008703664, -0.001287712, 0.03719873, -0.9998146, -0.01799352, 44.78527
 69606313, 0.00318199, 0.02358061, -0.0027617, 0.07486238, 0.00165639, 0.007336845, -0.0008837192, 0.03719873, -0.9998245, -0.0177902, 44.78527
 69806233, 0.008170474, 0.0198524, -0.002185318, 0.07486238, 0.005951675, 0.00804876, -0.0004820444, 0.03719873, -0.999817, -0.01753078, 44.78527
 70006153, 0.02442171, 0.02966195, -0.002177275, 0.07486238, 0.0109981, 0.01281949, -0.000930272, 0.03719873, -0.999777, -0.01747647, 44.78527
 70206073, 0.02797087, 0.03478359, -0.002928881, 0.07486238, 0.00710005, 0.01157368, -0.001061616, 0.03719873, -0.9997806, -0.01764312, 44.78527
 70405993, 0.01398504, 0.03324873, -0.002612427, 0.07486238, 0.003415911, 0.01077054, -0.000844652, 0.03719873, -0.9997827, -0.01819296, 44.78527
 70605913, 0.01497297, 0.02218759, -0.002283142, 0.07486238, 0.007472275, 0.002025996, -0.000693486, 0.03719873, -0.9998234, -0.01873873, 44.78527
 70805833, 0.02355297, -0.006855316, -0.002230847, 0.07486238, 0.01073866, -0.006601077, -0.0006356568, 0.03719873, -0.9998074, -0.01908419, 44.78527
 71006586, 0.03930151, -0.01265223, -0.002293488, 0.07501738, 0.01762932, -0.0002841932, -0.000581308, 0.03735372, -0.9998101, -0.01941044, 44.87799
 71206506, 0.04885035, 0.00400857, -0.002644324, 0.07501738, 0.01677955, 0.0003214962, -0.001827626, 0.03719873, -0.9998039, -0.01980558, 44.87799
 71406426, 0.04639047, -0.0118733, -0.003418649, 0.07486238, 0.01348528, -0.008114177, -0.00118704, 0.03719873, -0.9997841, -0.02001091, 44.78527
 71606346, 0.02512885, -0.0120602, -0.002886701, 0.07486238, 0.001036675, 0.001625023, -0.001521254, 0.03719873, -0.9997929, -0.02020456, 44.78527
 71806266, -0.009023448, 0.009037539, -0.003017614, 0.07486238, -0.009185587, 0.004497943, -0.0008325964, 0.03719873, -0.9997795, -0.02049808, 44.78527
 72006186, -0.03218086, 0.01300365, -0.002463361, 0.07486238, -0.01392377, 0.006163137, -0.0008459794, 0.03719873, -0.9997603, -0.02075519, 44.78527
 72206106, -0.03891496, 0.02450301, -0.002520071, 0.07486238, -0.01196632, 0.0108829, -0.001082219, 0.03719873, -0.9997216, -0.02093694, 44.78527
 72406026, -0.02714155, 0.0298042, -0.003058138, 0.07486238, -0.007300207, 0.01163498, -0.0009436789, 0.03719873, -0.9996976, -0.02096033, 44.78527
 72605946, -0.0214991, 0.03918176, -0.002787445, 0.07486238, -0.006541361, 0.0145143, -0.0005426989, 0.03719873, -0.9996738, -0.02096071, 44.78527
 72805866, -0.00901839, 0.0297788, -0.003092679, 0.07486238, 0.002346329, 0.004319218, -0.0008308019, 0.03719873, -0.999767, -0.02076839, 44.78527
 73005786, 0.01286252, 0.003992874, -0.002849675, 0.07486238, 0.006195975, -0.003780072, -0.0009618999, 0.03719873, -0.9997808, -0.02080214, 44.78527
 73206539, 0.01355118, -0.01867846, -0.003258263, 0.07501738, 0.003704072, -0.005672028, -0.001196089, 0.03735372, -0.9997812, -0.02089936, 44.87799
 73406459, 0.01208813, 0.00636379, -0.002990067, 0.07501738, 0.005668136, 0.01520849, -0.0008278157, 0.03719873, -0.9996052, -0.02117073, 44.87799
 73606379, 0.01782262, 0.06031926, -0.002530718, 0.07486238, 0.007254639, 0.0297654, -0.001376573, 0.03719873, -0.9992348, -0.02159551, 44.78527
 73806299, 0.02139657, 0.09335601, -0.003182475, 0.07486238, 0.008260853, 0.03733799, -0.001275887, 0.03719873, -0.9989563, -0.02185281, 44.78527
 74006219, 0.02377415, 0.1082923, -0.003141541, 0.07486238, 0.008354924, 0.03934903, -0.001611671, 0.03719873, -0.9987714, -0.02182158, 44.78527
 74206139, 0.02429562, 0.11426, -0.003485868, 0.07486238, 0.008969736, 0.04158819, -0.001435268, 0.03719873, -0.9986013, -0.02170723, 44.78527
 74406059, 0.02536866, 0.1193287, -0.003074027, 0.07486238, 0.008681515, 0.04255732, -0.0008925729, 0.03719873, -0.9984199, -0.02170279, 44.78527
 74605979, 0.02583714, 0.1229187, -0.002919676, 0.07486238, 0.009678826, 0.04394318, -0.001454192, 0.03719873, -0.9982148, -0.02185243, 44.78527
 74805899, 0.02764718, 0.1274023, -0.003612603, 0.07486238, 0.009862526, 0.04613597, -0.0007843109, 0.03719873, -0.9979328, -0.0222689, 44.78527
 75005819, 0.02838284, 0.1327514, -0.0031944, 0.07486238, 0.01014139, 0.04776975, -0.0006704187, 0.03719873, -0.9976516, -0.02281661, 44.78527
 75206572, 0.02956577, 0.137433, -0.002679237, 0.07501738, 0.01079149, 0.0491589, -0.00024515, 0.03735372, -0.99733, -0.02341712, 44.87799
 75406492, 0.03108577, 0.1411104, -0.002526672, 0.07501738, 0.01099741, 0.0505823, -0.001324288, 0.03719873, -0.9969429, -0.02414424, 44.87799
 75606412, 0.03219783, 0.146189, -0.003224351, 0.07486238, 0.01180223, 0.05280937, -0.0007839034, 0.03719873, -0.9964882, -0.02495968, 44.78527
 75806332, 0.03414759, 0.1518833, -0.003083281, 0.07486238, 0.01213546, 0.05446977, -0.00179815, 0.03719873, -0.995994, -0.0257943, 44.78527
 76006252, 0.03544707, 0.1565171, -0.003601855, 0.07486238, 0.01328823, 0.05637753, -0.0008141407, 0.03719873, -0.9954343, -0.02671954, 44.78527
 76206172, 0.03769256, 0.1615541, -0.00259367, 0.07486238, 0.01346524, 0.05773472, -0.0009662898, 0.03719873, -0.994808, -0.02791071, 44.78527
 76406092, 0.0388041, 0.1658921, -0.002757477, 0.07486238, 0.01419266, 0.05982601, -0.000714586, 0.03719873, -0.9940825, -0.02929629, 44.78527
 76606012, 0.04050539, 0.1709989, -0.002365106, 0.07486238, 0.01445061, 0.06107617, 0.0002266883, 0.03719873, -0.9932888, -0.03060435, 44.78527
 76805932, 0.04129182, 0.1753791, -0.00168229, 0.07486238, 0.01471572, 0.06320096, -0.0005825907, 0.03719873, -0.9922901, -0.03189116, 44.78527
 77005852, 0.04264777, 0.1812935, -0.002520979, 0.07486238, 0.01535631, 0.06467466, -0.001588302, 0.03719873, -0.9913252, -0.03323177, 44.78527
 77205772, 0.04456331, 0.1843782, -0.003405138, 0.07486238, 0.01598067, 0.06603979, -0.00116692, 0.03719873, -0.9902523, -0.03442648, 44.78527
 77406525, 0.04641508, 0.1884422, -0.003066911, 0.07501738, 0.01652276, 0.06711315, -9.078803E-05, 0.03735372, -0.9890321, -0.03532406, 44.87799
 77606445, 0.04734625, 0.1916323, -0.002526922, 0.07501738, 0.01696899, 0.06850952, -0.001834978, 0.03719873, -0.9876142, -0.03607565, 44.87799
 77806365, 0.04866614, 0.1958781, -0.004342847, 0.07486238, 0.01756297, 0.07032552, -0.001124302, 0.03719873, -0.986079, -0.03677947, 44.78527
 78006285, 0.05024467, 0.2000656, -0.004118579, 0.07486238, 0.01773502, 0.07098101, -0.001101767, 0.03719873, -0.984359, -0.03737704, 44.78527
 78206205, 0.05165164, 0.2036589, -0.004534024, 0.07486238, 0.01865223, 0.07285429, -0.001370613, 0.03719873, -0.9824507, -0.03792371, 44.78527
 78406125, 0.05301097, 0.2075687, -0.005234988, 0.07486238, 0.01874891, 0.07413848, -0.001884734, 0.03719873, -0.9803948, -0.03830944, 44.78527
 78606045, 0.05436417, 0.211256, -0.006264074, 0.07486238, 0.01966895, 0.07531137, -0.002515878, 0.03719873, -0.9780514, -0.03856313, 44.78527
 78805965, 0.05636351, 0.2143295, -0.007168047, 0.07486238, 0.02014911, 0.07610163, -0.00215703, 0.03719873, -0.9755303, -0.03880817, 44.78527
 79005885, 0.05724649, 0.2163812, -0.007620816, 0.07486238, 0.02046599, 0.07713474, -0.002707947, 0.03719873, -0.9727436, -0.03886423, 44.78527
 79205805, 0.0581462, 0.2195578, -0.008816322, 0.07486238, 0.02057645, 0.07804792, -0.003235041, 0.03719873, -0.9696338, -0.03869762, 44.78527
 79406558, 0.05957037, 0.22286, -0.01021944, 0.07501738, 0.02111482, 0.07935773, -0.003745233, 0.03735372, -0.9662414, -0.03840615, 44.87799
 79606478, 0.06103803, 0.2257241, -0.01157926, 0.07501738, 0.02223453, 0.08003531, -0.003742227, 0.03719873, -0.962525, -0.03799284, 44.87799
 79806398, 0.06338494, 0.2277018, -0.01248947, 0.07486238, 0.02248618, 0.08018221, -0.004492721, 0.03719873, -0.9585518, -0.03734663, 44.78527
 80006318, 0.0649784, 0.2297213, -0.01409305, 0.07486238, 0.02317835, 0.08158211, -0.004958185, 0.03719873, -0.9540589, -0.03658875, 44.78527
 80206238, 0.06639645, 0.23293, -0.01536432, 0.07486238, 0.02373702, 0.08271758, -0.004993211, 0.03719873, -0.9492289, -0.03579207, 44.78527
 80406158, 0.06828235, 0.2360474, -0.01664203, 0.07486238, 0.02444459, 0.08340181, -0.005556747, 0.03719873, -0.9440287, -0.03500813, 44.78527
 80606078, 0.07022087, 0.238763, -0.01865854, 0.07486238, 0.02521317, 0.08464343, -0.006584746, 0.03719873, -0.9383647, -0.03417267, 44.78527
 80805998, 0.07255459, 0.2416474, -0.02105964, 0.07486238, 0.02592351, 0.08557174, -0.007524104, 0.03719873, -0.932399, -0.03314711, 44.78527
 81005918, 0.07440408, 0.2451343, -0.02268731, 0.07486238, 0.02682359, 0.08771858, -0.007549218, 0.03719873, -0.9255818, -0.03177867, 44.78527
 81205838, 0.07629427, 0.2492631, -0.02469043, 0.07486238, 0.02703014, 0.08788051, -0.008812881, 0.03719873, -0.9188931, -0.03031244, 44.78527
 81406591, 0.0762336, 0.2482651, -0.02793916, 0.07501738, 0.026061, 0.08511547, -0.009893043, 0.03735372, -0.9128706, -0.02862635, 44.87799
 81606511, 0.07468923, 0.2440113, -0.02994375, 0.07501738, 0.02659363, 0.08657359, -0.010601, 0.03719873, -0.9049817, -0.02607386, 44.87799
 81806431, 0.0765527, 0.2510392, -0.03241547, 0.07486238, 0.02726229, 0.08949792, -0.01179384, 0.03719873, -0.8964536, -0.02245897, 44.78527
 82006351, 0.07820508, 0.2588392, -0.03594129, 0.07486238, 0.02747312, 0.09192964, -0.01295029, 0.03719873, -0.887705, -0.01776578, 44.78527
 82206271, 0.07936212, 0.2651401, -0.03959756, 0.07486238, 0.02819107, 0.09373778, -0.01462658, 0.03719873, -0.8788111, -0.01230808, 44.78527
 82406191, 0.08051077, 0.2695781, -0.04382997, 0.07486238, 0.02844536, 0.09471787, -0.01621568, 0.03719873, -0.8699436, -0.006269829, 44.78527
 82606111, 0.08097912, 0.2667186, -0.04948996, 0.07486238, 0.02817851, 0.08918814, -0.01968697, 0.03719873, -0.8639482, -7.603426E-05, 44.78527
 82806031, 0.079605, 0.2370549, -0.05883026, 0.07486238, 0.02718624, 0.07270133, -0.02196117, 0.03719873, -0.8609065, 0.006304687, 44.78527
 83005951, 0.07615471, 0.1849281, -0.06539401, 0.07486238, 0.02581067, 0.05263648, -0.0242021, 0.03719873, -0.8592907, 0.01312501, 44.78527
 83205871, 0.07292728, 0.1290748, -0.07079579, 0.07486238, 0.02521945, 0.03425409, -0.025681, 0.03719873, -0.8576035, 0.02047435, 44.78527
 83405791, 0.07069305, 0.07994796, -0.07482578, 0.07486238, 0.02441161, 0.01876294, -0.02758959, 0.03719873, -0.8556758, 0.02841913, 44.78527
 83606544, 0.06968221, 0.03841307, -0.07967636, 0.07501738, 0.02453457, 0.005430514, -0.02833917, 0.03735372, -0.8533805, 0.0369367, 44.87799
 83806464, 0.07041823, 0.003525855, -0.08246663, 0.07501738, 0.02470404, -0.005107299, -0.02997026, 0.03719873, -0.8508347, 0.04600075, 44.87799
 84006384, 0.07128678, -0.02518843, -0.08597288, 0.07486238, 0.02526515, -0.01472272, -0.03059176, 0.03719873, -0.8481374, 0.05556803, 44.78527
 84206304, 0.07289122, -0.05024678, -0.08796609, 0.07486238, 0.02623502, -0.02272451, -0.03140312, 0.03719873, -0.8453372, 0.06564654, 44.78527
 84406224, 0.07431788, -0.07269031, -0.0883991, 0.07486238, 0.02598817, -0.03029391, -0.03058035, 0.03719873, -0.8424963, 0.07637353, 44.78527
 84606144, 0.07475077, -0.09342024, -0.08639256, 0.07486238, 0.02670047, -0.03691646, -0.03000218, 0.03719873, -0.8395647, 0.08795292, 44.78527
 84806064, 0.07642285, -0.1123212, -0.08268528, 0.07486238, 0.02731515, -0.04359753, -0.02791081, 0.03719873, -0.8366161, 0.1002908, 44.78527
 85005984, 0.07820775, -0.1304022, -0.07626894, 0.07486238, 0.02745189, -0.04924455, -0.02521296, 0.03719873, -0.8335956, 0.1131709, 44.78527
 85205904, 0.07870815, -0.1470725, -0.0688533, 0.07486238, 0.02744006, -0.05571361, -0.02210154, 0.03719873, -0.8304893, 0.1262015, 44.78527
 85405824, 0.07876661, -0.1643493, -0.05975023, 0.07486238, 0.02832241, -0.06138015, -0.01912621, 0.03719873, -0.8275336, 0.1388399, 44.78527
 85606577, 0.08064803, -0.1817265, -0.05081043, 0.07501738, 0.02869042, -0.06822886, -0.01560169, 0.03735372, -0.8248492, 0.1507435, 44.87799
 85806497, 0.08013324, -0.2001532, -0.04052172, 0.07501738, 0.027849, -0.07441459, -0.01108574, 0.03719873, -0.8223872, 0.1611257, 44.87799
 86006417, 0.07910312, -0.2173708, -0.02930971, 0.07486238, 0.02799839, -0.07956833, -0.008851333, 0.03719873, -0.8199893, 0.1700745, 44.78527
 86206337, 0.07914826, -0.2327667, -0.01998418, 0.07486238, 0.02751652, -0.08575843, -0.004146865, 0.03719873, -0.8178492, 0.1777463, 44.78527
 86406257, 0.07792962, -0.2488815, -0.008825392, 0.07486238, 0.02707853, -0.09060998, -0.001150568, 0.03719873, -0.8159145, 0.1838572, 44.78527
 86606177, 0.0763681, -0.2621702, -0.0004606607, 0.07486238, 0.02691507, -0.09519239, 0.001108053, 0.03719873, -0.8144985, 0.1885145, 44.78527
 86806097, 0.07521781, -0.2769842, 0.006797103, 0.07486238, 0.02618129, -0.100931, 0.004110892, 0.03719873, -0.8135814, 0.1920235, 44.78527
 87006017, 0.07442177, -0.2921585, 0.01503455, 0.07486238, 0.02615205, -0.1056222, 0.007122084, 0.03719873, -0.8126999, 0.194665, 44.78527
 87205937, 0.07346256, -0.3031481, 0.0227171, 0.07486238, 0.02570522, -0.1084685, 0.009161728, 0.03719873, -0.8119106, 0.19672, 44.78527
 87405857, 0.07160676, -0.3120771, 0.0286293, 0.07486238, 0.02448624, -0.1116946, 0.01182388, 0.03719873, -0.8113029, 0.1984187, 44.78527
 87605777, 0.0696777, -0.3198826, 0.03454119, 0.07486238, 0.0246757, -0.114167, 0.01259752, 0.03719873, -0.8111532, 0.1998623, 44.78527
 87806530, 0.07037255, -0.3282667, 0.03815577, 0.07501738, 0.02473481, -0.1168231, 0.01420455, 0.03735372, -0.8111459, 0.2010491, 44.87799
 88006450, 0.06975887, -0.3335958, 0.04208004, 0.07501738, 0.02429381, -0.1184483, 0.0157593, 0.03719873, -0.8113158, 0.2017949, 44.87799
 88206370, 0.06886531, -0.3374732, 0.04525816, 0.07486238, 0.0239524, -0.1191996, 0.01594078, 0.03719873, -0.8117213, 0.2020155, 44.78527
 88406290, 0.06798168, -0.3394118, 0.04721172, 0.07486238, 0.0237594, -0.1192713, 0.01701339, 0.03719873, -0.8121178, 0.2019611, 44.78527
 88606210, 0.06662975, -0.339177, 0.04890369, 0.07486238, 0.02319502, -0.1195798, 0.01699482, 0.03719873, -0.8127957, 0.2015589, 44.78527
 88806130, 0.06516724, -0.3392267, 0.04949952, 0.07486238, 0.02254013, -0.1190975, 0.01768181, 0.03719873, -0.8136382, 0.2008578, 44.78527
 89006050, 0.06349711, -0.3373876, 0.05014604, 0.07486238, 0.02196407, -0.1180589, 0.0173688, 0.03719873, -0.8147027, 0.1998879, 44.78527
 89205970, 0.06129776, -0.3345079, 0.04946679, 0.07486238, 0.02113665, -0.1172078, 0.01752046, 0.03719873, -0.8158896, 0.1987051, 44.78527
 89405890, 0.05959753, -0.3306543, 0.04864341, 0.07486238, 0.02054093, -0.1153952, 0.01663293, 0.03719873, -0.8173383, 0.1974321, 44.78527
