TimeUS,COFN,COFE,CNe,CEe,POFN,POFE,PNe,PEe
 2671431, 0.005489786, 0.007427165, 0.01976967, -0.03121102, 0, 0, 0, 0
 2676429, 0.001625669, 0.01397587, 0.01976097, -0.03123772, 0.005489786, 0.007427165, 0.01976967, -0.03121102
 2776389, -0.01113536, 0.004922895, 0.01980109, -0.03120294, 0.001625669, 0.01397587, 0.01976097, -0.03123772
 2876349, 0.01640009, -0.01771251, 0.01984743, -0.03125523, -0.01113536, 0.004922895, 0.01980109, -0.03120294
 2976309, -0.005679501, 0.02354665, 0.01977203, -0.03130373, 0.01640009, -0.01771251, 0.01984743, -0.03125523
 3076269, 0.02352804, 0.0124566, 0.0198452, -0.03128031, -0.005679501, 0.02354665, 0.01977203, -0.03130373
 3176229, -0.01119155, -0.02222356, 0.01974982, -0.03132383, 0.02352804, 0.0124566, 0.0198452, -0.03128031
 3276189, -0.01621136, 0.005355075, 0.01983358, -0.03120927, -0.01119155, -0.02222356, 0.01974982, -0.03132383
 3376149, 0.01690991, -0.02290477, 0.01985482, -0.03129333, -0.01621136, 0.005355075, 0.01983358, -0.03120927
 3476109, 0.01012851, -0.004833752, 0.01979662, -0.03120159, 0.01690991, -0.02290477, 0.01985482, -0.03129333
 3576069, -0.02260418, 0.007727462, 0.01989387, -0.03122343, 0.01012851, -0.004833752, 0.01979662, -0.03120159
 3676029, -0.01233122, 0.02215449, 0.01981564, -0.03128669, -0.02260418, 0.007727462, 0.01989387, -0.03122343
 3775989, 0.00289995, 0.02516163, 0.01974123, -0.03133344, -0.01233122, 0.02215449, 0.01981564, -0.03128669
 3875949, 0.01839942, -0.001107419, 0.01984288, -0.03121244, 0.00289995, 0.02516163, 0.01974123, -0.03133344
 3975909, -0.006853986, 0.00107448, 0.01978121, -0.03119671, 0.01839942, -0.001107419, 0.01984288, -0.03121244
 4075869, 0.02646762, 0.01865512, 0.01984588, -0.03134362, -0.006853986, 0.00107448, 0.01978121, -0.03119671
 4175829, -0.008815072, 0.02545225, 0.01978863, -0.03131928, 0.02646762, 0.01865512, 0.01984588, -0.03134362
 4275789, -0.0002500719, 0.01409938, 0.02611481, 0.02615947, -0.008815072, 0.02545225, 0.01978863, -0.03131928
 4376582, -0.006287018, 0.003219482, 0.0261236, 0.02611721, -0.0002500719, 0.01409938, 0.02611481, 0.02615947
 4476542, -0.01914964, 0.01175428, 0.02619698, 0.02614601, -0.006287018, 0.003219482, 0.0261236, 0.02611721
 4576502, 0.02134548, 0.003162437, 0.02621683, 0.02611728, -0.01914964, 0.01175428, 0.02619698, 0.02614601
 4681460, 0.007705403, -0.008220772, 0.02612785, 0.02613029, 0.02134548, 0.003162437, 0.02621683, 0.02611728
 4781420, -0.002089744, 0.01035213, 0.0261154, 0.02613927, 0.007705403, -0.008220772, 0.02612785, 0.02613029
 4881380, 0.001236617, -0.02286432, 0.02611466, 0.02623258, -0.002089744, 0.01035213, 0.0261154, 0.02613927
 4981340, 0.01374746, -0.01654265, 0.02615667, 0.02617687, 0.001236617, -0.02286432, 0.02611466, 0.02623258
 5081300, 0.004551833, 0.001429214, 0.02611875, 0.02611597, 0.01374746, -0.01654265, 0.02615667, 0.02617687
 5181260, -0.02394898, -0.01744073, 0.02624264, 0.02618394, 0.004551833, 0.001429214, 0.02611875, 0.02611597
 5281220, -0.007232039, -0.01810095, 0.02612559, 0.02618934, -0.02394898, -0.01744073, 0.02624264, 0.02618394
 5381180, 0.01094744, -0.009600847, 0.02614064, 0.02613661, -0.007232039, -0.01810095, 0.02612559, 0.02618934
 5481140, 0.008694861, -0.0009581316, 0.02613056, 0.02611624, 0.01094744, -0.009600847, 0.02614064, 0.02613661
 5581100, -0.01584361, 0.005840378, 0.02616981, 0.02612385, 0.008694861, -0.0009581316, 0.02613056, 0.02611624
 5681060, -0.01534373, -0.01359523, 0.02616617, 0.02615786, -0.01584361, 0.005840378, 0.02616981, 0.02612385
 5781020, 0.01371799, 0.02110531, 0.02615542, 0.02621644, -0.01534373, -0.01359523, 0.02616617, 0.02615786
 5880980, -0.02592839, -0.005833039, 0.01988378, -0.03125535, 0.01371799, 0.02110531, 0.02615542, 0.02621644
 5980940, 0.00322046, 0.008002897, 0.01976086, -0.03121455, -0.02592839, -0.005833039, 0.01988378, -0.03125535
 6080900, 0.01064265, -0.02373093, 0.01979608, -0.03130536, 0.00322046, 0.008002897, 0.01976086, -0.03121455
 6180860, -0.01268742, 0.008593698, 0.01980742, -0.03121521, 0.01064265, -0.02373093, 0.01979608, -0.03130536
 6280820, -0.009783098, -0.006294867, 0.01977584, -0.03121652, -0.01268742, 0.008593698, 0.01980742, -0.03121521
 6380780, -0.004174779, 0.02048509, 0.01976296, -0.03128137, -0.009783098, -0.006294867, 0.01977584, -0.03121652
 6481573, -0.02123789, -0.0112833, 0.01982594, -0.03126805, -0.004174779, 0.02048509, 0.01976296, -0.03128137
 6581533, 0.002011381, -0.0162264, 0.01976022, -0.03125123, -0.02123789, -0.0112833, 0.01982594, -0.03126805
 6686491, -0.01164057, -0.01292957, 0.01977005, -0.03125165, 0.002011381, -0.0162264, 0.01976022, -0.03125123
 6786451, -0.01232202, 0.005064615, 0.01980317, -0.03120712, -0.01164057, -0.01292957, 0.01977005, -0.03125165
 6886411, 0.0009155369, 0.001992856, 0.01976563, -0.03119843, -0.01232202, 0.005064615, 0.01980317, -0.03120712
 6986371, -0.01710708, -0.005121268, 0.01981541, -0.03122595, 0.0009155369, 0.001992856, 0.01976563, -0.03119843
 7086331, -0.01564829, 0.007209962, 0.01982781, -0.03121394, -0.01710708, -0.005121268, 0.01981541, -0.03122595
 7186291, 0.02639915, 0.0009353692, 0.01990719, -0.03123884, -0.01564829, 0.007209962, 0.01982781, -0.03121394
 7286251, -0.005116712, -0.01073567, 0.01976168, -0.03122664, 0.02639915, 0.0009353692, 0.01990719, -0.03123884
 7386211, -0.001946825, -0.02234134, 0.01974473, -0.03130524, -0.005116712, -0.01073567, 0.01976168, -0.03122664
 7486171, -0.02286087, -0.01081617, 0.01984252, -0.03126903, -0.001946825, -0.02234134, 0.01974473, -0.03130524
 7586131, -0.001260487, 0.02452017, 0.01974973, -0.03132083, -0.02286087, -0.01081617, 0.01984252, -0.03126903
 7686091, 0.01052156, 0.01792164, 0.01975757, -0.03128381, -0.001260487, 0.02452017, 0.01974973, -0.03132083
 7786051, -0.0135913, -0.02319703, 0.01975086, -0.03134261, 0.01052156, 0.01792164, 0.01975757, -0.03128381
 7886011, 0.004775542, 0.01766474, 0.01975242, -0.03126884, -0.0135913, -0.02319703, 0.01975086, -0.03134261
 7985971, 0.003586978, 0.01166395, 0.01976201, -0.03122783, 0.004775542, 0.01766474, 0.01975242, -0.03126884
 8085931, 0.01090384, 0.02075896, 0.0197525, -0.03130914, 0.003586978, 0.01166395, 0.01976201, -0.03122783
 8185891, 0.008412695, -0.01360439, 0.01979092, -0.03122964, 0.01090384, 0.02075896, 0.0197525, -0.03130914
 8285851, -0.01199503, 0.01781373, 0.01981297, -0.03125426, 0.008412695, -0.01360439, 0.01979092, -0.03122964
 8385811, -0.0005235346, 0.02365062, 0.01975194, -0.03131133, -0.01199503, 0.01781373, 0.01981297, -0.03125426
 8485771, -0.008162114, -0.02192177, 0.01974698, -0.03131213, -0.0005235346, 0.02365062, 0.01975194, -0.03131133
 8586564, 0.01849968, 0.01301602, 0.01985006, -0.0312402, -0.008162114, -0.02192177, 0.01974698, -0.03131213
 8686524, -0.01235393, 0.0006538939, 0.01996439, -0.03109962, 0.01849968, 0.01301602, 0.01985006, -0.0312402
 8791482, 0.02561811, 0.01640032, 0.02021804, -0.03108157, -0.01235393, 0.0006538939, 0.01996439, -0.03109962
 8891442, -0.005575168, 0.01822316, 0.02039663, -0.03085787, 0.02561811, 0.01640032, 0.02021804, -0.03108157
 8991402, 0.01675535, -0.002010286, 0.02074559, -0.03060932, -0.005575168, 0.01822316, 0.02039663, -0.03085787
 9091362, 0.00312565, 0.01223759, 0.02098749, -0.0304198, 0.01675535, -0.002010286, 0.02074559, -0.03060932
 9191322, -0.002069062, -0.01202161, 0.02130298, -0.03019762, 0.00312565, 0.01223759, 0.02098749, -0.0304198
 9291282, -0.02616236, -0.009920288, 0.02174135, -0.03000791, -0.002069062, -0.01202161, 0.02130298, -0.03019762
 9391242, -0.007502987, -0.01124697, 0.02191885, -0.02976032, -0.02616236, -0.009920288, 0.02174135, -0.03000791
 9491202, -0.01720549, -0.02061433, 0.02222951, -0.02963583, -0.007502987, -0.01124697, 0.02191885, -0.02976032
 9591162, 0.01408892, -0.01010445, 0.02252194, -0.02933016, -0.01720549, -0.02061433, 0.02222951, -0.02963583
 9691122, -0.02250841, -0.002568236, 0.02283554, -0.02912957, 0.01408892, -0.01010445, 0.02252194, -0.02933016
 9791082, 0.006662631, -0.0153261, 0.02298291, -0.02896605, -0.02250841, -0.002568236, 0.02283554, -0.02912957
 9891042, -0.01708823, 0.00479951, 0.02327396, -0.02874002, 0.006662631, -0.0153261, 0.02298291, -0.02896605
 9991002, 0.001814536, 0.01776388, 0.02342176, -0.02862048, -0.01708823, 0.00479951, 0.02327396, -0.02874002
 10090962, 0.005138473, 0.02450345, 0.02363278, -0.02850999, 0.001814536, 0.01776388, 0.02342176, -0.02862048
 10190922, -0.002928571, -0.02567037, 0.0238383, -0.02834681, 0.005138473, 0.02450345, 0.02363278, -0.02850999
 10290882, -0.01606595, 0.007089875, 0.02411028, -0.02804072, -0.002928571, -0.02567037, 0.0238383, -0.02834681
 10390842, 0.007104306, 0.02119177, 0.02423949, -0.02796927, -0.01606595, 0.007089875, 0.02411028, -0.02804072
 10490802, 0.01826565, 0.004316543, 0.02449389, -0.02771556, 0.007104306, 0.02119177, 0.02423949, -0.02796927
 10590762, -0.005555421, 0.01268871, 0.02460361, -0.02758408, 0.01826565, 0.004316543, 0.02449389, -0.02771556
 10691555, -0.004113641, 0.01807733, 0.02476648, -0.02747042, -0.005555421, 0.01268871, 0.02460361, -0.02758408
 10791515, 0.02335299, 0.001805652, 0.02504548, -0.02726047, -0.004113641, 0.01807733, 0.02476648, -0.02747042
 10896473, 0.01407617, 0.003402474, 0.02512877, -0.0271104, 0.02335299, 0.001805652, 0.02504548, -0.02726047
 10996433, -0.02146042, -0.001490579, 0.02533472, -0.02697319, 0.01407617, 0.003402474, 0.02512877, -0.0271104
 11096393, 0.01859796, -0.008393023, 0.02545149, -0.02685288, -0.02146042, -0.001490579, 0.02533472, -0.02697319
 11196353, -0.02286672, 0.01585623, 0.02562601, -0.02676505, 0.01859796, -0.008393023, 0.02545149, -0.02685288
 11296313, -0.01717595, 0.0249235, 0.02570129, -0.02672396, -0.02286672, 0.01585623, 0.02562601, -0.02676505
 11396273, -0.00689249, -0.02073511, 0.02576432, -0.02656639, -0.01717595, 0.0249235, 0.02570129, -0.02672396
 11496233, -0.009964414, 0.02568395, 0.02589396, -0.0265025, -0.00689249, -0.02073511, 0.02576432, -0.02656639
 11596193, 0.02375456, 0.003148978, 0.0261089, -0.02624948, -0.009964414, 0.02568395, 0.02589396, -0.0265025
 11696153, -0.003202345, -0.004794724, 0.02609002, -0.02614702, 0.02375456, 0.003148978, 0.0261089, -0.02624948
 11796113, -0.01151021, -0.01754433, 0.02621738, -0.02611103, -0.003202345, -0.004794724, 0.02609002, -0.02614702
 11896073, -0.01930935, 0.02317514, 0.02636557, -0.02606741, -0.01151021, -0.01754433, 0.02621738, -0.02611103
 11996033, 0.01587623, -0.008274587, 0.02642902, -0.02586963, -0.01930935, 0.02317514, 0.02636557, -0.02606741
 12095993, -0.01145192, -0.003620391, 0.02648848, -0.02576859, 0.01587623, -0.008274587, 0.02642902, -0.02586963
 12195953, -0.01430121, 0.008082593, 0.02658623, -0.02569644, -0.01145192, -0.003620391, 0.02648848, -0.02576859
 12295913, 0.009618643, -0.01518941, 0.0266387, -0.02565428, -0.01430121, 0.008082593, 0.02658623, -0.02569644
 12395873, 0.00795757, -0.02386921, 0.02670663, -0.02565457, 0.009618643, -0.01518941, 0.0266387, -0.02565428
 12495833, -0.0159019, 0.01538327, 0.02681615, -0.02550704, 0.00795757, -0.02386921, 0.02670663, -0.02565457
 12595793, 0.002827696, -0.0239951, 0.02683104, -0.02551308, -0.0159019, 0.01538327, 0.02681615, -0.02550704
 12696586, -0.02071613, -0.005867086, 0.02698724, -0.02531993, 0.002827696, -0.0239951, 0.02683104, -0.02551308
 12796546, 0.02033238, -0.01208778, 0.02703834, -0.02528766, -0.02071613, -0.005867086, 0.02698724, -0.02531993
 12896506, -0.02165192, 0.005258661, 0.02710721, -0.02519913, 0.02033238, -0.01208778, 0.02703834, -0.02528766
 13001464, -0.01388567, -0.02317459, 0.02711162, -0.02524872, -0.02165192, 0.005258661, 0.02710721, -0.02519913
 13101424, 0.02659893, -0.01902089, 0.02726107, -0.02516663, -0.01388567, -0.02317459, 0.02711162, -0.02524872
 13201384, 0.009706458, -0.004956549, 0.02717498, -0.02503759, 0.02659893, -0.01902089, 0.02726107, -0.02516663
 13301344, -0.01966043, -0.009143624, 0.02728903, -0.02499592, 0.009706458, -0.004956549, 0.02717498, -0.02503759
 13401304, 0.02088771, -0.0210351, 0.02733376, -0.02504302, -0.01966043, -0.009143624, 0.02728903, -0.02499592
 13501264, 0.0121808, -0.01637134, 0.02731108, -0.02495919, 0.02088771, -0.0210351, 0.02733376, -0.02504302
 13601224, -0.01253791, 0.01796144, 0.02734991, -0.02493157, 0.0121808, -0.01637134, 0.02731108, -0.02495919
 13701184, -0.01309488, -0.006576404, 0.02739097, -0.02482382, -0.01253791, 0.01796144, 0.02734991, -0.02493157
 13801144, 0.005875141, -0.008431322, 0.02739038, -0.02479865, -0.01309488, -0.006576404, 0.02739097, -0.02482382
 13901104, 0.01575706, 0.0120603, 0.02747434, -0.02477399, 0.005875141, -0.008431322, 0.02739038, -0.02479865
 14001064, -0.01801088, 0.00261637, 0.02751328, -0.02471589, 0.01575706, 0.0120603, 0.02747434, -0.02477399
 14101024, 0.007065746, -0.01134194, 0.02747966, -0.02471702, -0.01801088, 0.00261637, 0.02751328, -0.02471589
 14200984, -0.006211411, -0.007850289, 0.02750451, -0.02467071, 0.007065746, -0.01134194, 0.02747966, -0.02471702
 14300944, -0.001460665, 0.0001479919, 0.02751857, -0.02463167, -0.006211411, -0.007850289, 0.02750451, -0.02467071
 14400904, 0.02090815, 0.01071549, 0.02764437, -0.02462189, -0.001460665, 0.0001479919, 0.02751857, -0.02463167
 14500864, 0.005506448, 0.01897312, 0.02757456, -0.02466158, 0.02090815, 0.01071549, 0.02764437, -0.02462189
 14600824, 0.0005519238, 0.01674761, 0.02758392, -0.02462501, 0.005506448, 0.01897312, 0.02757456, -0.02466158
 14700784, -0.01719264, 0.01540155, 0.02766076, -0.0245989, 0.0005519238, 0.01674761, 0.02758392, -0.02462501
 14801577, -0.0128696, -0.01739438, 0.02766231, -0.02458172, -0.01719264, 0.01540155, 0.02766076, -0.0245989
 14901537, 0.02212064, -0.02208338, 0.02773524, -0.02462108, -0.0128696, -0.01739438, 0.02766231, -0.02458172
 15006495, -0.004371271, -0.02248404, 0.02766095, -0.02459673, 0.02212064, -0.02208338, 0.02773524, -0.02462108
 15106455, 0.02338161, 0.003779484, 0.02778464, -0.02446566, -0.004371271, -0.02248404, 0.02766095, -0.02459673
 15206415, -0.007630257, 0.01249496, 0.02768517, -0.02449519, 0.02338161, 0.003779484, 0.02778464, -0.02446566
 15306375, -0.01381938, 0.001448931, 0.02772578, -0.02444411, -0.007630257, 0.01249496, 0.02768517, -0.02449519
 15406335, -0.002087334, 0.02130254, 0.02770053, -0.02453625, -0.01381938, 0.001448931, 0.02772578, -0.02444411
 15506295, 0.003790622, 0.00123423, 0.02770693, -0.02442291, -0.002087334, 0.02130254, 0.02770053, -0.02453625
 15606255, -0.006565019, -0.01200796, 0.02772626, -0.02444218, 0.003790622, 0.00123423, 0.02770693, -0.02442291
 15706215, 0.00698493, -0.002431265, 0.02773095, -0.02440497, -0.006565019, -0.01200796, 0.02772626, -0.02444218
 15806175, -0.0006313509, 0.01619104, 0.02773152, -0.02445429, 0.00698493, -0.002431265, 0.02773095, -0.02440497
 15906135, -0.01557584, -0.02643839, 0.02780974, -0.02452842, -0.0006313509, 0.01619104, 0.02773152, -0.02445429
 16006095, 0.02456163, -0.006163484, 0.02787094, -0.02438663, -0.01557584, -0.02643839, 0.02780974, -0.02452842
 16106055, 0.005333162, -4.64484E-05, 0.02775164, -0.02437511, 0.02456163, -0.006163484, 0.02787094, -0.02438663
 16206015, 0.008999571, 0.004149861, 0.02776946, -0.02437162, 0.005333162, -4.64484E-05, 0.02775164, -0.02437511
 16305975, -0.01742515, 0.0235798, 0.02781949, -0.02449772, 0.008999571, 0.004149861, 0.02776946, -0.02437162
 16405935, 0.004196006, 0.0249986, 0.02777439, -0.02449685, -0.01742515, 0.0235798, 0.02781949, -0.02449772
 16505895, 0.01030368, 0.01040655, 0.02778897, -0.02437741, 0.004196006, 0.0249986, 0.02777439, -0.02449685
 16605855, -0.0004878389, -0.02237314, 0.02777264, -0.02446484, 0.01030368, 0.01040655, 0.02778897, -0.02437741
 16705815, 0.01692348, -0.01865672, 0.02782878, -0.02443311, -0.0004878389, -0.02237314, 0.02777264, -0.02446484
 16805775, 0.005460133, -0.01225058, 0.02777823, -0.02438131, 0.01692348, -0.01865672, 0.02782878, -0.02443311
 16906568, 0.01239004, -0.01130099, 0.02780628, -0.02437374, 0.005460133, -0.01225058, 0.02777823, -0.02438131
 17006528, 0.02272413, -0.009794149, 0.02788611, -0.02436231, 0.01239004, -0.01130099, 0.02780628, -0.02437374
 17111486, -0.02153075, -0.02678527, 0.02790707, -0.02447516, 0.02272413, -0.009794149, 0.02788611, -0.02436231
 17211446, -0.02510558, 0.01062529, 0.02791165, -0.02436462, -0.02153075, -0.02678527, 0.02790707, -0.02447516
 17311406, 0.0215627, 0.02293488, 0.02790172, -0.0244356, -0.02510558, 0.01062529, 0.02791165, -0.02436462
 17411366, 0.01968365, 0.01307171, 0.02787165, -0.02436585, 0.0215627, 0.02293488, 0.02790172, -0.0244356
 17511326, -0.003438227, 0.02422522, 0.02778395, -0.02447549, 0.01968365, 0.01307171, 0.02787165, -0.02436585
 17611286, 0.0017772, 0.007463262, 0.02777509, -0.02435572, -0.003438227, 0.02422522, 0.02778395, -0.02447549
 17711246, 0.00968073, 0.005156211, 0.02779436, -0.02434855, 0.0017772, 0.007463262, 0.02777509, -0.02435572
 17811206, 0.01684542, -0.01695782, 0.02782996, -0.02441658, 0.00968073, 0.005156211, 0.02779436, -0.02434855
 17911166, -0.007341239, -0.02292079, 0.02779287, -0.0244607, 0.01684542, -0.01695782, 0.02782996, -0.02441658
 18011126, -0.006518252, -0.003236151, 0.02777581, -0.02435349, -0.007341239, -0.02292079, 0.02779287, -0.0244607
 18111086, 0.006970773, 0.005435649, 0.02777566, -0.02435972, -0.006518252, -0.003236151, 0.02777581, -0.02435349
 18211046, 0.007574556, 0.003435299, 0.02777459, -0.02435879, 0.006970773, 0.005435649, 0.02777566, -0.02435972
 18311006, -0.0206877, -0.0124495, 0.02786313, -0.02438154, 0.007574556, 0.003435299, 0.02777459, -0.02435879
 18410966, 0.01590928, -0.001007071, 0.02781182, -0.02436089, -0.0206877, -0.0124495, 0.02786313, -0.02438154
 18510926, -0.01509119, 0.01066061, 0.02780056, -0.02439476, 0.01590928, -0.001007071, 0.02781182, -0.02436089
 18610886, -0.01874209, -0.02691635, 0.02785194, -0.02451266, -0.01509119, 0.01066061, 0.02780056, -0.02439476
 18710846, -0.01521349, 0.02053688, 0.02779514, -0.02447587, -0.01874209, -0.02691635, 0.02785194, -0.02451266
 18810806, 0.01119995, 0.02174868, 0.02778386, -0.02447554, -0.01521349, 0.02053688, 0.02779514, -0.02447587
 18910766, -0.01846114, 0.02405653, 0.02781157, -0.02452107, 0.01119995, 0.02174868, 0.02778386, -0.02447554
 19011559, -0.01667326, -0.01514979, 0.02780779, -0.02442649, -0.01846114, 0.02405653, 0.02781157, -0.02452107
 19111519, 0.01289116, 0.004273566, 0.02777076, -0.02439092, -0.01667326, -0.01514979, 0.02780779, -0.02442649
 19216477, 0.009068578, -0.01090344, 0.02774551, -0.02442364, 0.01289116, 0.004273566, 0.02777076, -0.02439092
 19316437, -0.006122131, -0.00718836, 0.02773413, -0.02440964, 0.009068578, -0.01090344, 0.02774551, -0.02442364
 19416397, 0.01206536, -0.02210764, 0.02775228, -0.02451993, -0.006122131, -0.00718836, 0.02773413, -0.02440964
 19516357, 0.003388122, 0.00780141, 0.0277193, -0.02442243, 0.01206536, -0.02210764, 0.02775228, -0.02451993
 19616317, 0.01836001, 0.01425005, 0.02779593, -0.02444782, 0.003388122, 0.00780141, 0.0277193, -0.02442243
 19716277, -0.01838617, -0.005508074, 0.02778486, -0.02441914, 0.01836001, 0.01425005, 0.02779593, -0.02444782
 19816237, 0.002323081, -0.009967767, 0.02770382, -0.02444778, -0.01838617, -0.005508074, 0.02778486, -0.02441914
 19916197, 0.005345444, 0.02247255, 0.02771424, -0.02453882, 0.002323081, -0.009967767, 0.02770382, -0.02444778
 20016157, 0.01455626, -0.00452491, 0.02773851, -0.02443911, 0.005345444, 0.02247255, 0.02771424, -0.02453882
 20116117, -0.01510613, 0.01311818, 0.027736, -0.02448226, 0.01455626, -0.00452491, 0.02773851, -0.02443911
 20216077, 0.01423293, -0.009748016, 0.02772601, -0.02446894, -0.01510613, 0.01311818, 0.027736, -0.02448226
 20316037, -0.01968328, -0.01350602, 0.02777427, -0.02447955, 0.01423293, -0.009748016, 0.02772601, -0.02446894
 20415997, 0.01510368, 0.01924581, 0.02773732, -0.02452829, -0.01968328, -0.01350602, 0.02777427, -0.02447955
 20515957, -0.003936435, 0.01347359, 0.02767351, -0.02450423, 0.01510368, 0.01924581, 0.02773732, -0.02452829
 20615917, -0.004620043, 0.01140438, 0.02766909, -0.02449827, -0.003936435, 0.01347359, 0.02767351, -0.02450423
 20715877, 0.007628318, 0.004905382, 0.02767317, -0.02447708, -0.004620043, 0.01140438, 0.02766909, -0.02449827
 20815837, -0.00810938, 0.01982954, 0.02767017, -0.02457067, 0.007628318, 0.004905382, 0.02767317, -0.02447708
 20915797, -0.00139944, -0.01238439, 0.02765204, -0.02451846, -0.00810938, 0.01982954, 0.02767017, -0.02457067
 21016590, 0.01436673, 0.02537693, 0.02770884, -0.0246206, -0.00139944, -0.01238439, 0.02765204, -0.02451846
 21116550, -0.02169385, -0.01578001, 0.02775662, -0.02453544, 0.01436673, 0.02537693, 0.02770884, -0.0246206
 21216510, -0.005859865, 0.002955046, 0.02764183, -0.02450308, -0.02169385, -0.01578001, 0.02775662, -0.02453544
 21321468, 0.01178965, 0.001009517, 0.02766058, -0.02450516, -0.005859865, 0.002955046, 0.02764183, -0.02450308
 21421428, -0.01109255, -0.01267533, 0.02765724, -0.02454333, 0.01178965, 0.001009517, 0.02766058, -0.02450516
 21521388, 0.009324394, 0.002181489, 0.02763869, -0.02451827, -0.01109255, -0.01267533, 0.02765724, -0.02454333
 21621348, -0.0223711, 0.02468588, 0.02772, -0.02466988, 0.009324394, 0.002181489, 0.02763869, -0.02451827
 21721308, -0.02221206, -0.01411535, 0.02772896, -0.02456025, -0.0223711, 0.02468588, 0.02772, -0.02466988
 21821268, -0.003418305, 0.007958096, 0.02760589, -0.0245512, -0.02221206, -0.01411535, 0.02772896, -0.02456025
 21921228, 0.01560856, 0.02527521, 0.02767094, -0.02467083, -0.003418305, 0.007958096, 0.02760589, -0.0245512
 22021188, -0.02634086, 0.01919617, 0.02774028, -0.02463575, 0.01560856, 0.02527521, 0.02767094, -0.02467083
 22121148, 0.004955859, -0.008683826, 0.02759308, -0.02457157, -0.02634086, 0.01919617, 0.02774028, -0.02463575
 22221108, -0.009706933, -0.0263082, 0.02761901, -0.02470611, 0.004955859, -0.008683826, 0.02759308, -0.02457157
 22321068, -0.00424299, 0.01569141, 0.02758285, -0.02462226, -0.009706933, -0.0263082, 0.02761901, -0.02470611
 22421028, 0.02564703, -0.01267626, 0.02771308, -0.02460821, -0.00424299, 0.01569141, 0.02758285, -0.02462226
 22520988, -0.01553614, 0.01768562, 0.02761834, -0.0246516, 0.02564703, -0.01267626, 0.02771308, -0.02460821
 22620948, -0.01325838, 0.0008340511, 0.02760081, -0.02458117, -0.01553614, 0.01768562, 0.02761834, -0.0246516
 22720908, -0.005669583, -0.01107146, 0.02756663, -0.0246143, -0.01325838, 0.0008340511, 0.02760081, -0.02458117
 22820868, 0.01342621, 0.02333289, 0.02760601, -0.02470598, -0.005669583, -0.01107146, 0.02756663, -0.0246143
 22920828, -0.01483664, 0.01723059, 0.02759287, -0.02467127, 0.01342621, 0.02333289, 0.02760601, -0.02470598
 23020788, -0.009719573, -0.006485484, 0.02756388, -0.02461304, -0.01483664, 0.01723059, 0.02759287, -0.02467127
 23121581, 0.01235375, 0.01100087, 0.02757484, -0.02463347, -0.009719573, -0.006485484, 0.02756388, -0.02461304
 23221541, 0.01287147, -0.01357882, 0.02756633, -0.02466119, 0.01235375, 0.01100087, 0.02757484, -0.02463347
 23321501, 0.002882296, 0.008548397, 0.02752944, -0.02463841, 0.01287147, -0.01357882, 0.02756633, -0.02466119
 23426459, 0.005054298, 0.01623113, 0.02753189, -0.02468512, 0.002882296, 0.008548397, 0.02752944, -0.02463841
 23526419, 0.0106573, 0.009803027, 0.02754473, -0.0246519, 0.005054298, 0.01623113, 0.02753189, -0.02468512
 23626379, -0.001991574, -0.0148714, 0.02751492, -0.02468885, 0.0106573, 0.009803027, 0.02754473, -0.0246519
 23726339, 0.008818626, 0.01102679, 0.02752658, -0.0246697, -0.001991574, -0.0148714, 0.02751492, -0.02468885
 23826299, -0.001831975, 0.01970905, 0.02750519, -0.02473929, 0.008818626, 0.01102679, 0.02752658, -0.0246697
 23926259, 0.0245252, -0.01174856, 0.02762473, -0.02468858, -0.001831975, 0.01970905, 0.02750519, -0.02473929
 24026219, -0.02218464, -0.02134071, 0.02761682, -0.02474687, 0.0245252, -0.01174856, 0.02762473, -0.02468858
 24126179, -0.01958569, -0.02283727, 0.02758779, -0.02476916, -0.02218464, -0.02134071, 0.02761682, -0.02474687
 24226139, -0.001990561, 0.02499688, 0.02748788, -0.02481468, -0.01958569, -0.02283727, 0.02758779, -0.02476916
 24326099, -0.009243662, 0.0131365, 0.02749363, -0.02472037, -0.001990561, 0.02499688, 0.02748788, -0.02481468
 24426059, -0.00873873, 0.008621704, 0.02748648, -0.02470283, -0.009243662, 0.0131365, 0.02749363, -0.02472037
 24526019, -0.01497213, 0.005764826, 0.02751387, -0.02469771, -0.00873873, 0.008621704, 0.02748648, -0.02470283
 24625979, -0.01668734, -0.01786875, 0.02753328, -0.02475693, -0.01497213, 0.005764826, 0.02751387, -0.02469771
 24725939, -0.02002498, -0.01757896, 0.02755686, -0.02475733, -0.01668734, -0.01786875, 0.02753328, -0.02475693
 24825899, -0.01614741, 0.0226612, 0.02750689, -0.02482804, -0.02002498, -0.01757896, 0.02755686, -0.02475733
 24925859, 0.0176728, 0.02611348, 0.02753386, -0.02485017, -0.01614741, 0.0226612, 0.02750689, -0.02482804
 25025819, -0.005300632, -0.008003817, 0.02744853, -0.02473109, 0.0176728, 0.02611348, 0.02753386, -0.02485017
 25125779, -0.01076588, 0.007120161, 0.02746062, -0.02473534, -0.005300632, -0.008003817, 0.02744853, -0.02473109
 25226572, 0.02370002, 0.006451442, 0.0275606, -0.02472784, -0.01076588, 0.007120161, 0.02746062, -0.02473534
 25326532, -0.01376198, 0.02487604, 0.02746902, -0.02487795, 0.02370002, 0.006451442, 0.0275606, -0.02472784
 25431490, 0.009432154, -0.01736038, 0.02744187, -0.02480918, -0.01376198, 0.02487604, 0.02746902, -0.02487795
 25531450, 0.00846034, 0.008791838, 0.02743569, -0.0247588, 0.009432154, -0.01736038, 0.02744187, -0.02480918
 25631410, -0.007787927, -0.01891022, 0.02743338, -0.02482517, 0.00846034, 0.008791838, 0.02743569, -0.0247588
 25731370, 0.02114209, -0.008639016, 0.02750448, -0.02477089, -0.007787927, -0.01891022, 0.02743338, -0.02482517
 25831330, 0.01054492, -0.0136032, 0.02742689, -0.02480348, 0.02114209, -0.008639016, 0.02750448, -0.02477089
 25931290, 0.003221921, 0.02302933, 0.02740842, -0.02488166, 0.01054492, -0.0136032, 0.02742689, -0.02480348
 26031250, -0.007662209, -0.01437805, 0.02741153, -0.02481316, 0.003221921, 0.02302933, 0.02740842, -0.02488166
 26131210, 0.01496622, -0.01488293, 0.02743699, -0.02482764, -0.007662209, -0.01437805, 0.02741153, -0.02481316
 26231170, -0.001306686, 0.02189255, 0.0273898, -0.02488807, 0.01496622, -0.01488293, 0.02743699, -0.02482764
 26331130, -0.0111456, -0.01975286, 0.02741673, -0.02486628, -0.001306686, 0.02189255, 0.0273898, -0.02488807
 26431090, -0.01357822, 0.01257617, 0.02741471, -0.0248279, -0.0111456, -0.01975286, 0.02741673, -0.02486628
 26531050, 0.01986841, 0.02578605, 0.02747742, -0.024928, -0.01357822, 0.01257617, 0.02741471, -0.0248279
 26631010, -9.585274E-05, 0.009333417, 0.0273672, -0.0248199, 0.01986841, 0.02578605, 0.02747742, -0.024928
 26730970, -0.001172346, -0.01233325, 0.0273641, -0.02483901, -9.585274E-05, 0.009333417, 0.0273672, -0.0248199
 26830930, -0.01573548, 0.005496623, 0.02741122, -0.02481644, -0.001172346, -0.01233325, 0.0273641, -0.02483901
 26930890, 0.009163301, 0.01619011, 0.02737749, -0.02486978, -0.01573548, 0.005496623, 0.02741122, -0.02481644
 27030850, 0.01913129, -0.01477531, 0.02742669, -0.02487183, 0.009163301, 0.01619011, 0.02737749, -0.02486978
 27130810, 0.006378182, 0.01740175, 0.02735858, -0.02488997, 0.01913129, -0.01477531, 0.02742669, -0.02487183
 27230770, 0.004940615, 0.02055618, 0.02735178, -0.02492183, 0.006378182, 0.01740175, 0.02735858, -0.02488997
 27331563, 0.01296032, -0.006110652, 0.02737182, -0.02484277, 0.004940615, 0.02055618, 0.02735178, -0.02492183
 27431523, -0.01065974, 3.024284E-05, 0.02735669, -0.02483776, 0.01296032, -0.006110652, 0.02737182, -0.02484277
 27536481, 0.02479427, -0.01569171, 0.02745904, -0.02490144, -0.01065974, 3.024284E-05, 0.02735669, -0.02483776
 27636441, 0.01631635, -0.02002418, 0.02737988, -0.02494287, 0.02479427, -0.01569171, 0.02745904, -0.02490144
 27736401, 0.02300354, -0.01404145, 0.02743216, -0.02489931, 0.01631635, -0.02002418, 0.02737988, -0.02494287
 27836361, 0.0153955, -0.002277116, 0.0273663, -0.02485756, 0.02300354, -0.01404145, 0.02743216, -0.02489931
 27936321, -0.01933586, -0.003557008, 0.02739485, -0.02486022, 0.0153955, -0.002277116, 0.0273663, -0.02485756
 28036281, -0.009259783, 0.01187108, 0.02732405, -0.02490033, -0.01933586, -0.003557008, 0.02739485, -0.02486022
 28136241, -0.02315721, 0.02015135, 0.02741646, -0.02496747, -0.009259783, 0.01187108, 0.02732405, -0.02490033
 28236201, -0.0008804809, -0.002833114, 0.02729754, -0.02487802, -0.02315721, 0.02015135, 0.02741646, -0.02496747
 28336161, -0.003093804, 0.009848948, 0.02729575, -0.02490306, -0.0008804809, -0.002833114, 0.02729754, -0.02487802
 28436121, -0.009977549, 0.004007909, 0.02731065, -0.02488885, -0.003093804, 0.009848948, 0.02729575, -0.02490306
 28536081, 0.00859543, -0.002942701, 0.02730109, -0.02489153, -0.009977549, 0.004007909, 0.02731065, -0.02488885
 28636041, 0.01501689, -0.01236445, 0.02732945, -0.02493019, 0.00859543, -0.002942701, 0.02730109, -0.02489153
 28736001, -0.0001985439, 0.01033974, 0.02727805, -0.02492254, 0.01501689, -0.01236445, 0.02732945, -0.02493019
 28835961, 0.009719688, 0.02185441, 0.02730343, -0.02500422, -0.0001985439, 0.01033974, 0.02727805, -0.02492254
 28935921, 0.02554054, -0.009539433, 0.02741117, -0.02492644, 0.009719688, 0.02185441, 0.02730343, -0.02500422
 29035881, 0.0006280449, -0.00566418, 0.02726546, -0.02491876, 0.02554054, -0.009539433, 0.02741117, -0.02492644
 29135841, 0.02002426, -0.01703741, 0.02734746, -0.02498409, 0.0006280449, -0.00566418, 0.02726546, -0.02491876
 29235801, 0.006375737, 0.0199457, 0.02727305, -0.02500599, 0.02002426, -0.01703741, 0.02734746, -0.02498409
 29335761, -0.01360819, 0.004743086, 0.02729397, -0.02492885, 0.006375737, 0.0199457, 0.02727305, -0.02500599
 29436554, 0.008031519, -0.02138646, 0.02726578, -0.0250335, -0.01360819, 0.004743086, 0.02729397, -0.02492885
 29536514, 0.01137858, -0.02241996, 0.02727548, -0.02504879, 0.008031519, -0.02138646, 0.02726578, -0.0250335
 29641472, 0.02484233, -0.0115442, 0.02737601, -0.02496672, 0.01137858, -0.02241996, 0.02727548, -0.02504879
 29741432, 0.001864782, -0.01397459, 0.02724046, -0.02498522, 0.02484233, -0.0115442, 0.02737601, -0.02496672
 29841392, 0.01934134, 0.01990339, 0.02732937, -0.02502242, 0.001864782, -0.01397459, 0.02724046, -0.02498522
 29941352, 0.007857021, 0.006794735, 0.02724587, -0.02495794, 0.01934134, 0.01990339, 0.02732937, -0.02502242
 30041312, 0.01846156, 0.01118755, 0.02730828, -0.024974, 0.007857021, 0.006794735, 0.02724587, -0.02495794
 30141272, 0.01016191, -0.01848866, 0.02724625, -0.02503675, 0.01846156, 0.01118755, 0.02730828, -0.024974
 30241232, -0.008188877, 0.008349537, 0.02723393, -0.02497777, 0.01016191, -0.01848866, 0.02724625, -0.02503675
 30341192, 0.02178095, 0.0218375, 0.02733556, -0.02505813, -0.008188877, 0.008349537, 0.02723393, -0.02497777
 30441152, -0.02339602, -0.02657021, 0.02735316, -0.02510967, 0.02178095, 0.0218375, 0.02733556, -0.02505813
 30541112, 0.0216474, 0.008500536, 0.02731748, -0.02498155, -0.02339602, -0.02657021, 0.02735316, -0.02510967
 30641072, -0.006635574, -0.0206058, 0.02722155, -0.02506914, 0.0216474, 0.008500536, 0.02731748, -0.02498155
 30741032, -0.003638468, -0.02274502, 0.02721101, -0.02509507, -0.006635574, -0.0206058, 0.02722155, -0.02506914
 30840992, 0.02263392, -0.02029509, 0.02730825, -0.02508155, -0.003638468, -0.02274502, 0.02721101, -0.02509507
 30940952, 0.00437868, -0.005593946, 0.02719847, -0.02499612, 0.02263392, -0.02029509, 0.02730825, -0.02508155
 31040912, -0.007385952, 0.004346092, 0.02720247, -0.02499716, 0.00437868, -0.005593946, 0.02719847, -0.02499612
 31140872, 0.01054602, -0.01421045, 0.02721169, -0.0250434, -0.007385952, 0.004346092, 0.02720247, -0.02499716
 31240832, -0.01441219, -0.01616306, 0.02723775, -0.02505161, 0.01054602, -0.01421045, 0.02721169, -0.0250434
 31340792, 0.01630493, -0.01118034, 0.02723901, -0.02503192, -0.01441219, -0.01616306, 0.02723775, -0.02505161
 31441585, 0.01106965, 0.02291279, 0.02721569, -0.02511736, 0.01630493, -0.01118034, 0.02723901, -0.02503192
 31541545, -0.02548714, 0.01443717, 0.02731634, -0.02505725, 0.01106965, 0.02291279, 0.02721569, -0.02511736
 31641505, -0.005184233, -0.01625463, 0.02718249, -0.02506994, -0.02548714, 0.01443717, 0.02731634, -0.02505725
 31746463, -0.01315069, -0.01020942, 0.027211, -0.02503572, -0.005184233, -0.01625463, 0.02718249, -0.02506994
 31846423, 0.02363029, 0.02173288, 0.027304, -0.02511112, -0.01315069, -0.01020942, 0.027211, -0.02503572
 31946383, 0.003211666, -0.004032685, 0.02716432, -0.02502764, 0.02363029, 0.02173288, 0.027304, -0.02511112
 32046343, 0.01091147, -0.01703316, 0.02718489, -0.02509499, 0.003211666, -0.004032685, 0.02716432, -0.02502764
 32146303, 0.0181098, 0.002718238, 0.02722974, -0.025029, 0.01091147, -0.01703316, 0.02718489, -0.02509499
 32246263, -0.01789425, -0.01681446, 0.02723166, -0.02508962, 0.0181098, 0.002718238, 0.02722974, -0.025029
 32346223, -0.008841089, -0.0132842, 0.02716995, -0.025075, -0.01789425, -0.01681446, 0.02723166, -0.02508962
 32446183, 0.007602654, 0.0006242933, 0.02715849, -0.02504138, -0.008841089, -0.0132842, 0.02716995, -0.025075
 32546143, 0.001422925, 0.01298949, 0.02714454, -0.02508287, 0.007602654, 0.0006242933, 0.02715849, -0.02504138
 32646103, 0.003167003, 0.01195158, 0.02714311, -0.02508023, 0.001422925, 0.01298949, 0.02714454, -0.02508287
 32746063, -0.01669469, -0.015533, 0.02720483, -0.02509932, 0.003167003, 0.01195158, 0.02714311, -0.02508023
 32846023, 0.0182751, -0.006372184, 0.02720572, -0.0250643, -0.01669469, -0.015533, 0.02720483, -0.02509932
 32945983, 0.01528974, -0.01954785, 0.02718017, -0.02514842, 0.0182751, -0.006372184, 0.02720572, -0.0250643
 33045943, -0.004353912, 0.009947646, 0.02713058, -0.02508559, 0.01528974, -0.01954785, 0.02718017, -0.02514842
 33145903, -0.0118541, -0.006800734, 0.02715618, -0.02507401, -0.004353912, 0.009947646, 0.02713058, -0.02508559
 33245863, -0.004086026, -0.01993348, 0.02712845, -0.02515713, -0.0118541, -0.006800734, 0.02715618, -0.02507401
 33345823, -0.004645959, 0.007598112, 0.02712136, -0.02508653, -0.004086026, -0.01993348, 0.02712845, -0.02515713
 33445783, -0.003886339, -0.01318798, 0.02711937, -0.02511435, -0.004645959, 0.007598112, 0.02712136, -0.02508653
 33546576, 0.0201674, -0.007946876, 0.02719963, -0.02509322, -0.003886339, -0.01318798, 0.02711937, -0.02511435
 33646536, -0.02551398, -0.001412792, 0.02725397, -0.02507711, 0.0201674, -0.007946876, 0.02719963, -0.02509322
 33751494, 0.0144225, -0.01196158, 0.0271496, -0.02511958, -0.02551398, -0.001412792, 0.02725397, -0.02507711
 33851454, 0.01327765, -0.00971821, 0.02713978, -0.02511142, 0.0144225, -0.01196158, 0.0271496, -0.02511958
 33951414, -0.01834388, 0.01874414, 0.02717137, -0.02517472, 0.01327765, -0.00971821, 0.02713978, -0.02511142
 34051374, -0.0127437, 0.0112197, 0.0271307, -0.02512533, -0.01834388, 0.01874414, 0.02717137, -0.02517472
 34151334, 0.0119228, 0.01445601, 0.02712912, -0.02514171, -0.0127437, 0.0112197, 0.0271307, -0.02512533
 34251294, -0.002350971, -0.01507307, 0.02709344, -0.02515253, 0.0119228, 0.01445601, 0.02712912, -0.02514171
 34351254, -0.02416578, -0.02166203, 0.02723009, -0.0251965, -0.002350971, -0.01507307, 0.02709344, -0.02515253
 34451214, 0.01752682, -0.002012783, 0.02715211, -0.02510757, -0.02416578, -0.02166203, 0.02723009, -0.0251965
 34551174, 0.00279211, 0.006551498, 0.02708335, -0.02512088, 0.01752682, -0.002012783, 0.02715211, -0.02510757
 34651134, 0.0009158731, -0.01624732, 0.02708023, -0.02517424, 0.00279211, 0.006551498, 0.02708335, -0.02512088
 34751094, 0.009679521, 0.01936039, 0.02710245, -0.02519784, 0.0009158731, -0.01624732, 0.02708023, -0.02517424
 34851054, 0.02248489, -0.009081547, 0.02718296, -0.02513891, 0.009679521, 0.01936039, 0.02710245, -0.02519784
 34951014, -0.006252526, -0.02543231, 0.02708644, -0.02526563, 0.02248489, -0.009081547, 0.02718296, -0.02513891
 35050974, 0.0163644, 0.008904817, 0.02712976, -0.02514009, -0.006252526, -0.02543231, 0.02708644, -0.02526563
 35150934, -0.009356583, 0.00636755, 0.02708293, -0.02513942, 0.0163644, 0.008904817, 0.02712976, -0.02514009
 35250894, -0.02215661, 0.01405738, 0.02716769, -0.02517886, -0.009356583, 0.00636755, 0.02708293, -0.02513942
 35350854, 0.02507447, 0.006766103, 0.027202, -0.02513852, -0.02215661, 0.01405738, 0.02716769, -0.02517886
 35450814, -0.02208079, -0.00997356, 0.02716899, -0.02515378, 0.02507447, 0.006766103, 0.027202, -0.02513852
 35550774, 0.01698706, 0.005906201, 0.02711933, -0.02514583, -0.02208079, -0.00997356, 0.02716899, -0.02515378
 35651567, 0.01256502, -0.01957522, 0.02708498, -0.02523352, 0.01698706, 0.005906201, 0.02711933, -0.02514583
 35751527, 0.02474936, 0.003113132, 0.027186, -0.02514362, 0.01256502, -0.01957522, 0.02708498, -0.02523352
 35856485, 0.01427684, -0.007333679, 0.02708931, -0.0251628, 0.02474936, 0.003113132, 0.027186, -0.02514362
 35956445, -0.02542785, 0.01763076, 0.02718246, -0.0252256, 0.01427684, -0.007333679, 0.02708931, -0.0251628
 36056405, -0.009594928, -0.01390735, 0.02706377, -0.02519676, -0.02542785, 0.01763076, 0.02718246, -0.0252256
 36156365, -0.008400391, 0.02469187, 0.02705445, -0.02529858, -0.009594928, -0.01390735, 0.02706377, -0.02519676
 36256325, -0.01759709, 0.0216472, 0.02710154, -0.02527091, -0.008400391, 0.02469187, 0.02705445, -0.02529858
 36356285, 0.01901089, 0.002914737, 0.02711343, -0.02516303, -0.01759709, 0.0216472, 0.02710154, -0.02527091
 36456245, 0.02439356, 0.01930656, 0.02717246, -0.02523878, 0.01901089, 0.002914737, 0.02711343, -0.02516303
 36556205, -0.006932062, -0.01935179, 0.02704228, -0.02525173, 0.02439356, 0.01930656, 0.02717246, -0.02523878
 36656165, 0.01554783, 0.004934079, 0.02707937, -0.02517547, -0.006932062, -0.01935179, 0.02704228, -0.02525173
 36756125, 0.01976168, -0.0003359595, 0.02710859, -0.02517308, 0.01554783, 0.004934079, 0.02707937, -0.02517547
 36856085, 0.003927574, 0.01292034, 0.02702425, -0.02521514, 0.01976168, -0.0003359595, 0.02710859, -0.02517308
 36956045, -0.02089993, -0.009576156, 0.02711779, -0.02519533, 0.003927574, 0.01292034, 0.02702425, -0.02521514
 37056005, -0.02071194, -0.02461579, 0.02712241, -0.02530815, -0.02089993, -0.009576156, 0.02711779, -0.02519533
 37155965, 0.02100104, 0.01444911, 0.02711632, -0.02522518, -0.02071194, -0.02461579, 0.02712241, -0.02530815
 37255925, 0.003632368, -0.0146559, 0.02701263, -0.02523821, 0.02100104, 0.01444911, 0.02711632, -0.02522518
 37355885, -0.005161359, -0.02182264, 0.02701778, -0.02529659, 0.003632368, -0.0146559, 0.02701263, -0.02523821
 37455845, 0.02116343, 0.01498614, 0.02711073, -0.02523646, -0.005161359, -0.02182264, 0.02701778, -0.02529659
 37555805, -0.01435781, 0.00886663, 0.02704636, -0.02521529, 0.02116343, 0.01498614, 0.02711073, -0.02523646
 37655765, -0.02357688, 0.0195455, 0.02711968, -0.02528856, -0.01435781, 0.00886663, 0.02704636, -0.02521529
 37756558, 0.02498963, 0.007234321, 0.02713962, -0.0252064, -0.02357688, 0.0195455, 0.02711968, -0.02528856
 37856518, -0.02536033, 0.007294111, 0.02713605, -0.0252148, 0.02498963, 0.007234321, 0.02713962, -0.0252064
 37961476, -0.002984856, -0.001964237, 0.02699397, -0.02520809, -0.02536033, 0.007294111, 0.02713605, -0.0252148
 38061436, -0.01486364, 0.0249086, 0.02703843, -0.02535305, -0.002984856, -0.001964237, 0.02699397, -0.02520809
 38161396, -0.01842295, -0.0208435, 0.02707221, -0.02530131, -0.01486364, 0.0249086, 0.02703843, -0.02535305
 38261356, 0.0209429, 0.002459393, 0.0270838, -0.02521235, -0.01842295, -0.0208435, 0.02707221, -0.02530131
 38361316, 0.01583491, 0.02443141, 0.02704895, -0.02534328, 0.0209429, 0.002459393, 0.0270838, -0.02521235
 38461276, -0.02243594, 0.01763313, 0.0270895, -0.02529219, 0.01583491, 0.02443141, 0.02704895, -0.02534328
 38561236, -0.01550709, -0.02575704, 0.02704268, -0.025363, -0.02243594, 0.01763313, 0.0270895, -0.02529219
 38661196, 0.0004147923, -0.001731024, 0.02697555, -0.02522555, -0.01550709, -0.02575704, 0.02704268, -0.025363
 38761156, 0.002335355, 0.003214664, 0.02697464, -0.02522946, 0.0004147923, -0.001731024, 0.02697555, -0.02522555
 38861116, 0.01459188, 0.001803171, 0.02701907, -0.02522856, 0.002335355, 0.003214664, 0.02697464, -0.02522946
 38961076, -0.01310288, -0.009094629, 0.02700954, -0.02524765, 0.01459188, 0.001803171, 0.02701907, -0.02522856
 39061036, -0.01080335, 0.005407133, 0.02699203, -0.02524116, -0.01310288, -0.009094629, 0.02700954, -0.02524765
 39160996, 0.01669645, -0.01788308, 0.02702492, -0.02531116, -0.01080335, 0.005407133, 0.02699203, -0.02524116
 39260956, -0.005688257, -0.02275591, 0.02697509, -0.02535307, 0.01669645, -0.01788308, 0.02702492, -0.02531116
 39360916, 0.01599306, -0.01413691, 0.02701538, -0.02528818, -0.005688257, -0.02275591, 0.02697509, -0.02535307
 39460876, -0.01262537, -0.005885233, 0.02699453, -0.02524967, 0.01599306, -0.01413691, 0.02701538, -0.02528818
 39560836, 0.002711575, -0.01120708, 0.02695744, -0.02527507, -0.01262537, -0.005885233, 0.02699453, -0.02524967
 39660796, -0.004521069, 0.0233557, 0.02696034, -0.02537239, 0.002711575, -0.01120708, 0.02695744, -0.02527507
 39761589, -0.02401924, -0.01779296, 0.02708871, -0.02531141, -0.004521069, 0.0233557, 0.02696034, -0.02537239
 39861549, -0.002861606, 0.0002029925, 0.02695087, -0.02525309, -0.02401924, -0.01779296, 0.02708871, -0.02531141
 39961509, 0.001948063, -0.005575029, 0.02694793, -0.02526243, -0.002861606, 0.0002029925, 0.02695087, -0.02525309
 40066467, 0.02459498, -0.009136913, 0.02707772, -0.02527556, 0.001948063, -0.005575029, 0.02694793, -0.02526243
 40166427, 0.01035417, 0.002882847, 0.02696718, -0.02526063, 0.02459498, -0.009136913, 0.02707772, -0.02527556
 40266387, 0.002450039, -0.01530595, 0.02694309, -0.02531528, 0.01035417, 0.002882847, 0.02696718, -0.02526063
 40366347, -0.009209787, -0.007871427, 0.02695894, -0.02527668, 0.002450039, -0.01530595, 0.02694309, -0.02531528
 40466307, 0.003824014, -0.003165307, 0.02693956, -0.02526897, -0.009209787, -0.007871427, 0.02695894, -0.02527668
 40566267, 0.02009804, -0.02311551, 0.02702237, -0.02539258, 0.003824014, -0.003165307, 0.02693956, -0.02526897
 40666227, 0.0238433, 0.003249286, 0.02706076, -0.02526833, 0.02009804, -0.02311551, 0.02702237, -0.02539258
 40766187, -0.01962213, 0.01331682, 0.02701426, -0.02531416, 0.0238433, 0.003249286, 0.02706076, -0.02526833
 40866147, -0.01449419, -0.01009866, 0.0269781, -0.02529464, -0.01962213, 0.01331682, 0.02701426, -0.02531416
 40966107, 0.009673093, -0.0129209, 0.02694663, -0.0253162, -0.01449419, -0.01009866, 0.0269781, -0.02529464
 41066067, 0.01952831, 0.009484169, 0.02701282, -0.02529456, 0.009673093, -0.0129209, 0.02694663, -0.0253162
 41166027, 0.002274401, -0.0233393, 0.02692655, -0.02540455, 0.01952831, 0.009484169, 0.02701282, -0.02529456
 41265987, -0.02503123, -0.01471946, 0.02706706, -0.02532291, 0.002274401, -0.0233393, 0.02692655, -0.02540455
 41365947, 0.002353594, -0.0193921, 0.02692152, -0.02537095, -0.02503123, -0.01471946, 0.02706706, -0.02532291
 41465907, 0.01236239, 0.001455222, 0.02695068, -0.02528739, 0.002353594, -0.0193921, 0.02692152, -0.02537095
 41565867, 0.01699504, 0.01556042, 0.0269842, -0.02533892, 0.01236239, 0.001455222, 0.02695068, -0.02528739
 41665827, -0.01350566, 0.01014586, 0.02695199, -0.02531626, 0.01699504, 0.01556042, 0.0269842, -0.02533892
 41765787, 0.02598976, -0.02344775, 0.02705727, -0.02542178, -0.01350566, 0.01014586, 0.02695199, -0.02531626
 41866580, 0.002987165, -0.002586184, 0.02691037, -0.02529795, 0.02598976, -0.02344775, 0.02705727, -0.02542178
 41966540, 0.01658132, -0.009929779, 0.02696673, -0.02532102, 0.002987165, -0.002586184, 0.02691037, -0.02529795
 42066500, 0.01180237, 0.01812568, 0.02694114, -0.02537008, 0.01658132, -0.009929779, 0.02696673, -0.02532102
 42171458, -0.01288009, 0.005532194, 0.02693914, -0.02530932, 0.01180237, 0.01812568, 0.02694114, -0.02537008
 42271418, 0.004527682, 0.00781145, 0.02690619, -0.02531768, -0.01288009, 0.005532194, 0.02693914, -0.02530932
 42371378, 0.01674307, 0.02068225, 0.02696922, -0.02539584, 0.004527682, 0.00781145, 0.02690619, -0.02531768
 42471338, 0.02171277, -0.01902732, 0.02699956, -0.0253926, 0.01674307, 0.02068225, 0.02696922, -0.02539584
 42571298, 0.008180781, 0.02241278, 0.02691585, -0.02542034, 0.02171277, -0.01902732, 0.02699956, -0.0253926
 42671258, 0.007887343, 0.005166745, 0.02690764, -0.02531784, 0.008180781, 0.02241278, 0.02691585, -0.02542034
 42771218, -0.009185901, -0.01197894, 0.02691241, -0.02534498, 0.007887343, 0.005166745, 0.02690764, -0.02531784
 42871178, 0.01970031, -0.01623487, 0.02697377, -0.02537794, -0.009185901, -0.01197894, 0.02691241, -0.02534498
 42971138, -0.01249979, 0.02051995, 0.02692183, -0.02541585, 0.01970031, -0.01623487, 0.02697377, -0.02537794
 43071098, 0.003342467, 0.01030977, 0.02688892, -0.02534433, -0.01249979, 0.02051995, 0.02692183, -0.02541585
 43171058, -0.01646145, 0.01568372, 0.02694246, -0.02538001, 0.003342467, 0.01030977, 0.02688892, -0.02534433
 43271018, 0.02426304, -0.01939506, 0.02700983, -0.02541202, -0.01646145, 0.01568372, 0.02694246, -0.02538001
 43370978, 0.003094465, 0.005779859, 0.02688216, -0.02533423, 0.02426304, -0.01939506, 0.02700983, -0.02541202
 43470938, -0.02021911, -0.002972489, 0.02697013, -0.02532758, 0.003094465, 0.005779859, 0.02688216, -0.02533423
 43570898, -0.02492755, 0.02061269, 0.02701117, -0.0254294, -0.02021911, -0.002972489, 0.02697013, -0.02532758
 43670858, -0.02110508, -0.01969751, 0.02698183, -0.02541139, -0.02492755, 0.02061269, 0.02701117, -0.0254294
 43770818, -0.003609784, 0.002070432, 0.02687523, -0.02533562, -0.02110508, -0.01969751, 0.02698183, -0.02541139
 43870778, -0.018761, -0.01982848, 0.02695713, -0.0254172, -0.003609784, 0.002070432, 0.02687523, -0.02533562
 43971571, -0.02018589, -0.00767679, 0.02696294, -0.02534653, -0.018761, -0.01982848, 0.02695713, -0.0254172
 44071531, 0.0007319376, 0.02211553, 0.02687119, -0.02544914, -0.02018589, -0.00767679, 0.02696294, -0.02534653
 44176489, 0.01718005, 0.01199533, 0.02693556, -0.0253693, 0.0007319376, 0.02211553, 0.02687119, -0.02544914
 44276449, -0.02417281, -0.02083473, 0.02700418, -0.02543039, 0.01718005, 0.01199533, 0.02693556, -0.0253693
 44376409, 0.004470323, 0.01200902, 0.02686833, -0.02537696, -0.02417281, -0.02083473, 0.02700418, -0.02543039
 44476369, -0.00757623, -0.02558708, 0.02688011, -0.02549103, 0.004470323, 0.01200902, 0.02686833, -0.02537696
 44576329, -0.01416545, -0.00675869, 0.02690515, -0.02535695, -0.00757623, -0.02558708, 0.02688011, -0.02549103
 44676289, 0.01429964, 0.003156559, 0.02690336, -0.02535146, -0.01416545, -0.00675869, 0.02690515, -0.02535695
 44776249, -0.004255747, -0.009961935, 0.02686034, -0.02537457, 0.01429964, 0.003156559, 0.02690336, -0.02535146
 44876209, 0.02381648, 0.003703367, 0.02698162, -0.02535319, -0.004255747, -0.009961935, 0.02686034, -0.02537457
 44976169, 0.01338904, 0.02292718, 0.02689912, -0.0254693, 0.02381648, 0.003703367, 0.02698162, -0.02535319
 45076129, -0.006937265, 0.01140444, 0.02686049, -0.02538849, 0.01338904, 0.02292718, 0.02689912, -0.0254693
 45176089, 0.02155225, 0.009727972, 0.02695544, -0.02537598, -0.006937265, 0.01140444, 0.02686049, -0.02538849
 45276049, 0.02417984, -0.0245368, 0.02697399, -0.0255012, 0.02155225, 0.009727972, 0.02695544, -0.02537598
 45376009, 0.01598818, -0.01775263, 0.02690056, -0.02543682, 0.02417984, -0.0245368, 0.02697399, -0.0255012
 45475969, 0.0004000847, 0.01021544, 0.02684374, -0.02538915, 0.01598818, -0.01775263, 0.02690056, -0.02543682
 45575929, 0.01382065, -0.01697442, 0.02688308, -0.02543415, 0.0004000847, 0.01021544, 0.02684374, -0.02538915
 45675889, -0.004474611, -0.0130899, 0.0268458, -0.02540704, 0.01382065, -0.01697442, 0.02688308, -0.02543415
 45775849, -0.01151221, -0.005304033, 0.02686842, -0.02537601, -0.004474611, -0.0130899, 0.0268458, -0.02540704
 45875809, -0.002437454, 0.01547588, 0.02683842, -0.02542732, -0.01151221, -0.005304033, 0.02686842, -0.02537601
 45975769, -0.0247527, -0.0003927358, 0.02697167, -0.02537113, -0.002437454, 0.01547588, 0.02683842, -0.02542732
 46076562, 0.02411807, 0.0226964, 0.0269729, -0.02548159, -0.0247527, -0.0003927358, 0.02697167, -0.02537113
 46176522, -0.01972439, 0.005475859, 0.02691705, -0.02538425, 0.02411807, 0.0226964, 0.0269729, -0.02548159
 46281480, 0.01440924, 0.002356349, 0.02687614, -0.02537996, -0.01972439, 0.005475859, 0.02691705, -0.02538425
 46381440, -0.01706981, 0.01583639, 0.02689105, -0.02544022, 0.01440924, 0.002356349, 0.02687614, -0.02537996
 46481400, -0.02515251, -0.01995903, 0.02697585, -0.02546328, -0.01706981, 0.01583639, 0.02689105, -0.02544022
 46581360, -0.01132377, 0.02329166, 0.0272719, -0.02590293, -0.02515251, -0.01995903, 0.02697585, -0.02546328
 46681320, 0.00742269, -0.013327, 0.02834985, -0.02685941, -0.01132377, 0.02329166, 0.0272719, -0.02590293
 46781280, -0.02106478, 0.00145558, 0.03079257, -0.02908399, 0.00742269, -0.013327, 0.02834985, -0.02685941
 46881240, -0.0191564, 0.005402992, 0.03453058, -0.03265962, -0.02106478, 0.00145558, 0.03079257, -0.02908399
 46981200, 0.02809287, -0.003707317, 0.04036489, -0.0381684, -0.0191564, 0.005402992, 0.03453058, -0.03265962
 47081160, 0.01040052, 0.003289464, 0.04897915, -0.04639421, 0.02809287, -0.003707317, 0.04036489, -0.0381684
 47181120, -0.03999598, -0.02223916, 0.05978505, -0.05660491, 0.01040052, 0.003289464, 0.04897915, -0.04639421
 47281080, 0.02975609, -0.06183463, 0.07282295, -0.06909751, -0.03999598, -0.02223916, 0.05978505, -0.05660491
 47381040, 0.01433141, -0.0115781, 0.08791522, -0.08333609, 0.02975609, -0.06183463, 0.07282295, -0.06909751
 47481000, -0.01178374, -0.02259926, 0.1050347, -0.09959019, 0.01433141, -0.0115781, 0.08791522, -0.08333609
 47580960, 0.009667583, -0.1224403, 0.1244399, -0.1181842, -0.01178374, -0.02259926, 0.1050347, -0.09959019
 47680920, 0.06598461, -0.04605808, 0.145514, -0.1380055, 0.009667583, -0.1224403, 0.1244399, -0.1181842
 47780880, 0.1634593, 0.0856059, 0.1639827, -0.1647924, 0.06598461, -0.04605808, 0.145514, -0.1380055
 47880840, -0.1375039, 0.1380796, 0.1881001, -0.1892236, 0.1634593, 0.0856059, 0.1639827, -0.1647924
 47980800, 0.2062715, -0.2063631, 0.2138474, -0.2151184, -0.1375039, 0.1380796, 0.1881001, -0.1892236
 48080760, -0.04778803, -0.101965, 0.2402225, -0.2416683, 0.2062715, -0.2063631, 0.2138474, -0.2151184
 48181553, 0.2399468, -0.09471528, 0.268673, -0.2698821, -0.04778803, -0.101965, 0.2402225, -0.2416683
 48281513, 0.2555375, -0.00417442, 0.298103, -0.2991901, 0.2399468, -0.09471528, 0.268673, -0.2698821
 48386471, 0.1001328, -0.3208128, 0.3285836, -0.3301084, 0.2555375, -0.00417442, 0.298103, -0.2991901
 48486431, 0.1288209, -0.04806348, 0.3599208, -0.3607841, 0.1001328, -0.3208128, 0.3285836, -0.3301084
 48586391, -0.1931252, 0.07363988, 0.3923934, -0.3929089, 0.1288209, -0.04806348, 0.3599208, -0.3607841
 48686351, 0.03590848, -0.3714526, 0.425562, -0.426378, -0.1931252, 0.07363988, 0.3923934, -0.3929089
 48786311, -0.1749595, -0.1383855, 0.4594916, -0.4597857, 0.03590848, -0.3714526, 0.425562, -0.426378
 48886271, 0.2346862, 0.1376388, 0.4946139, -0.494928, -0.1749595, -0.1383855, 0.4594916, -0.4597857
 48986231, 0.2174828, -0.1696234, 0.5296751, -0.5302134, 0.2346862, 0.1376388, 0.4946139, -0.494928
 49086191, -0.5043703, 0.223817, 0.5660948, -0.5664316, 0.2174828, -0.1696234, 0.5296751, -0.5302134
 49186151, -0.1991766, -0.300459, 0.601863, -0.6029881, -0.5043703, 0.223817, 0.5660948, -0.5664316
 49286111, 0.1436879, -0.2849855, 0.6386752, -0.6401382, -0.1991766, -0.300459, 0.601863, -0.6029881
 49386071, 0.2815793, 0.4178133, 0.6759233, -0.6778948, 0.1436879, -0.2849855, 0.6386752, -0.6401382
 49486031, -0.06730645, 0.07721809, 0.7133061, -0.7155887, 0.2815793, 0.4178133, 0.6759233, -0.6778948
 49585991, -0.03433219, -0.1960532, 0.7509784, -0.7538151, -0.06730645, 0.07721809, 0.7133061, -0.7155887
 49685951, -0.6795884, 0.0743602, 0.7899722, -0.7925692, -0.03433219, -0.1960532, 0.7509784, -0.7538151
 49785911, 0.473384, 0.215019, 0.8278617, -0.8314852, -0.6795884, 0.0743602, 0.7899722, -0.7925692
 49885871, 0.3330831, 0.1280632, 0.8663185, -0.8706739, 0.473384, 0.215019, 0.8278617, -0.8314852
 49985831, -0.1958233, 0.505977, 0.9048497, -0.9101007, 0.3330831, 0.1280632, 0.8663185, -0.8706739
 50085791, 0.1715113, -0.6322604, 0.9443405, -0.949932, -0.1958233, 0.505977, 0.9048497, -0.9101007
 50186584, 0.3537409, 0.6250223, 0.9839441, -0.9891179, 0.1715113, -0.6322604, 0.9443405, -0.949932
 50286544, 0.5859838, 0.2259444, 1.024481, -1.028292, 0.3537409, 0.6250223, 0.9839441, -0.9891179
 50386504, 0.4482772, 0.1168932, 1.064324, -1.06746, 0.5859838, 0.2259444, 1.024481, -1.028292
 50491462, 0.8310689, -0.5745478, 1.105396, -1.107576, 0.4482772, 0.1168932, 1.064324, -1.06746
 50591422, 0.2372117, 0.3754546, 1.144703, -1.146868, 0.8310689, -0.5745478, 1.105396, -1.107576
 50691382, -1.10518, 0.8518275, 1.185884, -1.187217, 0.2372117, 0.3754546, 1.144703, -1.146868
 50791342, -0.9894342, 0.7320964, 1.224366, -1.225933, -1.10518, 0.8518275, 1.185884, -1.187217
 50891302, 0.702812, 0.4438904, 1.261504, -1.263882, -0.9894342, 0.7320964, 1.224366, -1.225933
 50991262, -0.7297111, -0.9241381, 1.298076, -1.302172, 0.702812, 0.4438904, 1.261504, -1.263882
 51091222, 1.251974, 1.057812, 1.334373, -1.33891, -0.7297111, -0.9241381, 1.298076, -1.302172
 51191182, 0.6385887, 0.4147591, 1.368148, -1.373706, 1.251974, 1.057812, 1.334373, -1.33891
 51291142, 1.339487, -0.8237211, 1.402905, -1.408234, 0.6385887, 0.4147591, 1.368148, -1.373706
 51391102, 0.5931366, -1.247462, 1.434061, -1.441789, 1.339487, -0.8237211, 1.402905, -1.408234
 51491062, -0.6739941, -1.429905, 1.465927, -1.474052, 0.5931366, -1.247462, 1.434061, -1.441789
 51591022, 1.115289, -1.466627, 1.497347, -1.504638, -0.6739941, -1.429905, 1.465927, -1.474052
 51690982, 1.509327, -0.1052711, 1.527612, -1.531898, 1.115289, -1.466627, 1.497347, -1.504638
 51790942, -0.2211118, 1.373347, 1.553851, -1.560983, 1.509327, -0.1052711, 1.527612, -1.531898
 51890902, -9.109406E-05, 0.9357115, 1.580606, -1.586463, -0.2211118, 1.373347, 1.553851, -1.560983
 51990862, 0.07855766, -1.128146, 1.605852, -1.611606, -9.109406E-05, 0.9357115, 1.580606, -1.586463
 52090822, 0.3428472, 0.5450683, 1.629265, -1.633828, 0.07855766, -1.128146, 1.605852, -1.611606
 52190782, 1.617181, 1.001809, 1.652687, -1.655757, 0.3428472, 0.5450683, 1.629265, -1.633828
 52291575, 0.4020742, -0.004566952, 1.670504, -1.674761, 1.617181, 1.001809, 1.652687, -1.655757
 52391535, -0.9608334, -0.523662, 1.688798, -1.693049, 0.4020742, -0.004566952, 1.670504, -1.674761
 52496493, -1.677638, -0.7081832, 1.706238, -1.709756, -0.9608334, -0.523662, 1.688798, -1.693049
 52596453, 1.186515, 0.4303361, 1.72025, -1.724931, -1.677638, -0.7081832, 1.706238, -1.709756
 52696413, 1.472708, -0.9841535, 1.734225, -1.739253, 1.186515, 0.4303361, 1.72025, -1.724931
 52796373, -0.1223359, -0.5797191, 1.744528, -1.750891, 1.472708, -0.9841535, 1.734225, -1.739253
 52896333, 1.34567, -1.057561, 1.756946, -1.762767, -0.1223359, -0.5797191, 1.744528, -1.750891
 52996293, 0.7649301, -0.913682, 1.765835, -1.772485, 1.34567, -1.057561, 1.756946, -1.762767
 53096253, -0.7955821, 1.168816, 1.774645, -1.781709, 0.7649301, -0.913682, 1.765835, -1.772485
 53196213, -0.7774637, 1.27646, 1.782733, -1.789996, -0.7955821, 1.168816, 1.774645, -1.781709
 53296173, 1.751346, 0.9414731, 1.79255, -1.797492, -0.7774637, 1.27646, 1.782733, -1.789996
 53396133, -0.9734727, -1.310061, 1.79845, -1.805071, 1.751346, 0.9414731, 1.79255, -1.797492
 53496093, 1.171613, -0.7040538, 1.805756, -1.810751, -0.9734727, -1.310061, 1.79845, -1.805071
 53596053, -0.7541897, 0.6305318, 1.81193, -1.817111, 1.171613, -0.7040538, 1.805756, -1.810751
 53696013, 0.09323957, -0.8919496, 1.817308, -1.822975, -0.7541897, 0.6305318, 1.81193, -1.817111
 53795973, -0.6714966, -0.1262962, 1.823339, -1.828248, 0.09323957, -0.8919496, 1.817308, -1.822975
 53895933, -0.6460273, -1.295472, 1.828245, -1.834596, -0.6714966, -0.1262962, 1.823339, -1.828248
 53995893, 0.8588367, -0.3402477, 1.832806, -1.838288, -0.6460273, -1.295472, 1.828245, -1.834596
 54095853, 0.8309351, 0.7811155, 1.836681, -1.842902, 0.8588367, -0.3402477, 1.832806, -1.838288
 54195813, -0.8666689, 0.1900954, 1.840215, -1.846542, 0.8309351, 0.7811155, 1.836681, -1.842902
 54295773, 1.630243, -1.24541, 1.844895, -1.851326, -0.8666689, 0.1900954, 1.840215, -1.846542
 54396566, 0.04298245, 1.398855, 1.845921, -1.854814, 1.630243, -1.24541, 1.844895, -1.851326
 54496526, 1.505464, -0.4835517, 1.850339, -1.856804, 0.04298245, 1.398855, 1.845921, -1.854814
 54601484, 0.9385757, -1.334967, 1.85158, -1.860179, 1.505464, -0.4835517, 1.850339, -1.856804
 54701444, -0.2274786, 0.8995696, 1.852719, -1.861198, 0.9385757, -1.334967, 1.85158, -1.860179
 54801404, 1.6467, 0.3637514, 1.855848, -1.86193, -0.2274786, 0.8995696, 1.852719, -1.861198
 54901364, -0.1160236, 1.136964, 1.85513, -1.863492, 1.6467, 0.3637514, 1.855848, -1.86193
 55001324, 0.3945125, -0.6812479, 1.856112, -1.86346, -0.1160236, 1.136964, 1.85513, -1.863492
 55101284, 0.1063428, -1.790844, 1.856747, -1.865622, 0.3945125, -0.6812479, 1.856112, -1.86346
 55201244, 1.256402, -0.4272608, 1.857976, -1.86339, 0.1063428, -1.790844, 1.856747, -1.865622
 55301204, -0.8382601, -0.828157, 1.857213, -1.863173, 1.256402, -0.4272608, 1.857976, -1.86339
 55401164, 1.491745, 1.303875, 1.858091, -1.863457, -0.8382601, -0.828157, 1.857213, -1.863173
 55501124, 1.537853, -0.4761545, 1.857649, -1.861779, 1.491745, 1.303875, 1.858091, -1.863457
 55601084, -0.7650599, -0.6940396, 1.855697, -1.861083, 1.537853, -0.4761545, 1.857649, -1.861779
 55701044, -1.687487, 1.273423, 1.856613, -1.861249, -0.7650599, -0.6940396, 1.855697, -1.861083
 55801004, -0.7494411, -0.7718087, 1.854581, -1.860147, -1.687487, 1.273423, 1.856613, -1.861249
 55900964, 0.3305498, -1.679931, 1.853492, -1.860936, -0.7494411, -0.7718087, 1.854581, -1.860147
 56000924, 0.4484449, -1.637585, 1.852612, -1.859962, 0.3305498, -1.679931, 1.853492, -1.860936
 56100884, 1.411072, 1.170807, 1.853086, -1.858451, 0.4484449, -1.637585, 1.852612, -1.859962
 56200844, -1.154179, 0.7814914, 1.852156, -1.857407, 1.411072, 1.170807, 1.853086, -1.858451
 56300804, -0.7412931, -0.4173136, 1.851272, -1.856708, -1.154179, 0.7814914, 1.852156, -1.857407
 56400764, 0.3326161, -0.8021441, 1.850721, -1.856712, -0.7412931, -0.4173136, 1.851272, -1.856708
 56501557, 0.618534, 1.661189, 1.850659, -1.857958, 0.3326161, -0.8021441, 1.850721, -1.856712
 56601517, 0.1876078, 0.9986681, 1.85026, -1.856613, 0.618534, 1.661189, 1.850659, -1.857958
 56706475, -1.821525, -0.1569312, 1.852359, -1.855838, 0.1876078, 0.9986681, 1.85026, -1.856613
 56806435, -0.03613004, 0.2165793, 1.850102, -1.85569, -1.821525, -0.1569312, 1.852359, -1.855838
 56906395, -0.6341662, -0.3662939, 1.850363, -1.855628, -0.03613004, 0.2165793, 1.850102, -1.85569
 57006355, -0.005452952, -1.411502, 1.850162, -1.856712, -0.6341662, -0.3662939, 1.850363, -1.855628
 57106315, 0.4276157, 0.7617844, 1.850318, -1.855652, -0.005452952, -1.411502, 1.850162, -1.856712
 57206275, 1.091795, -1.76129, 1.851051, -1.857244, 0.4276157, 0.7617844, 1.850318, -1.855652
 57306235, -1.520853, -0.6794608, 1.851768, -1.855461, 1.091795, -1.76129, 1.851051, -1.857244
 57406195, -0.3329929, 0.2983828, 1.850308, -1.855151, -1.520853, -0.6794608, 1.851768, -1.855461
 57506155, -0.257549, -1.157353, 1.850268, -1.855981, -0.3329929, 0.2983828, 1.850308, -1.855151
 57606115, -1.633145, 1.192975, 1.85209, -1.855955, -0.257549, -1.157353, 1.850268, -1.855981
 57706075, 1.634071, -1.798482, 1.852099, -1.857155, -1.633145, 1.192975, 1.85209, -1.855955
 57806035, 1.030565, -1.69407, 1.851075, -1.856836, 1.634071, -1.798482, 1.852099, -1.857155
 57905995, -1.361532, -0.3726242, 1.851614, -1.854983, 1.030565, -1.69407, 1.851075, -1.856836
 58005955, -1.124782, -0.444665, 1.851271, -1.854961, -1.361532, -0.3726242, 1.851614, -1.854983
 58105915, -0.992865, 1.015185, 1.851098, -1.8555, -1.124782, -0.444665, 1.851271, -1.854961
