TimeUS,COFN,COFE,CNe,CEe,POFN,POFE,PNe,PEe
 8040949, 0.03694408, 0.02330383, 0.09741662, 0.0482171, 0, 0, 0, 0
 8220877, -0.006434309, 0.006648168, 0.09739286, 0.04819769, 0.03694408, 0.02330383, 0.09741662, 0.0482171
 8420797, -0.01097461, 0.001060387, 0.097394, 0.04819672, -0.006434309, 0.006648168, 0.09739286, 0.04819769
 8620717, -0.005633453, 0.008200951, 0.09739386, 0.04819614, -0.01097461, 0.001060387, 0.097394, 0.04819672
 8820637, -0.01215208, 0.006094894, 0.09739739, 0.0481922, -0.005633453, 0.008200951, 0.09739386, 0.04819614
 9020557, -0.0162966, 0.007516824, 0.09740204, 0.04818788, -0.01215208, 0.006094894, 0.09739739, 0.0481922
 9220477, -0.008436936, -0.0002459844, 0.09739836, 0.04818604, -0.0162966, 0.007516824, 0.09740204, 0.04818788
 9420397, -0.00783805, -0.001941616, 0.09739904, 0.04818444, -0.008436936, -0.0002459844, 0.09739836, 0.04818604
 9620317, -0.01767992, 0.00329038, 0.09740512, 0.04818171, -0.00783805, -0.001941616, 0.09739904, 0.04818444
 9820237, -0.006496219, 0.006315065, 0.09739945, 0.04818423, -0.01767992, 0.00329038, 0.09740512, 0.04818171
 10020157, -0.0080772, 0.005343079, 0.09739943, 0.04818471, -0.006496219, 0.006315065, 0.09739945, 0.04818423
 10220910, -0.002775891, 0.002232647, 0.09739827, 0.04818404, -0.0080772, 0.005343079, 0.09739943, 0.04818471
 10420830, -0.005322142, 0.01221527, 0.09740118, 0.04818428, -0.002775891, 0.002232647, 0.09739827, 0.04818404
 10620750, -0.012737, 0.01012928, 0.09740418, 0.04818143, -0.005322142, 0.01221527, 0.09740118, 0.04818428
 10820670, -0.003401017, 0.008578247, 0.09739941, 0.04818443, -0.012737, 0.01012928, 0.09740418, 0.04818143
 11020590, -0.005143855, -0.005117937, 0.09739758, 0.04818692, -0.003401017, 0.008578247, 0.09739941, 0.04818443
 11220510, -0.007735305, 0.005647787, 0.09739799, 0.04818754, -0.005143855, -0.005117937, 0.09739758, 0.04818692
 11420430, -0.01661312, 0.007333419, 0.09740298, 0.04818626, -0.007735305, 0.005647787, 0.09739799, 0.04818754
 11620350, -0.01408147, 0.001153477, 0.09740004, 0.04818739, -0.01661312, 0.007333419, 0.09740298, 0.04818626
 11820270, -0.006754874, 0.003822581, 0.09739719, 0.04818801, -0.01408147, 0.001153477, 0.09740004, 0.04818739
 12020190, -0.008376962, 0.008758711, 0.09739941, 0.04818672, -0.006754874, 0.003822581, 0.09739719, 0.04818801
 12220943, -0.007354667, 0.00441439, 0.09739864, 0.04818556, -0.008376962, 0.008758711, 0.09739941, 0.04818672
 12420863, -0.001437107, 0.008370616, 0.09739754, 0.04818774, -0.007354667, 0.00441439, 0.09739864, 0.04818556
 12620783, -0.006235745, 0.01007632, 0.09739833, 0.04818865, -0.001437107, 0.008370616, 0.09739754, 0.04818774
 12820703, -0.01352867, 0.001975059, 0.09739897, 0.04818908, -0.006235745, 0.01007632, 0.09739833, 0.04818865
 13020623, -0.01502315, 0.004330366, 0.0973993, 0.04819053, -0.01352867, 0.001975059, 0.09739897, 0.04818908
 13220543, -0.003254829, 0.002600715, 0.09739394, 0.04819298, -0.01502315, 0.004330366, 0.0973993, 0.04819053
 13420463, -0.01005428, 0.009590184, 0.09739777, 0.04819173, -0.003254829, 0.002600715, 0.09739394, 0.04819298
 13620383, -0.007987446, 0.001405845, 0.09739649, 0.0481896, -0.01005428, 0.009590184, 0.09739777, 0.04819173
 13820303, -0.0174458, 0.002548476, 0.09740205, 0.04818745, -0.007987446, 0.001405845, 0.09739649, 0.0481896
 14020223, -0.01314579, 0.007785348, 0.09740002, 0.04818867, -0.0174458, 0.002548476, 0.09740205, 0.04818745
 14220976, -0.009635969, 0.003483868, 0.09739751, 0.04818901, -0.01314579, 0.007785348, 0.09740002, 0.04818867
 14420896, -0.01592827, 0.01086353, 0.09740388, 0.04818599, -0.009635969, 0.003483868, 0.09739751, 0.04818901
 14620816, -0.01009597, 0.008647008, 0.09740171, 0.04818315, -0.01592827, 0.01086353, 0.09740388, 0.04818599
 14820736, -0.01069546, 0.00588124, 0.09740277, 0.04818004, -0.01009597, 0.008647008, 0.09740171, 0.04818315
 15020656, -0.006793155, 0.004273103, 0.09740084, 0.04818074, -0.01069546, 0.00588124, 0.09740277, 0.04818004
 15220576, -0.0064634, 0.0102102, 0.09740154, 0.04818237, -0.006793155, 0.004273103, 0.09740084, 0.04818074
 15420496, -0.006898925, 0.005671488, 0.097401, 0.04818103, -0.0064634, 0.0102102, 0.09740154, 0.04818237
 15620416, -0.01671948, 0.006373605, 0.09740645, 0.04817891, -0.006898925, 0.005671488, 0.097401, 0.04818103
 15820336, -0.01077343, 0.01139643, 0.09740356, 0.04818198, -0.01671948, 0.006373605, 0.09740645, 0.04817891
 16020256, -0.01194014, -0.0008017672, 0.09740159, 0.04818216, -0.01077343, 0.01139643, 0.09740356, 0.04818198
 16220176, -0.01090876, 0.00535059, 0.09740157, 0.04818238, -0.01194014, -0.0008017672, 0.09740159, 0.04818216
 16420929, -0.01639878, -0.001217325, 0.09740324, 0.04818354, -0.01090876, 0.00535059, 0.09740157, 0.04818238
 16620849, -0.01105374, 0.01362225, 0.09740261, 0.04818621, -0.01639878, -0.001217325, 0.09740324, 0.04818354
 16820769, -0.01021709, -0.001213645, 0.09739796, 0.04818812, -0.01105374, 0.01362225, 0.09740261, 0.04818621
 17020689, -0.009011231, 0.005379552, 0.09739836, 0.04818749, -0.01021709, -0.001213645, 0.09739796, 0.04818812
 17220609, -0.01029971, 0.008004602, 0.09739983, 0.04818672, -0.009011231, 0.005379552, 0.09739836, 0.04818749
 17420529, -0.01217416, 0.004213338, 0.09740104, 0.04818413, -0.01029971, 0.008004602, 0.09739983, 0.04818672
 17620449, -0.01388757, 0.006575802, 0.09740339, 0.04818195, -0.01217416, 0.004213338, 0.09740104, 0.04818413
 17820369, -0.006253006, 0.003282882, 0.09739922, 0.04818351, -0.01388757, 0.006575802, 0.09740339, 0.04818195
 18020289, -0.007711226, 0.003675808, 0.0973992, 0.04818442, -0.006253006, 0.003282882, 0.09739922, 0.04818351
 18220209, -0.01644952, 0.005133324, 0.09740386, 0.0481833, -0.007711226, 0.003675808, 0.0973992, 0.04818442
 18420962, -0.01539347, -0.0002337294, 0.09740256, 0.04818367, -0.01644952, 0.005133324, 0.09740386, 0.0481833
 18620882, -0.006111798, 0.0118509, 0.09740129, 0.04818405, -0.01539347, -0.0002337294, 0.09740256, 0.04818367
 18820802, -0.003553825, 0.006436029, 0.09740016, 0.04818175, -0.006111798, 0.0118509, 0.09740129, 0.04818405
 19020722, -0.01224304, 0.01305684, 0.09740524, 0.04818135, -0.003553825, 0.006436029, 0.09740016, 0.04818175
 19220642, -0.00839049, 0.001931566, 0.09740069, 0.04818145, -0.01224304, 0.01305684, 0.09740524, 0.04818135
 19420562, -0.006388198, -0.004406542, 0.09739982, 0.04818267, -0.00839049, 0.001931566, 0.09740069, 0.04818145
 19620482, -0.0004832771, 0.006385643, 0.0971389, 0.04870589, -0.006388198, -0.004406542, 0.09739982, 0.04818267
 19820402, -0.006619222, 0.008990772, 0.09667064, 0.04963178, -0.0004832771, 0.006385643, 0.0971389, 0.04870589
 20020322, -0.008271156, 0.00698219, 0.09599099, 0.0509336, -0.006619222, 0.008990772, 0.09667064, 0.04963178
 20220242, -0.01279246, 0.004381565, 0.09517742, 0.05244039, -0.008271156, 0.00698219, 0.09599099, 0.0509336
 20420162, -0.007441381, 0.005888647, 0.0942962, 0.05400583, -0.01279246, 0.004381565, 0.09517742, 0.05244039
 20620915, -0.0007433214, 0.009958419, 0.09340742, 0.05552923, -0.007441381, 0.005888647, 0.0942962, 0.05400583
 20820835, -0.007209971, 0.001341136, 0.09254804, 0.05694855, -0.0007433214, 0.009958419, 0.09340742, 0.05552923
 21020755, 0.05744093, -0.012001, 0.09181048, 0.05823509, -0.007209971, 0.001341136, 0.09254804, 0.05694855
 21220675, 0.1661545, -0.03336133, 0.09162631, 0.05930715, 0.05744093, -0.012001, 0.09181048, 0.05823509
 21420595, 0.3537163, -0.06094536, 0.0931695, 0.05998671, 0.1661545, -0.03336133, 0.09162631, 0.05930715
 21620515, 0.5841366, -0.1095169, 0.0973358, 0.06021926, 0.3537163, -0.06094536, 0.0931695, 0.05998671
 21820435, 0.8655752, -0.1510271, 0.1049828, 0.06005248, 0.5841366, -0.1095169, 0.0973358, 0.06021926
 22020355, 1.154528, -0.1822178, 0.1148477, 0.05994274, 0.8655752, -0.1510271, 0.1049828, 0.06005248
 22220275, 1.41548, -0.2043466, 0.1248621, 0.0603479, 1.154528, -0.1822178, 0.1148477, 0.05994274
 22420195, 1.645826, -0.2052202, 0.1343162, 0.06161914, 1.41548, -0.2043466, 0.1248621, 0.0603479
 22620948, 1.871933, -0.2122167, 0.1445217, 0.06439751, 1.645826, -0.2052202, 0.1343162, 0.06161914
 22820868, 2.057375, -0.2045176, 0.1525381, 0.06667612, 1.871933, -0.2122167, 0.1445217, 0.06439751
 23020788, 2.310678, -0.2026273, 0.1650792, 0.07472833, 2.057375, -0.2045176, 0.1525381, 0.06667612
 23220708, 2.472329, -0.1898431, 0.179071, 0.09468831, 2.310678, -0.2026273, 0.1650792, 0.07472833
 23420628, 2.651959, -0.1715512, 0.2045815, 0.1254274, 2.472329, -0.1898431, 0.179071, 0.09468831
 23620548, 2.837335, -0.1976989, 0.2369469, 0.16003, 2.651959, -0.1715512, 0.2045815, 0.1254274
 23820468, 3.064249, -0.1988977, 0.2752205, 0.1966706, 2.837335, -0.1976989, 0.2369469, 0.16003
 24020388, 3.227859, -0.1966621, 0.3181979, 0.2385545, 3.064249, -0.1988977, 0.2752205, 0.1966706
 24220308, 3.361956, -0.2382533, 0.3686201, 0.2837054, 3.227859, -0.1966621, 0.3181979, 0.2385545
 24420228, 3.517809, -0.276648, 0.425999, 0.3386141, 3.361956, -0.2382533, 0.3686201, 0.2837054
 24620148, 3.626318, -0.2115926, 0.4865054, 0.3932999, 3.517809, -0.276648, 0.425999, 0.3386141
 24820901, 3.598549, -0.2751384, 0.5512825, 0.4493135, 3.626318, -0.2115926, 0.4865054, 0.3932999
 25020821, 3.634231, -0.280164, 0.6210322, 0.5082434, 3.598549, -0.2751384, 0.5512825, 0.4493135
 25220741, 3.631228, -0.2585613, 0.6875347, 0.5692268, 3.634231, -0.280164, 0.6210322, 0.5082434
 25420661, 3.611774, -0.27221, 0.75536, 0.6270547, 3.631228, -0.2585613, 0.6875347, 0.5692268
 25620581, 3.590958, -0.2399467, 0.823552, 0.683865, 3.611774, -0.27221, 0.75536, 0.6270547
 25820501, 3.662204, -0.1888258, 0.8912973, 0.7410416, 3.590958, -0.2399467, 0.823552, 0.683865
 26020421, 3.563403, -0.3363384, 0.9547476, 0.7961301, 3.662204, -0.1888258, 0.8912973, 0.7410416
 26220341, 3.614996, -0.2759692, 1.016627, 0.8484536, 3.563403, -0.3363384, 0.9547476, 0.7961301
 26420261, 3.64542, -0.2570174, 1.078133, 0.9020786, 3.614996, -0.2759692, 1.016627, 0.8484536
 26620181, 3.488324, -0.2070764, 1.138086, 0.9527501, 3.64542, -0.2570174, 1.078133, 0.9020786
 26820934, 3.469149, -0.3163529, 1.19794, 0.9988644, 3.488324, -0.2070764, 1.138086, 0.9527501
 27020854, 3.228221, -0.1784336, 1.252368, 1.041078, 3.469149, -0.3163529, 1.19794, 0.9988644
 27220774, 3.089947, -0.1541163, 1.304497, 1.07785, 3.228221, -0.1784336, 1.252368, 1.041078
 27420694, 3.097375, -0.3297255, 1.35568, 1.10996, 3.089947, -0.1541163, 1.304497, 1.07785
 27620614, 2.986509, -0.2477821, 1.406436, 1.138812, 3.097375, -0.3297255, 1.35568, 1.10996
 27820534, 3.087412, -0.2003497, 1.458974, 1.163408, 2.986509, -0.2477821, 1.406436, 1.138812
 28020454, 2.920893, -0.1549962, 1.511705, 1.186102, 3.087412, -0.2003497, 1.458974, 1.163408
 28220374, 2.738098, -0.3003816, 1.563393, 1.207513, 2.920893, -0.1549962, 1.511705, 1.186102
 28420294, 2.803924, -0.216766, 1.615347, 1.228496, 2.738098, -0.3003816, 1.563393, 1.207513
 28620214, 2.899789, -0.3008014, 1.666956, 1.248217, 2.803924, -0.216766, 1.615347, 1.228496
 28820967, 2.74625, -0.3017295, 1.717851, 1.267433, 2.899789, -0.3008014, 1.666956, 1.248217
 29020887, 2.618951, -0.2430696, 1.766074, 1.286402, 2.74625, -0.3017295, 1.717851, 1.267433
 29220807, 2.758627, -0.5004734, 1.812938, 1.307611, 2.618951, -0.2430696, 1.766074, 1.286402
 29420727, 2.595456, -0.5085012, 1.85652, 1.328971, 2.758627, -0.5004734, 1.812938, 1.307611
 29620647, 2.461003, -0.5687464, 1.896442, 1.353698, 2.595456, -0.5085012, 1.85652, 1.328971
 29820567, 2.476947, -0.3364762, 1.936677, 1.375054, 2.461003, -0.5687464, 1.896442, 1.353698
 30020487, 2.475576, -0.5284823, 1.974613, 1.396248, 2.476947, -0.3364762, 1.936677, 1.375054
 30220407, 2.573472, -0.4222203, 2.013671, 1.418388, 2.475576, -0.5284823, 1.974613, 1.396248
 30420327, 2.488411, -0.3038649, 2.047626, 1.442727, 2.573472, -0.4222203, 2.013671, 1.418388
 30620247, 2.336536, -0.3592561, 2.080786, 1.46428, 2.488411, -0.3038649, 2.047626, 1.442727
 30820167, 2.226089, -0.3568076, 2.111288, 1.483881, 2.336536, -0.3592561, 2.080786, 1.46428
 31020920, 2.342787, -0.3802966, 2.138413, 1.504062, 2.226089, -0.3568076, 2.111288, 1.483881
 31220840, 2.251053, -0.1869857, 2.164152, 1.52197, 2.342787, -0.3802966, 2.138413, 1.504062
 31420760, 2.258154, -0.2183789, 2.191595, 1.538272, 2.251053, -0.1869857, 2.164152, 1.52197
 31620680, 2.414727, -0.3720155, 2.218264, 1.554315, 2.258154, -0.2183789, 2.191595, 1.538272
 31820600, 2.224384, -0.4612124, 2.242378, 1.568998, 2.414727, -0.3720155, 2.218264, 1.554315
 32020520, 2.035349, -0.3070796, 2.264755, 1.5857, 2.224384, -0.4612124, 2.242378, 1.568998
 32220440, 1.995366, -0.4194052, 2.288374, 1.59958, 2.035349, -0.3070796, 2.264755, 1.5857
 32420360, 1.971958, -0.2825943, 2.310093, 1.613707, 1.995366, -0.4194052, 2.288374, 1.59958
 32620280, 2.240054, -0.1062044, 2.331341, 1.62771, 1.971958, -0.2825943, 2.310093, 1.613707
 32820200, 1.881178, -0.1681625, 2.351906, 1.640102, 2.240054, -0.1062044, 2.331341, 1.62771
 33020953, 2.15411, -0.2382815, 2.373322, 1.649478, 1.881178, -0.1681625, 2.351906, 1.640102
 33220873, 2.126622, -0.5043128, 2.394301, 1.659257, 2.15411, -0.2382815, 2.373322, 1.649478
 33420793, 2.157253, -0.5055655, 2.413569, 1.669651, 2.126622, -0.5043128, 2.394301, 1.659257
 33620713, 2.109354, -0.3707048, 2.43153, 1.680173, 2.157253, -0.5055655, 2.413569, 1.669651
 33820633, 1.853365, -0.4206416, 2.449857, 1.689408, 2.109354, -0.3707048, 2.43153, 1.680173
 34020553, 2.033362, -0.4994928, 2.46705, 1.698004, 1.853365, -0.4206416, 2.449857, 1.689408
 34220473, 2.199259, -0.3880765, 2.514437, 1.770452, 2.033362, -0.4994928, 2.46705, 1.698004
 34420393, 1.89569, -0.2403731, 2.933593, 1.909063, 2.199259, -0.3880765, 2.514437, 1.770452
 34620313, 2.363931, -0.5942169, 3.308386, 1.916192, 1.89569, -0.2403731, 2.933593, 1.909063
 34820233, 2.353939, -0.410154, 2.874243, 1.876509, 2.363931, -0.5942169, 3.308386, 1.916192
 35020153, 2.566187, -0.434235, 2.40216, 1.862498, 2.353939, -0.410154, 2.874243, 1.876509
 35220906, 2.591656, -0.195683, 2.222595, 1.86084, 2.566187, -0.434235, 2.40216, 1.862498
 35420826, 2.640843, -0.3261347, 2.172898, 1.834776, 2.591656, -0.195683, 2.222595, 1.86084
 35620746, 2.678252, -0.1267511, 2.11077, 1.792969, 2.640843, -0.3261347, 2.172898, 1.834776
 35820666, 2.88197, -0.3063045, 2.00043, 1.744511, 2.678252, -0.1267511, 2.11077, 1.792969
 36020586, 3.051387, -0.1885576, 1.88164, 1.692826, 2.88197, -0.3063045, 2.00043, 1.744511
 36220506, 3.310788, -0.2412423, 1.778895, 1.641984, 3.051387, -0.1885576, 1.88164, 1.692826
 36420426, 3.205551, -0.1298033, 1.69566, 1.585774, 3.310788, -0.2412423, 1.778895, 1.641984
 36620346, 3.280137, -0.1902754, 1.617226, 1.53141, 3.205551, -0.1298033, 1.69566, 1.585774
 36820266, 3.24518, 0.03648223, 1.531851, 1.476615, 3.280137, -0.1902754, 1.617226, 1.53141
 37020186, 3.429011, 0.1318557, 1.439165, 1.429911, 3.24518, 0.03648223, 1.531851, 1.476615
 37220939, 3.526793, 0.08685175, 1.357484, 1.388781, 3.429011, 0.1318557, 1.439165, 1.429911
 37420859, 3.515926, 0.1616013, 1.294631, 1.353908, 3.526793, 0.08685175, 1.357484, 1.388781
 37620779, 3.743439, 0.03359429, 1.245181, 1.328921, 3.515926, 0.1616013, 1.294631, 1.353908
 37820699, 3.691714, 0.2698334, 1.202157, 1.309599, 3.743439, 0.03359429, 1.245181, 1.328921
 38020619, 3.910854, 0.3223235, 1.170694, 1.295021, 3.691714, 0.2698334, 1.202157, 1.309599
 38220539, 3.855299, 0.1818145, 1.141719, 1.28476, 3.910854, 0.3223235, 1.170694, 1.295021
 38420459, 3.863848, 0.205776, 1.118279, 1.279511, 3.855299, 0.1818145, 1.141719, 1.28476
 38620379, 3.929261, 0.3230105, 1.100261, 1.278741, 3.863848, 0.205776, 1.118279, 1.279511
 38820299, 3.841752, 0.2984895, 1.086927, 1.280821, 3.929261, 0.3230105, 1.100261, 1.278741
 39020219, 3.888964, 0.3604664, 1.080857, 1.285085, 3.841752, 0.2984895, 1.086927, 1.280821
 39220972, 3.898872, 0.4333814, 1.077183, 1.29592, 3.888964, 0.3604664, 1.080857, 1.285085
 39420892, 3.880149, 0.4809914, 1.076594, 1.307902, 3.898872, 0.4333814, 1.077183, 1.29592
 39620812, 3.958341, 0.3464554, 1.078453, 1.322202, 3.880149, 0.4809914, 1.076594, 1.307902
 39820732, 3.766792, 0.3593106, 1.082774, 1.337065, 3.958341, 0.3464554, 1.078453, 1.322202
 40020652, 3.856254, 0.5277873, 1.088766, 1.35523, 3.766792, 0.3593106, 1.082774, 1.337065
 40220572, 3.838707, 0.3548776, 1.10135, 1.375072, 3.856254, 0.5277873, 1.088766, 1.35523
 40420492, 3.752994, 0.3876703, 1.112644, 1.397955, 3.838707, 0.3548776, 1.10135, 1.375072
 40620412, 3.812775, 0.3950243, 1.127825, 1.421477, 3.752994, 0.3876703, 1.112644, 1.397955
 40820332, 3.726222, 0.4671049, 1.141921, 1.446807, 3.812775, 0.3950243, 1.127825, 1.421477
 41020252, 3.679885, 0.4543941, 1.158183, 1.470691, 3.726222, 0.4671049, 1.141921, 1.446807
 41220172, 3.878177, 0.5252073, 1.17749, 1.494936, 3.679885, 0.4543941, 1.158183, 1.470691
 41420925, 3.765471, 0.4802951, 1.19512, 1.519326, 3.878177, 0.5252073, 1.17749, 1.494936
 41620845, 3.959513, 0.4269774, 1.211519, 1.546004, 3.765471, 0.4802951, 1.19512, 1.519326
 41820765, 3.810578, 0.4614735, 1.23103, 1.570063, 3.959513, 0.4269774, 1.211519, 1.546004
 42020685, 3.757487, 0.479679, 1.25064, 1.596459, 3.810578, 0.4614735, 1.23103, 1.570063
 42220605, 3.800117, 0.4806589, 1.272028, 1.622602, 3.757487, 0.479679, 1.25064, 1.596459
 42420525, 3.860593, 0.5940053, 1.292345, 1.647199, 3.800117, 0.4806589, 1.272028, 1.622602
 42620445, 3.678013, 0.5850691, 1.312957, 1.668666, 3.860593, 0.5940053, 1.292345, 1.647199
 42820365, 3.584603, 0.5904815, 1.328606, 1.690677, 3.678013, 0.5850691, 1.312957, 1.668666
 43020285, 3.663992, 0.5005418, 1.344313, 1.709975, 3.584603, 0.5904815, 1.328606, 1.690677
 43220205, 3.757518, 0.4126052, 1.362127, 1.727126, 3.663992, 0.5005418, 1.344313, 1.709975
 43420958, 3.791623, 0.5670775, 1.378016, 1.743815, 3.757518, 0.4126052, 1.362127, 1.727126
 43620878, 3.797442, 0.4166276, 1.396938, 1.764867, 3.791623, 0.5670775, 1.378016, 1.743815
 43820798, 3.786794, 0.4509555, 1.417863, 1.788103, 3.797442, 0.4166276, 1.396938, 1.764867
 44020718, 3.692394, 0.4489337, 1.438321, 1.810803, 3.786794, 0.4509555, 1.417863, 1.788103
 44220638, 3.66663, 0.4746863, 1.460088, 1.831612, 3.692394, 0.4489337, 1.438321, 1.810803
 44420558, 3.707534, 0.6369842, 1.474453, 1.854966, 3.66663, 0.4746863, 1.460088, 1.831612
 44620478, 3.861002, 0.5676818, 1.490585, 1.874619, 3.707534, 0.6369842, 1.474453, 1.854966
 44820398, 3.509691, 0.5252566, 1.506144, 1.889885, 3.861002, 0.5676818, 1.490585, 1.874619
 45020318, 3.622273, 0.3784991, 1.517989, 1.9065, 3.509691, 0.5252566, 1.506144, 1.889885
 45220238, 3.454428, 0.4414237, 1.531711, 1.919729, 3.622273, 0.3784991, 1.517989, 1.9065
 45420158, 3.658406, 0.424931, 1.543893, 1.931017, 3.454428, 0.4414237, 1.531711, 1.919729
 45620911, 3.722025, 0.4376807, 1.552621, 1.943788, 3.658406, 0.424931, 1.543893, 1.931017
 45820831, 3.558688, 0.476917, 1.563127, 1.952152, 3.722025, 0.4376807, 1.552621, 1.943788
 46020751, 3.510904, 0.4834257, 1.571343, 1.961029, 3.558688, 0.476917, 1.563127, 1.952152
 46220671, 3.563047, 0.6181068, 1.582132, 1.968097, 3.510904, 0.4834257, 1.571343, 1.961029
 46420591, 3.662353, 0.3929047, 1.589949, 1.975366, 3.563047, 0.6181068, 1.582132, 1.968097
 46620511, 3.550632, 0.5184345, 1.597911, 1.979336, 3.662353, 0.3929047, 1.589949, 1.975366
 46820431, 3.562272, 0.2554389, 1.605431, 1.98345, 3.550632, 0.5184345, 1.597911, 1.979336
 47020351, 3.362718, 0.5370335, 1.610918, 1.987829, 3.562272, 0.2554389, 1.605431, 1.98345
 47220271, 3.652823, 0.5251146, 1.619104, 1.9946, 3.362718, 0.5370335, 1.610918, 1.987829
 47420191, 3.499579, 0.394973, 1.622088, 2.003001, 3.652823, 0.5251146, 1.619104, 1.9946
 47620944, 3.57917, 0.3465981, 1.630717, 2.005846, 3.499579, 0.394973, 1.622088, 2.003001
 47820864, 3.65572, 0.5427821, 1.634672, 2.014003, 3.57917, 0.3465981, 1.630717, 2.005846
 48020784, 3.481394, 0.2366871, 1.638962, 2.021206, 3.65572, 0.5427821, 1.634672, 2.014003
 48220704, 3.771618, 0.2858249, 1.647361, 2.027777, 3.481394, 0.2366871, 1.638962, 2.021206
 48420624, 3.46026, 0.3158071, 1.649991, 2.03548, 3.771618, 0.2858249, 1.647361, 2.027777
 48620544, 3.798154, 0.3367321, 1.660943, 2.039942, 3.46026, 0.3158071, 1.649991, 2.03548
 48820464, 3.733377, 0.5304882, 1.667239, 2.047709, 3.798154, 0.3367321, 1.660943, 2.039942
 49020384, 3.588086, 0.5636369, 1.670702, 2.057926, 3.733377, 0.5304882, 1.667239, 2.047709
 49220304, 3.583327, 0.4265665, 1.679988, 2.065503, 3.588086, 0.5636369, 1.670702, 2.057926
 49420224, 3.67317, 0.5606096, 1.685788, 2.074817, 3.583327, 0.4265665, 1.679988, 2.065503
 49620977, 3.566316, 0.5269881, 1.693778, 2.082408, 3.67317, 0.5606096, 1.685788, 2.074817
 49820897, 3.585498, 0.5379332, 1.699194, 2.09286, 3.566316, 0.5269881, 1.693778, 2.082408
 50020817, 3.506764, 0.5192016, 1.708485, 2.101195, 3.585498, 0.5379332, 1.699194, 2.09286
 50220737, 3.445235, 0.6572738, 1.715187, 2.112584, 3.506764, 0.5192016, 1.708485, 2.101195
 50420657, 3.454078, 0.5105535, 1.721385, 2.124014, 3.445235, 0.6572738, 1.715187, 2.112584
 50620577, 3.816432, 0.5315864, 1.729622, 2.134722, 3.454078, 0.5105535, 1.721385, 2.124014
 50820497, 3.601405, 0.3941485, 1.734487, 2.137372, 3.816432, 0.5315864, 1.729622, 2.134722
 51020417, 3.482787, 0.3259679, 1.732537, 2.13629, 3.601405, 0.3941485, 1.734487, 2.137372
 51220337, 3.476722, 0.3368827, 1.729091, 2.138484, 3.482787, 0.3259679, 1.732537, 2.13629
 51420257, 3.613024, 0.5485079, 1.73252, 2.136347, 3.476722, 0.3368827, 1.729091, 2.138484
 51620177, 3.659603, 0.3091802, 1.7329, 2.135154, 3.613024, 0.5485079, 1.73252, 2.136347
 51820930, 3.711971, 0.4077146, 1.729238, 2.135192, 3.659603, 0.3091802, 1.7329, 2.135154
 52020850, 3.741699, 0.6749996, 1.729402, 2.134375, 3.711971, 0.4077146, 1.729238, 2.135192
 52220770, 3.656237, 0.3942334, 1.727539, 2.134899, 3.741699, 0.6749996, 1.729402, 2.134375
 52420690, 3.612452, 0.3966643, 1.727104, 2.135121, 3.656237, 0.3942334, 1.727539, 2.134899
 52620610, 3.680714, 0.4809076, 1.731801, 2.134716, 3.612452, 0.3966643, 1.727104, 2.135121
 52820530, 3.606388, 0.514842, 1.729253, 2.138296, 3.680714, 0.4809076, 1.731801, 2.134716
 53020450, 3.613759, 0.3383424, 1.72952, 2.14052, 3.606388, 0.514842, 1.729253, 2.138296
 53220370, 3.506225, 0.2655632, 1.730688, 2.141651, 3.613759, 0.3383424, 1.72952, 2.14052
 53420290, 3.65544, 0.3992567, 1.730548, 2.145888, 3.506225, 0.2655632, 1.730688, 2.141651
 53620210, 3.72386, 0.2397569, 1.732035, 2.150132, 3.65544, 0.3992567, 1.730548, 2.145888
 53820963, 3.818305, 0.4320732, 1.738465, 2.150891, 3.72386, 0.2397569, 1.732035, 2.150132
 54020883, 3.694458, 0.5703331, 1.741507, 2.154298, 3.818305, 0.4320732, 1.738465, 2.150891
 54220803, 3.855151, 0.5489883, 1.744337, 2.159014, 3.694458, 0.5703331, 1.741507, 2.154298
 54420723, 3.409199, 0.6175643, 1.741125, 2.161252, 3.855151, 0.5489883, 1.744337, 2.159014
 54620643, 3.517842, 0.5247513, 1.73584, 2.163059, 3.409199, 0.6175643, 1.741125, 2.161252
 54820563, 3.57453, 0.394958, 1.736437, 2.157745, 3.517842, 0.5247513, 1.73584, 2.163059
 55020483, 3.59422, 0.4381447, 1.733742, 2.155593, 3.57453, 0.394958, 1.736437, 2.157745
 55220403, 3.68678, 0.3428451, 1.731637, 2.154558, 3.59422, 0.4381447, 1.733742, 2.155593
 55420323, 3.664392, 0.540289, 1.730092, 2.152062, 3.68678, 0.3428451, 1.731637, 2.154558
 55620243, 3.731955, 0.2457437, 1.723919, 2.155243, 3.664392, 0.540289, 1.730092, 2.152062
 55820163, 3.774959, 0.511793, 1.72182, 2.156386, 3.731955, 0.2457437, 1.723919, 2.155243
 56020916, 3.691355, 0.4919435, 1.721575, 2.152469, 3.774959, 0.511793, 1.72182, 2.156386
 56220836, 3.635404, 0.4351747, 1.722282, 2.154432, 3.691355, 0.4919435, 1.721575, 2.152469
 56420756, 3.562078, 0.5988516, 1.721076, 2.156223, 3.635404, 0.4351747, 1.722282, 2.154432
 56620676, 3.478786, 0.2921363, 1.715227, 2.160434, 3.562078, 0.5988516, 1.721076, 2.156223
 56820596, 3.647913, 0.4954729, 1.715271, 2.16122, 3.478786, 0.2921363, 1.715227, 2.160434
 57020516, 3.634751, 0.5954206, 1.714175, 2.161823, 3.647913, 0.4954729, 1.715271, 2.16122
 57220436, 3.609078, 0.5374406, 1.710208, 2.164897, 3.634751, 0.5954206, 1.714175, 2.161823
 57420356, 3.655993, 0.5661079, 1.715534, 2.163516, 3.609078, 0.5374406, 1.710208, 2.164897
 57620276, 3.802958, 0.5018405, 1.714948, 2.166982, 3.655993, 0.5661079, 1.715534, 2.163516
 57820196, 3.551021, 0.5979456, 1.712385, 2.172557, 3.802958, 0.5018405, 1.714948, 2.166982
 58020949, 3.689377, 0.3892625, 1.717175, 2.181005, 3.551021, 0.5979456, 1.712385, 2.172557
 58220869, 3.691847, 0.342459, 1.725451, 2.192876, 3.689377, 0.3892625, 1.717175, 2.181005
 58420789, 3.624483, 0.3509361, 1.732198, 2.205677, 3.691847, 0.342459, 1.725451, 2.192876
 58620709, 3.628561, 0.5621545, 1.742602, 2.216569, 3.624483, 0.3509361, 1.732198, 2.205677
 58820629, 3.619009, 0.6470832, 1.745541, 2.235255, 3.628561, 0.5621545, 1.742602, 2.216569
 59020549, 3.755038, 0.6824113, 1.752522, 2.251319, 3.619009, 0.6470832, 1.745541, 2.235255
 59220469, 3.650556, 0.4245749, 1.76041, 2.265202, 3.755038, 0.6824113, 1.752522, 2.251319
 59420389, 3.669431, 0.6406521, 1.767399, 2.278612, 3.650556, 0.4245749, 1.76041, 2.265202
 59620309, 3.720069, 0.5315818, 1.772014, 2.294262, 3.669431, 0.6406521, 1.767399, 2.278612
 59820229, 3.61584, 0.7354911, 1.776962, 2.310675, 3.720069, 0.5315818, 1.772014, 2.294262
 60020149, 3.81027, 0.5037084, 1.785037, 2.325458, 3.61584, 0.7354911, 1.776962, 2.310675
 60220902, 3.750369, 0.5227625, 1.780182, 2.357044, 3.81027, 0.5037084, 1.785037, 2.325458
 60420822, 3.856071, 0.7026063, 1.793125, 2.421678, 3.750369, 0.5227625, 1.780182, 2.357044
 60620742, 3.702573, 0.3354762, 1.835975, 2.347498, 3.856071, 0.7026063, 1.793125, 2.421678
 60820662, 3.7304, 0.5265576, 1.887009, 2.420577, 3.702573, 0.3354762, 1.835975, 2.347498
 61020582, 3.980275, 0.3556307, 1.957331, 2.583665, 3.7304, 0.5265576, 1.887009, 2.420577
 61220502, 3.551128, 0.7576783, 1.967328, 2.571164, 3.980275, 0.3556307, 1.957331, 2.583665
 61420422, 3.731201, 0.6960117, 1.966978, 2.476272, 3.551128, 0.7576783, 1.967328, 2.571164
 61620342, 3.618469, 0.4465912, 1.99062, 2.407307, 3.731201, 0.6960117, 1.966978, 2.476272
 61820262, 3.58457, 0.5434259, 2.02621, 2.37744, 3.618469, 0.4465912, 1.99062, 2.407307
 62020182, 3.785473, 0.4205708, 2.063667, 2.364495, 3.58457, 0.5434259, 2.02621, 2.37744
 62220935, 3.78659, 0.4545293, 2.098541, 2.355868, 3.785473, 0.4205708, 2.063667, 2.364495
 62420855, 3.828715, 0.2625792, 2.133408, 2.340556, 3.78659, 0.4545293, 2.098541, 2.355868
 62620775, 3.520404, 0.2617986, 2.155671, 2.332048, 3.828715, 0.2625792, 2.133408, 2.340556
 62820695, 3.755458, -0.01644907, 2.188982, 2.3153, 3.520404, 0.2617986, 2.155671, 2.332048
 63020615, 3.767964, 0.4165477, 2.218976, 2.300083, 3.755458, -0.01644907, 2.188982, 2.3153
 63220535, 3.630724, -0.1168599, 2.24515, 2.287659, 3.767964, 0.4165477, 2.218976, 2.300083
 63420455, 3.691447, 0.08615917, 2.270821, 2.2801, 3.630724, -0.1168599, 2.24515, 2.287659
 63620375, 3.63151, 0.2341898, 2.296349, 2.271994, 3.691447, 0.08615917, 2.270821, 2.2801
 63820295, 3.800099, 0.204315, 2.323785, 2.264428, 3.63151, 0.2341898, 2.296349, 2.271994
 64020215, 3.94574, 0.2337745, 2.345584, 2.264962, 3.800099, 0.204315, 2.323785, 2.264428
 64220968, 3.518793, -0.02969357, 2.369247, 2.257405, 3.94574, 0.2337745, 2.345584, 2.264962
 64420888, 3.941598, 0.02554923, 2.390656, 2.253539, 3.518793, -0.02969357, 2.369247, 2.257405
 64620808, 3.988629, -0.2299264, 2.409507, 2.252904, 3.941598, 0.02554923, 2.390656, 2.253539
 64820728, 3.878711, -0.2142343, 2.428115, 2.252713, 3.988629, -0.2299264, 2.409507, 2.252904
 65020648, 3.914306, -0.1506057, 2.442464, 2.248862, 3.878711, -0.2142343, 2.428115, 2.252713
 65220568, 3.40326, 0.0109002, 2.453011, 2.244668, 3.914306, -0.1506057, 2.442464, 2.248862
 65420488, 3.578424, 0.0921334, 2.461026, 2.242034, 3.40326, 0.0109002, 2.453011, 2.244668
 65620408, 3.6826, 0.2063482, 2.469923, 2.238588, 3.578424, 0.0921334, 2.461026, 2.242034
 65820328, 3.669451, -0.2055812, 2.474344, 2.236415, 3.6826, 0.2063482, 2.469923, 2.238588
 66020248, 3.820872, 0.06978458, 2.482732, 2.2347, 3.669451, -0.2055812, 2.474344, 2.236415
 66220168, 3.894519, -0.1654874, 2.484148, 2.236858, 3.820872, 0.06978458, 2.482732, 2.2347
 66420921, 3.698004, -0.2744985, 2.487617, 2.239013, 3.894519, -0.1654874, 2.484148, 2.236858
 66620841, 3.699551, 0.09647933, 2.489943, 2.239007, 3.698004, -0.2744985, 2.487617, 2.239013
 66820761, 3.90892, -0.3789895, 2.495487, 2.239683, 3.699551, 0.09647933, 2.489943, 2.239007
 67020681, 3.870078, -0.1604426, 2.495555, 2.242661, 3.90892, -0.3789895, 2.495487, 2.239683
 67220601, 3.521184, -0.1074914, 2.495393, 2.246694, 3.870078, -0.1604426, 2.495555, 2.242661
 67420521, 3.510787, 0.08630845, 2.493264, 2.252075, 3.521184, -0.1074914, 2.495393, 2.246694
 67620441, 3.766508, 0.05328587, 2.492525, 2.254741, 3.510787, 0.08630845, 2.493264, 2.252075
 67820361, 3.619256, 0.02280779, 2.49252, 2.258629, 3.766508, 0.05328587, 2.492525, 2.254741
 68020281, 3.897727, -0.278221, 2.493923, 2.261809, 3.619256, 0.02280779, 2.49252, 2.258629
 68220201, 3.968107, -0.03455055, 2.492985, 2.265322, 3.897727, -0.278221, 2.493923, 2.261809
 68420954, 3.591831, 0.0009669513, 2.485115, 2.276276, 3.968107, -0.03455055, 2.492985, 2.265322
 68620874, 3.811404, -0.03906209, 2.489935, 2.281085, 3.591831, 0.0009669513, 2.485115, 2.276276
 68820794, 3.775423, -0.1635794, 2.487007, 2.292928, 3.811404, -0.03906209, 2.489935, 2.281085
 69020714, 3.743459, -0.06185407, 2.487078, 2.302243, 3.775423, -0.1635794, 2.487007, 2.292928
 69220634, 3.420673, -0.2796789, 2.489829, 2.310092, 3.743459, -0.06185407, 2.487078, 2.302243
 69420554, 3.621683, 0.03417765, 2.494343, 2.317043, 3.420673, -0.2796789, 2.489829, 2.310092
 69620474, 3.529915, -0.05512194, 2.488895, 2.323439, 3.621683, 0.03417765, 2.494343, 2.317043
 69820394, 3.520733, -0.2648583, 2.48167, 2.326381, 3.529915, -0.05512194, 2.488895, 2.323439
 70020314, 3.609436, 0.1271509, 2.47477, 2.319671, 3.520733, -0.2648583, 2.48167, 2.326381
 70220234, 3.44892, -0.1292022, 2.458046, 2.31092, 3.609436, 0.1271509, 2.47477, 2.319671
 70420154, 3.739657, 0.01338521, 2.437753, 2.299623, 3.44892, -0.1292022, 2.458046, 2.31092
 70620907, 3.353716, -0.2678674, 2.411316, 2.28412, 3.739657, 0.01338521, 2.437753, 2.299623
 70820827, 3.473107, 0.07713206, 2.380205, 2.264963, 3.353716, -0.2678674, 2.411316, 2.28412
 71020747, 3.60608, -0.1743562, 2.348035, 2.239009, 3.473107, 0.07713206, 2.380205, 2.264963
 71220667, 3.461222, 0.05590544, 2.314196, 2.212651, 3.60608, -0.1743562, 2.348035, 2.239009
 71420587, 3.361021, -0.1820022, 2.271159, 2.189401, 3.461222, 0.05590544, 2.314196, 2.212651
 71620507, 3.706123, 0.2026115, 2.235566, 2.166584, 3.361021, -0.1820022, 2.271159, 2.189401
 71820427, 3.441989, -0.0174789, 2.204964, 2.145952, 3.706123, 0.2026115, 2.235566, 2.166584
 72020347, 3.593994, 0.02419152, 2.181272, 2.124054, 3.441989, -0.0174789, 2.204964, 2.145952
 72220267, 3.494039, -0.01435132, 2.154629, 2.109676, 3.593994, 0.02419152, 2.181272, 2.124054
 72420187, 3.642936, 0.140401, 2.130723, 2.095865, 3.494039, -0.01435132, 2.154629, 2.109676
 72620940, 3.677211, -0.07913548, 2.108124, 2.084488, 3.642936, 0.140401, 2.130723, 2.095865
 72820860, 3.537407, 0.1052835, 2.087058, 2.074506, 3.677211, -0.07913548, 2.108124, 2.084488
 73020780, 3.740284, 0.147155, 2.072097, 2.065937, 3.537407, 0.1052835, 2.087058, 2.074506
 73220700, 3.82441, 0.2030764, 2.059897, 2.056341, 3.740284, 0.147155, 2.072097, 2.065937
 73420620, 3.842063, 0.01080879, 2.045234, 2.053201, 3.82441, 0.2030764, 2.059897, 2.056341
 73620540, 3.759523, -0.1298812, 2.03847, 2.046108, 3.842063, 0.01080879, 2.045234, 2.053201
 73820460, 3.784739, -0.07908413, 2.032757, 2.044131, 3.759523, -0.1298812, 2.03847, 2.046108
 74020380, 3.726324, 0.05592656, 2.027485, 2.042684, 3.784739, -0.07908413, 2.032757, 2.044131
 74220300, 3.907097, 0.09036874, 2.0233, 2.042383, 3.726324, 0.05592656, 2.027485, 2.042684
 74420220, 3.620074, -0.02960608, 2.021916, 2.039863, 3.907097, 0.09036874, 2.0233, 2.042383
 74620973, 4.000579, 0.165401, 2.02073, 2.0474, 3.620074, -0.02960608, 2.021916, 2.039863
 74820893, 3.845269, -0.127592, 2.023081, 2.049832, 4.000579, 0.165401, 2.02073, 2.0474
 75020813, 3.695975, -0.1574297, 2.024443, 2.052117, 3.845269, -0.127592, 2.023081, 2.049832
 75220733, 3.733839, 0.06476265, 2.025026, 2.056958, 3.695975, -0.1574297, 2.024443, 2.052117
 75420653, 3.679238, 0.2918875, 2.028485, 2.062515, 3.733839, 0.06476265, 2.025026, 2.056958
 75620573, 3.966486, 0.0253147, 2.031192, 2.06813, 3.679238, 0.2918875, 2.028485, 2.062515
 75820493, 3.578609, 0.01183144, 2.032733, 2.07022, 3.966486, 0.0253147, 2.031192, 2.06813
 76020413, 3.702543, -0.08194381, 2.035625, 2.071958, 3.578609, 0.01183144, 2.032733, 2.07022
 76220333, 3.911376, 0.07523374, 2.03623, 2.078939, 3.702543, -0.08194381, 2.035625, 2.071958
 76420253, 3.905266, 0.04225381, 2.046054, 2.079127, 3.911376, 0.07523374, 2.03623, 2.078939
 76620173, 3.710411, 0.2954814, 2.04882, 2.084481, 3.905266, 0.04225381, 2.046054, 2.079127
 76820926, 3.712749, 0.03352759, 2.054407, 2.084404, 3.710411, 0.2954814, 2.04882, 2.084481
 77020846, 3.688453, 0.1198087, 2.052886, 2.087084, 3.712749, 0.03352759, 2.054407, 2.084404
 77220766, 3.567069, 0.1948681, 2.048633, 2.082484, 3.688453, 0.1198087, 2.052886, 2.087084
 77420686, 3.612808, 0.2834075, 2.042162, 2.071408, 3.567069, 0.1948681, 2.048633, 2.082484
 77620606, 3.424764, 0.08981143, 2.0302, 2.058424, 3.612808, 0.2834075, 2.042162, 2.071408
 77820526, 3.453438, -0.1429824, 2.013154, 2.041365, 3.424764, 0.08981143, 2.0302, 2.058424
 78020446, 3.760274, 0.2753511, 1.995346, 2.021703, 3.453438, -0.1429824, 2.013154, 2.041365
 78220366, 3.733708, 0.118093, 1.972903, 2.001092, 3.760274, 0.2753511, 1.995346, 2.021703
 78420286, 3.607755, 0.02916154, 1.947765, 1.974909, 3.733708, 0.118093, 1.972903, 2.001092
 78620206, 3.700334, 0.06552207, 1.920753, 1.94408, 3.607755, 0.02916154, 1.947765, 1.974909
 78820959, 3.760286, 0.2360576, 1.892386, 1.916287, 3.700334, 0.06552207, 1.920753, 1.94408
 79020879, 3.780416, 0.2028157, 1.868057, 1.88949, 3.760286, 0.2360576, 1.892386, 1.916287
 79220799, 3.580781, -0.1331467, 1.837968, 1.861246, 3.780416, 0.2028157, 1.868057, 1.88949
 79420719, 3.852273, 0.295683, 1.812715, 1.832101, 3.580781, -0.1331467, 1.837968, 1.861246
 79620639, 3.652117, 0.09781347, 1.784929, 1.804492, 3.852273, 0.295683, 1.812715, 1.832101
 79820559, 3.5936, -0.06534329, 1.759316, 1.778745, 3.652117, 0.09781347, 1.784929, 1.804492
 80020479, 3.731193, 0.06066767, 1.740275, 1.749983, 3.5936, -0.06534329, 1.759316, 1.778745
 80220399, 3.78933, 0.1449909, 1.719269, 1.72587, 3.731193, 0.06066767, 1.740275, 1.749983
 80420319, 3.811241, 0.1610286, 1.698592, 1.70642, 3.78933, 0.1449909, 1.719269, 1.72587
 80620239, 3.831224, 0.185618, 1.68244, 1.687493, 3.811241, 0.1610286, 1.698592, 1.70642
 80820159, 3.827731, -0.06477384, 1.66935, 1.669649, 3.831224, 0.185618, 1.68244, 1.687493
 81020912, 3.766367, 0.0565751, 1.655754, 1.652842, 3.827731, -0.06477384, 1.66935, 1.669649
 81220832, 3.958178, 0.1143723, 1.64534, 1.638557, 3.766367, 0.0565751, 1.655754, 1.652842
 81420752, 3.778859, 0.1401145, 1.636421, 1.623657, 3.958178, 0.1143723, 1.64534, 1.638557
 81620672, 3.939647, -0.03337068, 1.628233, 1.615936, 3.778859, 0.1401145, 1.636421, 1.623657
 81820592, 3.765563, 0.1085911, 1.623351, 1.605858, 3.939647, -0.03337068, 1.628233, 1.615936
 82020512, 3.902793, -0.03103273, 1.618833, 1.59593, 3.765563, 0.1085911, 1.623351, 1.605858
 82220432, 3.927299, -0.02844698, 1.612494, 1.587298, 3.902793, -0.03103273, 1.618833, 1.59593
 82420352, 3.948638, 0.06160075, 1.608089, 1.578928, 3.927299, -0.02844698, 1.612494, 1.587298
 82620272, 3.688203, 0.09113867, 1.603636, 1.573397, 3.948638, 0.06160075, 1.608089, 1.578928
 82820192, 3.804765, 0.1072344, 1.600598, 1.572938, 3.688203, 0.09113867, 1.603636, 1.573397
 83020945, 3.985647, 0.08595894, 1.599424, 1.570878, 3.804765, 0.1072344, 1.600598, 1.572938
 83220865, 3.945312, -0.1514791, 1.601197, 1.574307, 3.985647, 0.08595894, 1.599424, 1.570878
 83420785, 3.925968, 0.0197076, 1.607952, 1.58084, 3.945312, -0.1514791, 1.601197, 1.574307
 83620705, 4.167848, 0.1333134, 1.622727, 1.590361, 3.925968, 0.0197076, 1.607952, 1.58084
 83820625, 3.941456, -0.05216403, 1.63562, 1.606835, 4.167848, 0.1333134, 1.622727, 1.590361
 84020545, 4.02819, 0.1239811, 1.655249, 1.624177, 3.941456, -0.05216403, 1.63562, 1.606835
 84220465, 4.239393, -0.05269317, 1.679541, 1.644465, 4.02819, 0.1239811, 1.655249, 1.624177
 84420385, 4.020263, 0.2104677, 1.704199, 1.667609, 4.239393, -0.05269317, 1.679541, 1.644465
 84620305, 3.872566, 0.07587703, 1.729644, 1.697572, 4.020263, 0.2104677, 1.704199, 1.667609
 84820225, 3.998741, 0.03165709, 1.760425, 1.725908, 3.872566, 0.07587703, 1.729644, 1.697572
 85020145, 3.923215, 0.1350797, 1.785754, 1.758315, 3.998741, 0.03165709, 1.760425, 1.725908
 85220898, 3.877734, -0.1217031, 1.815118, 1.787493, 3.923215, 0.1350797, 1.785754, 1.758315
 85420818, 4.080058, 0.1311335, 1.84531, 1.81408, 3.877734, -0.1217031, 1.815118, 1.787493
 85620738, 3.907924, -0.08763518, 1.869616, 1.841849, 4.080058, 0.1311335, 1.84531, 1.81408
 85820658, 3.994538, -0.01391293, 1.892665, 1.868682, 3.907924, -0.08763518, 1.869616, 1.841849
 86020578, 4.095893, 0.1594045, 1.915365, 1.89379, 3.994538, -0.01391293, 1.892665, 1.868682
 86220498, 3.977391, 0.04402999, 1.935086, 1.915341, 4.095893, 0.1594045, 1.915365, 1.89379
 86420418, 3.935734, 0.03029148, 1.953633, 1.936045, 3.977391, 0.04402999, 1.935086, 1.915341
 86620338, 3.898062, 0.2052127, 1.970647, 1.95509, 3.935734, 0.03029148, 1.953633, 1.936045
 86820258, 3.799367, -0.08932707, 1.985261, 1.973862, 3.898062, 0.2052127, 1.970647, 1.95509
 87020178, 3.758516, 0.1280559, 2, 1.988274, 3.799367, -0.08932707, 1.985261, 1.973862
 87220931, 3.708749, 0.1495675, 2.010557, 2.002557, 3.758516, 0.1280559, 2, 1.988274
 87420851, 4.0002, -0.1835971, 2.022152, 2.013474, 3.708749, 0.1495675, 2.010557, 2.002557
 87620771, 3.985866, -0.03658938, 2.031924, 2.024448, 4.0002, -0.1835971, 2.022152, 2.013474
 87820691, 3.827624, 0.09293821, 2.041413, 2.034055, 3.985866, -0.03658938, 2.031924, 2.024448
 88020611, 3.753297, -0.03595003, 2.046304, 2.043837, 3.827624, 0.09293821, 2.041413, 2.034055
 88220531, 3.739666, -0.08684985, 2.054322, 2.049282, 3.753297, -0.03595003, 2.046304, 2.043837
 88420451, 3.802327, 0.1493367, 2.056687, 2.058514, 3.739666, -0.08684985, 2.054322, 2.049282
 88620371, 3.671383, -0.1462217, 2.061156, 2.062839, 3.802327, 0.1493367, 2.056687, 2.058514
 88820291, 3.847152, 0.2727174, 2.066593, 2.068365, 3.671383, -0.1462217, 2.061156, 2.062839
 89020211, 3.738869, 0.2689752, 2.06716, 2.074979, 3.847152, 0.2727174, 2.066593, 2.068365
 89220964, 3.57238, 0.1224075, 2.074888, 2.076993, 3.738869, 0.2689752, 2.06716, 2.074979
 89420884, 3.744161, 0.1369142, 2.080058, 2.083972, 3.57238, 0.1224075, 2.074888, 2.076993
 89620804, 3.61407, -0.133634, 2.086514, 2.089018, 3.744161, 0.1369142, 2.080058, 2.083972
 89820724, 3.657715, 0.1444739, 2.089567, 2.097227, 3.61407, -0.133634, 2.086514, 2.089018
 90020644, 3.727147, 0.1878765, 2.09497, 2.102126, 3.657715, 0.1444739, 2.089567, 2.097227
 90220564, 3.81188, 0.01130646, 2.101807, 2.105206, 3.727147, 0.1878765, 2.09497, 2.102126
 90420484, 3.636192, -0.03460267, 2.10573, 2.111229, 3.81188, 0.01130646, 2.101807, 2.105206
 90620404, 3.836607, 0.3294725, 2.110116, 2.116318, 3.636192, -0.03460267, 2.10573, 2.111229
 90820324, 3.857893, -0.01640427, 2.115705, 2.120318, 3.836607, 0.3294725, 2.110116, 2.116318
 91020244, 3.760432, 0.1089622, 2.118586, 2.124371, 3.857893, -0.01640427, 2.115705, 2.120318
 91220164, 3.463441, -0.1716053, 2.123816, 2.126654, 3.760432, 0.1089622, 2.118586, 2.124371
 91420917, 3.737957, 0.1533702, 2.129053, 2.131309, 3.463441, -0.1716053, 2.123816, 2.126654
 91620837, 3.487045, 0.2941403, 2.128854, 2.13833, 3.737957, 0.1533702, 2.129053, 2.131309
 91820757, 3.981436, -0.2258801, 2.137, 2.141301, 3.487045, 0.2941403, 2.128854, 2.13833
 92020677, 3.653165, 0.3541015, 2.138275, 2.145926, 3.981436, -0.2258801, 2.137, 2.141301
 92220597, 3.492739, -0.09172652, 2.143243, 2.149992, 3.653165, 0.3541015, 2.138275, 2.145926
 92420517, 3.857183, 0.1537548, 2.150133, 2.151979, 3.492739, -0.09172652, 2.143243, 2.149992
 92620437, 3.489057, 0.2025738, 2.154284, 2.154013, 3.857183, 0.1537548, 2.150133, 2.151979
 92820357, 3.926898, 0.2446193, 2.155248, 2.163686, 3.489057, 0.2025738, 2.154284, 2.154013
 93020277, 3.797027, -0.1527516, 2.164017, 2.164913, 3.926898, 0.2446193, 2.155248, 2.163686
 93220197, 3.790092, 0.1713493, 2.162133, 2.179934, 3.797027, -0.1527516, 2.164017, 2.164913
 93420950, 3.911728, 0.1741948, 2.17769, 2.188827, 3.790092, 0.1713493, 2.162133, 2.179934
 93620870, 3.767638, 0.05917121, 2.197258, 2.202786, 3.911728, 0.1741948, 2.17769, 2.188827
 93820790, 4.021382, 0.1909649, 2.218457, 2.226943, 3.767638, 0.05917121, 2.197258, 2.202786
 94020710, 3.60331, -0.108239, 2.245038, 2.253999, 4.021382, 0.1909649, 2.218457, 2.226943
 94220630, 3.892697, 0.2124328, 2.277317, 2.281766, 3.60331, -0.108239, 2.245038, 2.253999
 94420550, 4.172076, 0.1467477, 2.317681, 2.309967, 3.892697, 0.2124328, 2.277317, 2.281766
 94620470, 3.721095, 0.1272393, 2.34761, 2.347598, 4.172076, 0.1467477, 2.317681, 2.309967
 94820390, 3.7164, 0.07937986, 2.383477, 2.385206, 3.721095, 0.1272393, 2.34761, 2.347598
 95020310, 3.958337, -0.1824295, 2.425225, 2.418589, 3.7164, 0.07937986, 2.383477, 2.385206
 95220230, 3.941926, 0.2986371, 2.460515, 2.457846, 3.958337, -0.1824295, 2.425225, 2.418589
 95420150, 3.632663, -0.1012249, 2.49902, 2.490965, 3.941926, 0.2986371, 2.460515, 2.457846
 95620903, 3.844409, 0.01061283, 2.536327, 2.52432, 3.632663, -0.1012249, 2.49902, 2.490965
 95820823, 3.5399, 0.03866082, 2.564395, 2.561765, 3.844409, 0.01061283, 2.536327, 2.52432
 96020743, 3.718428, -0.2861992, 2.59559, 2.592429, 3.5399, 0.03866082, 2.564395, 2.561765
 96220663, 3.553907, 0.1621261, 2.619109, 2.613122, 3.718428, -0.2861992, 2.59559, 2.592429
 96420583, 3.654211, -0.1048007, 2.637403, 2.63267, 3.553907, 0.1621261, 2.619109, 2.613122
 96620503, 3.761921, 0.06855942, 2.653982, 2.65006, 3.654211, -0.1048007, 2.637403, 2.63267
 96820423, 3.840085, 0.2747628, 2.664592, 2.671559, 3.761921, 0.06855942, 2.653982, 2.65006
 97020343, 3.87005, 0.05765912, 2.676621, 2.685526, 3.840085, 0.2747628, 2.664592, 2.671559
 97220263, 3.517171, 0.2047051, 2.686463, 2.697856, 3.87005, 0.05765912, 2.676621, 2.685526
 97420183, 3.571399, 0.1500018, 2.697313, 2.70525, 3.517171, 0.2047051, 2.686463, 2.697856
 97620936, 3.529343, 0.06031215, 2.705387, 2.711767, 3.571399, 0.1500018, 2.697313, 2.70525
 97820856, 3.747884, 0.2056845, 2.713214, 2.717957, 3.529343, 0.06031215, 2.705387, 2.711767
 98020776, 3.490112, 0.0394547, 2.717702, 2.724465, 3.747884, 0.2056845, 2.713214, 2.717957
 98220696, 3.553849, 0.01208631, 2.719582, 2.731471, 3.490112, 0.0394547, 2.717702, 2.724465
 98420616, 3.453154, 0.09407677, 2.726724, 2.727411, 3.553849, 0.01208631, 2.719582, 2.731471
 98620536, 3.499619, 0.04066944, 2.724264, 2.733923, 3.453154, 0.09407677, 2.726724, 2.727411
 98820456, 3.497514, 0.2316563, 2.722739, 2.738556, 3.499619, 0.04066944, 2.724264, 2.733923
 99020376, 3.592242, 0.2341281, 2.72462, 2.741627, 3.497514, 0.2316563, 2.722739, 2.738556
 99220296, 3.615108, 0.1938489, 2.730243, 2.738852, 3.592242, 0.2341281, 2.72462, 2.741627
 99420216, 3.40587, 0.0337227, 2.73084, 2.743258, 3.615108, 0.1938489, 2.730243, 2.738852
 99620969, 3.520355, 0.06735811, 2.738085, 2.749212, 3.40587, 0.0337227, 2.73084, 2.743258
 99820889, 3.67204, -0.1048138, 2.742724, 2.757658, 3.520355, 0.06735811, 2.738085, 2.749212
 100020809, 3.521909, 0.3058314, 2.748346, 2.760085, 3.67204, -0.1048138, 2.742724, 2.757658
 100220729, 3.704658, 0.3846087, 2.74984, 2.760568, 3.521909, 0.3058314, 2.748346, 2.760085
 100420649, 3.15124, -0.008323352, 2.741579, 2.755274, 3.704658, 0.3846087, 2.74984, 2.760568
 100620569, 3.249816, -0.08812691, 2.730831, 2.740458, 3.15124, -0.008323352, 2.741579, 2.755274
 100820489, 3.448226, -0.1049249, 2.717389, 2.717968, 3.249816, -0.08812691, 2.730831, 2.740458
 101020409, 3.599209, -0.05142276, 2.698529, 2.695368, 3.448226, -0.1049249, 2.717389, 2.717968
 101220329, 3.400547, 0.2220287, 2.669382, 2.669929, 3.599209, -0.05142276, 2.698529, 2.695368
 101420249, 3.377774, 0.009489417, 2.635605, 2.640083, 3.400547, 0.2220287, 2.669382, 2.669929
 101620169, 3.474041, 0.07196044, 2.60457, 2.605031, 3.377774, 0.009489417, 2.635605, 2.640083
 101820922, 3.760065, -0.05890067, 2.577147, 2.572296, 3.474041, 0.07196044, 2.60457, 2.605031
 102020842, 3.407299, -0.04683509, 2.548982, 2.542715, 3.760065, -0.05890067, 2.577147, 2.572296
 102220762, 3.505035, -0.08791065, 2.525969, 2.5142, 3.407299, -0.04683509, 2.548982, 2.542715
 102420682, 3.495767, 0.3656451, 2.499292, 2.490678, 3.505035, -0.08791065, 2.525969, 2.5142
 102620602, 3.244401, -0.2089235, 2.474546, 2.464504, 3.495767, 0.3656451, 2.499292, 2.490678
 102820522, 3.480117, 0.06770655, 2.453426, 2.440671, 3.244401, -0.2089235, 2.474546, 2.464504
 103020442, 3.49076, 0.2574236, 2.43218, 2.42383, 3.480117, 0.06770655, 2.453426, 2.440671
 103220362, 3.674323, 0.1444204, 2.418598, 2.403225, 3.49076, 0.2574236, 2.43218, 2.42383
 103420282, 3.34879, 0.07136509, 2.394169, 2.386286, 3.674323, 0.1444204, 2.418598, 2.403225
 103620202, 3.575495, -0.01209425, 2.377258, 2.364762, 3.34879, 0.07136509, 2.394169, 2.386286
 103820955, 3.430928, 0.08896998, 2.358603, 2.347391, 3.575495, -0.01209425, 2.377258, 2.364762
 104020875, 3.767095, 0.1936345, 2.346526, 2.330648, 3.430928, 0.08896998, 2.358603, 2.347391
 104220795, 3.669326, -0.04540356, 2.333376, 2.317603, 3.767095, 0.1936345, 2.346526, 2.330648
 104420715, 3.69703, 0.06908953, 2.318137, 2.306264, 3.669326, -0.04540356, 2.333376, 2.317603
 104620635, 3.383662, 0.1672102, 2.30952, 2.291752, 3.69703, 0.06908953, 2.318137, 2.306264
 104820555, 3.642391, 0.007509316, 2.302641, 2.280133, 3.383662, 0.1672102, 2.30952, 2.291752
 105020475, 3.975439, 0.01113216, 2.296635, 2.271029, 3.642391, 0.007509316, 2.302641, 2.280133
 105220395, 3.798906, -0.06582546, 2.292056, 2.261886, 3.975439, 0.01113216, 2.296635, 2.271029
 105420315, 3.883492, 0.07369774, 2.288106, 2.252012, 3.798906, -0.06582546, 2.292056, 2.261886
 105620235, 3.537254, -0.07758951, 2.281218, 2.245357, 3.883492, 0.07369774, 2.288106, 2.252012
 105820155, 3.740857, -0.09005371, 2.279254, 2.238653, 3.537254, -0.07758951, 2.281218, 2.245357
 106020908, 3.527946, 0.1292671, 2.274424, 2.235626, 3.740857, -0.09005371, 2.279254, 2.238653
 106220828, 3.73886, 0.1919842, 2.272071, 2.232483, 3.527946, 0.1292671, 2.274424, 2.235626
 106420748, 3.729281, 0.2081205, 2.268206, 2.230557, 3.73886, 0.1919842, 2.272071, 2.232483
 106620668, 3.676294, -0.09537417, 2.262253, 2.229161, 3.729281, 0.2081205, 2.268206, 2.230557
 106820588, 3.629245, 0.07826134, 2.250306, 2.226442, 3.676294, -0.09537417, 2.262253, 2.229161
 107020508, 3.507871, 0.1159078, 2.244046, 2.215155, 3.629245, 0.07826134, 2.250306, 2.226442
 107220428, 3.746948, 0.03645987, 2.237421, 2.206826, 3.507871, 0.1159078, 2.244046, 2.215155
 107420348, 3.953077, -0.09137785, 2.230353, 2.19875, 3.746948, 0.03645987, 2.237421, 2.206826
 107620268, 3.706611, -0.002029995, 2.220011, 2.191468, 3.953077, -0.09137785, 2.230353, 2.19875
 107820188, 3.750024, -0.01995958, 2.211611, 2.183481, 3.706611, -0.002029995, 2.220011, 2.191468
 108020941, 3.871444, 0.2141151, 2.202404, 2.169455, 3.750024, -0.01995958, 2.211611, 2.183481
 108220861, 3.520736, -0.02868798, 2.181028, 2.15289, 3.871444, 0.2141151, 2.202404, 2.169455
 108420781, 3.348039, -0.03003373, 2.158497, 2.13246, 3.520736, -0.02868798, 2.181028, 2.15289
 108620701, 3.700264, 0.003375836, 2.139317, 2.104827, 3.348039, -0.03003373, 2.158497, 2.13246
 108820621, 3.649865, 0.1316901, 2.1096, 2.079694, 3.700264, 0.003375836, 2.139317, 2.104827
 109020541, 3.425286, 0.04101748, 2.077013, 2.050582, 3.649865, 0.1316901, 2.1096, 2.079694
 109220461, 3.55804, -0.104064, 2.041984, 2.011481, 3.425286, 0.04101748, 2.077013, 2.050582
 109420381, 3.50862, 0.2222587, 1.995925, 1.975599, 3.55804, -0.104064, 2.041984, 2.011481
 109620301, 3.783666, 0.2081502, 1.95536, 1.935374, 3.50862, 0.2222587, 1.995925, 1.975599
 109820221, 3.648202, 0.1930464, 1.915801, 1.894879, 3.783666, 0.2081502, 1.95536, 1.935374
 110020974, 3.651923, 0.05820169, 1.87856, 1.861049, 3.648202, 0.1930464, 1.915801, 1.894879
 110220894, 3.605283, 0.04873279, 1.842132, 1.829887, 3.651923, 0.05820169, 1.87856, 1.861049
 110420814, 3.66257, 0.1654291, 1.811352, 1.801516, 3.605283, 0.04873279, 1.842132, 1.829887
 110620734, 3.845397, 0.02980589, 1.787291, 1.774723, 3.66257, 0.1654291, 1.811352, 1.801516
 110820654, 3.623618, 0.005401163, 1.763136, 1.750754, 3.845397, 0.02980589, 1.787291, 1.774723
 111020574, 3.810521, 0.1000037, 1.742577, 1.727266, 3.623618, 0.005401163, 1.763136, 1.750754
 111220494, 3.739585, -0.1153764, 1.720731, 1.708846, 3.810521, 0.1000037, 1.742577, 1.727266
 111420414, 3.853767, 0.05468796, 1.705462, 1.691652, 3.739585, -0.1153764, 1.720731, 1.708846
 111620334, 3.612671, 0.1074564, 1.687617, 1.675151, 3.853767, 0.05468796, 1.705462, 1.691652
 111820254, 3.844504, 0.2049942, 1.672986, 1.663565, 3.612671, 0.1074564, 1.687617, 1.675151
 112020174, 3.888746, -0.06250253, 1.66088, 1.650213, 3.844504, 0.2049942, 1.672986, 1.663565
 112220927, 3.920339, -0.06734512, 1.650069, 1.640532, 3.888746, -0.06250253, 1.66088, 1.650213
 112420847, 3.836875, -0.01694409, 1.641618, 1.632044, 3.920339, -0.06734512, 1.650069, 1.640532
 112620767, 3.813002, 0.05697625, 1.633059, 1.626032, 3.836875, -0.01694409, 1.641618, 1.632044
 112820687, 3.840615, 0.07281942, 1.627714, 1.618578, 3.813002, 0.05697625, 1.633059, 1.626032
 113020607, 3.991362, 0.0810322, 1.623089, 1.614158, 3.840615, 0.07281942, 1.627714, 1.618578
 113220527, 3.848579, -0.06120175, 1.616895, 1.610538, 3.991362, 0.0810322, 1.623089, 1.614158
 113420447, 3.922785, 0.05694593, 1.612978, 1.609121, 3.848579, -0.06120175, 1.616895, 1.610538
 113620367, 3.980545, 0.1158466, 1.611981, 1.605358, 3.922785, 0.05694593, 1.612978, 1.609121
 113820287, 3.697114, 0.03877578, 1.608849, 1.60336, 3.980545, 0.1158466, 1.611981, 1.605358
 114020207, 3.809933, -0.1379897, 1.608061, 1.606248, 3.697114, 0.03877578, 1.608849, 1.60336
 114220960, 3.727762, 0.005390201, 1.609765, 1.605481, 3.809933, -0.1379897, 1.608061, 1.606248
 114420880, 3.872549, 0.03688002, 1.612119, 1.606556, 3.727762, 0.005390201, 1.609765, 1.605481
 114620800, 3.9281, -0.005195944, 1.610181, 1.60697, 3.872549, 0.03688002, 1.612119, 1.606556
 114820720, 3.570095, -0.01467936, 1.604988, 1.601404, 3.9281, -0.005195944, 1.610181, 1.60697
 115020640, 3.822226, 0.1027597, 1.599324, 1.591656, 3.570095, -0.01467936, 1.604988, 1.601404
 115220560, 3.77399, -0.01155683, 1.587052, 1.578834, 3.822226, 0.1027597, 1.599324, 1.591656
 115420480, 3.647155, -0.04103945, 1.570467, 1.560002, 3.77399, -0.01155683, 1.587052, 1.578834
 115620400, 3.781156, 0.01984292, 1.546248, 1.542647, 3.647155, -0.04103945, 1.570467, 1.560002
 115820320, 3.622614, 0.02290601, 1.524278, 1.519788, 3.781156, 0.01984292, 1.546248, 1.542647
 116020240, 3.815365, 0.0510728, 1.502229, 1.492645, 3.622614, 0.02290601, 1.524278, 1.519788
 116220160, 3.655841, -0.05575775, 1.472166, 1.46621, 3.815365, 0.0510728, 1.502229, 1.492645
 116420913, 3.609152, -0.01493173, 1.441695, 1.437758, 3.655841, -0.05575775, 1.472166, 1.46621
 116620833, 3.643318, -0.01876074, 1.414539, 1.409317, 3.609152, -0.01493173, 1.441695, 1.437758
 116820753, 3.882457, 0.09129806, 1.391512, 1.38211, 3.643318, -0.01876074, 1.414539, 1.409317
 117020673, 3.843378, 0.1459529, 1.36743, 1.35771, 3.882457, 0.09129806, 1.391512, 1.38211
 117220593, 3.818, 0.2166853, 1.343089, 1.335976, 3.843378, 0.1459529, 1.36743, 1.35771
 117420513, 3.816817, 0.07981111, 1.320287, 1.314804, 3.818, 0.2166853, 1.343089, 1.335976
 117620433, 3.831899, 0.150327, 1.301926, 1.29492, 3.816817, 0.07981111, 1.320287, 1.314804
 117820353, 3.691208, 0.07316636, 1.283231, 1.277047, 3.831899, 0.150327, 1.301926, 1.29492
 118020273, 3.822286, -0.06294618, 1.267996, 1.262924, 3.691208, 0.07316636, 1.283231, 1.277047
 118220193, 3.865873, 0.02205844, 1.255258, 1.248168, 3.822286, -0.06294618, 1.267996, 1.262924
 118420946, 3.989044, 0.004506486, 1.243255, 1.236744, 3.865873, 0.02205844, 1.255258, 1.248168
 118620866, 3.86984, 0.05868063, 1.233078, 1.224573, 3.989044, 0.004506486, 1.243255, 1.236744
 118820786, 3.983421, 0.1349649, 1.223349, 1.215383, 3.86984, 0.05868063, 1.233078, 1.224573
 119020706, 3.8995, -0.07128756, 1.213772, 1.207671, 3.983421, 0.1349649, 1.223349, 1.215383
 119220626, 3.873539, 0.002852273, 1.206705, 1.201862, 3.8995, -0.07128756, 1.213772, 1.207671
 119420546, 3.930366, 0.08559625, 1.204627, 1.196119, 3.873539, 0.002852273, 1.206705, 1.201862
 119620466, 3.968546, 0.1219302, 1.20241, 1.192957, 3.930366, 0.08559625, 1.204627, 1.196119
 119820386, 3.944155, 0.03982056, 1.198901, 1.190995, 3.968546, 0.1219302, 1.20241, 1.192957
 120020306, 3.85745, -0.06130578, 1.195768, 1.189911, 3.944155, 0.03982056, 1.198901, 1.190995
 120220226, 4.011803, -0.03647803, 1.196291, 1.18683, 3.85745, -0.06130578, 1.195768, 1.189911
 120420146, 3.899151, -0.08647785, 1.211404, 1.16847, 4.011803, -0.03647803, 1.196291, 1.18683
 120620899, 3.826484, 0.2613266, 1.210684, 1.220052, 3.899151, -0.08647785, 1.211404, 1.16847
 120820819, 3.570024, 0.2383929, 1.319147, 1.35999, 3.826484, 0.2613266, 1.210684, 1.220052
 121020739, 3.252578, 0.4278778, 1.544029, 1.675504, 3.570024, 0.2383929, 1.319147, 1.35999
 121220659, 3.293031, 0.4714983, 2.017396, 2.437388, 3.252578, 0.4278778, 1.544029, 1.675504
