TimeUS,CAN,CAE,CAD,CAe,NAN,NAE,NAD,NAe,m10,m00,Gye
 8425795, 0.01136754, 0.0003521068, -0.05493043, 1.567772, 0.003543397, -0.000308637, -0.07683606, 1.566978, -0.9757831, -0.2187405, 11.72367
 8606556, 0.003728586, -7.485268E-05, -0.07881769, 1.60108, -0.0001053945, 9.190226E-05, -0.001018357, 0.03363385, -0.9814997, -0.1914634, 28335.77
 8806476, 0.0001526288, 1.658936E-05, -0.003313043, 0.07129171, 8.807564E-05, 8.436442E-05, -0.001067009, 0.03718013, -0.9869645, -0.160938, 43.18072
 9006396, 5.226101E-05, 0.0002111727, -0.00309779, 0.07482506, 0.000116906, 5.071903E-05, -0.001133804, 0.03718013, -0.990826, -0.1351437, 44.76286
 9206316, 0.0005031109, 0.0001864773, -0.003193448, 0.07482506, 0.0003678887, 8.221803E-05, -0.0008983558, 0.03718013, -0.9935443, -0.1134445, 44.76286
 9406236, 0.0005420726, 0.0003032015, -0.003284474, 0.07482506, -3.34362E-05, 0.0005853602, -0.001335766, 0.03718013, -0.9954585, -0.09519684, 44.76286
 9606156, 0.0001312212, 0.0008702832, -0.003551504, 0.07482506, -0.0001152051, 0.0004466574, -0.0010094, 0.03718013, -0.9968082, -0.07983472, 44.76286
 9806076, 5.263516E-05, 0.000377942, -0.003474504, 0.07483085, -0.000172283, 0.0001099787, -0.001350016, 0.03719873, -0.9977587, -0.06691501, 44.76818
 10005996, -0.000103719, 0.0002400374, -0.003611882, 0.07486238, 3.640036E-05, -0.000185404, -0.0009554735, 0.03719873, -0.9984273, -0.05606233, 44.78527
 10205916, 8.293648E-05, -2.691504E-05, -0.003034302, 0.07486238, 0.0002475821, 0.0002614036, -0.0009464041, 0.03719873, -0.9988958, -0.04697917, 44.78527
 10405836, 0.0004009314, 0.0004642816, -0.003147727, 0.07486238, 0.0004971712, 1.743067E-07, -0.001453383, 0.03719873, -0.999225, -0.03936251, 44.78527
 10606589, 0.0007124526, 0.0002679878, -0.003627812, 0.07501738, 4.992104E-05, -0.000181214, -0.001026505, 0.03735372, -0.9994572, -0.03294172, 43.19506
 10806509, 0.0002143867, 8.02404E-05, -0.003433048, 0.07501159, 0.000295942, 0.0001425361, -0.00127683, 0.03718014, -0.9996195, -0.02758481, 44.8735
 11006429, 0.000402274, 0.0004013733, -0.003603744, 0.07482506, -0.000110588, 0.0001023422, -0.001170498, 0.03718014, -0.9997336, -0.02308015, 44.76286
 11206349, 0.0001281962, 0.0001565158, -0.003352269, 0.07482506, 0.0002471704, 0.0001468803, -0.001289152, 0.03718014, -0.9998137, -0.01930189, 44.76286
 11406269, 0.0006466609, 0.0002571244, -0.003499218, 0.07482506, 0.0007056731, -0.0001980052, -0.001373446, 0.03718014, -0.9998698, -0.0161313, 44.76286
 11606189, 0.0008814077, -0.0001023157, -0.003605867, 0.07482506, 0.0002685707, 2.200549E-05, -0.001246639, 0.03718014, -0.9999092, -0.01347729, 44.76286
 11806109, 0.0007648389, 0.0004360591, -0.003483331, 0.07482506, 0.0002325423, 0.0004736943, -0.001172948, 0.03718014, -0.9999366, -0.0112527, 44.76286
 12006029, 0.0006231914, 0.0008420208, -0.003304727, 0.07482506, 8.441085E-05, 0.0001814903, -0.001405026, 0.03718014, -0.9999559, -0.009397893, 44.76286
 12205949, 0.0004669422, 0.0005310419, -0.003733359, 0.07482506, 0.0002268599, 3.172011E-05, -0.0009188384, 0.03718014, -0.9999693, -0.007837268, 44.76286
 12405869, 0.0005707585, 0.0002618201, -0.003047526, 0.07482506, -0.0001682004, 0.000236069, -0.001125913, 0.03718014, -0.9999789, -0.006498989, 44.76286
 12605789, 0.0001451682, 0.0005954994, -0.003379921, 0.07482506, 0.0003876385, 7.538003E-05, -0.0008679469, 0.03718014, -0.9999863, -0.005251634, 44.76286
 12806542, 0.0008105272, 0.0001631804, -0.003020172, 0.07498554, 0.0002294454, -1.45309E-05, -0.001121595, 0.03735372, -0.9999912, -0.004203274, 44.85975
 13006462, 0.0005984776, -1.904184E-05, -0.003290223, 0.07501738, 0.0003140419, -0.0001349918, -0.001639623, 0.03719873, -0.9999945, -0.003337231, 44.87799
 13206382, 0.000625449, 0.0002643021, -0.003655956, 0.07486238, 3.8096E-05, 0.0001331003, -0.001090912, 0.03719873, -0.9999965, -0.002628111, 44.78527
 13406302, 3.576172E-05, 0.0003033827, -0.003271178, 0.07486238, -0.0001554833, 0.0002642378, -0.00119937, 0.03719873, -0.9999979, -0.002042234, 44.78527
 13606222, -3.620965E-05, 0.0007375129, -0.003216675, 0.07486238, -9.250687E-05, 0.0002738802, -0.001055044, 0.03719873, -0.9999988, -0.001544205, 44.78527
 13806142, 0.0002866502, 0.0006540554, -0.003267542, 0.07485683, 0.0005481223, 0.0002013227, -0.001206357, 0.03718014, -0.9999994, -0.001115811, 44.78107
 14006062, 0.0009291699, 0.0004710963, -0.00325474, 0.07482506, 2.546394E-05, 0.0001844161, -0.001150745, 0.03718014, -0.9999998, -0.0007447338, 44.76286
 14205982, 0.0003315967, 0.0002959724, -0.003409654, 0.07482506, 2.93377E-05, -0.0001078892, -0.00127615, 0.03718014, -0.9999999, -0.0004275663, 44.76286
 14405902, 0.0004143098, 0.0001984321, -0.003377521, 0.07482506, -4.842257E-05, 0.0002059671, -0.001191329, 0.03718014, -1, -0.0001628688, 44.76286
 14605822, -4.227817E-05, 0.0003002168, -0.003419831, 0.07482506, 7.952864E-05, -1.534785E-05, -0.001146852, 0.03718014, -1, 5.78304E-05, 44.76286
 14806575, 0.0002899413, 0.0001966047, -0.003301312, 0.07498562, 0.0002453735, -3.79453E-05, -0.001226106, 0.03735372, -1, 0.0002462931, 44.85975
 15006495, 0.0005315607, 7.423062E-05, -0.003490733, 0.07501738, 0.0002984325, -3.197268E-05, -0.001049418, 0.03719873, -0.9999999, 0.0003989383, 44.87799
 15206415, 0.0003147924, 0.0002240375, -0.003445995, 0.07486238, 0.0001085602, 0.0003893249, -0.001273013, 0.03719873, -0.9999999, 0.0005140578, 44.78527
 15406335, 0.0003454662, 0.000799865, -0.003354484, 0.07486238, 0.000333152, -1.129603E-05, -0.0009245176, 0.03719873, -0.9999999, 0.0005969596, 44.78527
 15606255, 0.0004353459, 0.0004031418, -0.002988982, 0.07486238, 0.0002408119, 0.0001085837, -0.0008051654, 0.03719873, -0.9999998, 0.0006543417, 44.78527
 15806175, 0.0005083147, 0.0005019779, -0.002940749, 0.07485683, 0.0002137036, 0.0001671457, -0.001402499, 0.03718014, -0.9999998, 0.0007012144, 44.78107
 16006095, 0.0004759173, 0.0005343875, -0.003274767, 0.07482506, 0.0001123353, 0.0002637647, -0.001076699, 0.03718014, -0.9999998, 0.0007480357, 44.76286
 16206015, 0.0003844604, 0.0005046764, -0.003657165, 0.07482506, 0.0001212451, 5.81687E-05, -0.001575886, 0.03718014, -0.9999996, 0.0007881203, 44.76286
 16405935, 0.0003692169, 0.0004024758, -0.003746707, 0.07482506, 0.0002670288, 1.451311E-05, -0.001301402, 0.03718014, -0.9999996, 0.0008230261, 44.76286
 16605855, 0.0004012336, 0.0002281388, -0.003484115, 0.07482506, -8.266419E-05, 0.000124061, -0.001250935, 0.03718014, -0.9999996, 0.0008574222, 44.76286
 16805775, 0.0002981247, 0.0007869707, -0.003245867, 0.07482506, 0.0002832909, 0.0004537048, -0.0009446537, 0.03718014, -0.9999996, 0.0008904372, 44.76286
 17006528, 0.000661766, 0.0008448508, -0.003079935, 0.07497998, 0.0005163376, 0.0003682423, -0.001423629, 0.03733505, -0.9999996, 0.0009196326, 44.85553
 17206448, 0.0008105673, 0.0006191023, -0.003518992, 0.07497998, 6.107266E-05, -0.0001027306, -0.0008103084, 0.03718014, -0.9999995, 0.0009557221, 44.85553
 17406368, 0.0006698247, 1.082228E-05, -0.003182785, 0.07482506, 0.0004045739, -6.638961E-05, -0.001400893, 0.03718014, -0.9999995, 0.0009927186, 44.76286
 17606288, 0.0008508277, 0.0002412356, -0.003732138, 0.07482506, 0.0006103707, 0.0002420133, -0.001308211, 0.03718014, -0.9999995, 0.001022595, 44.76286
 17806208, 0.0007191722, 0.000659028, -0.003416051, 0.07483039, 0.000113127, 0.0002914048, -0.001087771, 0.03719873, -0.9999995, 0.00104226, 44.76678
 18006128, 0.0002559896, 0.0005315491, -0.003405297, 0.07486238, 0.0001798129, -0.0001556013, -0.001437612, 0.03719873, -0.9999995, 0.001058619, 44.78527
 18206048, 0.0004556708, 0.0002725318, -0.003480032, 0.07486238, 0.0001474939, 0.0003445467, -0.001194018, 0.03719873, -0.9999994, 0.001061074, 44.78527
 18405968, 0.000676787, 0.0009734423, -0.003347478, 0.07486238, 6.093718E-05, 0.0006086955, -0.000921609, 0.03719873, -0.9999994, 0.001041373, 44.78527
 18605888, 0.0004092778, 0.001406714, -0.002959919, 0.07486238, 0.0001955619, 0.0001901165, -0.00138291, 0.03719873, -0.9999995, 0.001004824, 44.78527
 18805808, 0.000592637, 0.0009181022, -0.003505065, 0.07485706, 0.0003465708, 0.0003181109, -0.001252823, 0.03718014, -0.9999995, 0.0009890317, 44.78135
 19006561, 0.0008966654, 0.0006833512, -0.003241016, 0.07497998, 0.0006665385, 9.056448E-05, -0.001212298, 0.03733505, -0.9999995, 0.00100319, 44.85553
 19206481, 0.001051981, 0.0005073251, -0.003385386, 0.07497998, 6.902718E-05, 0.0005595773, -0.0009688482, 0.03718014, -0.9999995, 0.001020901, 44.85553
 19406401, 0.0003800042, 0.0007295155, -0.003281909, 0.07482506, 0.0001836462, 0.0002933034, -0.001303809, 0.03718014, -0.9999995, 0.001033485, 44.76286
 19606321, 0.0004297791, 0.0006982348, -0.003472204, 0.07482506, -0.0001948605, 0.0006199525, -0.001340219, 0.03718014, -0.9999995, 0.00104072, 44.76286
 19806241, 0.0001825838, 0.0008155527, -0.00376965, 0.07483039, 0.000250736, 0.0002260647, -0.001036544, 0.03719873, -0.9999994, 0.001038912, 44.76678
 20006161, 0.0005870929, 0.0004627644, -0.003198085, 0.07486238, -0.0001312332, 0.0004106775, -0.001340061, 0.03719873, -0.9999994, 0.001039607, 44.78527
 20206081, 0.0003109699, 0.001010516, -0.003443941, 0.07486238, 1.044775E-05, 0.0003886699, -0.0008396711, 0.03719873, -0.9999994, 0.001035422, 44.78527
 20406001, 0.0002349677, 0.0009160521, -0.003066175, 0.07486238, 0.0002608317, 0.0002949278, -0.001157495, 0.03719873, -0.9999994, 0.001022655, 44.78527
 20605921, 0.0005885871, 0.0008888828, -0.003187927, 0.07486238, 0.0001197545, 0.0002241218, -0.001147432, 0.03719873, -0.9999995, 0.001008277, 44.78527
 20805841, 0.0003579086, 0.0006235765, -0.003222814, 0.07485729, -0.0002329477, 0.0003565221, -0.001367497, 0.03718014, -0.9999995, 0.001009512, 44.78163
 21005761, 0.0002116846, 0.0006122376, -0.003482174, 0.07482506, 0.0002591765, -5.231615E-05, -0.001048676, 0.03718014, -0.9999995, 0.001025195, 44.76286
 21206514, 0.0007542126, 0.0001703299, -0.003019683, 0.07497998, 0.0004874153, 0.0003142947, -0.001131755, 0.03733505, -0.9999995, 0.001040516, 44.85553
 21406434, 0.001010424, 0.0009614165, -0.00334037, 0.07497998, 0.0005835526, 0.0002944593, -0.0009297584, 0.03718014, -0.9999994, 0.001034908, 44.85553
 21606354, 0.001091442, 0.0007957509, -0.003055856, 0.07482506, 0.0002730738, 0.0002554067, -0.0009953855, 0.03718014, -0.9999994, 0.0010304, 44.76286
 21806274, 0.0006393003, 0.0008982532, -0.003160861, 0.07482506, 0.0004184576, 0.0001344703, -0.001268048, 0.03718014, -0.9999994, 0.001043195, 44.76286
 22006194, 0.0009081842, 0.0004150372, -0.003289777, 0.07482506, 0.0001188373, 0.0001109267, -0.0009940723, 0.03718014, -0.9999994, 0.001064647, 44.76286
 22206114, 0.0006846373, 0.0006393505, -0.003430422, 0.07482506, 0.0003962348, 0.0002952365, -0.001245226, 0.03718014, -0.9999994, 0.001084498, 44.76286
 22406034, 0.0008464982, 0.0006822122, -0.003395627, 0.07482506, 0.0003985669, 0.0006236103, -0.001374392, 0.03718014, -0.9999993, 0.001234958, 44.76286
 22605954, 0.0008969044, 0.001167585, -0.003616513, 0.07482506, 0.0003107573, 0.0004331303, -0.001035013, 0.03718014, -0.999999, 0.001411826, 44.76286
 22805874, 0.001132769, 0.0009406514, -0.003263367, 0.07483016, 0.0006161331, -2.714239E-05, -0.001226807, 0.03719873, -0.9999987, 0.001578321, 44.7665
 23005794, 0.001259226, 0.0008158198, -0.003750171, 0.07486238, 0.0002972364, 0.0002877461, -0.001267468, 0.03719873, -0.9999985, 0.001740003, 44.78527
 23206547, 0.001231001, 0.001136617, -0.003460628, 0.07501738, 0.0005485328, 0.0004268112, -0.001047561, 0.03735372, -0.9999982, 0.001898324, 44.87799
 23406467, 0.001353205, 0.00118778, -0.003133287, 0.07501738, 0.0004140197, 0.0004026853, -0.001265858, 0.03719873, -0.9999979, 0.002051211, 44.87799
 23606387, 0.001211423, 0.001188901, -0.003424929, 0.07486238, 0.0003739243, 0.0002337309, -0.001211801, 0.03719873, -0.9999975, 0.002200506, 44.78527
 23806307, 0.001348806, 0.001165401, -0.003293114, 0.07485729, 0.0005449325, 0.0005789797, -0.0009987805, 0.03718014, -0.9999971, 0.002344612, 44.78163
 24006227, 0.001749014, 0.001765831, -0.003176726, 0.07482506, 0.0007314585, 0.0006929277, -0.001421693, 0.03718014, -0.9999968, 0.002485682, 44.76286
 24206147, 0.001910331, 0.001621041, -0.003454697, 0.07482506, 0.0006289539, 0.0006976875, -0.001102341, 0.03718014, -0.9999964, 0.002622162, 44.76286
 24406067, 0.001941172, 0.001951155, -0.003325575, 0.07482506, 0.0007505413, 0.0005312011, -0.001112853, 0.03718014, -0.9999961, 0.002755101, 44.76286
 24605987, 0.001890208, 0.001879004, -0.003366481, 0.07482506, 0.0006227909, 0.0006891293, -0.001331979, 0.03718014, -0.9999957, 0.002885166, 44.76286
 24805907, 0.00210806, 0.002114644, -0.003491402, 0.07482993, 0.0009597098, 0.001093612, -0.001195607, 0.03719873, -0.9999954, 0.003010515, 44.76622
 25005827, 0.002311019, 0.002825289, -0.003422586, 0.07486238, 0.000487603, 0.000993839, -0.001085533, 0.03719873, -0.9999949, 0.003132134, 44.78527
 25206580, 0.00229338, 0.002682156, -0.003267018, 0.07501738, 0.0009539665, 0.0008324853, -0.001070267, 0.03735372, -0.9999945, 0.003251898, 44.87799
 25406500, 0.002841891, 0.002416638, -0.003098009, 0.07501738, 0.0009967816, 0.0008925173, -0.001035539, 0.03719873, -0.999994, 0.003367764, 44.87799
 25606420, 0.002726467, 0.002699099, -0.00332254, 0.07486238, 0.000835434, 0.001151515, -0.001359099, 0.03719873, -0.9999937, 0.003480702, 44.78527
 25806340, 0.00245925, 0.003151918, -0.003575478, 0.07485752, 0.0006899321, 0.0009993239, -0.001041915, 0.03718014, -0.9999932, 0.003591821, 44.78191
 26006260, 0.002560616, 0.002759136, -0.003344081, 0.07482506, 0.001023843, 0.001027491, -0.001014755, 0.03718014, -0.9999928, 0.003699531, 44.76286
 26206180, 0.002962223, 0.003011181, -0.003262156, 0.07482506, 0.001356252, 0.001003051, -0.001298562, 0.03718014, -0.9999924, 0.003805691, 44.76286
 26406100, 0.003405347, 0.002933331, -0.003414768, 0.07482506, 0.001079948, 0.001544032, -0.0009293748, 0.03718014, -0.999992, 0.003907113, 44.76286
 26606020, 0.003208686, 0.003593907, -0.003147992, 0.07482506, 0.001023283, 0.001140959, -0.0009425778, 0.03718014, -0.9999915, 0.004005509, 44.76286
 26805940, 0.003301403, 0.003178865, -0.003162282, 0.07482506, 0.00130286, 0.001286117, -0.001116092, 0.03718014, -0.9999911, 0.004102323, 44.76286
 27005860, 0.003648689, 0.00331713, -0.003298784, 0.07482506, 0.001198897, 0.001238129, -0.001256579, 0.03718014, -0.9999907, 0.004195607, 44.76286
 27205780, 0.003316596, 0.003376144, -0.003577089, 0.07482506, 0.0009917096, 0.0007429228, -0.001435205, 0.03718014, -0.9999903, 0.004287201, 44.76286
 27406533, 0.003214094, 0.00303135, -0.003601426, 0.07497998, 0.001364323, 0.001161871, -0.001028894, 0.03733505, -0.9999899, 0.004377496, 44.85553
 27606453, 0.003640375, 0.00365066, -0.003077049, 0.07497998, 0.001508218, 0.001782124, -0.000938761, 0.03718014, -0.9999895, 0.004451531, 44.85553
 27806373, 0.003904354, 0.00426848, -0.003100912, 0.07482993, 0.00114629, 0.001358045, -0.001262257, 0.03719873, -0.9999893, 0.004496306, 44.76622
 28006293, 0.003512416, 0.003790343, -0.003458973, 0.07486238, 0.001262052, 0.001324168, -0.00117287, 0.03719873, -0.999989, 0.004540484, 44.78527
 28206213, 0.003707639, 0.003847867, -0.003293725, 0.07486238, 0.001357333, 0.001214295, -0.001236925, 0.03719873, -0.9999889, 0.004582964, 44.78527
 28406133, 0.003840295, 0.003515485, -0.003650244, 0.07486238, 0.001277993, 0.001269234, -0.001019542, 0.03719873, -0.9999887, 0.004625014, 44.78527
 28606053, 0.004021712, 0.003717058, -0.003300325, 0.07486238, 0.001189507, 0.001488252, -0.001224028, 0.03719873, -0.9999884, 0.004665831, 44.78527
 28805973, 0.003687998, 0.004164292, -0.003452282, 0.07485775, 0.001086251, 0.001371127, -0.001282616, 0.03718014, -0.9999882, 0.00470569, 44.78219
 29005893, 0.003786523, 0.004111934, -0.003503424, 0.07482506, 0.001411496, 0.001433749, -0.0009694012, 0.03718014, -0.9999881, 0.004744266, 44.76286
 29205813, 0.003964526, 0.00417268, -0.003150451, 0.07482506, 0.001269278, 0.001168906, -0.001196673, 0.03718014, -0.9999878, 0.004782503, 44.76286
 29406566, 0.003950536, 0.004090013, -0.003479297, 0.07497998, 0.001767588, 0.001303087, -0.001224681, 0.03733505, -0.9999876, 0.004820935, 44.85553
 29606486, 0.0045065, 0.0039969, -0.003316446, 0.07497998, 0.001398316, 0.001628339, -0.0009627459, 0.03718014, -0.9999874, 0.004858292, 44.85553
 29806406, 0.003996258, 0.004493108, -0.003037596, 0.0748297, 0.001654394, 0.001535408, -0.001073501, 0.03719873, -0.9999872, 0.00489459, 44.76594
 30006326, 0.004405144, 0.004284069, -0.003057385, 0.07486238, 0.001522643, 0.001619855, -0.001329098, 0.03719873, -0.999987, 0.004929656, 44.78527
 30206246, 0.004292539, 0.004338574, -0.003614767, 0.07486238, 0.001552017, 0.001738226, -0.001110432, 0.03719873, -0.9999869, 0.00496432, 44.78527
 30406166, 0.004405674, 0.004692636, -0.003327721, 0.07486238, 0.001587222, 0.001454732, -0.001561946, 0.03719873, -0.9999866, 0.004997834, 44.78527
 30606086, 0.004657156, 0.004487249, -0.00377458, 0.07486238, 0.001776609, 0.001612222, -0.001038642, 0.03719873, -0.9999864, 0.005031646, 44.78527
 30806006, 0.004366802, 0.004472852, -0.003144986, 0.07486238, 0.001357292, 0.001759054, -0.0009893237, 0.03719873, -0.9999863, 0.005063492, 44.78527
 31005926, 0.004125135, 0.004401491, -0.003465316, 0.07486238, 0.001552161, 0.001365494, -0.001412889, 0.03719873, -0.9999861, 0.005094615, 44.78527
 31205846, 0.004551229, 0.004367311, -0.003694602, 0.07486238, 0.001614921, 0.001737587, -0.001119876, 0.03719873, -0.9999859, 0.005124961, 44.78527
 31405766, 0.004684448, 0.0049183, -0.003481862, 0.07486238, 0.00178267, 0.001424719, -0.001554394, 0.03719873, -0.9999857, 0.005154498, 44.78527
 31606519, 0.004996323, 0.004453631, -0.003802263, 0.07501738, 0.001572461, 0.001672673, -0.001385322, 0.03735372, -0.9999855, 0.005183392, 44.87799
 31806439, 0.004783501, 0.004650986, -0.003537686, 0.07501738, 0.001691149, 0.001744577, -0.001229628, 0.03719873, -0.9999853, 0.005212686, 44.87799
 32006359, 0.004707009, 0.004997982, -0.00325503, 0.07486238, 0.001761263, 0.001644485, -0.001062498, 0.03719873, -0.9999852, 0.005241571, 44.78527
 32206279, 0.004830976, 0.004692158, -0.003257508, 0.07486238, 0.001616583, 0.001475616, -0.001583144, 0.03719873, -0.999985, 0.005269127, 44.78527
 32406199, 0.00492879, 0.004643495, -0.003982353, 0.07486238, 0.00160974, 0.0020333, -0.001327686, 0.03719873, -0.9999849, 0.005296528, 44.78527
 32606119, 0.004857377, 0.005394419, -0.003627018, 0.07486238, 0.001931155, 0.001815194, -0.0009198, 0.03719873, -0.9999847, 0.00532218, 44.78527
 32806039, 0.005296141, 0.005007105, -0.003170318, 0.07486238, 0.001929573, 0.001762273, -0.001463481, 0.03719873, -0.9999849, 0.005277782, 44.78527
 33005959, 0.005287717, 0.004958045, -0.003415013, 0.07486238, 0.001845207, 0.001580064, -0.0007972936, 0.03719873, -0.9999851, 0.005234092, 44.78527
 33205879, 0.005063602, 0.00491869, -0.002821246, 0.07486238, 0.00183856, 0.001769082, -0.001183674, 0.03719873, -0.9999853, 0.005191574, 44.78527
 33405799, 0.005054161, 0.005252012, -0.002991384, 0.07486238, 0.001780248, 0.002057219, -0.0008620009, 0.03719873, -0.9999856, 0.005149475, 44.78527
 33606552, 0.004898524, 0.005669317, -0.003262918, 0.07501738, 0.001531935, 0.001628786, -0.001281012, 0.03735372, -0.9999857, 0.005109257, 44.87799
 33806472, 0.00484586, 0.005097017, -0.003678094, 0.07501738, 0.001987397, 0.001829422, -0.001376328, 0.03719873, -0.9999859, 0.005070617, 44.87799
 34006392, 0.005247286, 0.005110423, -0.003532662, 0.07486238, 0.001570316, 0.001686848, -0.001066357, 0.03719873, -0.9999862, 0.00503276, 44.78527
 34206312, 0.004972298, 0.00517715, -0.003228451, 0.07486238, 0.001708328, 0.00192283, -0.00121722, 0.03719873, -0.9999863, 0.004996405, 44.78527
 34406232, 0.004832661, 0.005254977, -0.003476705, 0.07486238, 0.001904949, 0.001848355, -0.00124432, 0.03719873, -0.9999864, 0.004960949, 44.78527
 34606152, 0.00517008, 0.00542637, -0.003433374, 0.07486238, 0.001714216, 0.001936728, -0.001528932, 0.03719873, -0.9999865, 0.004926176, 44.78527
 34806072, 0.004854308, 0.005356348, -0.003541694, 0.07486238, 0.001601722, 0.002066075, -0.001251716, 0.03719873, -0.9999868, 0.004891649, 44.78527
 35005992, 0.004837785, 0.005362304, -0.003682242, 0.07486238, 0.001899134, 0.00177844, -0.00152582, 0.03719873, -0.9999869, 0.004859062, 44.78527
 35205912, 0.005143307, 0.005337016, -0.003974258, 0.07486238, 0.001793918, 0.001845874, -0.00147353, 0.03719873, -0.9999871, 0.004827206, 44.78527
 35405832, 0.005401934, 0.005313269, -0.003599822, 0.07486238, 0.001996068, 0.00177988, -0.0008675359, 0.03719873, -0.9999871, 0.004795741, 44.78527
 35606585, 0.005268024, 0.005383687, -0.002895364, 0.07501738, 0.002149032, 0.002110294, -0.0008353845, 0.03735372, -0.9999874, 0.004765944, 44.87799
 35806505, 0.005452667, 0.005541282, -0.003280144, 0.07501738, 0.001947428, 0.002029216, -0.001229627, 0.03719873, -0.9999874, 0.004737791, 44.87799
 36006425, 0.005305833, 0.005515628, -0.003427805, 0.07486238, 0.001795374, 0.001620748, -0.001197804, 0.03719873, -0.9999875, 0.004710636, 44.78527
 36206345, 0.005057014, 0.005178645, -0.003274597, 0.07486238, 0.001649406, 0.001831581, -0.001173537, 0.03719873, -0.9999876, 0.004684031, 44.78527
 36406265, 0.005096412, 0.005419862, -0.003473196, 0.07486238, 0.002058672, 0.001959972, -0.001048181, 0.03719873, -0.9999877, 0.004657799, 44.78527
 36606185, 0.005696879, 0.005405219, -0.003152101, 0.07486238, 0.001935288, 0.002016523, -0.001179061, 0.03719873, -0.9999878, 0.004632664, 44.78527
 36806105, 0.005333437, 0.00552619, -0.003304282, 0.07486238, 0.002178532, 0.00190533, -0.001069582, 0.03719873, -0.999988, 0.004607932, 44.78527
 37006025, 0.00569819, 0.005540949, -0.003323754, 0.07486238, 0.001772767, 0.001970181, -0.001354918, 0.03719873, -0.9999881, 0.004584771, 44.78527
 37205945, 0.005093893, 0.005705282, -0.003584607, 0.07486238, 0.001518371, 0.002274352, -0.0009132509, 0.03719873, -0.9999881, 0.004561496, 44.78527
 37405865, 0.005240791, 0.005760776, -0.003228501, 0.07486238, 0.001828805, 0.001928985, -0.001259458, 0.03719873, -0.9999882, 0.004539152, 44.78527
 37605785, 0.005562043, 0.005559888, -0.003579826, 0.07486238, 0.002013711, 0.001949697, -0.001526637, 0.03719873, -0.9999883, 0.004515577, 44.78527
 37806538, 0.005616437, 0.005729297, -0.003682818, 0.07501738, 0.002007999, 0.001831186, -0.0009965942, 0.03735372, -0.9999887, 0.00443883, 44.87799
 38006458, 0.005520661, 0.005558122, -0.002971388, 0.07501738, 0.001956905, 0.001733344, -0.0007776546, 0.03719873, -0.999989, 0.00434561, 44.87799
 38206378, 0.005622642, 0.005310741, -0.003272062, 0.07486238, 0.001810777, 0.001378837, -0.001768134, 0.03719873, -0.9999895, 0.004255718, 44.78527
 38406298, 0.005270561, 0.005021372, -0.00393424, 0.07486238, 0.00187301, 0.001909674, -0.001337976, 0.03719873, -0.9999899, 0.004167347, 44.78527
 38606218, 0.005481398, 0.005526864, -0.003477343, 0.07486238, 0.002138376, 0.002218993, -0.001072882, 0.03719873, -0.9999902, 0.004080882, 44.78527
 38806138, 0.005636603, 0.005946212, -0.003213355, 0.07486238, 0.002067724, 0.001993507, -0.0007001436, 0.03719873, -0.9999905, 0.003997107, 44.78527
 39006058, 0.005815659, 0.005634934, -0.002780077, 0.07486238, 0.00223711, 0.001861284, -0.001303966, 0.03719873, -0.9999908, 0.003915749, 44.78527
 39205978, 0.005972599, 0.005563149, -0.003538229, 0.07486238, 0.00203471, 0.001872212, -0.001346496, 0.03719873, -0.9999912, 0.003837194, 44.78527
 39405898, 0.005686328, 0.005395003, -0.003611893, 0.07486238, 0.00207556, 0.001976935, -0.001019615, 0.03719873, -0.9999914, 0.003760478, 44.78527
 39605818, 0.005651971, 0.005386281, -0.003110904, 0.07486238, 0.001846835, 0.001666485, -0.001047134, 0.03719873, -0.9999917, 0.003685656, 44.78527
 39806571, 0.005431452, 0.005392849, -0.003215806, 0.07501738, 0.001904547, 0.002078255, -0.00115471, 0.03735372, -0.9999919, 0.003612033, 44.87799
 40006491, 0.00551331, 0.005985688, -0.003223596, 0.07501738, 0.001723151, 0.002245537, -0.001124503, 0.03719873, -0.9999923, 0.003540692, 44.87799
 40206411, 0.005250174, 0.005651474, -0.00319706, 0.07486238, 0.001974113, 0.001801478, -0.0008889289, 0.03719873, -0.9999925, 0.003471629, 44.78527
 40406331, 0.005396611, 0.005445369, -0.003117501, 0.07486238, 0.001907827, 0.00223014, -0.000881318, 0.03719873, -0.9999926, 0.003404831, 44.78527
 40606251, 0.005390641, 0.006047096, -0.003030287, 0.07486238, 0.001947546, 0.002181546, -0.00123199, 0.03719873, -0.9999928, 0.003340154, 44.78527
 40806171, 0.005438085, 0.006010172, -0.003447507, 0.07486238, 0.001631526, 0.002381988, -0.001136512, 0.03719873, -0.9999931, 0.003276701, 44.78527
 41006091, 0.005167216, 0.006238367, -0.003152705, 0.07486238, 0.001906655, 0.002157094, -0.001145461, 0.03719873, -0.9999932, 0.003214435, 44.78527
 41206011, 0.005524925, 0.006013099, -0.003123923, 0.07486238, 0.001872718, 0.001948104, -0.001250146, 0.03719873, -0.9999934, 0.003154818, 44.78527
 41405931, 0.0056383, 0.005619785, -0.003518243, 0.07486238, 0.002036934, 0.001929943, -0.001173674, 0.03719873, -0.9999936, 0.00309538, 44.78527
 41605851, 0.005722166, 0.005876226, -0.003323246, 0.07486238, 0.002246165, 0.002407731, -0.001001313, 0.03719873, -0.9999938, 0.00303768, 44.78527
 41805771, 0.005926963, 0.006392526, -0.003354917, 0.07486238, 0.002173533, 0.002073298, -0.00121433, 0.03719873, -0.9999939, 0.002981717, 44.78527
 42006524, 0.0057629, 0.005853411, -0.00323033, 0.07501738, 0.00218752, 0.002166697, -0.001148803, 0.03735372, -0.999994, 0.002926397, 44.87799
 42206444, 0.006016833, 0.006256111, -0.003085725, 0.07501738, 0.00210631, 0.002019377, -0.001034926, 0.03719873, -0.9999942, 0.002873522, 44.87799
 42406364, 0.005750871, 0.005839155, -0.003204047, 0.07486238, 0.00167255, 0.002048676, -0.001323365, 0.03719873, -0.9999944, 0.002822175, 44.78527
 42606284, 0.005444201, 0.005851952, -0.003455979, 0.07486238, 0.00199154, 0.002081226, -0.001257582, 0.03719873, -0.9999945, 0.002772345, 44.78527
 42806204, 0.005607589, 0.005938114, -0.00347273, 0.07486238, 0.001482436, 0.002194893, -0.001126849, 0.03719873, -0.9999946, 0.002694574, 44.78527
 43006124, 0.004973023, 0.006307377, -0.003440469, 0.07486238, 0.001845041, 0.002555975, -0.001047265, 0.03719873, -0.999995, 0.002582505, 44.78527
 43206044, 0.005547905, 0.00640273, -0.003328218, 0.07486238, 0.001821572, 0.002183409, -0.001110898, 0.03719873, -0.9999952, 0.002474257, 44.78527
 43405964, 0.005545198, 0.006122841, -0.003337828, 0.07486238, 0.00175588, 0.002307557, -0.001142767, 0.03719873, -0.9999956, 0.002369611, 44.78527
 43605884, 0.005435176, 0.0062946, -0.003150749, 0.07486238, 0.001607315, 0.002123654, -0.0009926008, 0.03719873, -0.9999958, 0.002267695, 44.78527
 43805804, 0.005146624, 0.00583781, -0.00305634, 0.07486238, 0.002014445, 0.002020815, -0.001187849, 0.03719873, -0.9999961, 0.002169044, 44.78527
 44006557, 0.005556054, 0.006057549, -0.003309756, 0.07501738, 0.002091679, 0.001986479, -0.001229051, 0.03735372, -0.9999962, 0.00207266, 44.87799
 44206477, 0.005797395, 0.005847746, -0.003437595, 0.07501738, 0.002134552, 0.002103863, -0.0009686968, 0.03719873, -0.9999964, 0.001979789, 44.87799
 44406397, 0.005929573, 0.005650812, -0.003047789, 0.07486238, 0.002301839, 0.001809957, -0.0007556157, 0.03719873, -0.9999967, 0.001890212, 44.78527
 44606317, 0.005930385, 0.005377252, -0.003018196, 0.07486238, 0.00219803, 0.002199237, -0.001527139, 0.03719873, -0.9999968, 0.001802349, 44.78527
 44806237, 0.005743217, 0.005689368, -0.003570104, 0.07486238, 0.001822015, 0.001918135, -0.001142897, 0.03719873, -0.9999969, 0.001717259, 44.78527
 45006157, 0.005204123, 0.005618559, -0.003314437, 0.07486238, 0.001680572, 0.002136318, -0.001309586, 0.03719873, -0.999997, 0.001634435, 44.78527
 45206077, 0.005299447, 0.005718119, -0.003253928, 0.07486238, 0.002149877, 0.00209766, -0.000806649, 0.03719873, -0.9999973, 0.00155381, 44.78527
 45405997, 0.005894709, 0.005870847, -0.00301606, 0.07486238, 0.001997611, 0.002044513, -0.001050881, 0.03719873, -0.9999974, 0.001475378, 44.78527
 45605917, 0.005275979, 0.005934557, -0.003146166, 0.07486238, 0.001740211, 0.002222315, -0.001525148, 0.03719873, -0.9999974, 0.001399156, 44.78527
 45805837, 0.00538902, 0.005884876, -0.003694011, 0.07486238, 0.002226473, 0.001898546, -0.001206984, 0.03719873, -0.9999975, 0.00132432, 44.78527
 46006590, 0.005936929, 0.005630109, -0.003412959, 0.07501738, 0.002001224, 0.002190081, -0.001220971, 0.03735372, -0.9999976, 0.001251193, 44.87799
 46206510, 0.005657025, 0.006068585, -0.003466414, 0.07501738, 0.001877964, 0.001813635, -0.001252001, 0.03719873, -0.9999976, 0.001181008, 44.87799
 46406430, 0.005479118, 0.005543123, -0.03588873, 0.07486238, 0.001949758, 0.002166044, -0.07848866, 0.03719873, -0.9999977, 0.001112866, 44.78527
 46606350, 0.007070521, 0.007210091, -0.730864, 0.07486238, 0.002253238, 0.002363161, -0.2003355, 0.03719873, -0.9999979, 0.001046001, 44.78527
 46806270, 0.006496969, 0.006083066, -1.158146, 0.07486238, 0.00199362, 0.001485377, -0.9180698, 0.03719873, -0.9999995, 0.0009497282, 44.78527
 47006190, 0.002631482, 0.001453401, -2.401124, 0.07486238, -0.0006883127, -0.0007639343, -0.6314586, 0.03719873, -0.9999993, 0.000818888, 44.78527
 47206110, -0.003443954, -0.003503678, -1.447984, 0.07486238, -0.001724468, -0.001944523, -0.373285, 0.03719873, -0.999999, 0.0006837811, 44.78527
 47406030, -0.004261191, -0.0046311, -1.049105, 0.07486238, -0.001312571, -0.001318985, -0.3699152, 0.03719873, -0.999999, 0.0005579213, 44.78527
 47605950, -0.002880921, -0.003940802, -1.021685, 0.07486238, -0.0006434647, -0.001408103, -0.3355703, 0.03719873, -0.9999991, 0.0004247261, 44.78527
 47805870, -0.001507143, -0.002912654, -0.8867861, 0.07486238, -0.000265077, -0.0004229636, -0.2757953, 0.03719873, -0.9999996, 0.0002666289, 44.78527
 48005790, 4.070251E-05, -0.0004138629, -0.7307798, 0.07486238, 0.0004161276, -1.468498E-06, -0.2295036, 0.03719873, -0.9999999, 7.616921E-05, 44.78527
 48206543, 0.001929932, 0.001426704, -0.6134523, 0.07501738, 0.0007548695, 0.001224362, -0.1940299, 0.03735372, -1, 0.0001094363, 44.87799
 48406463, 0.00223684, 0.003529467, -0.5113268, 0.07501738, 0.0009044973, 0.001073462, -0.1588017, 0.03719873, -0.9999998, 0.0006391882, 44.87799
 48606383, 0.003052679, 0.004090667, -0.4195714, 0.07486238, 0.001476214, 0.001650606, -0.1316073, 0.03719873, -0.9999993, 0.001172715, 44.78527
 48806303, 0.004030695, 0.00490435, -0.346866, 0.07486238, 0.001399936, 0.001890819, -0.1074722, 0.03719873, -0.9999994, 0.001105687, 44.78527
 49006223, 0.004678042, 0.004992068, -0.2819806, 0.07486238, 0.001875533, 0.001893363, -0.08655759, 0.03719873, -0.9999999, 0.0004620065, 44.78527
 49206143, 0.005113162, 0.005722255, -0.2279541, 0.07486238, 0.001511924, 0.002150343, -0.07048505, 0.03719873, -0.9999999, -0.0002553304, 44.78527
 49406063, 0.004133441, 0.00611173, -0.1824102, 0.07486238, 0.001390946, 0.00169251, -0.05484614, 0.03719873, -0.9999993, -0.001166621, 44.78527
 49605983, 0.003461746, 0.004835487, -0.1422327, 0.07486238, 0.00065013, 0.001777566, -0.04330699, 0.03719873, -0.9999979, -0.002077539, 44.78527
 49805903, 0.001439405, 0.003754326, -0.1133639, 0.07486238, -0.0001044558, 0.0006528943, -0.03482664, 0.03719873, -0.9999955, -0.002965013, 44.78527
 50005823, -0.0001400274, 0.003121909, -0.09059699, 0.07486238, 0.0002355687, 0.001617928, -0.02718293, 0.03719873, -0.9999932, -0.003695582, 44.78527
 50206576, 0.001166841, 0.004866798, -0.07159661, 0.07501738, 0.0009911456, 0.0021024, -0.02212779, 0.03735372, -0.9999931, -0.003723643, 44.87799
 50406496, 0.003919219, 0.005660959, -0.05669679, 0.07501738, 0.002079562, 0.00235821, -0.01695469, 0.03719873, -0.9999948, -0.003217246, 44.87799
 50606416, 0.006111683, 0.005624832, 0.3328457, 0.07486238, 0.002428245, 0.00134921, 0.3960733, 0.03719873, -0.9999955, -0.002984426, 44.78527
 50806336, 0.007172002, 0.004319495, 1.042071, 0.07486238, 0.002587335, 0.001807069, 0.3231699, 0.03719873, -0.9999945, -0.003328876, 44.78527
 51006256, 0.006855723, 0.004905877, 0.8563324, 0.07486238, 0.001938949, 0.001671777, 0.2684008, 0.03719873, -0.9999905, -0.004357143, 44.78527
 51206176, 0.01427193, 0.01298418, 0.6340667, 0.07486238, 0.01266807, 0.01207388, 0.1799892, 0.03719873, -0.9999244, -0.005356909, 44.78527
 51406096, 0.04004458, 0.03895535, 0.5974433, 0.07486238, 0.01376173, 0.01383439, 0.2632962, 0.03719873, -0.9999017, -0.005936974, 44.78527
 51606016, 0.03298656, 0.03287819, 0.8671636, 0.07486238, 0.008331613, 0.007950611, 0.3745528, 0.03719873, -0.9999461, -0.006056674, 44.78527
 51805936, 0.01981872, 0.01927722, 1.154215, 0.07486238, 0.005360547, 0.005447151, 0.4331449, 0.03719873, -0.9999648, -0.005950064, 44.78527
 52005856, 0.01411191, 0.0134971, 1.207478, 0.07486238, 0.004353099, 0.003815273, 0.4079881, 0.03719873, -0.9999729, -0.005874193, 44.78527
 52205776, 0.01092391, 0.01009602, 1.106822, 0.07486238, 0.003287374, 0.00317751, 0.3586842, 0.03719873, -0.9999774, -0.005936037, 44.78527
 52406529, 0.008316815, 0.007682642, 0.9598917, 0.07501738, 0.002570767, 0.002119896, 0.3028859, 0.03735372, -0.9999782, -0.006280074, 44.87799
 52606449, 0.006800646, 0.005357861, 0.7894878, 0.07501738, 0.002387732, 0.001537379, 0.232464, 0.03719873, -0.9999766, -0.006727506, 44.87799
 52806369, 0.009523092, 0.004069322, 0.5410103, 0.07486238, 0.004556831, 0.001196623, 0.1312039, 0.03719873, -0.9999744, -0.007131329, 44.78527
 53006289, 0.0140303, 0.002385319, 0.3277321, 0.07486238, 0.005267139, 0.0005981374, 0.09338939, 0.03719873, -0.9999719, -0.007497248, 44.78527
 53206209, 0.01523249, 0.00111868, 0.2444432, 0.07486238, 0.005245588, 0.0002694311, 0.07615989, 0.03719873, -0.9999698, -0.007770387, 44.78527
 53406129, 0.01446329, 0.0001895674, 0.2091079, 0.07486238, 0.004757483, -0.0002823253, 0.07029978, 0.03719873, -0.9999691, -0.007858694, 44.78527
 53606049, 0.01263735, -0.0001723133, 0.2003405, 0.07486238, 0.003721609, 0.0002790674, 0.07287715, 0.03719873, -0.9999692, -0.007851653, 44.78527
 53805969, 0.009098582, 0.001741443, 0.2108316, 0.07486238, 0.002486018, 0.0009565815, 0.07692529, 0.03719873, -0.9999679, -0.00800998, 44.78527
 54005889, 0.0061715, 0.002475622, 0.2260853, 0.07486238, 0.002081185, 0.0009839989, 0.08374301, 0.03719873, -0.9999651, -0.008350208, 44.78527
 54205809, 0.004568914, 0.002561372, 0.2447985, 0.07486238, 0.0006450869, 0.0009882407, 0.0898314, 0.03719873, -0.9999617, -0.008730531, 44.78527
 54406562, 0.002139491, 0.003193526, 0.2618793, 0.07501738, 0.001021768, 0.001182774, 0.09583515, 0.03735372, -0.999959, -0.009038353, 44.87799
 54606482, 0.001381935, 0.003367412, 0.2745103, 0.07501738, -0.0001393349, 0.0009509243, 0.09803382, 0.03719873, -0.9999571, -0.009238037, 44.87799
 54806402, -0.001330154, 0.003520798, 0.2745371, 0.07486238, -0.001281605, 0.001794795, 0.08491716, 0.03719873, -0.9999565, -0.009296599, 44.78527
 55006322, -0.003757285, 0.004117107, 0.1825616, 0.07486238, -0.001300012, 0.001149764, 0.03472405, 0.03719873, -0.999957, -0.009251853, 44.78527
 55206242, -0.004282279, 0.00309991, 0.06181969, 0.07486238, -0.002042669, 0.0010274, 0.003469401, 0.03719873, -0.9999574, -0.009212474, 44.78527
 55406162, -0.005372142, 0.002952072, -0.008918618, 0.07486238, -0.00160616, 0.001110342, -0.01187145, 0.03719873, -0.9999572, -0.009244542, 44.78527
 55606082, -0.004958315, 0.002676388, -0.04354743, 0.07486238, -0.001665328, 0.0008503351, -0.0195759, 0.03719873, -0.9999556, -0.00941901, 44.78527
 55806002, -0.005221445, 0.002852874, -0.05744462, 0.07486238, -0.001972273, 0.001370449, -0.02049469, 0.03719873, -0.9999526, -0.009722364, 44.78527
 56005922, -0.005847695, 0.004131199, -0.05628948, 0.07486238, -0.001904013, 0.001672519, -0.01811686, 0.03719873, -0.9999486, -0.01007365, 44.78527
 56205842, -0.004894604, 0.005287842, -0.04843256, 0.07486238, -0.001589064, 0.001748358, -0.01523597, 0.03719873, -0.9999448, -0.01043774, 44.78527
 56405762, -0.003769543, 0.005719223, -0.0390777, 0.07486238, -0.001095737, 0.002721867, -0.01072491, 0.03719873, -0.9999401, -0.01079676, 44.78527
 56606515, -0.002156036, 0.008177029, -0.02893195, 0.07501738, -0.0004461829, 0.003275006, -0.008208797, 0.03735372, -0.9999344, -0.01125482, 44.87799
 56806435, -0.001224711, 0.008358761, -0.02123789, 0.07501738, -0.0004219032, 0.002401332, -0.006421536, 0.03719873, -0.9999299, -0.01169126, 44.87799
 57006355, -0.001315185, 0.007037218, -0.01604118, 0.07486238, -0.0003921715, 0.002785629, -0.004568677, 0.03719873, -0.9999242, -0.01211531, 44.78527
 57206275, 0.0001177695, 0.007636803, -0.01122982, 0.07486238, 0.0009344696, 0.002430941, -0.002686565, 0.03719873, -0.9999187, -0.01259249, 44.78527
 57406195, 0.002440083, 0.006497744, -0.008175295, 0.07486238, 0.0007568189, 0.002331877, -0.002467652, 0.03719873, -0.9999117, -0.01315704, 44.78527
 57606115, 0.002960978, 0.006240984, -0.006929155, 0.07486238, 0.001389984, 0.001945974, -0.002671622, 0.03719873, -0.9999043, -0.01370798, 44.78527
 57806035, 0.004504219, 0.006104552, -0.007071635, 0.07486238, 0.00215623, 0.002464854, -0.002248265, 0.03719873, -0.9998966, -0.01425086, 44.78527
 58005955, 0.005856329, 0.006352792, -0.006566608, 0.07486238, 0.002076254, 0.001974108, -0.00218204, 0.03719873, -0.9998891, -0.01478096, 44.78527
 58205875, 0.005224278, 0.005513668, -0.00667992, 0.07486238, 0.001342332, 0.00190632, -0.002464322, 0.03719873, -0.9998811, -0.01533219, 44.78527
 58405795, 0.004004693, 0.005334835, -0.007104033, 0.07486238, 0.001593315, 0.001895809, -0.002742021, 0.03719873, -0.9998695, -0.01608003, 44.78527
 58606548, 0.004064332, 0.00459567, -0.007078928, 0.07501738, 0.001281899, 0.001221413, -0.002308136, 0.03735372, -0.9998606, -0.01664063, 44.87799
 58806468, 0.004254208, 0.003878542, -0.004955615, 0.07501738, 0.001840086, 0.001764821, -0.001018672, 0.03719873, -0.9998527, -0.0170891, 44.87799
 59006388, 0.005689994, 0.005048949, -0.002821266, 0.07486238, 0.002186463, 0.002065432, -0.001085558, 0.03719873, -0.9998462, -0.01745562, 44.78527
 59206308, 0.006626617, 0.004997083, -0.003327008, 0.07486238, 0.002833966, 0.001513286, -0.001349573, 0.03719873, -0.9998351, -0.0181039, 44.78527
 59406228, 0.007654442, 0.003938763, -0.004206234, 0.07486238, 0.002608546, 0.001485742, -0.00123701, 0.03719873, -0.999827, -0.01855561, 44.78527
 59606148, 0.006996117, 0.003998879, -0.004599894, 0.07486238, 0.002383615, 0.001376692, -0.001921349, 0.03719873, -0.9998198, -0.01892947, 44.78527
 59806068, 0.007270305, 0.004085072, -0.005543701, 0.07486238, 0.002663862, 0.001209175, -0.002126775, 0.03719873, -0.999812, -0.01933169, 44.78527
 60005988, 0.007426637, 0.003922453, -0.005504105, 0.07486238, 0.002593546, 0.001761523, -0.001910848, 0.03719873, -0.9998037, -0.01975135, 44.78527
 60205908, 0.006522115, 0.004731314, -0.005256601, 0.07486238, 0.00195237, 0.001662889, -0.001760011, 0.03719873, -0.9997953, -0.02017204, 44.78527
 60405828, 0.005592764, 0.004483112, -0.005075288, 0.07486238, 0.001486083, 0.001310985, -0.001546129, 0.03719873, -0.9997867, -0.02058809, 44.78527
 60606581, 0.004262397, 0.004568514, -0.005069359, 0.07501738, 0.001482358, 0.00153623, -0.001523626, 0.03735372, -0.9997791, -0.02095408, 44.87799
 60806501, 0.003907836, 0.004244015, -0.004837356, 0.07501738, 0.001565317, 0.001123698, -0.001712872, 0.03719873, -0.9997737, -0.02123473, 44.87799
 61006421, 0.004541923, 0.002852188, -0.00492254, 0.07486238, 0.0009422174, 0.0006950971, -0.001378172, 0.03719873, -0.9997705, -0.02140935, 44.78527
 61206341, 0.004088147, 0.00200729, -0.004492297, 0.07486238, 0.001940893, 0.0006994816, -0.001395657, 0.03719873, -0.999768, -0.02152286, 44.78527
 61406261, 0.005835265, 0.002307538, -0.003695868, 0.07486238, 0.002328654, 0.0008546702, -0.001901741, 0.03719873, -0.9997729, -0.02128804, 44.78527
 61606181, 0.006578902, 0.003078762, -0.00431051, 0.07486238, 0.002567049, 0.001361789, -0.001033945, 0.03719873, -0.9997773, -0.0210587, 44.78527
 61806101, 0.007039642, 0.003944645, -0.003267238, 0.07486238, 0.002495654, 0.001816493, -0.001257025, 0.03719873, -0.9997748, -0.02118504, 44.78527
 62006021, 0.006601708, 0.004079803, -0.002900153, 0.07486238, 0.002473185, 0.001382229, -0.0009004613, 0.03719873, -0.9997775, -0.02105274, 44.78527
 62205941, 0.005937577, 0.003515155, -0.002940708, 0.07486238, 0.001584596, 0.001501346, -0.000892599, 0.03719873, -0.9997761, -0.02112857, 44.78527
 62405861, 0.005065111, 0.003314959, -0.002704809, 0.07486238, 0.001688605, 0.000531553, -0.001321858, 0.03719873, -0.9997692, -0.02146673, 44.78527
 62605781, 0.00483752, 0.002492493, -0.003112071, 0.07486238, 0.001578751, 0.001341213, -0.0004983743, 0.03719873, -0.9997702, -0.02140477, 44.78527
 62806534, 0.005002389, 0.003762758, -0.002639549, 0.07501738, 0.001821675, 0.001788427, -0.001595168, 0.03735372, -0.9997729, -0.02128296, 44.87799
 63006454, 0.005093449, 0.003915666, -0.003311026, 0.07501738, 0.001954365, 0.001143196, -0.001332663, 0.03719873, -0.9997705, -0.02140031, 44.87799
 63206374, 0.00546863, 0.003211943, -0.003023948, 0.07486238, 0.001758019, 0.001174653, -0.00112012, 0.03719873, -0.9997739, -0.02123479, 44.78527
 63406294, 0.005225812, 0.003346029, -0.00282805, 0.07486238, 0.001581229, 0.001325476, -0.001919702, 0.03719873, -0.9997751, -0.02117634, 44.78527
 63606214, 0.004834988, 0.003847533, -0.003534875, 0.07486238, 0.001887552, 0.001573838, -0.001673981, 0.03719873, -0.999773, -0.02127552, 44.78527
 63806134, 0.005064413, 0.004120881, -0.003224834, 0.07486238, 0.001597524, 0.001578686, -0.0008969008, 0.03719873, -0.9997727, -0.02127887, 44.78527
 64006054, 0.004808574, 0.004669541, -0.002402182, 0.07486238, 0.002019567, 0.001589308, -0.0008296543, 0.03719873, -0.9997709, -0.02135773, 44.78527
 64205974, 0.005719148, 0.004360589, -0.002559783, 0.07486238, 0.00195861, 0.001478776, -0.0008398928, 0.03719873, -0.9997739, -0.02122403, 44.78527
 64405894, 0.006006452, 0.004113424, -0.002679513, 0.07486238, 0.00211256, 0.00128443, -0.0005874893, 0.03719873, -0.9997763, -0.02111859, 44.78527
 64605814, 0.005407387, 0.003732886, -0.002132668, 0.07486238, 0.001358322, 0.001167316, -0.00092368, 0.03719873, -0.999782, -0.02085045, 44.78527
 64806567, 0.004254925, 0.003751005, -0.002601475, 0.07501738, 0.001374393, 0.001390727, -0.000208938, 0.03735372, -0.9997876, -0.02056364, 44.87799
 65006487, 0.004553855, 0.004606818, -0.001595035, 0.07501738, 0.001656679, 0.001922723, -0.0007603654, 0.03719873, -0.9997824, -0.02079962, 44.87799
 65206407, 0.004835209, 0.005248218, -0.002298178, 0.07486238, 0.002133777, 0.001719027, -0.0004588997, 0.03719873, -0.9997804, -0.02090688, 44.78527
 65406327, 0.006137806, 0.004574439, -0.002237036, 0.07486238, 0.002188321, 0.001743173, -0.0009044235, 0.03719873, -0.9997825, -0.0208197, 44.78527
 65606247, 0.005723765, 0.004512692, -0.002241645, 0.07486238, 0.001849842, 0.00142157, -0.0005280992, 0.03719873, -0.9997846, -0.02071548, 44.78527
 65806167, 0.005270054, 0.004008211, -0.002002255, 0.07486238, 0.00217486, 0.001532323, -0.0005620281, 0.03719873, -0.9997857, -0.02064936, 44.78527
 66006087, 0.005742592, 0.004659258, -0.002204316, 0.07486238, 0.002070332, 0.00189037, -0.001666131, 0.03719873, -0.9997857, -0.02065201, 44.78527
 66206007, 0.005422063, 0.005204324, -0.003095078, 0.07486238, 0.001749472, 0.001747537, -0.001473172, 0.03719873, -0.9997882, -0.02052818, 44.78527
 66405927, 0.004909399, 0.005030646, -0.002690478, 0.07486238, 0.001806368, 0.001734307, -0.0006066053, 0.03719873, -0.9997897, -0.02044978, 44.78527
 66605847, 0.004567579, 0.005090622, -0.001898495, 0.07486238, 0.001539284, 0.001852231, -0.0006128565, 0.03719873, -0.999786, -0.02062646, 44.78527
 66805767, 0.00458854, 0.005313839, -0.002160802, 0.07486238, 0.001770522, 0.001982483, -0.0005455313, 0.03719873, -0.9997849, -0.02068285, 44.78527
 67006520, 0.004776462, 0.005361729, -0.001825548, 0.07501738, 0.001823275, 0.001442123, -0.0004135821, 0.03735372, -0.9997881, -0.02052119, 44.87799
 67206440, 0.004377608, 0.004992283, -0.001955209, 0.07501738, 0.001218914, 0.002087296, -0.0006537241, 0.03719873, -0.99979, -0.02042374, 44.87799
 67406360, 0.003849238, 0.005664887, -0.002294599, 0.07486238, 0.001292639, 0.001644818, -0.0008392181, 0.03719873, -0.9997891, -0.02047227, 44.78527
 67606280, 0.004059645, 0.005241387, -0.002509461, 0.07486238, 0.001526395, 0.001976022, -0.0008538822, 0.03719873, -0.9997879, -0.02052781, 44.78527
 67806200, 0.004367965, 0.005376876, -0.002227107, 0.07486238, 0.001472878, 0.001469451, -0.000622542, 0.03719873, -0.9997888, -0.02048554, 44.78527
 68006120, 0.004438258, 0.004730046, -0.002113914, 0.07486238, 0.001683968, 0.001675729, -0.0007403702, 0.03719873, -0.9997903, -0.02041899, 44.78527
 68206040, 0.004438652, 0.004983053, -0.002492523, 0.07486238, 0.001975151, 0.00191399, -0.0006628651, 0.03719873, -0.9997903, -0.02041815, 44.78527
 68405960, 0.005281533, 0.005192562, -0.002303491, 0.07486238, 0.001893283, 0.001756002, -0.0004770349, 0.03719873, -0.99979, -0.02043432, 44.78527
 68605880, 0.004942494, 0.004940317, -0.002242575, 0.07486238, 0.001623134, 0.00133606, -0.001017632, 0.03719873, -0.9997893, -0.02047991, 44.78527
 68805800, 0.004455757, 0.003996127, -0.002795661, 0.07486238, 0.001807978, 0.001407052, -0.0004175446, 0.03719873, -0.9997903, -0.02042949, 44.78527
 69006553, 0.004807541, 0.004797782, -0.002179436, 0.07501738, 0.001703161, 0.001840686, -0.0009214715, 0.03735372, -0.9997915, -0.02036373, 44.87799
 69206473, 0.00454769, 0.005265219, -0.002717705, 0.07501738, 0.001644384, 0.001888031, -0.0006183808, 0.03719873, -0.9997926, -0.02030144, 44.87799
 69406393, 0.004676778, 0.005554205, -0.002079346, 0.07486238, 0.001789463, 0.001960383, -0.000704618, 0.03719873, -0.9997918, -0.02032889, 44.78527
 69606313, 0.004486733, 0.005502175, -0.002165641, 0.07486238, 0.001412036, 0.001793039, -0.001074834, 0.03719873, -0.9997913, -0.02036421, 44.78527
 69806233, 0.004274716, 0.005148721, -0.00241188, 0.07486238, 0.001643693, 0.001999109, -0.0004483921, 0.03719873, -0.9997904, -0.020405, 44.78527
 70006153, 0.004803371, 0.005673708, -0.002164892, 0.07486238, 0.001742795, 0.001964092, -0.00119314, 0.03719873, -0.9997901, -0.0204108, 44.78527
 70206073, 0.005222152, 0.005914393, -0.002643733, 0.07486238, 0.001938753, 0.002049078, -0.0007131072, 0.03719873, -0.9997911, -0.02036435, 44.78527
 70405993, 0.005299823, 0.005664469, -0.002183748, 0.07486238, 0.001785946, 0.001987286, -0.001246808, 0.03719873, -0.999792, -0.02031954, 44.78527
 70605913, 0.005402642, 0.00554473, -0.003001122, 0.07486238, 0.001918275, 0.002030581, -0.0008978589, 0.03719873, -0.9997929, -0.02028731, 44.78527
 70805833, 0.006024808, 0.005072294, -0.002883615, 0.07486238, 0.002288477, 0.001572985, -0.0007552117, 0.03719873, -0.9997928, -0.02030146, 44.78527
 71006586, 0.006754466, 0.004630246, -0.002708882, 0.07501738, 0.002675946, 0.001718464, -0.0009654311, 0.03735372, -0.9997925, -0.02030676, 44.87799
 71206506, 0.007054453, 0.004921991, -0.002890592, 0.07501738, 0.002272423, 0.001648481, -0.001323225, 0.03719873, -0.9997938, -0.02024294, 44.87799
 71406426, 0.006653265, 0.004923278, -0.002820659, 0.07486238, 0.002293872, 0.001466457, -0.0007265318, 0.03719873, -0.9997953, -0.02016375, 44.78527
 71606346, 0.006251137, 0.005070058, -0.002344387, 0.07486238, 0.001870962, 0.002170246, -0.0007381406, 0.03719873, -0.999797, -0.02007329, 44.78527
 71806266, 0.004828111, 0.005830314, -0.002522289, 0.07486238, 0.001421518, 0.001875431, -0.0008996641, 0.03719873, -0.9997976, -0.02005005, 44.78527
 72006186, 0.004061964, 0.00533845, -0.002640563, 0.07486238, 0.001254032, 0.001941465, -0.001274628, 0.03719873, -0.999798, -0.02002384, 44.78527
 72206106, 0.003858319, 0.005409953, -0.003029035, 0.07486238, 0.001541893, 0.001853333, -0.0008626574, 0.03719873, -0.9997991, -0.01996441, 44.78527
 72406026, 0.004720585, 0.005715416, -0.002737001, 0.07486238, 0.001658257, 0.002342064, -0.0009410621, 0.03719873, -0.9998003, -0.01989202, 44.78527
 72605946, 0.005060051, 0.006267534, -0.003137343, 0.07486238, 0.001809755, 0.002146822, -0.002099336, 0.03719873, -0.9998019, -0.01980654, 44.78527
 72805866, 0.005421222, 0.005725443, -0.003909462, 0.07486238, 0.002125703, 0.001902895, -0.0006980356, 0.03719873, -0.999801, -0.01987285, 44.78527
 73005786, 0.006046067, 0.005364818, -0.002639282, 0.07486238, 0.002292778, 0.001992154, -0.0009042638, 0.03719873, -0.9998019, -0.01984095, 44.78527
 73206539, 0.005975521, -0.004152499, -0.002702644, 0.07501738, 0.002004224, -0.0160278, -0.001180018, 0.03735372, -0.9995791, -0.01965948, 44.87799
 73406459, 0.004394338, -0.1067522, -0.002194885, 0.07501738, 0.001107702, -0.07003824, 5.16649E-05, 0.03719873, -0.9971903, -0.01886964, 44.87799
 73606379, 0.002197277, -0.240494, -0.001251419, 0.07486238, 0.0004831818, -0.1033591, -0.0002308708, 0.03719873, -0.9943782, -0.0176668, 44.78527
 73806299, 0.001469904, -0.3079819, -0.003161745, 0.07486238, 0.000847835, -0.1134742, -0.001728835, 0.03719873, -0.9928898, -0.0157708, 44.78527
 74006219, 0.002739568, -0.32296, -0.005104553, 0.07486238, 0.001146535, -0.1127378, -0.002090553, 0.03719873, -0.9924485, -0.01345846, 44.78527
 74206139, 0.004911427, -0.3122469, -0.005542369, 0.07486238, 0.002739457, -0.105133, -0.001842396, 0.03719873, -0.9925094, -0.01115982, 44.78527
 74406059, 0.008613983, -0.2900935, -0.005134114, 0.07486238, 0.003308068, -0.09739652, -0.001464773, 0.03719873, -0.9926338, -0.008639709, 44.78527
 74605979, 0.0107734, -0.2673864, -0.00449926, 0.07486238, 0.00444896, -0.08966578, -0.001720192, 0.03719873, -0.9926761, -0.005818787, 44.78527
 74805899, 0.01289677, -0.248041, -0.004490881, 0.07486238, 0.004716842, -0.08410868, -0.001572726, 0.03719873, -0.992451, -0.002804055, 44.78527
 75005819, 0.01292606, -0.232082, -0.003414007, 0.07486238, 0.004236721, -0.07822138, -0.0004725532, 0.03719873, -0.9922016, 0.000102093, 44.78527
 75206572, 0.01194681, -0.2178763, -0.001478095, 0.07501738, 0.004136525, -0.07453049, -2.507835E-05, 0.03735372, -0.9917439, 0.002037184, 44.87799
 75406492, 0.01143005, -0.2078025, -0.0009583629, 0.07501738, 0.003544284, -0.0715085, -0.0002088676, 0.03719873, -0.9911166, 0.002687289, 44.87799
 75606412, 0.0103406, -0.2000058, -0.00143463, 0.07486238, 0.003617096, -0.06886695, -0.0002726215, 0.03719873, -0.9903582, 0.002336394, 44.78527
 75806332, 0.01033805, -0.1942085, -0.001126709, 0.07486238, 0.003397688, -0.06786742, -0.0003102789, 0.03719873, -0.9893732, 0.00144802, 44.78527
 76006252, 0.009865944, -0.191371, -0.001884107, 0.07486238, 0.003798533, -0.06656086, -0.0005717922, 0.03719873, -0.9882826, 0.0001849386, 44.78527
 76206172, 0.01057126, -0.1882619, -0.002438425, 0.07486238, 0.003819797, -0.06599047, -0.0006040839, 0.03719873, -0.987027, -0.0008245299, 44.78527
 76406092, 0.0103858, -0.1867256, -0.003009564, 0.07486238, 0.003593693, -0.06538077, -0.001082202, 0.03719873, -0.9855662, -0.001567999, 44.78527
 76606012, 0.009702896, -0.1856876, -0.004477154, 0.07486238, 0.003265009, -0.06515999, -0.001581334, 0.03719873, -0.9839823, -0.001930163, 44.78527
 76805932, 0.009524752, -0.1854946, -0.005476039, 0.07486238, 0.003551416, -0.06598917, -0.002114669, 0.03719873, -0.9820364, -0.002211046, 44.78527
 77005852, 0.01090419, -0.187105, -0.0072016, 0.07486238, 0.004018634, -0.06578092, -0.002680605, 0.03719873, -0.9801018, -0.002634382, 44.78527
 77205772, 0.0118346, -0.1860878, -0.008818425, 0.07486238, 0.004170862, -0.06539373, -0.0036722, 0.03719873, -0.9778967, -0.003312768, 44.78527
 77406525, 0.01279668, -0.1864035, -0.01043477, 0.07501738, 0.004679796, -0.06583048, -0.003370596, 0.03735372, -0.9754475, -0.004052112, 44.87799
 77606445, 0.01386959, -0.1874401, -0.01135842, 0.07501738, 0.005038823, -0.0664374, -0.004132076, 0.03719873, -0.9727181, -0.004720731, 44.87799
 77806365, 0.01429299, -0.1886446, -0.01330876, 0.07486238, 0.005106871, -0.06640358, -0.004818613, 0.03719873, -0.9696926, -0.005259889, 44.78527
 78006285, 0.01491353, -0.1900772, -0.01488518, 0.07486238, 0.005407604, -0.06767651, -0.005138327, 0.03719873, -0.9663945, -0.0056237, 44.78527
 78206205, 0.01625272, -0.1921256, -0.01657704, 0.07486238, 0.005845527, -0.06773339, -0.006142055, 0.03719873, -0.9628514, -0.005825686, 44.78527
 78406125, 0.01655208, -0.1930458, -0.018277, 0.07486238, 0.005870393, -0.06803107, -0.006124444, 0.03719873, -0.958977, -0.006007552, 44.78527
 78606045, 0.01784741, -0.1945882, -0.01987073, 0.07486238, 0.006683122, -0.0690091, -0.007558648, 0.03719873, -0.9548105, -0.006134514, 44.78527
 78805965, 0.01929225, -0.1960074, -0.02183114, 0.07486238, 0.006942162, -0.06935479, -0.008083741, 0.03719873, -0.9502959, -0.006274903, 44.78527
 79005885, 0.02015833, -0.1975707, -0.02399286, 0.07486238, 0.007412475, -0.06974851, -0.009162257, 0.03719873, -0.945491, -0.006499451, 44.78527
 79205805, 0.020501, -0.1992201, -0.02593607, 0.07486238, 0.006908919, -0.07062595, -0.008794971, 0.03719873, -0.9401972, -0.006836792, 44.78527
 79406558, 0.01978548, -0.2022042, -0.02727721, 0.07501738, 0.006602022, -0.07152218, -0.01037979, 0.03735372, -0.9347006, -0.007373767, 44.87799
 79606478, 0.01985436, -0.2028414, -0.02987097, 0.07501738, 0.007646425, -0.0716322, -0.01077016, 0.03719873, -0.9287718, -0.008252961, 44.87799
 79806398, 0.02130849, -0.2044686, -0.03158035, 0.07486238, 0.007211716, -0.07268969, -0.01096444, 0.03719873, -0.92249, -0.009560768, 44.78527
 80006318, 0.02158373, -0.2068968, -0.0333107, 0.07486238, 0.007949782, -0.0732666, -0.01165768, 0.03719873, -0.9157813, -0.01128473, 44.78527
 80206238, 0.0227654, -0.2090243, -0.03532171, 0.07486238, 0.008081911, -0.07360873, -0.01242855, 0.03719873, -0.9087565, -0.0134244, 44.78527
 80406158, 0.02347955, -0.2106382, -0.03744937, 0.07486238, 0.008489716, -0.0747015, -0.01333145, 0.03719873, -0.9013237, -0.01587945, 44.78527
 80606078, 0.02413585, -0.2135508, -0.0403758, 0.07486238, 0.008603967, -0.0756348, -0.01415762, 0.03719873, -0.8935857, -0.01858985, 44.78527
 80805998, 0.02480889, -0.2157337, -0.04299228, 0.07486238, 0.00885262, -0.07635434, -0.01580106, 0.03719873, -0.8855754, -0.02157442, 44.78527
 81005918, 0.02549772, -0.2182035, -0.0459274, 0.07486238, 0.009247608, -0.07774437, -0.01629243, 0.03719873, -0.8768409, -0.02485558, 44.78527
 81205838, 0.02649356, -0.2213926, -0.04867041, 0.07486238, 0.009585934, -0.07791162, -0.01736661, 0.03719873, -0.8683795, -0.02843712, 44.78527
 81406591, 0.0274363, -0.2207031, -0.05173435, 0.07501738, 0.009734659, -0.0759958, -0.01841792, 0.03735372, -0.8604872, -0.03246627, 44.87799
 81606511, 0.02857941, -0.2128804, -0.05493385, 0.07501738, 0.01068158, -0.07058146, -0.02141803, 0.03719873, -0.854151, -0.03689738, 44.87799
 81806431, 0.03191167, -0.1835952, -0.0635657, 0.07486238, 0.01233679, -0.05388574, -0.02381107, 0.03719873, -0.851386, -0.04184873, 44.78527
 82006351, 0.03692444, -0.1314347, -0.0698317, 0.07486238, 0.01403596, -0.03446841, -0.02604828, 0.03719873, -0.8496482, -0.04715076, 44.78527
 82206271, 0.0423967, -0.0778423, -0.07442817, 0.07486238, 0.01607276, -0.01657735, -0.02656085, 0.03719873, -0.8477884, -0.0525172, 44.78527
 82406191, 0.04767454, -0.03103707, -0.07667528, 0.07486238, 0.01811178, -0.00211921, -0.02700892, 0.03719873, -0.8455669, -0.05779808, 44.78527
 82606111, 0.0532904, 0.007529611, -0.07887034, 0.07486238, 0.01970053, 0.009633741, -0.02916255, 0.03719873, -0.8430998, -0.06293519, 44.78527
 82806031, 0.05842298, 0.03921416, -0.08216386, 0.07486238, 0.02160639, 0.02014687, -0.02847178, 0.03719873, -0.8404885, -0.06794572, 44.78527
 83005951, 0.06339886, 0.06711122, -0.08167946, 0.07486238, 0.02314414, 0.02936191, -0.02827677, 0.03719873, -0.8377836, -0.07287213, 44.78527
 83205871, 0.06776349, 0.09116884, -0.08065432, 0.07486238, 0.02489274, 0.03653033, -0.02839403, 0.03719873, -0.8350165, -0.07787006, 44.78527
 83405791, 0.07221635, 0.1125388, -0.07844814, 0.07486238, 0.02615184, 0.04433997, -0.02669384, 0.03719873, -0.8324281, -0.08319325, 44.78527
 83606544, 0.07612643, 0.1350458, -0.07372266, 0.07501738, 0.02765649, 0.05283716, -0.02395662, 0.03735372, -0.8300102, -0.08866593, 44.87799
 83806464, 0.08045532, 0.1569568, -0.06646451, 0.07501738, 0.02906452, 0.05945552, -0.02232951, 0.03719873, -0.8276758, -0.09420832, 44.87799
 84006384, 0.08441676, 0.1764421, -0.05903182, 0.07486238, 0.03016196, 0.06634597, -0.01830426, 0.03719873, -0.8253539, -0.09979525, 44.78527
 84206304, 0.087258, 0.1958584, -0.04963668, 0.07486238, 0.03162446, 0.07304341, -0.01553451, 0.03719873, -0.8233531, -0.1054321, 44.78527
 84406224, 0.09049454, 0.2153955, -0.03965089, 0.07486238, 0.03205324, 0.08015532, -0.01103033, 0.03719873, -0.821428, -0.1110062, 44.78527
 84606144, 0.0925517, 0.2332689, -0.02856953, 0.07486238, 0.03345729, 0.08532976, -0.008358509, 0.03719873, -0.8195974, -0.1160927, 44.78527
 84806064, 0.09571581, 0.2492429, -0.01934067, 0.07486238, 0.03392839, 0.09100417, -0.004979183, 0.03719873, -0.8180969, -0.1207941, 44.78527
 85005984, 0.09732697, 0.2661487, -0.008781535, 0.07486238, 0.03451572, 0.09801701, -0.0002259804, 0.03719873, -0.8168409, -0.1250966, 44.78527
 85205904, 0.09872313, 0.2823617, 0.002817587, 0.07486238, 0.03462906, 0.1017519, 0.00291434, 0.03719873, -0.8155821, -0.1289912, 44.78527
 85405824, 0.09874217, 0.2944518, 0.01188835, 0.07486238, 0.03505211, 0.1062418, 0.005028889, 0.03719873, -0.8148182, -0.1324983, 44.78527
 85606577, 0.1000484, 0.308282, 0.01971382, 0.07501738, 0.03566484, 0.1117118, 0.009855975, 0.03735372, -0.814231, -0.1356546, 44.87799
 85806497, 0.1010376, 0.3198698, 0.02913367, 0.07501738, 0.03575046, 0.1144076, 0.01127101, 0.03719873, -0.8137099, -0.1384435, 44.87799
 86006417, 0.1005921, 0.3282314, 0.03553602, 0.07486238, 0.03519209, 0.1171132, 0.01399903, 0.03719873, -0.813423, -0.1408831, 44.78527
 86206337, 0.09912445, 0.3357458, 0.04220935, 0.07486238, 0.03436441, 0.1196676, 0.0160571, 0.03719873, -0.8133427, -0.1429531, 44.78527
 86406257, 0.09784997, 0.3421043, 0.04708767, 0.07486238, 0.03424017, 0.1217647, 0.01776497, 0.03719873, -0.813618, -0.1447555, 44.78527
 86606177, 0.09682769, 0.3480622, 0.05099977, 0.07486238, 0.03415421, 0.123335, 0.01812968, 0.03719873, -0.8142083, -0.1464316, 44.78527
 86806097, 0.09625033, 0.3520658, 0.05324563, 0.07486238, 0.03360681, 0.1245247, 0.01946795, 0.03719873, -0.8148801, -0.1479656, 44.78527
 87006017, 0.09494223, 0.3540091, 0.05594952, 0.07486238, 0.03318408, 0.1249213, 0.02055349, 0.03719873, -0.8156581, -0.1493333, 44.78527
 87205937, 0.09321401, 0.3540802, 0.05723658, 0.07486238, 0.03256376, 0.1243812, 0.01996551, 0.03719873, -0.8166303, -0.1504903, 44.78527
 87405857, 0.09101196, 0.3517628, 0.05661501, 0.07486238, 0.03124236, 0.1232097, 0.01953621, 0.03719873, -0.8177229, -0.151306, 44.78527
 87605777, 0.08774307, 0.3492161, 0.05527758, 0.07486238, 0.03019601, 0.1219988, 0.01880624, 0.03719873, -0.8191741, -0.1519586, 44.78527
 87806530, 0.08491688, 0.3462349, 0.05366451, 0.07501738, 0.0292692, 0.1209212, 0.01799938, 0.03735372, -0.8206753, -0.152455, 44.87799
 88006450, 0.08185473, 0.3408917, 0.0512676, 0.07501738, 0.02801333, 0.1185139, 0.01733324, 0.03719873, -0.8223445, -0.1527894, 44.87799
 88206370, 0.07827717, 0.3340909, 0.0484263, 0.07486238, 0.02660547, 0.1158447, 0.01626197, 0.03719873, -0.8240823, -0.1530182, 44.78527
 88406290, 0.07447507, 0.3266156, 0.04481263, 0.07486238, 0.02553994, 0.1136255, 0.01464581, 0.03719873, -0.8260005, -0.1531952, 44.78527
 88606210, 0.07116212, 0.3193674, 0.04095165, 0.07486238, 0.02443604, 0.1098365, 0.01323788, 0.03719873, -0.8279435, -0.1532187, 44.78527
 88806130, 0.06767673, 0.3095748, 0.03691712, 0.07486238, 0.02277732, 0.106898, 0.01183886, 0.03719873, -0.8299999, -0.1531705, 44.78527
 89006050, 0.06355166, 0.3003433, 0.03301029, 0.07486238, 0.02157764, 0.1036472, 0.01093749, 0.03719873, -0.8321042, -0.1529804, 44.78527
 89205970, 0.05983001, 0.2906225, 0.02920816, 0.07486238, 0.02022097, 0.09973868, 0.008516541, 0.03719873, -0.8343466, -0.1526731, 44.78527
