TimeUS,COFN,COFE,CNe,CEe,POFN,POFE,PNe,PEe
 8425795, 0.001468834, 0.01468042, 0.01976104, -0.03124137, 0, 0, 0, 0
 8606556, -0.001022073, 0.002944859, 0.01981312, -0.03116922, 0.001468834, 0.01468042, 0.01976104, -0.03124137
 8806476, 0.0004596443, 0.00526663, 0.02013501, -0.03096571, -0.001022073, 0.002944859, 0.01981312, -0.03116922
 9006396, 0.0006394697, 0.005311148, 0.02068199, -0.03060322, 0.0004596443, 0.00526663, 0.02013501, -0.03096571
 9206316, -0.000739736, 0.002987267, 0.02130869, -0.03016648, 0.0006394697, 0.005311148, 0.02068199, -0.03060322
 9406236, -0.004326323, 0.0008389794, 0.02192088, -0.02972656, -0.000739736, 0.002987267, 0.02130869, -0.03016648
 9606156, -0.002543308, 0.0002130049, 0.02247329, -0.02930859, -0.004326323, 0.0008389794, 0.02192088, -0.02972656
 9806076, -0.002156785, 0.001110284, 0.02297377, -0.02891782, -0.002543308, 0.0002130049, 0.02247329, -0.02930859
 10005996, -0.002656176, 0.003653374, 0.02343054, -0.02855197, -0.002156785, 0.001110284, 0.02297377, -0.02891782
 10205916, -0.001890064, 0.003867594, 0.02385144, -0.02820092, -0.002656176, 0.003653374, 0.02343054, -0.02855197
 10405836, -0.002881273, 0.003341964, 0.02424172, -0.02786635, -0.001890064, 0.003867594, 0.02385144, -0.02820092
 10606589, -0.000932858, 0.00546439, 0.02459672, -0.02755591, -0.002881273, 0.003341964, 0.02424172, -0.02786635
 10806509, -0.003490184, 0.01220049, 0.02492661, -0.02728591, -0.000932858, 0.00546439, 0.02459672, -0.02755591
 11006429, 0.01944314, 0.001906277, 0.02531617, -0.02697295, -0.003490184, 0.01220049, 0.02492661, -0.02728591
 11206349, -0.0188413, -0.0008755253, 0.02558569, -0.02671173, 0.01944314, 0.001906277, 0.02531617, -0.02697295
 11406269, -0.02145405, 0.01361336, 0.02586035, -0.0265102, -0.0188413, -0.0008755253, 0.02558569, -0.02671173
 11606189, -0.004721943, -0.01591489, 0.02598706, -0.02630353, -0.02145405, 0.01361336, 0.02586035, -0.0265102
 11806109, 0.01934591, 0.001264694, 0.02627122, -0.02604233, -0.004721943, -0.01591489, 0.02598706, -0.02630353
 12006029, -0.009939782, -0.014195, 0.02639611, -0.02589861, 0.01934591, 0.001264694, 0.02627122, -0.02604233
 12205949, 0.01188045, -0.006682508, 0.02657219, -0.02569176, -0.009939782, -0.014195, 0.02639611, -0.02589861
 12405869, -0.01110299, 0.004114073, 0.02671868, -0.0255289, 0.01188045, -0.006682508, 0.02657219, -0.02569176
 12605789, 0.006079162, -0.02119434, 0.026836, -0.02548538, -0.01110299, 0.004114073, 0.02671868, -0.0255289
 12806542, 0.002612767, -0.02189537, 0.02695236, -0.02536231, 0.006079162, -0.02119434, 0.026836, -0.02548538
 13006462, 0.01505062, -0.01165028, 0.02710784, -0.02516715, 0.002612767, -0.02189537, 0.02695236, -0.02536231
 13206382, -0.009355702, -0.0216096, 0.02718206, -0.02513194, 0.01505062, -0.01165028, 0.02710784, -0.02516715
 13406302, 0.008553433, -0.006383772, 0.02725561, -0.02494865, -0.009355702, -0.0216096, 0.02718206, -0.02513194
 13606222, 0.01792241, -0.01782447, 0.02738466, -0.02493091, 0.008553433, -0.006383772, 0.02725561, -0.02494865
 13806142, -0.01127586, 0.01435237, 0.02741032, -0.02483048, 0.01792241, -0.01782447, 0.02738466, -0.02493091
 14006062, 0.004819214, -0.006230018, 0.02744669, -0.02472597, -0.01127586, 0.01435237, 0.02741032, -0.02483048
 14205982, -0.01546247, 0.0008794422, 0.02754714, -0.02465639, 0.004819214, -0.006230018, 0.02744669, -0.02472597
 14405902, -0.003903214, -0.005968321, 0.02754431, -0.02461451, -0.01546247, 0.0008794422, 0.02754714, -0.02465639
 14605822, 0.01836992, 0.01174175, 0.02766233, -0.0245834, -0.003903214, -0.005968321, 0.02754431, -0.02461451
 14806575, -0.001645174, 0.01417034, 0.02761829, -0.02456798, 0.01836992, 0.01174175, 0.02766233, -0.0245834
 15006495, -0.009868126, -0.01809484, 0.02767794, -0.02455375, -0.001645174, 0.01417034, 0.02761829, -0.02456798
 15206415, -0.009474901, -0.01413011, 0.02769879, -0.0244978, -0.009868126, -0.01809484, 0.02767794, -0.02455375
 15406335, -0.01177676, -0.01146675, 0.02773048, -0.0244573, -0.009474901, -0.01413011, 0.02769879, -0.0244978
 15606255, -0.0105567, -0.01336243, 0.02774369, -0.02444708, -0.01177676, -0.01146675, 0.02773048, -0.0244573
 15806175, -0.01017893, -0.01364825, 0.02775741, -0.02443146, -0.0105567, -0.01336243, 0.02774369, -0.02444708
 16006095, -0.009489799, -0.01513699, 0.0277674, -0.02442715, -0.01017893, -0.01364825, 0.02775741, -0.02443146
 16206015, -0.00762816, -0.01400673, 0.02776901, -0.02440974, -0.009489799, -0.01513699, 0.0277674, -0.02442715
 16405935, -0.01048475, -0.01025168, 0.02778704, -0.02437973, -0.00762816, -0.01400673, 0.02776901, -0.02440974
 16605855, -0.009250807, -0.01328816, 0.02778973, -0.02438802, -0.01048475, -0.01025168, 0.02778704, -0.02437973
 16805775, -0.008659117, -0.01748162, 0.02779674, -0.02440855, -0.009250807, -0.01328816, 0.02778973, -0.02438802
 17006528, -0.007333451, -0.0161743, 0.02779493, -0.02439492, -0.008659117, -0.01748162, 0.02779674, -0.02440855
 17206448, -0.01099819, -0.01763767, 0.02781386, -0.02440143, -0.007333451, -0.0161743, 0.02779493, -0.02439492
 17406368, -0.01163912, -0.01322078, 0.02781346, -0.02437255, -0.01099819, -0.01763767, 0.02781386, -0.02440143
 17606288, -0.007738819, -0.00984857, 0.02779142, -0.02436074, -0.01163912, -0.01322078, 0.02781346, -0.02437255
 17806208, -0.009559104, -0.01153374, 0.02779716, -0.02437046, -0.007738819, -0.00984857, 0.02779142, -0.02436074
 18006128, -0.008962332, -0.01641961, 0.02779421, -0.02440405, -0.009559104, -0.01153374, 0.02779716, -0.02437046
 18206048, -0.01056614, -0.01518358, 0.02779621, -0.02439991, -0.008962332, -0.01641961, 0.02779421, -0.02440405
 18405968, -0.01073528, -0.01425857, 0.02779131, -0.0243998, -0.01056614, -0.01518358, 0.02779621, -0.02439991
 18605888, -0.01150014, -0.01399245, 0.02778924, -0.02440445, -0.01073528, -0.01425857, 0.02779131, -0.0243998
 18805808, -0.01350208, -0.01357272, 0.0277939, -0.0244084, -0.01150014, -0.01399245, 0.02778924, -0.02440445
 19006561, -0.01172788, -0.009409832, 0.02777363, -0.02439768, -0.01350208, -0.01357272, 0.0277939, -0.0244084
 19206481, -0.01153416, -0.01311828, 0.02776828, -0.02442278, -0.01172788, -0.009409832, 0.02777363, -0.02439768
 19406401, -0.009222911, -0.01490215, 0.02774983, -0.02444421, -0.01153416, -0.01311828, 0.02776828, -0.02442278
 19606321, -0.009523617, -0.01528061, 0.02774277, -0.02445633, -0.009222911, -0.01490215, 0.02774983, -0.02444421
 19806241, -0.01009315, -0.01285324, 0.02773492, -0.02445151, -0.009523617, -0.01528061, 0.02774277, -0.02445633
 20006161, -0.01081663, -0.0132795, 0.02772974, -0.0244637, -0.01009315, -0.01285324, 0.02773492, -0.02445151
 20206081, -0.009999039, -0.01183833, 0.02771515, -0.02446745, -0.01081663, -0.0132795, 0.02772974, -0.0244637
 20406001, -0.01164013, -0.01471091, 0.02771612, -0.02449317, -0.009999039, -0.01183833, 0.02771515, -0.02446745
 20605921, -0.01072682, -0.01245129, 0.02770019, -0.02449159, -0.01164013, -0.01471091, 0.02771612, -0.02449317
 20805841, -0.01023564, -0.01191169, 0.02768745, -0.02450036, -0.01072682, -0.01245129, 0.02770019, -0.02449159
 21005761, -0.01041039, -0.01313438, 0.02767915, -0.02451794, -0.01023564, -0.01191169, 0.02768745, -0.02450036
 21206514, -0.01094164, -0.01408552, 0.02767286, -0.02453395, -0.01041039, -0.01313438, 0.02767915, -0.02451794
 21406434, -0.01114563, -0.01458429, 0.02766407, -0.02454837, -0.01094164, -0.01408552, 0.02767286, -0.02453395
 21606354, -0.009588086, -0.01449963, 0.02764566, -0.02456078, -0.01114563, -0.01458429, 0.02766407, -0.02454837
 21806274, -0.01280574, -0.01308588, 0.02765147, -0.02456215, -0.009588086, -0.01449963, 0.02764566, -0.02456078
 22006194, -0.01075269, -0.01236217, 0.02762917, -0.02457127, -0.01280574, -0.01308588, 0.02765147, -0.02456215
 22206114, -0.01071312, -0.01160679, 0.02761817, -0.02457911, -0.01075269, -0.01236217, 0.02762917, -0.02457127
 22406034, -0.01093425, -0.01502554, 0.0276109, -0.02461015, -0.01071312, -0.01160679, 0.02761817, -0.02457911
 22605954, -0.009950429, -0.01242996, 0.02759401, -0.02460719, -0.01093425, -0.01502554, 0.0276109, -0.02461015
 22805874, -0.01257137, -0.01348178, 0.02759814, -0.02462315, -0.009950429, -0.01242996, 0.02759401, -0.02460719
 23005794, -0.01082594, -0.01169822, 0.02757683, -0.02462656, -0.01257137, -0.01348178, 0.02759814, -0.02462315
 23206547, -0.01098778, -0.01238872, 0.02756814, -0.0246411, -0.01082594, -0.01169822, 0.02757683, -0.02462656
 23406467, -0.008455841, -0.01343309, 0.02754709, -0.02465933, -0.01098778, -0.01238872, 0.02756814, -0.0246411
 23606387, -0.009015866, -0.01147786, 0.02753795, -0.02466027, -0.008455841, -0.01343309, 0.02754709, -0.02465933
 23806307, -0.009144927, -0.01340597, 0.02752923, -0.02468198, -0.009015866, -0.01147786, 0.02753795, -0.02466027
 24006227, -0.008110662, -0.0126488, 0.02751437, -0.02468962, -0.009144927, -0.01340597, 0.02752923, -0.02468198
 24206147, -0.01172052, -0.01764954, 0.02752463, -0.02473121, -0.008110662, -0.0126488, 0.02751437, -0.02468962
 24406067, -0.01237064, -0.01259039, 0.02751487, -0.02470946, -0.01172052, -0.01764954, 0.02752463, -0.02473121
 24605987, -0.01260082, -0.01197688, 0.02750597, -0.02471715, -0.01237064, -0.01259039, 0.02751487, -0.02470946
 24805907, -0.01387003, -0.01592251, 0.02750665, -0.02475052, -0.01260082, -0.01197688, 0.02750597, -0.02471715
 25005827, -0.01141043, -0.01146127, 0.02747903, -0.02473745, -0.01387003, -0.01592251, 0.02750665, -0.02475052
 25206580, -0.01039377, -0.01217668, 0.02746454, -0.02475229, -0.01141043, -0.01146127, 0.02747903, -0.02473745
 25406500, -0.01043956, -0.01109257, 0.02745506, -0.02475706, -0.01039377, -0.01217668, 0.02746454, -0.02475229
 25606420, -0.009977384, -0.01275576, 0.02744413, -0.02477634, -0.01043956, -0.01109257, 0.02745506, -0.02475706
 25806340, -0.008831128, -0.01513293, 0.02743066, -0.02480184, -0.009977384, -0.01275576, 0.02744413, -0.02477634
 26006260, -0.008109958, -0.01355631, 0.02741748, -0.02480282, -0.008831128, -0.01513293, 0.02743066, -0.02480184
 26206180, -0.009610257, -0.01438242, 0.02741505, -0.02481727, -0.008109958, -0.01355631, 0.02741748, -0.02480282
 26406100, -0.010353, -0.01465795, 0.02740943, -0.02482888, -0.009610257, -0.01438242, 0.02741505, -0.02481727
 26606020, -0.01056295, -0.01227114, 0.02740014, -0.02482496, -0.010353, -0.01465795, 0.02740943, -0.02482888
 26805940, -0.009247312, -0.01241228, 0.02738506, -0.02483626, -0.01056295, -0.01227114, 0.02740014, -0.02482496
 27005860, -0.01087376, -0.01297606, 0.02738394, -0.02484862, -0.009247312, -0.01241228, 0.02738506, -0.02483626
 27205780, -0.00807994, -0.01246789, 0.02736222, -0.02485698, -0.01087376, -0.01297606, 0.02738394, -0.02484862
 27406533, -0.008737319, -0.01171498, 0.02735614, -0.02486199, -0.00807994, -0.01246789, 0.02736222, -0.02485698
 27606453, -0.008522343, -0.01526676, 0.02734824, -0.02489242, -0.008737319, -0.01171498, 0.02735614, -0.02486199
 27806373, -0.006095764, -0.01709737, 0.02733179, -0.02491609, -0.008522343, -0.01526676, 0.02734824, -0.02489242
 28006293, -0.009357642, -0.01502873, 0.02733459, -0.02490924, -0.006095764, -0.01709737, 0.02733179, -0.02491609
 28206213, -0.01395528, -0.01168602, 0.0273497, -0.02489687, -0.009357642, -0.01502873, 0.02733459, -0.02490924
 28406133, -0.01217192, -0.01194146, 0.02733076, -0.02490809, -0.01395528, -0.01168602, 0.0273497, -0.02489687
 28606053, -0.0106836, -0.01305287, 0.02731508, -0.02492382, -0.01217192, -0.01194146, 0.02733076, -0.02490809
 28805973, -0.008909505, -0.01398899, 0.02729925, -0.02493894, -0.0106836, -0.01305287, 0.02731508, -0.02492382
 29005893, -0.007947052, -0.01229118, 0.0272867, -0.02493835, -0.008909505, -0.01398899, 0.02729925, -0.02493894
 29205813, -0.007356319, -0.01593675, 0.02727826, -0.02496967, -0.007947052, -0.01229118, 0.0272867, -0.02493835
 29406566, -0.009766825, -0.01308765, 0.02727909, -0.02495901, -0.007356319, -0.01593675, 0.02727826, -0.02496967
 29606486, -0.009944975, -0.01648912, 0.0272742, -0.02498884, -0.009766825, -0.01308765, 0.02727909, -0.02495901
 29806406, -0.007943355, -0.01690736, 0.02725778, -0.02500162, -0.009944975, -0.01648912, 0.0272742, -0.02498884
 30006326, -0.008477653, -0.01273953, 0.02725036, -0.02498275, -0.007943355, -0.01690736, 0.02725778, -0.02500162
 30206246, -0.00799787, -0.01386595, 0.02724149, -0.0249976, -0.008477653, -0.01273953, 0.02725036, -0.02498275
 30406166, -0.008811368, -0.01270046, 0.02723692, -0.02499853, -0.00799787, -0.01386595, 0.02724149, -0.0249976
 30606086, -0.009124101, -0.0135019, 0.02723125, -0.02501095, -0.008811368, -0.01270046, 0.02723692, -0.02499853
 30806006, -0.009846242, -0.01620659, 0.02722865, -0.02503586, -0.009124101, -0.0135019, 0.02723125, -0.02501095
 31005926, -0.008873578, -0.01688952, 0.0272175, -0.02504902, -0.009846242, -0.01620659, 0.02722865, -0.02503586
 31205846, -0.009952656, -0.01477658, 0.02721448, -0.02504136, -0.008873578, -0.01688952, 0.0272175, -0.02504902
 31405766, -0.009625172, -0.01647758, 0.02720775, -0.02505964, -0.009952656, -0.01477658, 0.02721448, -0.02504136
 31606519, -0.01059039, -0.01178189, 0.02720426, -0.0250369, -0.009625172, -0.01647758, 0.02720775, -0.02505964
 31806439, -0.01340929, -0.01461386, 0.02721469, -0.02505896, -0.01059039, -0.01178189, 0.02720426, -0.0250369
 32006359, -0.009503778, -0.01313977, 0.02718619, -0.02505935, -0.01340929, -0.01461386, 0.02721469, -0.02505896
 32206279, -0.008257264, -0.01487621, 0.02717488, -0.02507781, -0.009503778, -0.01313977, 0.02718619, -0.02505935
 32406199, -0.0112356, -0.01560134, 0.02718236, -0.02508848, -0.008257264, -0.01487621, 0.02717488, -0.02507781
 32606119, -0.0104575, -0.01350946, 0.02717086, -0.02508273, -0.0112356, -0.01560134, 0.02718236, -0.02508848
 32806039, -0.01143681, -0.01317433, 0.02716921, -0.02508744, -0.0104575, -0.01350946, 0.02717086, -0.02508273
 33005959, -0.009225866, -0.01648659, 0.02715354, -0.02511669, -0.01143681, -0.01317433, 0.02716921, -0.02508744
 33205879, -0.01073155, -0.01470539, 0.02715337, -0.0251109, -0.009225866, -0.01648659, 0.02715354, -0.02511669
 33405799, -0.01189126, -0.01487331, 0.0271533, -0.02511829, -0.01073155, -0.01470539, 0.02715337, -0.0251109
 33606552, -0.009622583, -0.0146461, 0.02713571, -0.02512431, -0.01189126, -0.01487331, 0.0271533, -0.02511829
 33806472, -0.009951287, -0.01511419, 0.02713133, -0.0251338, -0.009622583, -0.0146461, 0.02713571, -0.02512431
 34006392, -0.01008128, -0.01368797, 0.02712527, -0.02513135, -0.009951287, -0.01511419, 0.02713133, -0.0251338
 34206312, -0.01168797, -0.01066113, 0.02712625, -0.02512124, -0.01008128, -0.01368797, 0.02712527, -0.02513135
 34406232, -0.011723, -0.01533301, 0.02712253, -0.02515382, -0.01168797, -0.01066113, 0.02712625, -0.02512124
 34606152, -0.01068055, -0.01465492, 0.02711095, -0.02515611, -0.011723, -0.01533301, 0.02712253, -0.02515382
 34806072, -0.009615795, -0.01291488, 0.02709934, -0.02515238, -0.01068055, -0.01465492, 0.02711095, -0.02515611
 35005992, -0.008891345, -0.01488893, 0.0270913, -0.02517072, -0.009615795, -0.01291488, 0.02709934, -0.02515238
 35205912, -0.01053153, -0.01416029, 0.02709289, -0.02517151, -0.008891345, -0.01488893, 0.0270913, -0.02517072
 35405832, -0.01082201, -0.01178994, 0.02708768, -0.0251642, -0.01053153, -0.01416029, 0.02709289, -0.02517151
 35606585, -0.009253531, -0.01344832, 0.02707548, -0.02517976, -0.01082201, -0.01178994, 0.02708768, -0.0251642
 35806505, -0.006858236, -0.01435178, 0.02706143, -0.02519171, -0.009253531, -0.01344832, 0.02707548, -0.02517976
 36006425, -0.009913579, -0.01264076, 0.02706745, -0.02518641, -0.006858236, -0.01435178, 0.02706143, -0.02519171
 36206345, -0.01342929, -0.01165849, 0.02708077, -0.02518566, -0.009913579, -0.01264076, 0.02706745, -0.02518641
 36406265, -0.01091004, -0.01039968, 0.02706087, -0.02518629, -0.01342929, -0.01165849, 0.02708077, -0.02518566
 36606185, -0.008251235, -0.01354092, 0.02704485, -0.02520914, -0.01091004, -0.01039968, 0.02706087, -0.02518629
 36806105, -0.008531858, -0.01451792, 0.02704113, -0.02522061, -0.008251235, -0.01354092, 0.02704485, -0.02520914
 37006025, -0.0106088, -0.01345931, 0.02704504, -0.02521878, -0.008531858, -0.01451792, 0.02704113, -0.02522061
 37205945, -0.01176963, -0.01481984, 0.02704673, -0.02523199, -0.0106088, -0.01345931, 0.02704504, -0.02521878
 37405865, -0.009410395, -0.01528328, 0.02703019, -0.02524132, -0.01176963, -0.01481984, 0.02704673, -0.02523199
 37605785, -0.0105371, -0.0133155, 0.02702983, -0.02523384, -0.009410395, -0.01528328, 0.02703019, -0.02524132
 37806538, -0.01127041, -0.011203, 0.02702809, -0.02522737, -0.0105371, -0.0133155, 0.02702983, -0.02523384
 38006458, -0.01096746, -0.01280061, 0.02702222, -0.02524102, -0.01127041, -0.011203, 0.02702809, -0.02522737
 38206378, -0.01313678, -0.01355968, 0.02702985, -0.02524967, -0.01096746, -0.01280061, 0.02702222, -0.02524102
 38406298, -0.009193848, -0.0129584, 0.02700442, -0.02525268, -0.01313678, -0.01355968, 0.02702985, -0.02524967
 38606218, -0.01226232, -0.01275258, 0.02701505, -0.02525539, -0.009193848, -0.0129584, 0.02700442, -0.02525268
 38806138, -0.01138538, -0.01508999, 0.02700657, -0.02527476, -0.01226232, -0.01275258, 0.02701505, -0.02525539
 39006058, -0.01043754, -0.01393245, 0.02699671, -0.02527268, -0.01138538, -0.01508999, 0.02700657, -0.02527476
 39205978, -0.01095112, -0.01509748, 0.02699527, -0.02528462, -0.01043754, -0.01393245, 0.02699671, -0.02527268
 39405898, -0.008794222, -0.01727481, 0.02698152, -0.02530578, -0.01095112, -0.01509748, 0.02699527, -0.02528462
 39605818, -0.01027604, -0.01568596, 0.02698313, -0.02529847, -0.008794222, -0.01727481, 0.02698152, -0.02530578
 39806571, -0.01250889, -0.014006, 0.02699015, -0.0252912, -0.01027604, -0.01568596, 0.02698313, -0.02529847
 40006491, -0.01218167, -0.01508979, 0.02698459, -0.02530259, -0.01250889, -0.014006, 0.02699015, -0.0252912
 40206411, -0.008092417, -0.01433823, 0.0269605, -0.02530389, -0.01218167, -0.01508979, 0.02698459, -0.02530259
 40406331, -0.01048822, -0.0150066, 0.02696699, -0.02531186, -0.008092417, -0.01433823, 0.0269605, -0.02530389
 40606251, -0.00948823, -0.01596827, 0.0269585, -0.02532317, -0.01048822, -0.0150066, 0.02696699, -0.02531186
 40806171, -0.009196626, -0.01383514, 0.02695238, -0.02531368, -0.00948823, -0.01596827, 0.0269585, -0.02532317
 41006091, -0.01214022, -0.01436396, 0.0269631, -0.02532029, -0.009196626, -0.01383514, 0.02695238, -0.02531368
 41206011, -0.008550257, -0.01544176, 0.0269421, -0.02533286, -0.01214022, -0.01436396, 0.0269631, -0.02532029
 41405931, -0.01201858, -0.01743872, 0.02695564, -0.02535021, -0.008550257, -0.01544176, 0.0269421, -0.02533286
 41605851, -0.008424755, -0.01355277, 0.02693291, -0.02532944, -0.01201858, -0.01743872, 0.02695564, -0.02535021
 41805771, -0.008601417, -0.01361691, 0.02692977, -0.02533389, -0.008424755, -0.01355277, 0.02693291, -0.02532944
 42006524, -0.007612318, -0.01593272, 0.026923, -0.02535321, -0.008601417, -0.01361691, 0.02692977, -0.02533389
 42206444, -0.009753374, -0.01256044, 0.02692675, -0.02533558, -0.007612318, -0.01593272, 0.026923, -0.02535321
 42406364, -0.009933683, -0.01118369, 0.02692324, -0.02533253, -0.009753374, -0.01256044, 0.02692675, -0.02533558
 42606284, -0.007544518, -0.01192011, 0.02690985, -0.02534104, -0.009933683, -0.01118369, 0.02692324, -0.02533253
 42806204, -0.01028056, -0.01268089, 0.02691758, -0.02534844, -0.007544518, -0.01192011, 0.02690985, -0.02534104
 43006124, -0.01081395, -0.01391053, 0.02691675, -0.0253595, -0.01028056, -0.01268089, 0.02691758, -0.02534844
 43206044, -0.01241596, -0.01043427, 0.02692037, -0.02534468, -0.01081395, -0.01391053, 0.02691675, -0.0253595
 43405964, -0.009829603, -0.01346231, 0.0269042, -0.02536526, -0.01241596, -0.01043427, 0.02692037, -0.02534468
 43605884, -0.01365137, -0.01189167, 0.02692055, -0.02535947, -0.009829603, -0.01346231, 0.0269042, -0.02536526
 43805804, -0.01391474, -0.01344101, 0.02691945, -0.0253714, -0.01365137, -0.01189167, 0.02692055, -0.02535947
 44006557, -0.01363089, -0.01531927, 0.02691516, -0.02538664, -0.01391474, -0.01344101, 0.02691945, -0.0253714
 44206477, -0.01063318, -0.01166344, 0.02689364, -0.0253698, -0.01363089, -0.01531927, 0.02691516, -0.02538664
 44406397, -0.01090302, -0.01332956, 0.02689191, -0.02538261, -0.01063318, -0.01166344, 0.02689364, -0.0253698
 44606317, -0.0119371, -0.0150147, 0.02689436, -0.02539653, -0.01090302, -0.01332956, 0.02689191, -0.02538261
 44806237, -0.010907, -0.01448059, 0.02688515, -0.02539718, -0.0119371, -0.0150147, 0.02689436, -0.02539653
 45006157, -0.008361071, -0.01224785, 0.02686955, -0.02538856, -0.010907, -0.01448059, 0.02688515, -0.02539718
 45206077, -0.008740013, -0.01062871, 0.02686714, -0.02538405, -0.008361071, -0.01224785, 0.02686955, -0.02538856
 45405997, -0.006535328, -0.01588157, 0.02685716, -0.02541899, -0.008740013, -0.01062871, 0.02686714, -0.02538405
 45605917, -0.008648946, -0.01519722, 0.02686112, -0.02541731, -0.006535328, -0.01588157, 0.02685716, -0.02541899
 45805837, -0.01096047, -0.01587068, 0.02686845, -0.02542485, -0.008648946, -0.01519722, 0.02686112, -0.02541731
 46006590, -0.01337458, -0.01285209, 0.02687757, -0.02540874, -0.01096047, -0.01587068, 0.02686845, -0.02542485
 46206510, -0.01204603, -0.01162837, 0.02686603, -0.02540619, -0.01337458, -0.01285209, 0.02687757, -0.02540874
 46406430, -0.01219541, -0.01187832, 0.02686334, -0.02541122, -0.01204603, -0.01162837, 0.02686603, -0.02540619
 46606350, -0.01468783, -0.01257482, 0.02765504, -0.02615693, -0.01219541, -0.01187832, 0.02686334, -0.02541122
 46806270, -0.01426872, -0.01495309, 0.03122855, -0.02956674, -0.01468783, -0.01257482, 0.02765504, -0.02615693
 47006190, -0.01767083, -0.02051687, 0.0412775, -0.03910923, -0.01426872, -0.01495309, 0.03122855, -0.02956674
 47206110, -0.02352547, -0.03224499, 0.06063132, -0.05748503, -0.01767083, -0.02051687, 0.0412775, -0.03910923
 47406030, -0.03588514, -0.05332205, 0.0897401, -0.0851336, -0.02352547, -0.03224499, 0.06063132, -0.05748503
 47605950, -0.0493622, -0.07583614, 0.1266936, -0.1202483, -0.03588514, -0.05332205, 0.0897401, -0.0851336
 47805870, -0.0530543, -0.09242211, 0.1665382, -0.1675415, -0.0493622, -0.07583614, 0.1266936, -0.1202483
 48005790, -0.07419711, -0.1072824, 0.2167252, -0.2176392, -0.0530543, -0.09242211, 0.1665382, -0.1675415
 48206543, -0.08523268, -0.1696476, 0.2725896, -0.2732748, -0.07419711, -0.1072824, 0.2167252, -0.2176392
 48406463, -0.0957499, -0.2000675, 0.3326116, -0.3331662, -0.08523268, -0.1696476, 0.2725896, -0.2732748
 48606383, 0.1003981, -0.3323052, 0.3970311, -0.3980744, -0.0957499, -0.2000675, 0.3326116, -0.3331662
 48806303, -0.2070506, 0.03749265, 0.4642638, -0.4655388, 0.1003981, -0.3323052, 0.3970311, -0.3980744
 49006223, -0.1466368, -0.1402939, 0.5312169, -0.5329432, -0.2070506, 0.03749265, 0.4642638, -0.4655388
 49206143, 0.1541978, -0.1709884, 0.5960686, -0.5980012, -0.1466368, -0.1402939, 0.5312169, -0.5329432
 49406063, -0.1597694, -0.2732472, 0.6568944, -0.6590834, 0.1541978, -0.1709884, 0.5960686, -0.5980012
 49605983, 0.251474, 0.366343, 0.7137413, -0.7160938, -0.1597694, -0.2732472, 0.6568944, -0.6590834
 49805903, -0.03509116, -0.1616286, 0.7657835, -0.7681817, 0.251474, 0.366343, 0.7137413, -0.7160938
 50005823, 0.4202287, 0.2108745, 0.814158, -0.816441, -0.03509116, -0.1616286, 0.7657835, -0.7681817
 50206576, -0.1128112, 0.4011938, 0.8586895, -0.8615406, 0.4202287, 0.2108745, 0.814158, -0.816441
 50406496, 0.3598626, 0.4934005, 0.8982202, -0.9012225, -0.1128112, 0.4011938, 0.8586895, -0.8615406
 50606416, 0.4373776, 0.05547135, 0.9311436, -0.933804, 0.3598626, 0.4934005, 0.8982202, -0.9012225
 50806336, 0.08014463, 0.3416452, 0.9579279, -0.9608094, 0.4373776, 0.05547135, 0.9311436, -0.933804
 51006256, -0.7329736, 0.4730364, 0.9807605, -0.9826955, 0.08014463, 0.3416452, 0.9579279, -0.9608094
 51206176, -0.5685159, -0.5181265, 0.9979961, -0.9997676, -0.7329736, 0.4730364, 0.9807605, -0.9826955
 51406096, 0.09725475, 0.2326732, 1.016946, -1.007103, -0.5685159, -0.5181265, 0.9979961, -0.9997676
 51606016, -0.1581922, -0.8419874, 1.102454, -0.937168, 0.09725475, 0.2326732, 1.016946, -1.007103
 51805936, 0.1065117, -0.8118042, 1.276592, -0.7062603, -0.1581922, -0.8419874, 1.102454, -0.937168
 52005856, -1.289119, -0.19302, 1.433992, -0.3238083, 0.1065117, -0.8118042, 1.276592, -0.7062603
 52205776, 0.2869747, -1.617873, 1.473705, 0.1326963, -1.289119, -0.19302, 1.433992, -0.3238083
 52406529, 0.5819301, -0.5295377, 1.377179, 0.5591543, 0.2869747, -1.617873, 1.473705, 0.1326963
 52606449, 1.903683, -1.678865, 1.207971, 0.8932258, 0.5819301, -0.5295377, 1.377179, 0.5591543
 52806369, 2.150646, 0.3416961, 1.018275, 1.120417, 1.903683, -1.678865, 1.207971, 0.8932258
 53006289, 3.048652, 0.6234011, 0.85274, 1.271523, 2.150646, 0.3416961, 1.018275, 1.120417
 53206209, 3.127104, 1.585765, 0.7835081, 1.329508, 3.048652, 0.6234011, 0.85274, 1.271523
 53406129, 2.618098, 0.8445347, 0.8269988, 1.311961, 3.127104, 1.585765, 0.7835081, 1.329508
 53606049, 4.400248, 0.6798883, 0.9575822, 1.24894, 2.618098, 0.8445347, 0.8269988, 1.311961
 53805969, 3.833963, 0.02279632, 1.075425, 1.165963, 4.400248, 0.6798883, 0.9575822, 1.24894
 54005889, 4.571969, -0.4989435, 1.162257, 1.111855, 3.833963, 0.02279632, 1.075425, 1.165963
 54205809, 4.873781, -0.01852765, 1.19094, 1.113767, 4.571969, -0.4989435, 1.162257, 1.111855
 54406562, 4.907848, -0.7944156, 1.172752, 1.165232, 4.873781, -0.01852765, 1.19094, 1.113767
 54606482, 4.618048, 0.06526498, 1.127176, 1.232796, 4.907848, -0.7944156, 1.172752, 1.165232
 54806402, 6.183301, 1.048016, 1.105754, 1.287148, 4.618048, 0.06526498, 1.127176, 1.232796
 55006322, 5.514452, 1.600184, 1.089587, 1.316631, 6.183301, 1.048016, 1.105754, 1.287148
 55206242, 6.528793, 1.103697, 1.120127, 1.322671, 5.514452, 1.600184, 1.089587, 1.316631
 55406162, 6.476356, 1.387213, 1.157066, 1.313562, 6.528793, 1.103697, 1.120127, 1.322671
 55606082, 5.818619, 1.228053, 1.189444, 1.302312, 6.476356, 1.387213, 1.157066, 1.313562
 55806002, 7.158481, -0.3639691, 1.232291, 1.300323, 5.818619, 1.228053, 1.189444, 1.302312
 56005922, 7.557771, -0.3084233, 1.250483, 1.311631, 7.158481, -0.3639691, 1.232291, 1.300323
 56205842, 7.956439, 0.4019638, 1.257824, 1.335845, 7.557771, -0.3084233, 1.250483, 1.311631
 56405762, 6.876253, -0.5225934, 1.240058, 1.36398, 7.956439, 0.4019638, 1.257824, 1.335845
 56606515, 7.700528, 0.6140007, 1.24908, 1.38721, 6.876253, -0.5225934, 1.240058, 1.36398
 56806435, 6.883492, 0.4268085, 1.246512, 1.403805, 7.700528, 0.6140007, 1.24908, 1.38721
 57006355, 7.078302, 0.4719359, 1.263494, 1.413238, 6.883492, 0.4268085, 1.246512, 1.403805
 57206275, 7.178493, 0.5427846, 1.284289, 1.419247, 7.078302, 0.4719359, 1.263494, 1.413238
 57406195, 7.254433, 0.376889, 1.309677, 1.431219, 7.178493, 0.5427846, 1.284289, 1.419247
 57606115, 7.22501, 0.2709697, 1.332448, 1.448647, 7.254433, 0.376889, 1.309677, 1.431219
 57806035, 7.444477, 0.4584162, 1.353368, 1.469556, 7.22501, 0.2709697, 1.332448, 1.448647
 58005955, 7.526208, 0.3345976, 1.367054, 1.491181, 7.444477, 0.4584162, 1.353368, 1.469556
 58205875, 7.480419, 0.3869258, 1.378248, 1.512075, 7.526208, 0.3345976, 1.367054, 1.491181
 58405795, 7.60131, 0.4048238, 1.391667, 1.532846, 7.480419, 0.3869258, 1.378248, 1.512075
 58606548, 7.695216, 0.4119687, 1.404393, 1.552652, 7.60131, 0.4048238, 1.391667, 1.532846
 58806468, 7.709855, 0.5946701, 1.411539, 1.563359, 7.695216, 0.4119687, 1.404393, 1.552652
 59006388, 7.746378, 0.5477864, 1.426536, 1.582885, 7.709855, 0.5946701, 1.411539, 1.563359
 59206308, 7.979636, 0.6077542, 1.445563, 1.60063, 7.746378, 0.5477864, 1.426536, 1.582885
 59406228, 7.922541, 0.3869822, 1.46355, 1.617318, 7.979636, 0.6077542, 1.445563, 1.60063
 59606148, 8.013975, 0.6540197, 1.484699, 1.632673, 7.922541, 0.3869822, 1.46355, 1.617318
 59806068, 8.046887, 0.6121637, 1.505085, 1.646833, 8.013975, 0.6540197, 1.484699, 1.632673
 60005988, 8.030446, 0.4101258, 1.525044, 1.660434, 8.046887, 0.6121637, 1.505085, 1.646833
 60205908, 8.185629, 0.5355295, 1.546228, 1.672523, 8.030446, 0.4101258, 1.525044, 1.660434
 60405828, 8.529525, 0.3127084, 1.568047, 1.687396, 8.185629, 0.5355295, 1.546228, 1.672523
 60606581, 8.558593, 0.2366638, 1.584263, 1.703205, 8.529525, 0.3127084, 1.568047, 1.687396
 60806501, 8.644275, 0.2079105, 1.598975, 1.716499, 8.558593, 0.2366638, 1.584263, 1.703205
 61006421, 8.589102, 0.1836033, 1.617131, 1.731031, 8.644275, 0.2079105, 1.598975, 1.716499
 61206341, 8.540951, 0.1699572, 1.633617, 1.737546, 8.589102, 0.1836033, 1.617131, 1.731031
 61406261, 8.526848, 0.306973, 1.651965, 1.740695, 8.540951, 0.1699572, 1.633617, 1.737546
 61606181, 8.613372, 0.25173, 1.671909, 1.742839, 8.526848, 0.306973, 1.651965, 1.740695
 61806101, 8.792147, 0.2825134, 1.691027, 1.744363, 8.613372, 0.25173, 1.671909, 1.742839
 62006021, 8.813581, 0.2902879, 1.706631, 1.746915, 8.792147, 0.2825134, 1.691027, 1.744363
 62205941, 8.844357, 0.02666886, 1.717456, 1.746533, 8.813581, 0.2902879, 1.706631, 1.746915
 62405861, 8.80689, 0.02904692, 1.723656, 1.742762, 8.844357, 0.02666886, 1.717456, 1.746533
 62605781, 8.861567, 0.1397487, 1.729808, 1.737591, 8.80689, 0.02904692, 1.723656, 1.742762
 62806534, 8.895015, 0.06586602, 1.734386, 1.730284, 8.861567, 0.1397487, 1.729808, 1.737591
 63006454, 8.854169, 0.149311, 1.736798, 1.721665, 8.895015, 0.06586602, 1.734386, 1.730284
 63206374, 8.769357, 0.01158282, 1.736789, 1.712622, 8.854169, 0.149311, 1.736798, 1.721665
 63406294, 8.783484, 0.0458762, 1.735813, 1.704084, 8.769357, 0.01158282, 1.736789, 1.712622
 63606214, 8.705692, 0.004768343, 1.731873, 1.696624, 8.783484, 0.0458762, 1.735813, 1.704084
 63806134, 8.737994, -0.2600604, 1.727469, 1.68893, 8.705692, 0.004768343, 1.731873, 1.696624
 64006054, 8.844576, -0.05593634, 1.723279, 1.67959, 8.737994, -0.2600604, 1.727469, 1.68893
 64205974, 8.624145, -0.09268562, 1.715598, 1.669772, 8.844576, -0.05593634, 1.723279, 1.67959
 64405894, 8.683455, 0.09550904, 1.709822, 1.659501, 8.624145, -0.09268562, 1.715598, 1.669772
 64605814, 8.804066, 0.1236667, 1.704089, 1.65005, 8.683455, 0.09550904, 1.709822, 1.659501
 64806567, 8.922286, -0.01725885, 1.697006, 1.640806, 8.804066, 0.1236667, 1.704089, 1.65005
 65006487, 8.753217, 0.1909087, 1.686149, 1.632266, 8.922286, -0.01725885, 1.697006, 1.640806
 65206407, 8.68158, -0.03748002, 1.676588, 1.624146, 8.753217, 0.1909087, 1.686149, 1.632266
 65406327, 8.671642, 0.01060354, 1.667224, 1.616262, 8.68158, -0.03748002, 1.676588, 1.624146
 65606247, 8.537025, 0.0307505, 1.656577, 1.608312, 8.671642, 0.01060354, 1.667224, 1.616262
 65806167, 8.582331, -0.04706616, 1.648209, 1.600734, 8.537025, 0.0307505, 1.656577, 1.608312
 66006087, 8.554494, 0.08353241, 1.638976, 1.59197, 8.582331, -0.04706616, 1.648209, 1.600734
 66206007, 8.510246, 0.08006422, 1.630242, 1.582232, 8.554494, 0.08353241, 1.638976, 1.59197
 66405927, 8.431522, -0.1084298, 1.620787, 1.572232, 8.510246, 0.08006422, 1.630242, 1.582232
 66605847, 8.289042, 0.02102699, 1.61076, 1.56313, 8.431522, -0.1084298, 1.620787, 1.572232
 66805767, 8.383891, 0.00649351, 1.602603, 1.554937, 8.289042, 0.02102699, 1.61076, 1.56313
 67006520, 8.338722, 0.1176699, 1.593204, 1.545849, 8.383891, 0.00649351, 1.602603, 1.554937
 67206440, 8.122146, -0.02138666, 1.582535, 1.536222, 8.338722, 0.1176699, 1.593204, 1.545849
 67406360, 8.044832, 0.02947547, 1.573671, 1.527287, 8.122146, -0.02138666, 1.582535, 1.536222
 67606280, 8.265255, -0.1156908, 1.567353, 1.518468, 8.044832, 0.02947547, 1.573671, 1.527287
 67806200, 8.117781, -0.08056934, 1.557073, 1.50967, 8.265255, -0.1156908, 1.567353, 1.518468
 68006120, 8.121254, -0.1067051, 1.548684, 1.501356, 8.117781, -0.08056934, 1.557073, 1.50967
 68206040, 8.036973, -0.02251264, 1.538967, 1.492442, 8.121254, -0.1067051, 1.548684, 1.501356
 68405960, 7.903363, 0.1218746, 1.528859, 1.483423, 8.036973, -0.02251264, 1.538967, 1.492442
 68605880, 7.89096, 0.2148062, 1.520279, 1.474238, 7.903363, 0.1218746, 1.528859, 1.483423
 68805800, 7.899523, -0.1497552, 1.510795, 1.464476, 7.89096, 0.2148062, 1.520279, 1.474238
 69006553, 7.79131, -0.05268164, 1.49366, 1.450039, 7.899523, -0.1497552, 1.510795, 1.464476
 69206473, 8.016817, 0.02225615, 1.477155, 1.43419, 7.79131, -0.05268164, 1.49366, 1.450039
 69406393, 7.95584, -0.0794415, 1.45861, 1.41891, 8.016817, 0.02225615, 1.477155, 1.43419
 69606313, 7.708205, 0.1546013, 1.44005, 1.403684, 7.95584, -0.0794415, 1.45861, 1.41891
 69806233, 7.598555, 0.1067355, 1.424937, 1.388113, 7.708205, 0.1546013, 1.44005, 1.403684
 70006153, 7.448471, -0.07543965, 1.412044, 1.373566, 7.598555, 0.1067355, 1.424937, 1.388113
 70206073, 7.331605, -0.04153498, 1.400182, 1.359271, 7.448471, -0.07543965, 1.412044, 1.373566
 70405993, 7.430191, 0.02990186, 1.392727, 1.347383, 7.331605, -0.04153498, 1.400182, 1.359271
 70605913, 7.393494, -0.08079077, 1.384078, 1.336899, 7.430191, 0.02990186, 1.392727, 1.347383
 70805833, 7.133171, -0.06281376, 1.377785, 1.332776, 7.393494, -0.08079077, 1.384078, 1.336899
 71006586, 7.212736, 0.06333223, 1.384159, 1.338778, 7.133171, -0.06281376, 1.377785, 1.332776
 71206506, 7.291891, 0.04098247, 1.387845, 1.34232, 7.212736, 0.06333223, 1.384159, 1.338778
 71406426, 7.335503, 0.03585841, 1.388785, 1.342478, 7.291891, 0.04098247, 1.387845, 1.34232
 71606346, 7.227999, -0.0003350386, 1.390342, 1.344484, 7.335503, 0.03585841, 1.388785, 1.342478
 71806266, 7.302006, 0.01729327, 1.397884, 1.350471, 7.227999, -0.0003350386, 1.390342, 1.344484
 72006186, 7.348271, 0.06268147, 1.407298, 1.358778, 7.302006, 0.01729327, 1.397884, 1.350471
 72206106, 7.293658, -0.079919, 1.415806, 1.367439, 7.348271, 0.06268147, 1.407298, 1.358778
 72406026, 7.57708, -0.0572309, 1.431973, 1.37909, 7.293658, -0.079919, 1.415806, 1.367439
 72605946, 7.384465, 0.1037096, 1.446427, 1.393939, 7.57708, -0.0572309, 1.431973, 1.37909
 72805866, 7.31918, 0.0368875, 1.463355, 1.410529, 7.384465, 0.1037096, 1.446427, 1.393939
 73005786, 7.493371, 0.01075019, 1.484077, 1.429196, 7.31918, 0.0368875, 1.463355, 1.410529
 73206539, 7.546935, 0.05150805, 1.50329, 1.449502, 7.493371, 0.01075019, 1.484077, 1.429196
 73406459, 7.585117, 0.003199143, 1.523849, 1.472769, 7.546935, 0.05150805, 1.50329, 1.449502
 73606379, 7.816321, -0.01215407, 1.547394, 1.496662, 7.585117, 0.003199143, 1.523849, 1.472769
 73806299, 7.938049, 0.1114702, 1.5722, 1.522343, 7.816321, -0.01215407, 1.547394, 1.496662
 74006219, 8.016884, 0.07597234, 1.596767, 1.547743, 7.938049, 0.1114702, 1.5722, 1.522343
 74206139, 7.966193, 0.05846175, 1.621667, 1.573843, 8.016884, 0.07597234, 1.596767, 1.547743
 74406059, 8.008893, 0.04437238, 1.648891, 1.601045, 7.966193, 0.05846175, 1.621667, 1.573843
 74605979, 8.11798, -0.1285906, 1.676402, 1.628077, 8.008893, 0.04437238, 1.648891, 1.601045
 74805899, 8.361871, -0.03660264, 1.704388, 1.654345, 8.11798, -0.1285906, 1.676402, 1.628077
 75005819, 8.448195, 0.1168119, 1.730882, 1.681273, 8.361871, -0.03660264, 1.704388, 1.654345
 75206572, 8.646488, 0.1365567, 1.758599, 1.708121, 8.448195, 0.1168119, 1.730882, 1.681273
 75406492, 8.483217, -0.1137059, 1.78248, 1.734491, 8.646488, 0.1365567, 1.758599, 1.708121
 75606412, 8.795288, 0.1079438, 1.810849, 1.760525, 8.483217, -0.1137059, 1.78248, 1.734491
 75806332, 9.073462, 0.1013575, 1.840289, 1.786798, 8.795288, 0.1079438, 1.810849, 1.760525
 76006252, 8.819228, -0.1822791, 1.86293, 1.811704, 9.073462, 0.1013575, 1.840289, 1.786798
 76206172, 8.962474, -0.0674346, 1.887935, 1.835389, 8.819228, -0.1822791, 1.86293, 1.811704
 76406092, 9.178001, -0.00336204, 1.915363, 1.861609, 8.962474, -0.0674346, 1.887935, 1.835389
 76606012, 9.374482, 0.09618907, 1.941496, 1.886659, 9.178001, -0.00336204, 1.915363, 1.861609
 76805932, 9.477757, 0.08613938, 1.966787, 1.911276, 9.374482, 0.09618907, 1.941496, 1.886659
 77005852, 9.690059, 0.04334464, 1.99439, 1.936778, 9.477757, 0.08613938, 1.966787, 1.911276
 77205772, 9.598173, -0.1867357, 2.020414, 1.9637, 9.690059, 0.04334464, 1.99439, 1.936778
 77406525, 9.742477, -0.07612481, 2.047782, 1.989611, 9.598173, -0.1867357, 2.020414, 1.9637
 77606445, 9.722354, -0.043537, 2.073723, 2.015824, 9.742477, -0.07612481, 2.047782, 1.989611
 77806365, 9.920886, -0.001025226, 2.1013, 2.041592, 9.722354, -0.043537, 2.073723, 2.015824
 78006285, 9.906709, 0.03693423, 2.128565, 2.069354, 9.920886, -0.001025226, 2.1013, 2.041592
 78206205, 10.23449, -0.107561, 2.15695, 2.095242, 9.906709, 0.03693423, 2.128565, 2.069354
 78406125, 10.37595, -0.03354606, 2.183013, 2.120657, 10.23449, -0.107561, 2.15695, 2.095242
 78606045, 10.44594, 0.1056238, 2.20936, 2.146684, 10.37595, -0.03354606, 2.183013, 2.120657
 78805965, 10.33932, -0.02038705, 2.231885, 2.170698, 10.44594, 0.1056238, 2.20936, 2.146684
 79005885, 10.65998, -0.121108, 2.255985, 2.192068, 10.33932, -0.02038705, 2.231885, 2.170698
 79205805, 10.893, 0.01880708, 2.276627, 2.210901, 10.65998, -0.121108, 2.255985, 2.192068
 79406558, 10.66162, 0.1428401, 2.292367, 2.229533, 10.893, 0.01880708, 2.276627, 2.210901
 79606478, 11.02456, 0.1561256, 2.310943, 2.245627, 10.66162, 0.1428401, 2.292367, 2.229533
 79806398, 11.08522, -0.01191583, 2.324845, 2.259813, 11.02456, 0.1561256, 2.310943, 2.245627
 80006318, 11.27559, -0.2271969, 2.338445, 2.272265, 11.08522, -0.01191583, 2.324845, 2.259813
 80206238, 11.29641, -0.0810286, 2.355057, 2.28895, 11.27559, -0.2271969, 2.338445, 2.272265
 80406158, 11.49556, 0.02652515, 2.384122, 2.316165, 11.29641, -0.0810286, 2.355057, 2.28895
 80606078, 11.39925, -0.1151235, 2.394002, 2.327236, 11.49556, 0.02652515, 2.384122, 2.316165
 80805998, 11.50241, 0.09271486, 2.390668, 2.323273, 11.39925, -0.1151235, 2.394002, 2.327236
 81005918, 11.37361, 0.1673316, 2.380344, 2.315402, 11.50241, 0.09271486, 2.390668, 2.323273
 81205838, 11.50666, -0.001078013, 2.370975, 2.305843, 11.37361, 0.1673316, 2.380344, 2.315402
 81406591, 11.19517, 0.05535102, 2.355795, 2.293445, 11.50666, -0.001078013, 2.370975, 2.305843
 81606511, 11.0701, 0.1161933, 2.342858, 2.280025, 11.19517, 0.05535102, 2.355795, 2.293445
 81806431, 10.98167, -0.0003253333, 2.325083, 2.261758, 11.0701, 0.1161933, 2.342858, 2.280025
 82006351, 10.92704, -0.1067941, 2.310181, 2.246606, 10.98167, -0.0003253333, 2.325083, 2.261758
 82206271, 10.69512, 0.02823926, 2.292712, 2.230935, 10.92704, -0.1067941, 2.310181, 2.246606
 82406191, 10.90652, 0.2052184, 2.277778, 2.214153, 10.69512, 0.02823926, 2.292712, 2.230935
 82606111, 10.76653, -0.02071036, 2.259978, 2.197588, 10.90652, 0.2052184, 2.277778, 2.214153
 82806031, 10.59289, -0.189954, 2.24155, 2.180857, 10.76653, -0.02071036, 2.259978, 2.197588
 83005951, 10.84648, -0.2552799, 2.22665, 2.163612, 10.59289, -0.189954, 2.24155, 2.180857
 83205871, 10.73451, -0.1435199, 2.20924, 2.145742, 10.84648, -0.2552799, 2.22665, 2.163612
 83405791, 10.57199, 0.03919732, 2.190769, 2.127815, 10.73451, -0.1435199, 2.20924, 2.145742
 83606544, 10.6598, 0.1070259, 2.173562, 2.11054, 10.57199, 0.03919732, 2.190769, 2.127815
 83806464, 10.61809, -0.06346487, 2.156342, 2.093499, 10.6598, 0.1070259, 2.173562, 2.11054
 84006384, 10.39094, 0.01882436, 2.137682, 2.076003, 10.61809, -0.06346487, 2.156342, 2.093499
 84206304, 10.61447, 0.07879788, 2.122406, 2.057727, 10.39094, 0.01882436, 2.137682, 2.076003
 84406224, 10.23719, -0.1476913, 2.102618, 2.040647, 10.61447, 0.07879788, 2.122406, 2.057727
 84606144, 10.32866, -0.125676, 2.086803, 2.023392, 10.23719, -0.1476913, 2.102618, 2.040647
 84806064, 10.37138, -0.09264898, 2.071073, 2.007014, 10.32866, -0.125676, 2.086803, 2.023392
 85005984, 10.3297, 0.1157051, 2.055232, 1.991519, 10.37138, -0.09264898, 2.071073, 2.007014
 85205904, 10.32131, -0.0001345612, 2.040452, 1.976784, 10.3297, 0.1157051, 2.055232, 1.991519
 85405824, 9.989289, -0.1154057, 2.022564, 1.962056, 10.32131, -0.0001345612, 2.040452, 1.976784
 85606577, 9.798935, -0.03909595, 2.003545, 1.944469, 9.989289, -0.1154057, 2.022564, 1.962056
 85806497, 9.896979, -0.1474031, 1.983822, 1.923307, 9.798935, -0.03909595, 2.003545, 1.944469
 86006417, 9.659416, -0.05584496, 1.962591, 1.90419, 9.896979, -0.1474031, 1.983822, 1.923307
 86206337, 9.612888, -0.0714807, 1.945933, 1.888232, 9.659416, -0.05584496, 1.962591, 1.90419
 86406257, 9.49275, -0.1675027, 1.930845, 1.874379, 9.612888, -0.0714807, 1.945933, 1.888232
 86606177, 9.546455, -0.1665002, 1.918721, 1.861493, 9.49275, -0.1675027, 1.930845, 1.874379
 86806097, 9.621714, 0.02683942, 1.910091, 1.851443, 9.546455, -0.1665002, 1.918721, 1.861493
 87006017, 9.349499, 0.01996435, 1.899745, 1.843085, 9.621714, 0.02683942, 1.910091, 1.851443
 87205937, 9.346777, 0.1261774, 1.892833, 1.836005, 9.349499, 0.01996435, 1.899745, 1.843085
 87405857, 9.406974, 0.02131497, 1.889065, 1.831588, 9.346777, 0.1261774, 1.892833, 1.836005
 87605777, 9.408985, -0.04085453, 1.887521, 1.830005, 9.406974, 0.02131497, 1.889065, 1.831588
 87806530, 9.526776, -0.1321774, 1.88805, 1.829895, 9.408985, -0.04085453, 1.887521, 1.830005
 88006450, 9.376322, 0.08972625, 1.887538, 1.831547, 9.526776, -0.1321774, 1.88805, 1.829895
 88206370, 9.201324, -0.003575619, 1.887904, 1.833718, 9.376322, 0.08972625, 1.887538, 1.831547
 88406290, 9.300179, -0.06287141, 1.894103, 1.83903, 9.201324, -0.003575619, 1.887904, 1.833718
 88606210, 9.479476, 0.01278236, 1.902382, 1.845373, 9.300179, -0.06287141, 1.894103, 1.83903
 88806130, 9.430996, 0.1650758, 1.909979, 1.853235, 9.479476, 0.01278236, 1.902382, 1.845373
 89006050, 9.539561, 0.02680626, 1.921656, 1.863936, 9.430996, 0.1650758, 1.909979, 1.853235
 89205970, 9.320122, 0.04822623, 1.928795, 1.873643, 9.539561, 0.02680626, 1.921656, 1.863936
 89405890, 9.469012, -0.1702862, 1.94083, 1.884641, 9.320122, 0.04822623, 1.928795, 1.873643
 89605810, 9.394893, 0.01928411, 1.953802, 1.899103, 9.469012, -0.1702862, 1.94083, 1.884641
 89806563, 9.383935, 0.01707956, 1.966426, 1.912351, 9.394893, 0.01928411, 1.953802, 1.899103
 90006483, 9.568696, 0.1634888, 1.981128, 1.925568, 9.383935, 0.01707956, 1.966426, 1.912351
 90206403, 8.10523, 1.273783, 1.981824, 1.940322, 9.568696, 0.1634888, 1.981128, 1.925568
 90406323, 9.585298, -0.8822261, 2.009917, 1.953809, 8.10523, 1.273783, 1.981824, 1.940322
 90606243, 7.882958, 1.498946, 2.009463, 1.969409, 9.585298, -0.8822261, 2.009917, 1.953809
 90806163, 9.571638, -0.1068796, 2.038351, 1.982786, 7.882958, 1.498946, 2.009463, 1.969409
 91006083, 6.639129, -1.75613, 2.029129, 1.999969, 9.571638, -0.1068796, 2.038351, 1.982786
 91206003, 6.421914, -1.765417, 2.040138, 2.012615, 6.639129, -1.75613, 2.029129, 1.999969
 91405923, 7.3822, -1.066115, 2.057402, 2.02141, 6.421914, -1.765417, 2.040138, 2.012615
 91605843, 9.73843, 1.073303, 2.09013, 2.034473, 7.3822, -1.066115, 2.057402, 2.02141
 91805763, 6.985432, -0.7566628, 2.082634, 2.048957, 9.73843, 1.073303, 2.09013, 2.034473
 92006516, 9.883383, 0.1976182, 2.118074, 2.061279, 6.985432, -0.7566628, 2.082634, 2.048957
 92206436, 8.469282, 1.629562, 2.119742, 2.077965, 9.883383, 0.1976182, 2.118074, 2.061279
 92406356, 6.909264, -0.160243, 2.123299, 2.091188, 8.469282, 1.629562, 2.119742, 2.077965
 92606276, 8.100694, -0.2113563, 2.146013, 2.105208, 6.909264, -0.160243, 2.123299, 2.091188
 92806196, 9.638009, -0.1737924, 2.172951, 2.119256, 8.100694, -0.2113563, 2.146013, 2.105208
 93006116, 6.489858, -1.629991, 2.163679, 2.134756, 9.638009, -0.1737924, 2.172951, 2.119256
 93206036, 7.218197, 0.3383249, 2.18235, 2.147253, 6.489858, -1.629991, 2.163679, 2.134756
 93405956, 8.238698, -1.758117, 2.200868, 2.161427, 7.218197, 0.3383249, 2.18235, 2.147253
 93605876, 7.427491, 1.138197, 2.20759, 2.173378, 8.238698, -1.758117, 2.200868, 2.161427
 93805796, 7.328913, 0.4429927, 2.220401, 2.186471, 7.427491, 1.138197, 2.20759, 2.173378
 94006549, 9.241624, -1.182402, 2.245852, 2.199019, 7.328913, 0.4429927, 2.220401, 2.186471
 94206469, 6.950312, 0.4198445, 2.241834, 2.210164, 9.241624, -1.182402, 2.245852, 2.199019
 94406389, 7.95895, -0.6076521, 2.256477, 2.218544, 6.950312, 0.4198445, 2.241834, 2.210164
 94606309, 6.815282, -1.305192, 2.257363, 2.227581, 7.95895, -0.6076521, 2.256477, 2.218544
 94806229, 9.580109, 0.7136192, 2.283336, 2.234016, 6.815282, -1.305192, 2.257363, 2.227581
 95006149, 7.123298, 0.4261388, 2.270559, 2.238046, 9.580109, 0.7136192, 2.283336, 2.234016
 95206069, 9.682642, 0.1904019, 2.287901, 2.237574, 7.123298, 0.4261388, 2.270559, 2.238046
 95405989, 10.59501, -1.242344, 2.293531, 2.236031, 9.682642, 0.1904019, 2.287901, 2.237574
 95605909, 10.41066, 0.3878732, 2.288382, 2.230731, 10.59501, -1.242344, 2.293531, 2.236031
 95805829, 10.12629, -0.904907, 2.281323, 2.226156, 10.41066, 0.3878732, 2.288382, 2.230731
 96006582, 7.970859, -1.496021, 2.259913, 2.221457, 10.12629, -0.904907, 2.281323, 2.226156
 96206502, 7.923354, -1.536293, 2.25332, 2.214603, 7.970859, -1.496021, 2.259913, 2.221457
 96406422, 9.355634, 1.490945, 2.255253, 2.207984, 7.923354, -1.536293, 2.25332, 2.214603
 96606342, 9.900053, -1.799157, 2.2505, 2.200477, 9.355634, 1.490945, 2.255253, 2.207984
 96806262, 8.260588, 0.3452124, 2.229322, 2.18889, 9.900053, -1.799157, 2.2505, 2.200477
 97006182, 7.186118, -0.07530937, 2.212362, 2.178611, 8.260588, 0.3452124, 2.229322, 2.18889
 97206102, 8.141027, 1.481947, 2.207706, 2.169691, 7.186118, -0.07530937, 2.212362, 2.178611
 97406022, 9.108008, -0.7508918, 2.203351, 2.15697, 8.141027, 1.481947, 2.207706, 2.169691
 97605942, 9.817883, 1.437383, 2.197654, 2.146421, 9.108008, -0.7508918, 2.203351, 2.15697
 97805862, 8.560381, -1.716916, 2.176526, 2.135007, 9.817883, 1.437383, 2.197654, 2.146421
 98005782, 8.869226, -0.5655895, 2.167389, 2.120816, 8.560381, -1.716916, 2.176526, 2.135007
 98206535, 7.427557, -0.8860825, 2.145318, 2.109396, 8.869226, -0.5655895, 2.167389, 2.120816
 98406455, 10.04605, 1.071407, 2.15257, 2.098746, 7.427557, -0.8860825, 2.145318, 2.109396
 98606375, 9.840698, 0.9441596, 2.138553, 2.086928, 10.04605, 1.071407, 2.15257, 2.098746
 98806295, 10.04032, 0.6415858, 2.129798, 2.074476, 9.840698, 0.9441596, 2.138553, 2.086928
 99006215, 9.793117, 0.6509805, 2.116788, 2.062415, 10.04032, 0.6415858, 2.129798, 2.074476
 99206135, 9.726642, 0.8513713, 2.104778, 2.051484, 9.793117, 0.6509805, 2.116788, 2.062415
 99406055, 9.824652, 1.086719, 2.093884, 2.040749, 9.726642, 0.8513713, 2.104778, 2.051484
 99605975, 9.878263, 1.045649, 2.083273, 2.028754, 9.824652, 1.086719, 2.093884, 2.040749
 99805895, 9.711692, 0.7322605, 2.07043, 2.016449, 9.878263, 1.045649, 2.083273, 2.028754
 100005815, 9.672404, 0.842545, 2.058645, 2.005358, 9.711692, 0.7322605, 2.07043, 2.016449
 100206568, 9.857811, 0.9296433, 2.048732, 1.99578, 9.672404, 0.842545, 2.058645, 2.005358
 100406488, 9.609825, 0.9445945, 2.040683, 1.990505, 9.857811, 0.9296433, 2.048732, 1.99578
 100606408, 9.57794, 0.9858193, 2.029842, 1.978501, 9.609825, 0.9445945, 2.040683, 1.990505
 100806328, 9.641251, 0.7545593, 2.019869, 1.965704, 9.57794, 0.9858193, 2.029842, 1.978501
 101006248, 9.353873, 0.5970635, 2.005921, 1.954018, 9.641251, 0.7545593, 2.019869, 1.965704
 101206168, 9.463964, 0.7292006, 1.994891, 1.943601, 9.353873, 0.5970635, 2.005921, 1.954018
 101406088, 9.321722, 0.8543777, 1.982968, 1.93355, 9.463964, 0.7292006, 1.994891, 1.943601
 101606008, 9.362568, 1.034648, 1.972601, 1.922419, 9.321722, 0.8543777, 1.982968, 1.93355
 101805928, 9.503461, 0.8447133, 1.963732, 1.909272, 9.362568, 1.034648, 1.972601, 1.922419
 102005848, 9.190105, 0.6843888, 1.950549, 1.897699, 9.503461, 0.8447133, 1.963732, 1.909272
 102205768, 9.319591, 0.8211555, 1.940166, 1.887608, 9.190105, 0.6843888, 1.950549, 1.897699
 102406521, 9.34538, 0.774375, 1.929145, 1.877346, 9.319591, 0.8211555, 1.940166, 1.887608
 102606441, 9.040553, 0.971423, 1.912767, 1.863373, 9.34538, 0.774375, 1.929145, 1.877346
 102806361, 8.989397, 0.7858586, 1.902111, 1.852567, 9.040553, 0.971423, 1.912767, 1.863373
 103006281, 8.828616, 0.841085, 1.88903, 1.842261, 8.989397, 0.7858586, 1.902111, 1.852567
 103206201, 9.018249, 0.5082449, 1.878679, 1.83079, 8.828616, 0.841085, 1.88903, 1.842261
 103406121, 8.871874, 0.6347467, 1.86653, 1.819396, 9.018249, 0.5082449, 1.878679, 1.83079
 103606041, 8.802489, 0.7899387, 1.856015, 1.808031, 8.871874, 0.6347467, 1.86653, 1.819396
 103805961, 8.877577, 0.6035034, 1.84743, 1.797006, 8.802489, 0.7899387, 1.856015, 1.808031
 104005881, 8.859723, 0.6914465, 1.839124, 1.7885, 8.877577, 0.6035034, 1.84743, 1.797006
 104205801, 8.818706, 0.570344, 1.831046, 1.78052, 8.859723, 0.6914465, 1.839124, 1.7885
 104406554, 8.648969, 0.5984191, 1.821513, 1.773169, 8.818706, 0.570344, 1.831046, 1.78052
 104606474, 8.754925, 0.391773, 1.814428, 1.765617, 8.648969, 0.5984191, 1.821513, 1.773169
 104806394, 8.946985, 0.6039441, 1.809338, 1.75916, 8.754925, 0.391773, 1.814428, 1.765617
 105006314, 8.787434, 0.7086133, 1.800363, 1.751772, 8.946985, 0.6039441, 1.809338, 1.75916
 105206234, 8.642106, 0.7944464, 1.791434, 1.743917, 8.787434, 0.7086133, 1.800363, 1.751772
 105406154, 8.578003, 0.8063188, 1.783316, 1.736116, 8.642106, 0.7944464, 1.791434, 1.743917
 105606074, 8.791345, 0.9511976, 1.777165, 1.72844, 8.578003, 0.8063188, 1.783316, 1.736116
 105805994, 8.552197, 0.9193593, 1.766744, 1.720166, 8.791345, 0.9511976, 1.777165, 1.72844
 106005914, 8.511259, 0.9538729, 1.758555, 1.711742, 8.552197, 0.9193593, 1.766744, 1.720166
 106205834, 8.439708, 0.9416593, 1.750114, 1.703178, 8.511259, 0.9538729, 1.758555, 1.711742
 106406587, 8.573572, 0.8717391, 1.742663, 1.694124, 8.439708, 0.9416593, 1.750114, 1.703178
 106606507, 8.540602, 0.8012387, 1.733206, 1.685257, 8.573572, 0.8717391, 1.742663, 1.694124
 106806427, 8.594841, 0.4780682, 1.72479, 1.676334, 8.540602, 0.8012387, 1.733206, 1.685257
 107006347, 8.51574, 0.5594796, 1.714517, 1.666439, 8.594841, 0.4780682, 1.72479, 1.676334
 107206267, 8.38327, 0.6421165, 1.703787, 1.656445, 8.51574, 0.5594796, 1.714517, 1.666439
 107406187, 8.215896, 0.4734852, 1.692167, 1.645913, 8.38327, 0.6421165, 1.703787, 1.656445
 107606107, 8.251073, 0.5264376, 1.682475, 1.6363, 8.215896, 0.4734852, 1.692167, 1.645913
 107806027, 8.307326, 0.5835151, 1.672425, 1.626339, 8.251073, 0.5264376, 1.682475, 1.6363
 108005947, 8.181508, 0.6286869, 1.661577, 1.616941, 8.307326, 0.5835151, 1.672425, 1.626339
 108205867, 8.05232, 0.7541575, 1.650091, 1.606135, 8.181508, 0.6286869, 1.661577, 1.616941
 108405787, 8.103873, 0.7867871, 1.640859, 1.594724, 8.05232, 0.7541575, 1.650091, 1.606135
 108606540, 8.039355, 0.5617741, 1.630451, 1.583428, 8.103873, 0.7867871, 1.640859, 1.594724
 108806460, 8.119664, 0.3673819, 1.620244, 1.57207, 8.039355, 0.5617741, 1.630451, 1.583428
 109006380, 8.153471, 0.4075676, 1.608984, 1.562589, 8.119664, 0.3673819, 1.620244, 1.57207
 109206300, 7.94145, 0.4474214, 1.595857, 1.552876, 8.153471, 0.4075676, 1.608984, 1.562589
 109406220, 7.791053, 0.7015121, 1.58401, 1.543337, 7.94145, 0.4474214, 1.595857, 1.552876
 109606140, 7.894957, 0.5976342, 1.574149, 1.532513, 7.791053, 0.7015121, 1.58401, 1.543337
 109806060, 7.850277, 0.5916657, 1.562962, 1.52121, 7.894957, 0.5976342, 1.574149, 1.532513
 110005980, 7.817966, 0.6398072, 1.552462, 1.510566, 7.850277, 0.5916657, 1.562962, 1.52121
 110205900, 7.792923, 0.6544889, 1.542025, 1.498973, 7.817966, 0.6398072, 1.552462, 1.510566
 110405820, 7.54995, 0.7015715, 1.529319, 1.487753, 7.792923, 0.6544889, 1.542025, 1.498973
 110606573, 7.473834, 0.5801653, 1.51806, 1.477311, 7.54995, 0.7015715, 1.529319, 1.487753
 110806493, 7.434881, 0.5558658, 1.506591, 1.466546, 7.473834, 0.5801653, 1.51806, 1.477311
 111006413, 7.406498, 0.6105897, 1.495992, 1.456405, 7.434881, 0.5558658, 1.506591, 1.466546
 111206333, 7.350023, 0.4140777, 1.485339, 1.444865, 7.406498, 0.6105897, 1.495992, 1.456405
 111406253, 7.324805, 0.4625695, 1.475603, 1.434219, 7.350023, 0.4140777, 1.485339, 1.444865
 111606173, 7.23527, 0.600266, 1.464019, 1.423353, 7.324805, 0.4625695, 1.475603, 1.434219
 111806093, 7.240509, 0.5362852, 1.453737, 1.412991, 7.23527, 0.600266, 1.464019, 1.423353
 112006013, 7.300478, 0.5788542, 1.443512, 1.402568, 7.240509, 0.5362852, 1.453737, 1.412991
 112205933, 7.346093, 0.4621376, 1.433658, 1.39214, 7.300478, 0.5788542, 1.443512, 1.402568
 112405853, 7.277366, 0.5828759, 1.422583, 1.381695, 7.346093, 0.4621376, 1.433658, 1.39214
 112605773, 7.062204, 0.6871887, 1.410851, 1.371497, 7.277366, 0.5828759, 1.422583, 1.381695
 112806526, 6.995735, 0.4673973, 1.400386, 1.360578, 7.062204, 0.6871887, 1.410851, 1.371497
 113006446, 7.137587, 0.3536736, 1.391828, 1.350243, 6.995735, 0.4673973, 1.400386, 1.360578
 113206366, 6.988273, 0.479185, 1.380705, 1.340568, 7.137587, 0.3536736, 1.391828, 1.350243
 113406286, 7.101193, 0.5540965, 1.372265, 1.331238, 6.988273, 0.479185, 1.380705, 1.340568
 113606206, 7.126088, 0.3935895, 1.363095, 1.321555, 7.101193, 0.5540965, 1.372265, 1.331238
 113806126, 6.989064, 0.5478735, 1.352337, 1.312038, 7.126088, 0.3935895, 1.363095, 1.321555
 114006046, 6.883461, 0.5742908, 1.342926, 1.303455, 6.989064, 0.5478735, 1.352337, 1.312038
 114205966, 6.838958, 0.6502367, 1.334551, 1.295496, 6.883461, 0.5742908, 1.342926, 1.303455
 114405886, 6.944399, 0.6839392, 1.328067, 1.287832, 6.838958, 0.6502367, 1.334551, 1.295496
 114605806, 6.866888, 0.6026659, 1.320383, 1.280621, 6.944399, 0.6839392, 1.328067, 1.287832
 114806559, 6.8191, 0.468222, 1.313441, 1.274093, 6.866888, 0.6026659, 1.320383, 1.280621
 115006479, 6.719385, 0.5463592, 1.306181, 1.26809, 6.8191, 0.468222, 1.313441, 1.274093
 115206399, 6.768248, 0.6384704, 1.300653, 1.262222, 6.719385, 0.5463592, 1.306181, 1.26809
 115406319, 6.749437, 0.400131, 1.294744, 1.255342, 6.768248, 0.6384704, 1.300653, 1.262222
 115606239, 6.895608, 0.4326614, 1.290122, 1.249165, 6.749437, 0.400131, 1.294744, 1.255342
 115806159, 6.693837, 0.3091572, 1.282084, 1.243828, 6.895608, 0.4326614, 1.290122, 1.249165
 116006079, 6.672267, 0.2993413, 1.276403, 1.237919, 6.693837, 0.3091572, 1.282084, 1.243828
 116205999, 6.792738, 0.318034, 1.272256, 1.231856, 6.672267, 0.2993413, 1.276403, 1.237919
 116405919, 6.685827, 0.4532505, 1.266368, 1.226696, 6.792738, 0.318034, 1.272256, 1.231856
 116605839, 6.50797, 0.5428165, 1.259878, 1.221841, 6.685827, 0.4532505, 1.266368, 1.226696
 116806592, 6.404715, 0.568395, 1.254341, 1.217426, 6.50797, 0.5428165, 1.259878, 1.221841
 117006512, 6.421252, 0.5410603, 1.249199, 1.212594, 6.404715, 0.568395, 1.254341, 1.217426
 117206432, 6.549117, 0.3568846, 1.245607, 1.20743, 6.421252, 0.5410603, 1.249199, 1.212594
 117406352, 6.416248, 0.5179334, 1.239817, 1.202761, 6.549117, 0.3568846, 1.245607, 1.20743
 117606272, 6.432766, 0.5591983, 1.235471, 1.197979, 6.416248, 0.5179334, 1.239817, 1.202761
 117806192, 6.346299, 0.52592, 1.229845, 1.193618, 6.432766, 0.5591983, 1.235471, 1.197979
 118006112, 6.379427, 0.3818799, 1.225581, 1.189007, 6.346299, 0.52592, 1.229845, 1.193618
 118206032, 6.435669, 0.5020665, 1.221803, 1.184008, 6.379427, 0.3818799, 1.225581, 1.189007
 118405952, 6.461281, 0.4170831, 1.217223, 1.179316, 6.435669, 0.5020665, 1.221803, 1.184008
 118605872, 6.532028, 0.5020775, 1.212532, 1.175123, 6.461281, 0.4170831, 1.217223, 1.179316
 118805792, 6.405674, 0.3943525, 1.206441, 1.169621, 6.532028, 0.5020775, 1.212532, 1.175123
 119006545, 6.461648, 0.5125959, 1.202891, 1.164566, 6.405674, 0.3943525, 1.206441, 1.169621
 119206465, 6.371899, 0.4741374, 1.197057, 1.158908, 6.461648, 0.5125959, 1.202891, 1.164566
 119406385, 6.219128, 0.3610393, 1.190725, 1.153547, 6.371899, 0.4741374, 1.197057, 1.158908
 119606305, 6.276822, 0.4821454, 1.186948, 1.149104, 6.219128, 0.3610393, 1.190725, 1.153547
 119806225, 6.261983, 0.4781699, 1.182127, 1.14427, 6.276822, 0.4821454, 1.186948, 1.149104
 120006145, 6.15824, 0.407492, 1.176264, 1.140122, 6.261983, 0.4781699, 1.182127, 1.14427
 120206065, 6.135062, 0.3943766, 1.170931, 1.135706, 6.15824, 0.407492, 1.176264, 1.140122
 120405985, 6.200745, 0.2852022, 1.166563, 1.13126, 6.135062, 0.3943766, 1.170931, 1.135706
 120605905, 6.208489, 0.4096805, 1.161277, 1.126637, 6.200745, 0.2852022, 1.166563, 1.13126
 120805825, 6.133636, 0.5092555, 1.155305, 1.121425, 6.208489, 0.4096805, 1.161277, 1.126637
 121006578, 6.143607, 0.4471813, 1.150708, 1.116004, 6.133636, 0.5092555, 1.155305, 1.121425
 121206498, 6.176794, 0.427184, 1.146612, 1.110419, 6.143607, 0.4471813, 1.150708, 1.116004
 121406418, 6.140304, 0.468753, 1.142166, 1.10502, 6.176794, 0.427184, 1.146612, 1.110419
 121606338, 6.208543, 0.4579656, 1.137828, 1.099487, 6.140304, 0.468753, 1.142166, 1.10502
 121806258, 6.119778, 0.4138616, 1.131995, 1.094056, 6.208543, 0.4579656, 1.137828, 1.099487
 122006178, 6.089453, 0.4401853, 1.12719, 1.089282, 6.119778, 0.4138616, 1.131995, 1.094056
 122206098, 6.084312, 0.3682919, 1.122773, 1.084628, 6.089453, 0.4401853, 1.12719, 1.089282
 122406018, 6.088495, 0.5055075, 1.118236, 1.080131, 6.084312, 0.3682919, 1.122773, 1.084628
 122605938, 6.039016, 0.5737031, 1.112229, 1.07581, 6.088495, 0.5055075, 1.118236, 1.080131
 122805858, 5.853221, 0.4036375, 1.103701, 1.070912, 6.039016, 0.5737031, 1.112229, 1.07581
 123005778, 5.957668, 0.3562781, 1.099022, 1.066468, 5.853221, 0.4036375, 1.103701, 1.070912
 123206531, 5.967204, 0.4217112, 1.092096, 1.060157, 5.957668, 0.3562781, 1.099022, 1.066468
 123406451, 5.798054, 0.4553958, 1.076239, 1.04456, 5.967204, 0.4217112, 1.092096, 1.060157
 123606371, 5.767434, 0.4720492, 1.061712, 1.027864, 5.798054, 0.4553958, 1.076239, 1.04456
 123806291, 5.668571, 0.4919134, 1.0462, 1.01114, 5.767434, 0.4720492, 1.061712, 1.027864
 124006211, 5.696783, 0.5060584, 1.029593, 0.9926638, 5.668571, 0.4919134, 1.0462, 1.01114
 124206131, 5.661373, 0.3650123, 1.011538, 0.9738902, 5.696783, 0.5060584, 1.029593, 0.9926638
 124406051, 5.61699, 0.2674512, 0.9935597, 0.9557747, 5.661373, 0.3650123, 1.011538, 0.9738902
 124605971, 5.439606, 0.2626429, 0.9730172, 0.9367402, 5.61699, 0.2674512, 0.9935597, 0.9557747
 124805891, 5.344082, 0.4349551, 0.9533552, 0.917405, 5.439606, 0.2626429, 0.9730172, 0.9367402
 125005811, 5.118944, 0.3786027, 0.9343014, 0.8998889, 5.344082, 0.4349551, 0.9533552, 0.917405
 125206564, 5.022333, 0.3406084, 0.9180047, 0.8830714, 5.118944, 0.3786027, 0.9343014, 0.8998889
 125406484, 5.010678, 0.3415074, 0.9050196, 0.8688321, 5.022333, 0.3406084, 0.9180047, 0.8830714
 125606404, 4.901457, 0.2647247, 0.8925741, 0.8570178, 5.010678, 0.3415074, 0.9050196, 0.8688321
 125806324, 4.726428, 0.3882318, 0.8825392, 0.8492661, 4.901457, 0.2647247, 0.8925741, 0.8570178
 126006244, 4.531235, 0.3959575, 0.874002, 0.8432629, 4.726428, 0.3882318, 0.8825392, 0.8492661
 126206164, 4.480747, 0.3197598, 0.8682795, 0.8380498, 4.531235, 0.3959575, 0.874002, 0.8432629
 126406084, 4.2837, 0.278754, 0.8623482, 0.834462, 4.480747, 0.3197598, 0.8682795, 0.8380498
 126606004, 4.15081, 0.2304688, 0.8579432, 0.8313944, 4.2837, 0.278754, 0.8623482, 0.834462
 126805924, 4.051177, 0.281699, 0.85473, 0.8292802, 4.15081, 0.2304688, 0.8579432, 0.8313944
 127005844, 3.832809, 0.2611252, 0.8499405, 0.8271481, 4.051177, 0.281699, 0.85473, 0.8292802
 127205764, 3.805269, 0.2963049, 0.847681, 0.8255858, 3.832809, 0.2611252, 0.8499405, 0.8271481
 127406517, 3.743989, 0.3257025, 0.8440346, 0.8231757, 3.805269, 0.2963049, 0.847681, 0.8255858
 127606437, 3.542034, 0.3472739, 0.8395388, 0.8212914, 3.743989, 0.3257025, 0.8440346, 0.8231757
 127806357, 3.38533, 0.2727718, 0.8358874, 0.8192053, 3.542034, 0.3472739, 0.8395388, 0.8212914
 128006277, 3.379122, 0.3119382, 0.8339956, 0.8170657, 3.38533, 0.2727718, 0.8358874, 0.8192053
 128206197, 3.236434, 0.3150887, 0.8313468, 0.8154891, 3.379122, 0.3119382, 0.8339956, 0.8170657
 128406117, 3.277336, 0.4214544, 0.830738, 0.8144304, 3.236434, 0.3150887, 0.8313468, 0.8154891
 128606037, 3.177243, 0.330164, 0.8292463, 0.8137118, 3.277336, 0.4214544, 0.830738, 0.8144304
 128805957, 3.07846, 0.3125425, 0.828378, 0.8137968, 3.177243, 0.330164, 0.8292463, 0.8137118
 129005877, 3.152147, 0.3213858, 0.8299862, 0.8147835, 3.07846, 0.3125425, 0.828378, 0.8137968
