TimeUS,COFN,COFE,CNe,CEe,POFN,POFE,PNe,PEe
 8040949, 0.03694408, 0.02330383, 0.09741662, 0.0482171, 0, 0, 0, 0
 8220877, -0.006434309, 0.006648168, 0.09739286, 0.04819769, 0.03694408, 0.02330383, 0.09741662, 0.0482171
 8420797, -0.01097461, 0.001060387, 0.097394, 0.04819672, -0.006434309, 0.006648168, 0.09739286, 0.04819769
 8620717, -0.005633453, 0.008200951, 0.09739386, 0.04819614, -0.01097461, 0.001060387, 0.097394, 0.04819672
 8820637, -0.01215208, 0.006094894, 0.09739739, 0.0481922, -0.005633453, 0.008200951, 0.09739386, 0.04819614
 9020557, -0.0162966, 0.007516824, 0.09740204, 0.04818788, -0.01215208, 0.006094894, 0.09739739, 0.0481922
 9220477, -0.008436936, -0.0002459844, 0.09739836, 0.04818604, -0.0162966, 0.007516824, 0.09740204, 0.04818788
 9420397, -0.00783805, -0.001941616, 0.09739904, 0.04818444, -0.008436936, -0.0002459844, 0.09739836, 0.04818604
 9620317, -0.01767992, 0.00329038, 0.09740512, 0.04818171, -0.00783805, -0.001941616, 0.09739904, 0.04818444
 9820237, -0.006496219, 0.006315065, 0.09739945, 0.04818423, -0.01767992, 0.00329038, 0.09740512, 0.04818171
 10020157, -0.0080772, 0.005343079, 0.09739943, 0.04818471, -0.006496219, 0.006315065, 0.09739945, 0.04818423
 10220910, -0.002775891, 0.002232647, 0.09739827, 0.04818404, -0.0080772, 0.005343079, 0.09739943, 0.04818471
 10420830, -0.005322142, 0.01221527, 0.09740118, 0.04818428, -0.002775891, 0.002232647, 0.09739827, 0.04818404
 10620750, -0.012737, 0.01012928, 0.09740418, 0.04818143, -0.005322142, 0.01221527, 0.09740118, 0.04818428
 10820670, -0.003401017, 0.008578247, 0.09739941, 0.04818443, -0.012737, 0.01012928, 0.09740418, 0.04818143
 11020590, -0.005143855, -0.005117937, 0.09739758, 0.04818692, -0.003401017, 0.008578247, 0.09739941, 0.04818443
 11220510, -0.007735305, 0.005647787, 0.09739799, 0.04818754, -0.005143855, -0.005117937, 0.09739758, 0.04818692
 11420430, -0.01661312, 0.007333419, 0.09740298, 0.04818626, -0.007735305, 0.005647787, 0.09739799, 0.04818754
 11620350, -0.01408147, 0.001153477, 0.09740004, 0.04818739, -0.01661312, 0.007333419, 0.09740298, 0.04818626
 11820270, -0.006754874, 0.003822581, 0.09739719, 0.04818801, -0.01408147, 0.001153477, 0.09740004, 0.04818739
 12020190, -0.008376962, 0.008758711, 0.09739941, 0.04818672, -0.006754874, 0.003822581, 0.09739719, 0.04818801
 12220943, -0.007354667, 0.00441439, 0.09739864, 0.04818556, -0.008376962, 0.008758711, 0.09739941, 0.04818672
 12420863, -0.001437107, 0.008370616, 0.09739754, 0.04818774, -0.007354667, 0.00441439, 0.09739864, 0.04818556
 12620783, -0.006235745, 0.01007632, 0.09739833, 0.04818865, -0.001437107, 0.008370616, 0.09739754, 0.04818774
 12820703, -0.01352867, 0.001975059, 0.09739897, 0.04818908, -0.006235745, 0.01007632, 0.09739833, 0.04818865
 13020623, -0.01502315, 0.004330366, 0.0973993, 0.04819053, -0.01352867, 0.001975059, 0.09739897, 0.04818908
 13220543, -0.003254829, 0.002600715, 0.09739394, 0.04819298, -0.01502315, 0.004330366, 0.0973993, 0.04819053
 13420463, -0.01005428, 0.009590184, 0.09739777, 0.04819173, -0.003254829, 0.002600715, 0.09739394, 0.04819298
 13620383, -0.007987446, 0.001405845, 0.09739649, 0.0481896, -0.01005428, 0.009590184, 0.09739777, 0.04819173
 13820303, -0.0174458, 0.002548476, 0.09740205, 0.04818745, -0.007987446, 0.001405845, 0.09739649, 0.0481896
 14020223, -0.01314579, 0.007785348, 0.09740002, 0.04818867, -0.0174458, 0.002548476, 0.09740205, 0.04818745
 14220976, -0.009635969, 0.003483868, 0.09739751, 0.04818901, -0.01314579, 0.007785348, 0.09740002, 0.04818867
 14420896, -0.01592827, 0.01086353, 0.09740388, 0.04818599, -0.009635969, 0.003483868, 0.09739751, 0.04818901
 14620816, -0.01009597, 0.008647008, 0.09740171, 0.04818315, -0.01592827, 0.01086353, 0.09740388, 0.04818599
 14820736, -0.01069546, 0.00588124, 0.09740277, 0.04818004, -0.01009597, 0.008647008, 0.09740171, 0.04818315
 15020656, -0.006793155, 0.004273103, 0.09740084, 0.04818074, -0.01069546, 0.00588124, 0.09740277, 0.04818004
 15220576, -0.0064634, 0.0102102, 0.09740154, 0.04818237, -0.006793155, 0.004273103, 0.09740084, 0.04818074
 15420496, -0.006898925, 0.005671488, 0.097401, 0.04818103, -0.0064634, 0.0102102, 0.09740154, 0.04818237
 15620416, -0.01671948, 0.006373605, 0.09740645, 0.04817891, -0.006898925, 0.005671488, 0.097401, 0.04818103
 15820336, -0.01077343, 0.01139643, 0.09740356, 0.04818198, -0.01671948, 0.006373605, 0.09740645, 0.04817891
 16020256, -0.01194014, -0.0008017672, 0.09740159, 0.04818216, -0.01077343, 0.01139643, 0.09740356, 0.04818198
 16220176, -0.01090876, 0.00535059, 0.09740157, 0.04818238, -0.01194014, -0.0008017672, 0.09740159, 0.04818216
 16420929, -0.01639878, -0.001217325, 0.09740324, 0.04818354, -0.01090876, 0.00535059, 0.09740157, 0.04818238
 16620849, -0.01105374, 0.01362225, 0.09740261, 0.04818621, -0.01639878, -0.001217325, 0.09740324, 0.04818354
 16820769, -0.01021709, -0.001213645, 0.09739796, 0.04818812, -0.01105374, 0.01362225, 0.09740261, 0.04818621
 17020689, -0.009011231, 0.005379552, 0.09739836, 0.04818749, -0.01021709, -0.001213645, 0.09739796, 0.04818812
 17220609, -0.01029971, 0.008004602, 0.09739983, 0.04818672, -0.009011231, 0.005379552, 0.09739836, 0.04818749
 17420529, -0.01217416, 0.004213338, 0.09740104, 0.04818413, -0.01029971, 0.008004602, 0.09739983, 0.04818672
 17620449, -0.01388757, 0.006575802, 0.09740339, 0.04818195, -0.01217416, 0.004213338, 0.09740104, 0.04818413
 17820369, -0.006253006, 0.003282882, 0.09739922, 0.04818351, -0.01388757, 0.006575802, 0.09740339, 0.04818195
 18020289, -0.007711226, 0.003675808, 0.0973992, 0.04818442, -0.006253006, 0.003282882, 0.09739922, 0.04818351
 18220209, -0.01644952, 0.005133324, 0.09740386, 0.0481833, -0.007711226, 0.003675808, 0.0973992, 0.04818442
 18420962, -0.01539347, -0.0002337294, 0.09740256, 0.04818367, -0.01644952, 0.005133324, 0.09740386, 0.0481833
 18620882, -0.006111798, 0.0118509, 0.09740129, 0.04818405, -0.01539347, -0.0002337294, 0.09740256, 0.04818367
 18820802, -0.003553825, 0.006436029, 0.09740016, 0.04818175, -0.006111798, 0.0118509, 0.09740129, 0.04818405
 19020722, -0.01224304, 0.01305684, 0.09740524, 0.04818135, -0.003553825, 0.006436029, 0.09740016, 0.04818175
 19220642, -0.00839049, 0.001931566, 0.09740069, 0.04818145, -0.01224304, 0.01305684, 0.09740524, 0.04818135
 19420562, -0.006388198, -0.004406542, 0.09739982, 0.04818267, -0.00839049, 0.001931566, 0.09740069, 0.04818145
 19620482, -0.0004832771, 0.006385643, 0.0971389, 0.04870589, -0.006388198, -0.004406542, 0.09739982, 0.04818267
 19820402, -0.006619222, 0.008990772, 0.09667064, 0.04963178, -0.0004832771, 0.006385643, 0.0971389, 0.04870589
 20020322, -0.008271156, 0.00698219, 0.09599099, 0.0509336, -0.006619222, 0.008990772, 0.09667064, 0.04963178
 20220242, -0.01279246, 0.004381565, 0.09517742, 0.05244039, -0.008271156, 0.00698219, 0.09599099, 0.0509336
 20420162, -0.007441381, 0.005888647, 0.0942962, 0.05400583, -0.01279246, 0.004381565, 0.09517742, 0.05244039
 20620915, -0.0007433214, 0.009958419, 0.09340742, 0.05552923, -0.007441381, 0.005888647, 0.0942962, 0.05400583
 20820835, -0.007209971, 0.001341136, 0.09254804, 0.05694855, -0.0007433214, 0.009958419, 0.09340742, 0.05552923
 21020755, 0.05744093, -0.012001, 0.09181048, 0.05823509, -0.007209971, 0.001341136, 0.09254804, 0.05694855
 21220675, 0.1661545, -0.03336133, 0.09162631, 0.05930715, 0.05744093, -0.012001, 0.09181048, 0.05823509
 21420595, 0.3537163, -0.06094536, 0.0931695, 0.05998671, 0.1661545, -0.03336133, 0.09162631, 0.05930715
 21620515, 0.5841366, -0.1095169, 0.0973358, 0.06021926, 0.3537163, -0.06094536, 0.0931695, 0.05998671
 21820435, 0.8655752, -0.1510271, 0.1049828, 0.06005248, 0.5841366, -0.1095169, 0.0973358, 0.06021926
 22020355, 1.154528, -0.1822178, 0.1148477, 0.05994274, 0.8655752, -0.1510271, 0.1049828, 0.06005248
 22220275, 1.41548, -0.2043466, 0.1248621, 0.0603479, 1.154528, -0.1822178, 0.1148477, 0.05994274
 22420195, 1.645826, -0.2052202, 0.1343162, 0.06161914, 1.41548, -0.2043466, 0.1248621, 0.0603479
 22620948, 1.871933, -0.2122167, 0.1445217, 0.06439751, 1.645826, -0.2052202, 0.1343162, 0.06161914
 22820868, 2.057375, -0.2045176, 0.1525381, 0.06667612, 1.871933, -0.2122167, 0.1445217, 0.06439751
 23020788, 2.310678, -0.2026273, 0.1650792, 0.07472833, 2.057375, -0.2045176, 0.1525381, 0.06667612
 23220708, 2.473516, -0.1899165, 0.1791195, 0.0946853, 2.310678, -0.2026273, 0.1650792, 0.07472833
 23420628, 2.664421, -0.1722873, 0.2050233, 0.1254141, 2.473516, -0.1899165, 0.1791195, 0.0946853
 23620548, 2.850947, -0.1985708, 0.2374001, 0.1600937, 2.664421, -0.1722873, 0.2050233, 0.1254141
 23820468, 3.084203, -0.2002067, 0.276624, 0.1976458, 2.850947, -0.1985708, 0.2374001, 0.1600937
 24020388, 3.240057, -0.1974832, 0.3195271, 0.2396591, 3.084203, -0.2002067, 0.276624, 0.1976458
 24220308, 3.377062, -0.2395802, 0.3709812, 0.2856848, 3.240057, -0.1974832, 0.3195271, 0.2396591
 24420228, 3.534743, -0.2781497, 0.4284516, 0.3406384, 3.377062, -0.2395802, 0.3709812, 0.2856848
 24620148, 3.66666, -0.2164774, 0.4906499, 0.3962156, 3.534743, -0.2781497, 0.4284516, 0.3406384
 24820901, 3.675589, -0.2850466, 0.5575033, 0.4533856, 3.66666, -0.2164774, 0.4906499, 0.3962156
 25020821, 3.760861, -0.292538, 0.6314477, 0.5157627, 3.675589, -0.2850466, 0.5575033, 0.4533856
 25220741, 3.80907, -0.2741222, 0.7045428, 0.5817316, 3.760861, -0.292538, 0.6314477, 0.5157627
 25420661, 3.849145, -0.3055825, 0.7856027, 0.646955, 3.80907, -0.2741222, 0.7045428, 0.5817316
 25620581, 3.878084, -0.2909648, 0.8754432, 0.7161965, 3.849145, -0.3055825, 0.7856027, 0.646955
 25820501, 3.984319, -0.2419534, 0.9665728, 0.7898223, 3.878084, -0.2909648, 0.8754432, 0.7161965
 26020421, 3.88785, -0.3984179, 1.050078, 0.8619799, 3.984319, -0.2419534, 0.9665728, 0.7898223
 26220341, 3.968461, -0.3306884, 1.131941, 0.9334828, 3.88785, -0.3984179, 1.050078, 0.8619799
 26420261, 4.032385, -0.3043953, 1.211766, 1.006732, 3.968461, -0.3306884, 1.131941, 0.9334828
 26620181, 3.902314, -0.2460352, 1.293551, 1.078592, 4.032385, -0.3043953, 1.211766, 1.006732
 26820934, 3.972981, -0.3712901, 1.37578, 1.146986, 3.902314, -0.2460352, 1.293551, 1.078592
 27020854, 3.834788, -0.2065183, 1.449817, 1.213691, 3.972981, -0.3712901, 1.37578, 1.146986
 27220774, 3.81333, -0.1809252, 1.5255, 1.275398, 3.834788, -0.2065183, 1.449817, 1.213691
 27420694, 3.934967, -0.3928893, 1.601359, 1.331514, 3.81333, -0.1809252, 1.5255, 1.275398
 27620614, 3.895695, -0.2982591, 1.679198, 1.385977, 3.934967, -0.3928893, 1.601359, 1.331514
 27820534, 4.093513, -0.2361147, 1.758141, 1.436671, 3.895695, -0.2982591, 1.679198, 1.385977
 28020454, 3.957775, -0.1765925, 1.83804, 1.487238, 4.093513, -0.2361147, 1.758141, 1.436671
 28220374, 3.785486, -0.3527803, 1.915375, 1.536574, 3.957775, -0.1765925, 1.83804, 1.487238
 28420294, 3.894034, -0.2396991, 1.991851, 1.583706, 3.785486, -0.3527803, 1.915375, 1.536574
 28620214, 4.004478, -0.2902596, 2.039955, 1.630748, 3.894034, -0.2396991, 1.991851, 1.583706
 28820967, 3.849213, -0.1158324, 2.061139, 1.701489, 4.004478, -0.2902596, 2.039955, 1.630748
 29020887, 3.737277, -0.0772993, 2.248625, 1.80142, 3.849213, -0.1158324, 2.061139, 1.701489
 29220807, 3.833054, -0.5226555, 2.390138, 1.888915, 3.737277, -0.0772993, 2.248625, 1.80142
 29420727, 3.582952, -0.5443414, 2.349293, 1.925308, 3.833054, -0.5226555, 2.390138, 1.888915
 29620647, 3.506068, -0.5540425, 2.244095, 1.934921, 3.582952, -0.5443414, 2.349293, 1.925308
 29820567, 3.588138, -0.1717331, 2.171412, 1.942754, 3.506068, -0.5540425, 2.244095, 1.934921
 30020487, 3.679099, -0.3062134, 2.129821, 1.97289, 3.588138, -0.1717331, 2.171412, 1.942754
 30220407, 3.812247, -0.1018266, 2.112505, 2.00246, 3.679099, -0.3062134, 2.129821, 1.97289
 30420327, 3.712108, 0.0735707, 2.091705, 2.039099, 3.812247, -0.1018266, 2.112505, 2.00246
 30620247, 3.534132, 0.032419, 2.065444, 2.078859, 3.712108, 0.0735707, 2.091705, 2.039099
 30820167, 3.348634, 0.05520524, 2.038147, 2.109108, 3.534132, 0.032419, 2.065444, 2.078859
 31020920, 3.423722, 0.07647463, 2.01928, 2.120439, 3.348634, 0.05520524, 2.038147, 2.109108
 31220840, 3.25157, 0.2785259, 2.009117, 2.122721, 3.423722, 0.07647463, 2.01928, 2.120439
 31420760, 3.258361, 0.2604248, 2.002054, 2.124185, 3.25157, 0.2785259, 2.009117, 2.122721
 31620680, 3.460617, 0.1441819, 1.993441, 2.123685, 3.258361, 0.2604248, 2.002054, 2.124185
 31820600, 3.2917, 0.0190865, 1.979952, 2.118807, 3.460617, 0.1441819, 1.993441, 2.123685
 32020520, 3.084765, 0.1479437, 1.95931, 2.113981, 3.2917, 0.0190865, 1.979952, 2.118807
 32220440, 3.094834, 0.03570517, 1.939976, 2.105244, 3.084765, 0.1479437, 1.95931, 2.113981
 32420360, 3.075342, 0.1835257, 1.916805, 2.098081, 3.094834, 0.03570517, 1.939976, 2.105244
 32620280, 3.329662, 0.4321507, 1.893501, 2.090915, 3.075342, 0.1835257, 1.916805, 2.098081
 32820200, 3.033598, 0.3083329, 1.867608, 2.080935, 3.329662, 0.4321507, 1.893501, 2.090915
 33020953, 3.342067, 0.320858, 1.843022, 2.068999, 3.033598, 0.3083329, 1.867608, 2.080935
 33220873, 3.409677, 0.0913782, 1.815935, 2.057503, 3.342067, 0.320858, 1.843022, 2.068999
 33420793, 3.470685, 0.1189727, 1.790317, 2.045092, 3.409677, 0.0913782, 1.815935, 2.057503
 33620713, 3.429247, 0.2462713, 1.764612, 2.031784, 3.470685, 0.1189727, 1.790317, 2.045092
 33820633, 3.251858, 0.1593208, 1.739925, 2.014915, 3.429247, 0.2462713, 1.764612, 2.031784
 34020553, 3.458303, 0.1539185, 1.713696, 2.000418, 3.251858, 0.1593208, 1.739925, 2.014915
 34220473, 3.563744, 0.2339296, 1.694098, 1.980924, 3.458303, 0.1539185, 1.713696, 2.000418
 34420393, 3.205851, 0.2812451, 1.670744, 1.963056, 3.563744, 0.2339296, 1.694098, 1.980924
 34620313, 3.538656, 0.2945858, 1.650018, 1.943736, 3.205851, 0.2812451, 1.670744, 1.963056
 34820233, 3.447069, 0.4171912, 1.62933, 1.922656, 3.538656, 0.2945858, 1.650018, 1.943736
 35020153, 3.52432, 0.2856777, 1.607814, 1.903772, 3.447069, 0.4171912, 1.62933, 1.922656
 35220906, 3.423721, 0.3418404, 1.594458, 1.87798, 3.52432, 0.2856777, 1.607814, 1.903772
 35420826, 3.411529, 0.2197557, 1.574862, 1.857968, 3.423721, 0.3418404, 1.594458, 1.87798
 35620746, 3.344409, 0.3945647, 1.55527, 1.838774, 3.411529, 0.2197557, 1.574862, 1.857968
 35820666, 3.473475, 0.2230521, 1.540367, 1.816316, 3.344409, 0.3945647, 1.55527, 1.838774
 36020586, 3.529756, 0.2874216, 1.526987, 1.793055, 3.473475, 0.2230521, 1.540367, 1.816316
 36220506, 3.705322, 0.2152615, 1.512344, 1.770445, 3.529756, 0.2874216, 1.526987, 1.793055
 36420426, 3.521113, 0.278303, 1.49722, 1.747144, 3.705322, 0.2152615, 1.512344, 1.770445
 36620346, 3.532555, 0.1997474, 1.48046, 1.728451, 3.521113, 0.278303, 1.49722, 1.747144
 36820266, 3.398147, 0.3854852, 1.467094, 1.705909, 3.532555, 0.1997474, 1.48046, 1.728451
 37020186, 3.506286, 0.4427758, 1.451575, 1.684706, 3.398147, 0.3854852, 1.467094, 1.705909
 37220939, 3.549669, 0.3304526, 1.440544, 1.662872, 3.506286, 0.4427758, 1.451575, 1.684706
 37420859, 3.471425, 0.3602901, 1.431325, 1.64232, 3.549669, 0.3304526, 1.440544, 1.662872
 37620779, 3.69436, 0.1699765, 1.419904, 1.626361, 3.471425, 0.3602901, 1.431325, 1.64232
 37820699, 3.586317, 0.3985091, 1.407215, 1.612721, 3.69436, 0.1699765, 1.419904, 1.626361
 38020619, 3.814017, 0.4157089, 1.398811, 1.596137, 3.586317, 0.3985091, 1.407215, 1.612721
 38220539, 3.716532, 0.1944676, 1.388521, 1.581443, 3.814017, 0.4157089, 1.398811, 1.596137
 38420459, 3.699515, 0.1788603, 1.37754, 1.568216, 3.716532, 0.1944676, 1.388521, 1.581443
 38620379, 3.756694, 0.2799443, 1.366498, 1.554659, 3.699515, 0.1788603, 1.37754, 1.568216
 38820299, 3.6337, 0.2178884, 1.356538, 1.54134, 3.756694, 0.2799443, 1.366498, 1.554659
 39020219, 3.691447, 0.2644911, 1.34976, 1.529588, 3.6337, 0.2178884, 1.356538, 1.54134
 39220972, 3.705541, 0.3222286, 1.341286, 1.520622, 3.691447, 0.2644911, 1.34976, 1.529588
 39420892, 3.692796, 0.3534424, 1.332752, 1.510457, 3.705541, 0.3222286, 1.341286, 1.520622
 39620812, 3.790788, 0.1706347, 1.324673, 1.502389, 3.692796, 0.3534424, 1.332752, 1.510457
 39820732, 3.580979, 0.1818112, 1.317208, 1.493517, 3.790788, 0.1706347, 1.324673, 1.502389
 40020652, 3.711029, 0.3551785, 1.309746, 1.486079, 3.580979, 0.1818112, 1.317208, 1.493517
 40220572, 3.697818, 0.1503869, 1.305079, 1.476241, 3.711029, 0.3551785, 1.309746, 1.486079
 40420492, 3.622818, 0.1837416, 1.297994, 1.46982, 3.697818, 0.1503869, 1.305079, 1.476241
 40620412, 3.706921, 0.1820951, 1.293966, 1.463151, 3.622818, 0.1837416, 1.297994, 1.46982
 40820332, 3.633137, 0.2557946, 1.290465, 1.460757, 3.706921, 0.1820951, 1.293966, 1.463151
 41020252, 3.596492, 0.2415019, 1.293316, 1.463911, 3.633137, 0.2557946, 1.290465, 1.460757
 41220172, 3.818101, 0.3022476, 1.29958, 1.469254, 3.596492, 0.2415019, 1.293316, 1.463911
 41420925, 3.709109, 0.2632156, 1.303237, 1.474355, 3.818101, 0.3022476, 1.29958, 1.469254
 41620845, 3.911035, 0.1963175, 1.306293, 1.482163, 3.709109, 0.2632156, 1.303237, 1.474355
 41820765, 3.770852, 0.2402668, 1.311391, 1.487498, 3.911035, 0.1963175, 1.306293, 1.482163
 42020685, 3.725811, 0.2627706, 1.315209, 1.494287, 3.770852, 0.2402668, 1.311391, 1.487498
 42220605, 3.777241, 0.2644031, 1.321887, 1.502765, 3.725811, 0.2627706, 1.315209, 1.494287
 42420525, 3.851002, 0.3741487, 1.328729, 1.512153, 3.777241, 0.2644031, 1.321887, 1.502765
 42620445, 3.675564, 0.3770366, 1.335114, 1.518133, 3.851002, 0.3741487, 1.328729, 1.512153
 42820365, 3.585935, 0.38818, 1.339231, 1.52719, 3.675564, 0.3770366, 1.335114, 1.518133
 43020285, 3.655571, 0.301755, 1.345737, 1.536366, 3.585935, 0.38818, 1.339231, 1.52719
 43220205, 3.735695, 0.2181786, 1.354275, 1.544141, 3.655571, 0.301755, 1.345737, 1.536366
 43420958, 3.77613, 0.3626273, 1.362514, 1.553172, 3.735695, 0.2181786, 1.354275, 1.544141
 43620878, 3.789938, 0.2278599, 1.370375, 1.562987, 3.77613, 0.3626273, 1.362514, 1.553172
 43820798, 3.801242, 0.2661413, 1.378928, 1.573765, 3.789938, 0.2278599, 1.370375, 1.562987
 44020718, 3.731857, 0.2740548, 1.386017, 1.583122, 3.801242, 0.2661413, 1.378928, 1.573765
 44220638, 3.726184, 0.3027672, 1.395502, 1.591886, 3.731857, 0.2740548, 1.386017, 1.583122
 44420558, 3.787403, 0.4530197, 1.401716, 1.606501, 3.726184, 0.3027672, 1.395502, 1.591886
 44620478, 3.937633, 0.3884427, 1.410962, 1.61919, 3.787403, 0.4530197, 1.401716, 1.606501
 44820398, 3.637034, 0.3666187, 1.421069, 1.629993, 3.937633, 0.3884427, 1.410962, 1.61919
 45020318, 3.74369, 0.235973, 1.429026, 1.643196, 3.637034, 0.3666187, 1.421069, 1.629993
 45220238, 3.604638, 0.3003803, 1.439276, 1.653638, 3.74369, 0.235973, 1.429026, 1.643196
 45420158, 3.796545, 0.2808118, 1.450802, 1.665465, 3.604638, 0.3003803, 1.439276, 1.653638
 45620911, 3.862483, 0.2939354, 1.459756, 1.679621, 3.796545, 0.2808118, 1.450802, 1.665465
 45820831, 3.724815, 0.3359486, 1.471639, 1.69088, 3.862483, 0.2939354, 1.459756, 1.679621
 46020751, 3.686207, 0.3448003, 1.482756, 1.703258, 3.724815, 0.3359486, 1.471639, 1.69088
 46220671, 3.741251, 0.4633781, 1.497466, 1.714507, 3.686207, 0.3448003, 1.482756, 1.703258
 46420591, 3.823862, 0.256683, 1.510688, 1.727012, 3.741251, 0.4633781, 1.497466, 1.714507
 46620511, 3.730106, 0.3721787, 1.52477, 1.736709, 3.823862, 0.256683, 1.510688, 1.727012
 46820431, 3.731778, 0.1305786, 1.537895, 1.745905, 3.730106, 0.3721787, 1.52477, 1.736709
 47020351, 3.562474, 0.3934875, 1.550899, 1.757465, 3.731778, 0.1305786, 1.537895, 1.745905
 47220271, 3.827149, 0.3717079, 1.564749, 1.76957, 3.562474, 0.3934875, 1.550899, 1.757465
 47420191, 3.681046, 0.2587022, 1.573632, 1.783595, 3.827149, 0.3717079, 1.564749, 1.76957
 47620944, 3.754266, 0.2083563, 1.588594, 1.792796, 3.681046, 0.2587022, 1.573632, 1.783595
 47820864, 3.837749, 0.3887138, 1.597164, 1.805192, 3.754266, 0.2083563, 1.588594, 1.792796
 48020784, 3.670114, 0.1120375, 1.600392, 1.810464, 3.837749, 0.3887138, 1.597164, 1.805192
 48220704, 3.942497, 0.1455271, 1.606303, 1.812781, 3.670114, 0.1120375, 1.600392, 1.810464
 48420624, 3.657265, 0.1844096, 1.606007, 1.814698, 3.942497, 0.1455271, 1.606303, 1.812781
 48620544, 3.973872, 0.1858765, 1.614839, 1.813416, 3.657265, 0.1844096, 1.606007, 1.814698
 48820464, 3.923538, 0.3636114, 1.618758, 1.814832, 3.973872, 0.1858765, 1.614839, 1.813416
 49020384, 3.791749, 0.3974149, 1.619581, 1.817866, 3.923538, 0.3636114, 1.618758, 1.814832
 49220304, 3.781649, 0.2682975, 1.624776, 1.817689, 3.791749, 0.3974149, 1.619581, 1.817866
 49420224, 3.868423, 0.3847276, 1.626916, 1.819457, 3.781649, 0.2682975, 1.624776, 1.817689
 49620977, 3.771655, 0.3547241, 1.631202, 1.819734, 3.868423, 0.3847276, 1.626916, 1.819457
 49820897, 3.789522, 0.3628694, 1.632835, 1.822928, 3.771655, 0.3547241, 1.631202, 1.819734
 50020817, 3.719192, 0.3462598, 1.637752, 1.823751, 3.789522, 0.3628694, 1.632835, 1.822928
 50220737, 3.670023, 0.4721179, 1.639892, 1.827249, 3.719192, 0.3462598, 1.637752, 1.823751
 50420657, 3.670202, 0.3380712, 1.640899, 1.830088, 3.670023, 0.4721179, 1.639892, 1.827249
 50620577, 3.999364, 0.3390136, 1.645199, 1.832956, 3.670202, 0.3380712, 1.640899, 1.830088
 50820497, 3.795141, 0.2218122, 1.648975, 1.832164, 3.999364, 0.3390136, 1.645199, 1.832956
 51020417, 3.680871, 0.1638617, 1.650414, 1.832916, 3.795141, 0.2218122, 1.648975, 1.832164
 51220337, 3.673824, 0.172969, 1.651306, 1.837255, 3.680871, 0.1638617, 1.650414, 1.832916
 51420257, 3.807142, 0.3527697, 1.654957, 1.833671, 3.673824, 0.172969, 1.651306, 1.837255
 51620177, 3.837211, 0.1341713, 1.653857, 1.829419, 3.807142, 0.3527697, 1.654957, 1.833671
 51820930, 3.887188, 0.2190831, 1.648611, 1.82585, 3.837211, 0.1341713, 1.653857, 1.829419
 52020850, 3.924645, 0.4543449, 1.646136, 1.82064, 3.887188, 0.2190831, 1.648611, 1.82585
 52220770, 3.83436, 0.207115, 1.641683, 1.816706, 3.924645, 0.4543449, 1.646136, 1.82064
 52420690, 3.794152, 0.2099423, 1.638206, 1.811997, 3.83436, 0.207115, 1.641683, 1.816706
 52620610, 3.858589, 0.2780231, 1.638354, 1.805882, 3.794152, 0.2099423, 1.638206, 1.811997
 52820530, 3.795456, 0.3118137, 1.632361, 1.803819, 3.858589, 0.2780231, 1.638354, 1.805882
 53020450, 3.791555, 0.1551934, 1.627837, 1.799578, 3.795456, 0.3118137, 1.632361, 1.803819
 53220370, 3.69259, 0.0956829, 1.623752, 1.794075, 3.791555, 0.1551934, 1.627837, 1.799578
 53420290, 3.827942, 0.2050806, 1.618246, 1.790357, 3.69259, 0.0956829, 1.623752, 1.794075
 53620210, 3.878873, 0.0614433, 1.614837, 1.786387, 3.827942, 0.2050806, 1.618246, 1.790357
 53820963, 3.97228, 0.219237, 1.616217, 1.779489, 3.878873, 0.0614433, 1.614837, 1.786387
 54020883, 3.870776, 0.3419895, 1.613037, 1.773049, 3.97228, 0.219237, 1.616217, 1.779489
 54220803, 4.007928, 0.3126976, 1.610616, 1.768661, 3.870776, 0.3419895, 1.613037, 1.773049
 54420723, 3.624377, 0.3909664, 1.603963, 1.763845, 4.007928, 0.3126976, 1.610616, 1.768661
 54620643, 3.708527, 0.3050811, 1.597073, 1.760431, 3.624377, 0.3909664, 1.603963, 1.763845
 54820563, 3.743299, 0.1867696, 1.600451, 1.756619, 3.708527, 0.3050811, 1.597073, 1.760431
 55020483, 3.755296, 0.2200544, 1.604957, 1.760169, 3.743299, 0.1867696, 1.600451, 1.756619
 55220403, 3.827788, 0.1311948, 1.611163, 1.76578, 3.755296, 0.2200544, 1.604957, 1.760169
 55420323, 3.81914, 0.3001696, 1.618093, 1.770414, 3.827788, 0.1311948, 1.611163, 1.76578
 55620243, 3.857959, 0.04004352, 1.620864, 1.779917, 3.81914, 0.3001696, 1.618093, 1.770414
 55820163, 3.906678, 0.2667168, 1.626146, 1.786196, 3.857959, 0.04004352, 1.620864, 1.779917
 56020916, 3.833773, 0.2501935, 1.634408, 1.789954, 3.906678, 0.2667168, 1.626146, 1.786196
 56220836, 3.776544, 0.201018, 1.641538, 1.796275, 3.833773, 0.2501935, 1.634408, 1.789954
 56420756, 3.717628, 0.3472819, 1.647603, 1.802997, 3.776544, 0.201018, 1.641538, 1.796275
 56620676, 3.621982, 0.07894468, 1.649876, 1.811944, 3.717628, 0.3472819, 1.647603, 1.802997
 56820596, 3.779859, 0.2465286, 1.657514, 1.817971, 3.621982, 0.07894468, 1.649876, 1.811944
 57020516, 3.770951, 0.333892, 1.66387, 1.823868, 3.779859, 0.2465286, 1.657514, 1.817971
 57220436, 3.742501, 0.2820654, 1.667958, 1.831924, 3.770951, 0.333892, 1.66387, 1.823868
 57420356, 3.78528, 0.301171, 1.679922, 1.835685, 3.742501, 0.2820654, 1.667958, 1.831924
 57620276, 3.91439, 0.2321012, 1.687334, 1.844403, 3.78528, 0.301171, 1.679922, 1.835685
 57820196, 3.689707, 0.3332834, 1.691058, 1.853129, 3.91439, 0.2321012, 1.687334, 1.844403
 58020949, 3.805487, 0.1328747, 1.697728, 1.859635, 3.689707, 0.3332834, 1.691058, 1.853129
 58220869, 3.805105, 0.08834613, 1.704319, 1.8656, 3.805487, 0.1328747, 1.697728, 1.859635
 58420789, 3.743787, 0.09801161, 1.710156, 1.872571, 3.805105, 0.08834613, 1.704319, 1.8656
 58620709, 3.759012, 0.2840086, 1.71864, 1.876897, 3.743787, 0.09801161, 1.710156, 1.872571
 58820629, 3.753325, 0.3590662, 1.721553, 1.889039, 3.759012, 0.2840086, 1.71864, 1.876897
 59020549, 3.877373, 0.3781824, 1.72825, 1.898141, 3.753325, 0.3590662, 1.721553, 1.889039
 59220469, 3.765026, 0.1493297, 1.736196, 1.905162, 3.877373, 0.3781824, 1.72825, 1.898141
 59420389, 3.794889, 0.3352018, 1.743447, 1.910527, 3.765026, 0.1493297, 1.736196, 1.905162
 59620309, 3.831519, 0.2265135, 1.748929, 1.916847, 3.794889, 0.3352018, 1.743447, 1.910527
 59820229, 3.753792, 0.4078041, 1.754721, 1.922929, 3.831519, 0.2265135, 1.748929, 1.916847
 60020149, 3.908363, 0.1701189, 1.76637, 1.925188, 3.753792, 0.4078041, 1.754721, 1.922929
 60220902, 3.856101, 0.1607491, 1.770103, 1.933744, 3.908363, 0.1701189, 1.76637, 1.925188
 60420822, 3.960562, 0.2444635, 1.778806, 1.939775, 3.856101, 0.1607491, 1.770103, 1.933744
 60620742, 3.824584, 0.1518148, 1.786772, 1.945734, 3.960562, 0.2444635, 1.778806, 1.939775
 60820662, 3.779833, 0.3499964, 1.794819, 1.950322, 3.824584, 0.1518148, 1.786772, 1.945734
 61020582, 3.989004, 0.06334342, 1.799949, 1.959488, 3.779833, 0.3499964, 1.794819, 1.950322
 61220502, 3.739606, 0.3506298, 1.808129, 1.963136, 3.989004, 0.06334342, 1.799949, 1.959488
 61420422, 3.879606, 0.3176258, 1.817314, 1.967883, 3.739606, 0.3506298, 1.808129, 1.963136
 61620342, 3.743401, 0.1588639, 1.835069, 1.9636, 3.879606, 0.3176258, 1.817314, 1.967883
 61820262, 3.743937, 0.1416935, 1.922082, 1.970862, 3.743401, 0.1588639, 1.835069, 1.9636
 62020182, 3.965156, 0.02034571, 2.154503, 2.163001, 3.743937, 0.1416935, 1.922082, 1.970862
 62220935, 3.959456, 0.0460126, 2.730035, 2.587531, 3.965156, 0.02034571, 2.154503, 2.163001
 62420855, 3.993153, -0.3021744, 3.985308, 3.332675, 3.959456, 0.0460126, 2.730035, 2.587531
 62620775, 2.935843, -0.3512647, 4.568355, 3.083462, 3.993153, -0.3021744, 3.985308, 3.332675
 62820695, 2.994598, -1.159202, 4.528977, 2.262352, 2.935843, -0.3512647, 4.568355, 3.083462
 63020615, 3.243287, -0.9264394, 4.386245, 1.554557, 2.994598, -1.159202, 4.528977, 2.262352
 63220535, 2.630352, -1.786929, 4.310354, 1.05901, 3.243287, -0.9264394, 4.386245, 1.554557
 63420455, 2.714004, -1.775291, 4.263936, 0.6964209, 2.630352, -1.786929, 4.310354, 1.05901
 63620375, 2.621129, -1.694195, 4.19736, 0.3915858, 2.714004, -1.775291, 4.263936, 0.6964209
 63820295, 2.622721, -1.973854, 4.119799, 0.1217226, 2.621129, -1.694195, 4.19736, 0.3915858
 64020215, 2.630464, -2.179859, 4.042139, -0.1157229, 2.622721, -1.973854, 4.119799, 0.1217226
 64220968, 1.905283, -2.098091, 3.945257, -0.3460032, 2.630464, -2.179859, 4.042139, -0.1157229
 64420888, 2.142541, -2.539825, 3.856306, -0.5773363, 1.905283, -2.098091, 3.945257, -0.3460032
 64620808, 1.774676, -2.851966, 3.76215, -0.7950535, 2.142541, -2.539825, 3.856306, -0.5773363
 64820728, 1.567011, -2.813901, 3.641612, -0.9939888, 1.774676, -2.851966, 3.76215, -0.7950535
 65020648, 1.511978, -2.899388, 3.517127, -1.177864, 1.567011, -2.813901, 3.641612, -0.9939888
 65220568, 1.29038, -2.40268, 3.390135, -1.343104, 1.511978, -2.899388, 3.517127, -1.177864
 65420488, 1.327183, -2.620409, 3.233793, -1.481537, 1.29038, -2.40268, 3.390135, -1.343104
 65620408, 1.331556, -2.718215, 3.03066, -1.576973, 1.327183, -2.620409, 3.233793, -1.481537
 65820328, 0.7846524, -2.853971, 2.82279, -1.650652, 1.331556, -2.718215, 3.03066, -1.576973
 66020248, 0.9294289, -2.915804, 2.612524, -1.702934, 0.7846524, -2.853971, 2.82279, -1.650652
 66220168, 0.5908015, -3.032399, 2.421868, -1.736807, 0.9294289, -2.915804, 2.612524, -1.702934
 66420921, 0.3434925, -2.920159, 2.278497, -1.784378, 0.5908015, -3.032399, 2.421868, -1.736807
 66620841, 0.5459222, -2.935204, 2.157135, -1.833153, 0.3434925, -2.920159, 2.278497, -1.784378
 66820761, 0.05929669, -3.213344, 2.042335, -1.875269, 0.5459222, -2.935204, 2.157135, -1.833153
 67020681, 0.1250117, -3.229861, 1.936368, -1.90605, 0.05929669, -3.213344, 2.042335, -1.875269
 67220601, 0.0461133, -3.017457, 1.83461, -1.931646, 0.1250117, -3.229861, 1.936368, -1.90605
 67420521, 0.09416507, -3.076179, 1.742706, -1.953474, 0.0461133, -3.017457, 1.83461, -1.931646
 67620441, -0.03780621, -3.340321, 1.659701, -1.97359, 0.09416507, -3.076179, 1.742706, -1.953474
 67820361, -0.1458394, -3.287586, 1.589121, -1.984093, -0.03780621, -3.340321, 1.659701, -1.97359
 68020281, -0.4773608, -3.537582, 1.524364, -1.997677, -0.1458394, -3.287586, 1.589121, -1.984093
 68220201, -0.3925912, -3.657584, 1.467842, -2.009256, -0.4773608, -3.537582, 1.524364, -1.997677
 68420954, -0.4219653, -3.444934, 1.42201, -2.019312, -0.3925912, -3.657584, 1.467842, -2.009256
 68620874, -0.5474706, -3.653922, 1.380835, -2.033209, -0.4219653, -3.444934, 1.42201, -2.019312
 68820794, -0.6981989, -3.662212, 1.352062, -2.041706, -0.5474706, -3.653922, 1.380835, -2.033209
 69020714, -0.6844639, -3.705978, 1.327703, -2.051445, -0.6981989, -3.662212, 1.352062, -2.041706
 69220634, -0.8488743, -3.505336, 1.309042, -2.058185, -0.6844639, -3.705978, 1.327703, -2.051445
 69420554, -0.6996027, -3.743138, 1.293861, -2.064926, -0.8488743, -3.505336, 1.309042, -2.058185
 69620474, -0.7835714, -3.724599, 1.286981, -2.067077, -0.6996027, -3.743138, 1.293861, -2.064926
 69820394, -0.9538936, -3.737868, 1.283472, -2.067812, -0.7835714, -3.724599, 1.286981, -2.067077
 70020314, -0.7137843, -3.885487, 1.277903, -2.068691, -0.9538936, -3.737868, 1.283472, -2.067812
 70220234, -0.8812922, -3.75965, 1.279051, -2.065606, -0.7137843, -3.885487, 1.277903, -2.068691
 70420154, -0.8205889, -4.001484, 1.285567, -2.064413, -0.8812922, -3.75965, 1.279051, -2.065606
 70620907, -0.961444, -3.691076, 1.294952, -2.059656, -0.8205889, -4.001484, 1.285567, -2.064413
 70820827, -0.7163082, -3.828359, 1.306803, -2.05321, -0.961444, -3.691076, 1.294952, -2.059656
 71020747, -0.9041589, -3.887199, 1.316606, -2.046692, -0.7163082, -3.828359, 1.306803, -2.05321
 71220667, -0.6982766, -3.807952, 1.327676, -2.038385, -0.9041589, -3.887199, 1.316606, -2.046692
 71420587, -0.8363735, -3.701619, 1.347769, -2.024966, -0.6982766, -3.807952, 1.327676, -2.038385
 71620507, -0.5622257, -4.009994, 1.363657, -2.010992, -0.8363735, -3.701619, 1.347769, -2.024966
 71820427, -0.6719697, -3.763793, 1.377552, -1.996424, -0.5622257, -4.009994, 1.363657, -2.010992
 72020347, -0.6335816, -3.869643, 1.386504, -1.980863, -0.6719697, -3.763793, 1.377552, -1.996424
 72220267, -0.6182848, -3.770309, 1.403089, -1.963298, -0.6335816, -3.869643, 1.386504, -1.980863
 72420187, -0.4779168, -3.889406, 1.419705, -1.945853, -0.6182848, -3.770309, 1.403089, -1.963298
 72620940, -0.6208214, -3.869682, 1.436036, -1.925692, -0.4779168, -3.889406, 1.419705, -1.945853
 72820860, -0.4225841, -3.756777, 1.451877, -1.904149, -0.6208214, -3.869682, 1.436036, -1.925692
 73020780, -0.3744118, -3.901994, 1.46515, -1.884071, -0.4225841, -3.756777, 1.451877, -1.904149
 73220700, -0.3005183, -3.956454, 1.477844, -1.865035, -0.3744118, -3.901994, 1.46515, -1.884071
 73420620, -0.4204911, -3.936244, 1.494162, -1.842881, -0.3005183, -3.956454, 1.477844, -1.865035
 73620540, -0.4940195, -3.842661, 1.505968, -1.825846, -0.4204911, -3.936244, 1.494162, -1.842881
 73820460, -0.4209569, -3.852685, 1.51853, -1.807557, -0.4940195, -3.842661, 1.505968, -1.825846
 74020380, -0.272787, -3.801138, 1.532938, -1.790558, -0.4209569, -3.852685, 1.51853, -1.807557
 74220300, -0.2183351, -3.940316, 1.550947, -1.775728, -0.272787, -3.801138, 1.532938, -1.790558
 74420220, -0.2699043, -3.688401, 1.564589, -1.762094, -0.2183351, -3.940316, 1.550947, -1.775728
 74620973, -0.09739327, -3.998258, 1.582292, -1.748527, -0.2699043, -3.688401, 1.564589, -1.762094
 74820893, -0.3001029, -3.850392, 1.595745, -1.736915, -0.09739327, -3.998258, 1.582292, -1.748527
 75020813, -0.2882077, -3.720265, 1.609636, -1.72411, -0.3001029, -3.850392, 1.595745, -1.736915
 75220733, -0.07756591, -3.750933, 1.626192, -1.712634, -0.2882077, -3.720265, 1.609636, -1.72411
 75420653, 0.1358241, -3.706065, 1.642116, -1.703876, -0.07756591, -3.750933, 1.626192, -1.712634
 75620573, -0.06491099, -3.926972, 1.656335, -1.696508, 0.1358241, -3.706065, 1.642116, -1.703876
 75820493, -0.04881275, -3.608187, 1.669533, -1.689336, -0.06491099, -3.926972, 1.656335, -1.696508
 76020413, -0.1035301, -3.705066, 1.682242, -1.682802, -0.04881275, -3.608187, 1.669533, -1.689336
 76220333, 0.0491517, -3.87945, 1.699173, -1.675815, -0.1035301, -3.705066, 1.682242, -1.682802
 76420253, 0.03904714, -3.887637, 1.70844, -1.676781, 0.0491517, -3.87945, 1.699173, -1.675815
 76620173, 0.265411, -3.749645, 1.722008, -1.672264, 0.03904714, -3.887637, 1.70844, -1.676781
 76820926, 0.0669687, -3.780046, 1.73261, -1.673192, 0.265411, -3.749645, 1.722008, -1.672264
 77020846, 0.1556192, -3.782731, 1.746572, -1.66941, 0.0669687, -3.780046, 1.73261, -1.673192
 77220766, 0.2320502, -3.697963, 1.758042, -1.667523, 0.1556192, -3.782731, 1.746572, -1.66941
 77420686, 0.3185624, -3.744735, 1.766663, -1.668296, 0.2320502, -3.697963, 1.758042, -1.667523
 77620606, 0.1650369, -3.600193, 1.768402, -1.660286, 0.3185624, -3.744735, 1.766663, -1.668296
 77820526, -0.01743998, -3.630194, 1.767615, -1.649759, 0.1650369, -3.600193, 1.768402, -1.660286
 78020446, 0.3545091, -3.876446, 1.765842, -1.641488, -0.01743998, -3.630194, 1.767615, -1.649759
 78220366, 0.2303291, -3.851595, 1.764415, -1.631445, 0.3545091, -3.876446, 1.765842, -1.641488
 78420286, 0.1580209, -3.740942, 1.761408, -1.622955, 0.2303291, -3.851595, 1.764415, -1.631445
 78620206, 0.1976745, -3.816891, 1.756412, -1.616267, 0.1580209, -3.740942, 1.761408, -1.622955
 78820959, 0.3563992, -3.861883, 1.752309, -1.606685, 0.1976745, -3.816891, 1.756412, -1.616267
 79020879, 0.3330554, -3.877893, 1.747067, -1.600303, 0.3563992, -3.861883, 1.752309, -1.606685
 79220799, 0.0310927, -3.706714, 1.742748, -1.590126, 0.3330554, -3.877893, 1.747067, -1.600303
 79420719, 0.43301, -3.923195, 1.735074, -1.583236, 0.0310927, -3.706714, 1.742748, -1.590126
 79620639, 0.2495213, -3.733258, 1.728681, -1.573383, 0.43301, -3.923195, 1.735074, -1.583236
 79820559, 0.09968225, -3.669058, 1.723137, -1.564781, 0.2495213, -3.733258, 1.728681, -1.573383
 80020479, 0.2243854, -3.77385, 1.713381, -1.561357, 0.09968225, -3.669058, 1.723137, -1.564781
 80220399, 0.3099006, -3.809981, 1.706129, -1.554281, 0.2243854, -3.77385, 1.713381, -1.561357
 80420319, 0.3296457, -3.814434, 1.700387, -1.545053, 0.3099006, -3.809981, 1.706129, -1.554281
 80620239, 0.356886, -3.819564, 1.692795, -1.538084, 0.3296457, -3.814434, 1.700387, -1.545053
 80820159, 0.1180886, -3.816272, 1.683952, -1.532007, 0.356886, -3.819564, 1.692795, -1.538084
 81020912, 0.2338824, -3.735981, 1.677873, -1.52723, 0.1180886, -3.816272, 1.683952, -1.532007
 81220832, 0.3010614, -3.906996, 1.676231, -1.527528, 0.2338824, -3.735981, 1.677873, -1.52723
 81420752, 0.3196203, -3.718977, 1.672876, -1.528611, 0.3010614, -3.906996, 1.676231, -1.527528
 81620672, 0.157485, -3.877815, 1.674759, -1.52893, 0.3196203, -3.718977, 1.672876, -1.528611
 81820592, 0.2907498, -3.690773, 1.672509, -1.530835, 0.157485, -3.877815, 1.674759, -1.52893
 82020512, 0.1595441, -3.826136, 1.668912, -1.532114, 0.2907498, -3.690773, 1.672509, -1.530835
 82220432, 0.1633469, -3.845054, 1.666375, -1.531851, 0.1595441, -3.826136, 1.668912, -1.532114
 82420352, 0.2541375, -3.856445, 1.662142, -1.532061, 0.1633469, -3.845054, 1.666375, -1.531851
 82620272, 0.2704824, -3.59189, 1.658505, -1.5303, 0.2541375, -3.856445, 1.662142, -1.532061
 82820192, 0.290361, -3.694835, 1.6582, -1.528762, 0.2704824, -3.59189, 1.658505, -1.5303
 83020945, 0.2748931, -3.849247, 1.655425, -1.528228, 0.290361, -3.694835, 1.6582, -1.528762
 83220865, 0.03104661, -3.787035, 1.653746, -1.526943, 0.2748931, -3.849247, 1.655425, -1.528228
 83420785, 0.198181, -3.735867, 1.651006, -1.526266, 0.03104661, -3.787035, 1.653746, -1.526943
 83620705, 0.3200194, -3.956675, 1.647881, -1.52957, 0.198181, -3.735867, 1.651006, -1.526266
 83820625, 0.1236297, -3.732133, 1.645962, -1.526113, 0.3200194, -3.956675, 1.647881, -1.52957
 84020545, 0.2961397, -3.804871, 1.641342, -1.525659, 0.1236297, -3.732133, 1.645962, -1.526113
 84220465, 0.132749, -4.010849, 1.635475, -1.525576, 0.2961397, -3.804871, 1.641342, -1.525659
 84420385, 0.3675113, -3.792128, 1.629821, -1.523461, 0.132749, -4.010849, 1.635475, -1.525576
 84620305, 0.2310441, -3.664996, 1.627334, -1.519267, 0.3675113, -3.792128, 1.629821, -1.523461
 84820225, 0.1937691, -3.790185, 1.623217, -1.5186, 0.2310441, -3.664996, 1.627334, -1.519267
 85020145, 0.2790342, -3.726527, 1.621922, -1.513301, 0.1937691, -3.790185, 1.623217, -1.5186
 85220898, 0.05151011, -3.709147, 1.617349, -1.510134, 0.2790342, -3.726527, 1.621922, -1.513301
 85420818, 0.2741885, -3.893158, 1.611487, -1.50914, 0.05151011, -3.709147, 1.617349, -1.510134
 85620738, 0.08201985, -3.776376, 1.608582, -1.504813, 0.2741885, -3.893158, 1.611487, -1.50914
 85820658, 0.1478784, -3.869493, 1.606542, -1.500792, 0.08201985, -3.776376, 1.608582, -1.504813
 86020578, 0.2917985, -3.965431, 1.602899, -1.496797, 0.1478784, -3.869493, 1.606542, -1.500792
 86220498, 0.193183, -3.89111, 1.59797, -1.491735, 0.2917985, -3.965431, 1.602899, -1.496797
 86420418, 0.1795801, -3.875784, 1.593888, -1.487621, 0.193183, -3.89111, 1.59797, -1.491735
 86620338, 0.3142767, -3.856444, 1.590714, -1.484424, 0.1795801, -3.875784, 1.593888, -1.487621
 86820258, 0.08167032, -3.803687, 1.58837, -1.480213, 0.3142767, -3.856444, 1.590714, -1.484424
 87020178, 0.2467903, -3.777948, 1.582958, -1.476467, 0.08167032, -3.803687, 1.58837, -1.480213
 87220931, 0.2610064, -3.752649, 1.579283, -1.471341, 0.2467903, -3.777948, 1.582958, -1.476467
 87420851, 0.0171721, -3.990578, 1.57398, -1.468263, 0.2610064, -3.752649, 1.579283, -1.471341
 87620771, 0.1265358, -3.984109, 1.570646, -1.465159, 0.0171721, -3.990578, 1.57398, -1.468263
 87820691, 0.2176236, -3.870632, 1.56742, -1.462727, 0.1265358, -3.984109, 1.570646, -1.465159
 88020611, 0.1206565, -3.828081, 1.563834, -1.456702, 0.2176236, -3.870632, 1.56742, -1.462727
 88220531, 0.08202539, -3.827367, 1.556413, -1.452317, 0.1206565, -3.828081, 1.563834, -1.456702
 88420451, 0.2579708, -3.871528, 1.55154, -1.443567, 0.08202539, -3.827367, 1.556413, -1.452317
 88620371, 0.03906574, -3.791092, 1.544816, -1.438008, 0.2579708, -3.871528, 1.55154, -1.443567
 88820291, 0.3446867, -3.909963, 1.538318, -1.432799, 0.03906574, -3.791092, 1.544816, -1.438008
 89020211, 0.339673, -3.836272, 1.53404, -1.425025, 0.3446867, -3.909963, 1.538318, -1.432799
 89220964, 0.2273691, -3.726917, 1.525563, -1.421445, 0.339673, -3.836272, 1.53404, -1.425025
 89420884, 0.2416324, -3.853393, 1.518993, -1.414803, 0.2273691, -3.726917, 1.525563, -1.421445
 89620804, 0.0475733, -3.773942, 1.511409, -1.409024, 0.2416324, -3.853393, 1.518993, -1.414803
 89820724, 0.2450113, -3.800541, 1.506386, -1.401416, 0.0475733, -3.773942, 1.511409, -1.409024
 90020644, 0.2751442, -3.851822, 1.499598, -1.396191, 0.2450113, -3.800541, 1.506386, -1.401416
 90220564, 0.1530525, -3.916765, 1.491313, -1.391816, 0.2751442, -3.851822, 1.499598, -1.396191
 90420484, 0.1176141, -3.801125, 1.485296, -1.385149, 0.1530525, -3.916765, 1.491313, -1.391816
 90620404, 0.368979, -3.930215, 1.479355, -1.380046, 0.1176141, -3.801125, 1.485296, -1.385149
 90820324, 0.1353894, -3.953597, 1.471653, -1.374441, 0.368979, -3.930215, 1.479355, -1.380046
 91020244, 0.2162269, -3.885446, 1.464353, -1.367356, 0.1353894, -3.953597, 1.471653, -1.374441
 91220164, 0.02044303, -3.699428, 1.456665, -1.362379, 0.2162269, -3.885446, 1.464353, -1.367356
 91420917, 0.2408019, -3.871151, 1.451275, -1.358638, 0.02044303, -3.699428, 1.456665, -1.362379
 91620837, 0.3300871, -3.703274, 1.451189, -1.3539, 0.2408019, -3.871151, 1.451275, -1.358638
 91820757, -0.001359642, -4.038486, 1.449043, -1.356285, 0.3300871, -3.703274, 1.451189, -1.3539
 92020677, 0.3693905, -3.807946, 1.447511, -1.352518, -0.001359642, -4.038486, 1.449043, -1.356285
 92220597, 0.07460702, -3.711896, 1.446632, -1.352102, 0.3693905, -3.807946, 1.447511, -1.352518
 92420517, 0.2407328, -3.94393, 1.445488, -1.354838, 0.07460702, -3.711896, 1.446632, -1.352102
 92620437, 0.230089, -3.707841, 1.437437, -1.362024, 0.2407328, -3.94393, 1.445488, -1.354838
 92820357, 0.0866153, -4.027997, 1.442338, -1.423324, 0.230089, -3.707841, 1.437437, -1.362024
 93020277, -0.2542231, -3.984306, 1.582217, -1.594224, 0.0866153, -4.027997, 1.442338, -1.423324
 93220197, -0.07597532, -3.925342, 1.892255, -2.002204, -0.2542231, -3.984306, 1.582217, -1.594224
 93420950, -0.2093535, -4.416771, 2.680441, -3.183887, -0.07597532, -3.925342, 1.892255, -2.002204
 93620870, -0.6522225, -4.225301, 2.910027, -4.29657, -0.2093535, -4.416771, 2.680441, -3.183887
 93820790, -1.080795, -4.479334, 2.175515, -4.36411, -0.6522225, -4.225301, 2.910027, -4.29657
 94020710, -1.690914, -3.438709, 1.413797, -3.982704, -1.080795, -4.479334, 2.175515, -4.36411
 94220630, -1.793941, -3.621222, 0.9179552, -3.695297, -1.690914, -3.438709, 1.413797, -3.982704
 94420550, -2.22405, -3.535691, 0.5927931, -3.551037, -1.793941, -3.621222, 0.9179552, -3.695297
 94620470, -2.083089, -2.88444, 0.3525826, -3.443851, -2.22405, -3.535691, 0.5927931, -3.551037
 94820390, -2.232713, -2.63183, 0.1297065, -3.347491, -2.083089, -2.88444, 0.3525826, -3.443851
 95020310, -2.668099, -2.417258, -0.07191563, -3.238888, -2.232713, -2.63183, 0.1297065, -3.347491
 95220230, -2.467376, -2.532207, -0.2643509, -3.13834, -2.668099, -2.417258, -0.07191563, -3.238888
 95420150, -2.573534, -1.90095, -0.4435951, -3.030119, -2.467376, -2.532207, -0.2643509, -3.13834
 95620903, -2.754896, -1.900999, -0.6098028, -2.902348, -2.573534, -1.90095, -0.4435951, -3.030119
 95820823, -2.609144, -1.617952, -0.7416539, -2.749002, -2.754896, -1.900999, -0.6098028, -2.902348
 96020743, -2.900033, -1.306827, -0.8492371, -2.581091, -2.609144, -1.617952, -0.7416539, -2.749002
 96220663, -2.694965, -1.389224, -0.9382976, -2.41536, -2.900033, -1.306827, -0.8492371, -2.581091
 96420583, -2.867234, -1.08821, -1.014291, -2.2549, -2.694965, -1.389224, -0.9382976, -2.41536
 96620503, -2.921106, -1.058382, -1.076592, -2.099253, -2.867234, -1.08821, -1.014291, -2.2549
 96820423, -2.947288, -1.039302, -1.116613, -1.952101, -2.921106, -1.058382, -1.076592, -2.099253
 97020343, -3.00065, -0.7701893, -1.143935, -1.802419, -2.947288, -1.039302, -1.116613, -1.952101
 97220263, -2.830142, -0.6851758, -1.170708, -1.684406, -3.00065, -0.7701893, -1.143935, -1.802419
 97420183, -2.928503, -0.5437427, -1.208385, -1.589898, -2.830142, -0.6851758, -1.170708, -1.684406
 97620936, -2.982649, -0.3816535, -1.240902, -1.503298, -2.928503, -0.5437427, -1.208385, -1.589898
 97820856, -3.154486, -0.3521447, -1.266941, -1.421882, -2.982649, -0.3816535, -1.240902, -1.503298
 98020776, -3.102251, -0.1570623, -1.286915, -1.345461, -3.154486, -0.3521447, -1.266941, -1.421882
 98220696, -3.200294, -0.04683366, -1.299239, -1.275856, -3.102251, -0.1570623, -1.286915, -1.345461
 98420616, -3.226006, 0.02196307, -1.314299, -1.207136, -3.200294, -0.04683366, -1.299239, -1.275856
 98620536, -3.310267, 0.1430317, -1.322457, -1.149433, -3.226006, 0.02196307, -1.314299, -1.207136
 98820456, -3.376271, 0.1418837, -1.327168, -1.09949, -3.310267, 0.1430317, -1.322457, -1.149433
 99020376, -3.483809, 0.2292037, -1.330043, -1.05379, -3.376271, 0.1418837, -1.327168, -1.09949
 99220296, -3.560883, 0.3416762, -1.336629, -1.010448, -3.483809, 0.2292037, -1.330043, -1.05379
 99420216, -3.521026, 0.470442, -1.33848, -0.976882, -3.560883, 0.3416762, -1.336629, -1.010448
 99620969, -3.628934, 0.5313274, -1.348419, -0.952324, -3.521026, 0.470442, -1.33848, -0.976882
 99820889, -3.73764, 0.6735186, -1.358598, -0.9345582, -3.628934, 0.5313274, -1.348419, -0.952324
 100020809, -3.761802, 0.5495378, -1.369004, -0.9195903, -3.73764, 0.6735186, -1.358598, -0.9345582
 100220729, -3.890241, 0.578657, -1.378711, -0.9082823, -3.761802, 0.5495378, -1.369004, -0.9195903
 100420649, -3.666217, 0.731428, -1.384419, -0.9011351, -3.890241, 0.578657, -1.378711, -0.9082823
 100620569, -3.733318, 0.8065539, -1.393789, -0.8953868, -3.666217, 0.731428, -1.384419, -0.9011351
 100820489, -3.835191, 0.8605905, -1.402013, -0.8909885, -3.733318, 0.8065539, -1.393789, -0.8953868
 101020409, -3.917804, 0.8620303, -1.407796, -0.8912145, -3.835191, 0.8605905, -1.402013, -0.8909885
 101220329, -3.876636, 0.7273741, -1.411605, -0.8967792, -3.917804, 0.8620303, -1.407796, -0.8912145
 101420249, -3.862334, 0.81233, -1.414648, -0.9038085, -3.876636, 0.7273741, -1.411605, -0.8967792
 101620169, -3.924029, 0.7930588, -1.418365, -0.9104828, -3.862334, 0.81233, -1.414648, -0.9038085
 101820922, -4.042442, 0.869696, -1.417586, -0.9161665, -3.924029, 0.7930588, -1.418365, -0.9104828
 102020842, -3.882053, 0.8134819, -1.446197, -0.9465513, -4.042442, 0.869696, -1.417586, -0.9161665
 102220762, -3.892576, 0.8177555, -1.467457, -0.9712543, -3.882053, 0.8134819, -1.446197, -0.9465513
 102420682, -3.940005, 0.5682526, -1.469652, -0.9878493, -3.892576, 0.8177555, -1.467457, -0.9712543
 102620602, -3.756946, 0.8036004, -1.466322, -1.001079, -3.940005, 0.5682526, -1.469652, -0.9878493
 102820522, -3.893013, 0.6565993, -1.46271, -1.014257, -3.756946, 0.8036004, -1.466322, -1.001079
 103020442, -3.901398, 0.5261025, -1.453548, -1.027793, -3.893013, 0.6565993, -1.46271, -1.014257
 103220362, -3.972591, 0.5680705, -1.441654, -1.034861, -3.901398, 0.5261025, -1.453548, -1.027793
 103420282, -3.788228, 0.5369951, -1.424882, -1.046158, -3.972591, 0.5680705, -1.441654, -1.034861
 103620202, -3.883853, 0.5626115, -1.410722, -1.052899, -3.788228, 0.5369951, -1.424882, -1.046158
 103820955, -3.805228, 0.4628053, -1.395284, -1.062455, -3.883853, 0.5626115, -1.410722, -1.052899
 104020875, -3.978083, 0.3958893, -1.383997, -1.070494, -3.805228, 0.4628053, -1.395284, -1.062455
 104220795, -3.897802, 0.479305, -1.367296, -1.077456, -3.978083, 0.3958893, -1.383997, -1.070494
 104420715, -3.910534, 0.378219, -1.349605, -1.086194, -3.897802, 0.479305, -1.367296, -1.077456
 104620635, -3.741278, 0.2798794, -1.334485, -1.091901, -3.910534, 0.378219, -1.349605, -1.086194
 104820555, -3.861552, 0.3402649, -1.320943, -1.098842, -3.741278, 0.2798794, -1.334485, -1.091901
 105020475, -4.023859, 0.3163549, -1.307111, -1.10517, -3.861552, 0.3402649, -1.320943, -1.098842
 105220395, -3.920697, 0.3188236, -1.295774, -1.111561, -4.023859, 0.3163549, -1.307111, -1.10517
 105420315, -3.96102, 0.2177436, -1.283496, -1.116692, -3.920697, 0.3188236, -1.295774, -1.111561
 105620235, -3.770075, 0.2554895, -1.270814, -1.124463, -3.96102, 0.2177436, -1.283496, -1.116692
 105820155, -3.869113, 0.2372289, -1.260062, -1.129736, -3.770075, 0.2554895, -1.270814, -1.124463
 106020908, -3.755607, 0.08949395, -1.248568, -1.136502, -3.869113, 0.2372289, -1.260062, -1.129736
 106220828, -3.866273, 0.03130382, -1.240356, -1.143914, -3.755607, 0.08949395, -1.248568, -1.136502
 106420748, -3.854331, -0.002855167, -1.229507, -1.149298, -3.866273, 0.03130382, -1.240356, -1.143914
 106620668, -3.817207, 0.1316075, -1.21865, -1.155599, -3.854331, -0.002855167, -1.229507, -1.149298
 106820588, -3.788066, 0.01174454, -1.208798, -1.16474, -3.817207, 0.1316075, -1.21865, -1.155599
 107020508, -3.721295, -0.02514775, -1.204101, -1.170481, -3.788066, 0.01174454, -1.208798, -1.16474
 107220428, -3.848264, -0.004202479, -1.199001, -1.17672, -3.721295, -0.02514775, -1.204101, -1.170481
 107420348, -3.969855, 0.04267925, -1.196557, -1.184895, -3.848264, -0.004202479, -1.199001, -1.17672
 107620268, -3.85268, -0.02569916, -1.191819, -1.193647, -3.969855, 0.04267925, -1.196557, -1.184895
 107820188, -3.891232, -0.03380846, -1.190535, -1.202107, -3.85268, -0.02569916, -1.191819, -1.193647
 108020941, -3.967704, -0.1733053, -1.19024, -1.207315, -3.891232, -0.03380846, -1.190535, -1.202107
 108220861, -3.790952, -0.05598922, -1.185562, -1.215709, -3.967704, -0.1733053, -1.19024, -1.207315
 108420781, -3.694877, -0.06539372, -1.18312, -1.222472, -3.790952, -0.05598922, -1.185562, -1.215709
 108620701, -3.891098, -0.0943797, -1.18808, -1.227745, -3.694877, -0.06539372, -1.18312, -1.222472
 108820621, -3.857151, -0.181734, -1.187128, -1.235959, -3.891098, -0.0943797, -1.18808, -1.227745
 109020541, -3.723392, -0.1372913, -1.18656, -1.242754, -3.857151, -0.181734, -1.187128, -1.235959
 109220461, -3.799388, -0.0576911, -1.18841, -1.24595, -3.723392, -0.1372913, -1.18656, -1.242754
 109420381, -3.757128, -0.2665912, -1.184869, -1.253045, -3.799388, -0.0576911, -1.18841, -1.24595
 109620301, -3.922982, -0.272613, -1.186568, -1.256836, -3.757128, -0.2665912, -1.184869, -1.253045
 109820221, -3.835258, -0.26378, -1.18664, -1.259191, -3.922982, -0.272613, -1.186568, -1.256836
 110020974, -3.839344, -0.1843711, -1.186436, -1.26364, -3.835258, -0.26378, -1.18664, -1.259191
 110220894, -3.808094, -0.1850326, -1.18177, -1.264125, -3.839344, -0.1843711, -1.186436, -1.26364
 110420814, -3.837828, -0.2667377, -1.176475, -1.260882, -3.808094, -0.1850326, -1.18177, -1.264125
 110620734, -3.955778, -0.1800383, -1.172976, -1.25553, -3.837828, -0.2667377, -1.176475, -1.260882
 110820654, -3.79243, -0.1584864, -1.16676, -1.250018, -3.955778, -0.1800383, -1.172976, -1.25553
 111020574, -3.905977, -0.227134, -1.16305, -1.24352, -3.79243, -0.1584864, -1.16676, -1.250018
 111220494, -3.851954, -0.07867578, -1.156567, -1.239157, -3.905977, -0.227134, -1.16305, -1.24352
 111420414, -3.914896, -0.1990592, -1.152709, -1.233244, -3.851954, -0.07867578, -1.156567, -1.239157
 111620334, -3.733499, -0.2273878, -1.146555, -1.227356, -3.914896, -0.1990592, -1.152709, -1.233244
 111820254, -3.884892, -0.3042646, -1.141653, -1.223047, -3.733499, -0.2273878, -1.146555, -1.227356
 112020174, -3.914994, -0.1134414, -1.136946, -1.216236, -3.884892, -0.3042646, -1.141653, -1.223047
 112220927, -3.933605, -0.1103021, -1.132156, -1.211242, -3.914994, -0.1134414, -1.136946, -1.216236
 112420847, -3.869738, -0.1421646, -1.126994, -1.205078, -3.933605, -0.1103021, -1.132156, -1.211242
 112620767, -3.845157, -0.1948984, -1.120707, -1.199518, -3.869738, -0.1421646, -1.126994, -1.205078
 112820687, -3.859067, -0.204298, -1.115977, -1.19211, -3.845157, -0.1948984, -1.120707, -1.199518
 113020607, -3.963542, -0.1804397, -1.117608, -1.180837, -3.859067, -0.204298, -1.115977, -1.19211
 113220527, -3.910811, 0.1101343, -1.166255, -1.18068, -3.963542, -0.1804397, -1.117608, -1.180837
 113420447, -4.045956, 0.08573551, -1.305539, -1.300221, -3.910811, 0.1101343, -1.166255, -1.18068
 113620367, -4.119584, 0.1023285, -1.640968, -1.55284, -4.045956, 0.08573551, -1.305539, -1.300221
 113820287, -4.14885, 0.3379056, -2.592772, -2.193272, -4.119584, 0.1023285, -1.640968, -1.55284
 114020207, -4.425275, 1.057281, -3.534924, -2.393107, -4.14885, 0.3379056, -2.592772, -2.193272
 114220960, -4.192101, 1.280048, -3.519799, -1.744909, -4.425275, 1.057281, -3.534924, -2.393107
 114420880, -4.108683, 1.773549, -3.15009, -1.119663, -4.192101, 1.280048, -3.519799, -1.744909
 114620800, -3.78448, 2.182788, -2.894343, -0.72164, -4.108683, 1.773549, -3.15009, -1.119663
 114820720, -3.113606, 2.148358, -2.769003, -0.4629265, -3.78448, 2.182788, -2.894343, -0.72164
 115020640, -3.198054, 2.36886, -2.706199, -0.2627259, -3.113606, 2.148358, -2.769003, -0.4629265
 115220560, -2.823116, 2.553794, -2.642974, -0.08739889, -3.198054, 2.36886, -2.706199, -0.2627259
 115420480, -2.460396, 2.573669, -2.574355, 0.08140922, -2.823116, 2.553794, -2.642974, -0.08739889
 115620400, -2.384267, 2.735882, -2.510378, 0.2361801, -2.460396, 2.573669, -2.574355, 0.08140922
 115820320, -2.055396, 2.649145, -2.432263, 0.3770893, -2.384267, 2.735882, -2.510378, 0.2361801
 116020240, -2.005893, 2.85746, -2.347213, 0.5031636, -2.055396, 2.649145, -2.432263, 0.3770893
 116220160, -1.607772, 2.797335, -2.261436, 0.6145408, -2.005893, 2.85746, -2.347213, 0.5031636
 116420913, -1.438511, 2.752481, -2.168801, 0.7158208, -1.607772, 2.797335, -2.261436, 0.6145408
 116620833, -1.282103, 2.800682, -2.071576, 0.8034, -1.438511, 2.752481, -2.168801, 0.7158208
 116820753, -1.325032, 3.011987, -1.97776, 0.8884971, -1.282103, 2.800682, -2.071576, 0.8034
 117020673, -1.196085, 2.957854, -1.883825, 0.9629672, -1.325032, 3.011987, -1.97776, 0.8884971
 117220593, -1.093836, 2.909267, -1.786207, 1.02637, -1.196085, 2.957854, -1.883825, 0.9629672
 117420513, -0.7892091, 2.929146, -1.684994, 1.078561, -1.093836, 2.909267, -1.786207, 1.02637
 117620433, -0.738922, 2.949319, -1.606887, 1.130016, -0.7892091, 2.929146, -1.684994, 1.078561
 117820353, -0.5170045, 2.864341, -1.537206, 1.179554, -0.738922, 2.949319, -1.606887, 1.130016
 118020273, -0.2760368, 3.066744, -1.473995, 1.22163, -0.5170045, 2.864341, -1.537206, 1.179554
 118220193, -0.2618731, 3.152417, -1.413791, 1.2622, -0.2760368, 3.066744, -1.473995, 1.22163
 118420946, -0.1444048, 3.323902, -1.361119, 1.295448, -0.2618731, 3.152417, -1.413791, 1.2622
 118620866, -0.1037017, 3.235941, -1.309198, 1.326885, -0.1444048, 3.323902, -1.361119, 1.295448
 118820786, -0.08160862, 3.403377, -1.261911, 1.357013, -0.1037017, 3.235941, -1.309198, 1.326885
 119020706, 0.2318394, 3.34439, -1.218506, 1.382135, -0.08160862, 3.403377, -1.261911, 1.357013
 119220626, 0.2369695, 3.368274, -1.180678, 1.405551, 0.2318394, 3.34439, -1.218506, 1.382135
 119420546, 0.2333318, 3.484597, -1.14607, 1.430796, 0.2369695, 3.368274, -1.180678, 1.405551
 119620466, 0.2728796, 3.576593, -1.119275, 1.452749, 0.2333318, 3.484597, -1.14607, 1.430796
 119820386, 0.4272781, 3.581206, -1.097882, 1.472437, 0.2728796, 3.576593, -1.119275, 1.452749
 120020306, 0.5837842, 3.508164, -1.080957, 1.490831, 0.4272781, 3.581206, -1.097882, 1.472437
 120220226, 0.6362371, 3.715884, -1.066084, 1.511315, 0.5837842, 3.508164, -1.080957, 1.490831
 120420146, 0.6744318, 3.675208, -1.057017, 1.526564, 0.6362371, 3.715884, -1.066084, 1.511315
 120620899, 0.5547169, 3.857835, -1.048723, 1.54549, 0.6744318, 3.675208, -1.057017, 1.526564
 120820819, 0.6499588, 3.804044, -1.045278, 1.559624, 0.5547169, 3.857835, -1.048723, 1.54549
 121020739, 0.5479442, 3.800936, -1.044957, 1.573561, 0.6499588, 3.804044, -1.045278, 1.559624
 121220659, 0.6772512, 3.859412, -1.044333, 1.589457, 0.5479442, 3.800936, -1.044957, 1.573561
 121420579, 0.7180151, 3.905451, -1.048982, 1.597539, 0.6772512, 3.859412, -1.044333, 1.589457
 121620499, 0.6764444, 3.907557, -1.055086, 1.602221, 0.7180151, 3.905451, -1.048982, 1.597539
 121820419, 0.7043377, 3.926383, -1.063563, 1.607523, 0.6764444, 3.907557, -1.055086, 1.602221
 122020339, 0.6436954, 3.908433, -1.070307, 1.609751, 0.7043377, 3.926383, -1.063563, 1.607523
 122220259, 0.6717979, 3.901526, -1.078521, 1.608217, 0.6436954, 3.908433, -1.070307, 1.609751
 122420179, 0.7253563, 3.801296, -1.091709, 1.606154, 0.6717979, 3.901526, -1.078521, 1.608217
 122620932, 0.7866488, 3.936392, -1.102103, 1.604968, 0.7253563, 3.801296, -1.091709, 1.606154
 122820852, 0.7344157, 3.813486, -1.115296, 1.601074, 0.7866488, 3.936392, -1.102103, 1.604968
 123020772, 0.574243, 4.008834, -1.126169, 1.597983, 0.7344157, 3.813486, -1.115296, 1.601074
 123220692, 0.6450766, 4.020018, -1.139693, 1.590032, 0.574243, 4.008834, -1.126169, 1.597983
 123420612, 0.499916, 3.897976, -1.15548, 1.580603, 0.6450766, 4.020018, -1.139693, 1.590032
 123620532, 0.60131, 3.84727, -1.167369, 1.572429, 0.499916, 3.897976, -1.15548, 1.580603
 123820452, 0.5397394, 3.87447, -1.180024, 1.563377, 0.60131, 3.84727, -1.167369, 1.572429
 124020372, 0.517307, 4.011316, -1.194355, 1.55599, 0.5397394, 3.87447, -1.180024, 1.563377
 124220292, 0.56486, 4.034008, -1.2069, 1.550093, 0.517307, 4.011316, -1.194355, 1.55599
 124420212, 0.5485448, 3.922895, -1.219485, 1.54169, 0.56486, 4.034008, -1.2069, 1.550093
 124620965, 0.265773, 3.768476, -1.235136, 1.53065, 0.5485448, 3.922895, -1.219485, 1.54169
 124820885, 0.3694572, 3.836287, -1.245693, 1.52243, 0.265773, 3.768476, -1.235136, 1.53065
 125020805, 0.2137282, 4.009676, -1.258618, 1.511068, 0.3694572, 3.836287, -1.245693, 1.52243
 125220725, 0.2198082, 3.88302, -1.269823, 1.498025, 0.2137282, 4.009676, -1.258618, 1.511068
 125420645, 0.3587384, 3.746822, -1.281054, 1.489651, 0.2198082, 3.88302, -1.269823, 1.498025
 125620565, 0.2286065, 3.895772, -1.292686, 1.483538, 0.3587384, 3.746822, -1.281054, 1.489651
 125820485, 0.1175415, 3.828793, -1.307214, 1.474037, 0.2286065, 3.895772, -1.292686, 1.483538
 126020405, 0.2051039, 3.993584, -1.317658, 1.468337, 0.1175415, 3.828793, -1.307214, 1.474037
 126220325, 0.0911351, 3.927839, -1.329737, 1.457067, 0.2051039, 3.993584, -1.317658, 1.468337
 126420245, -0.0291789, 3.897468, -1.339743, 1.451072, 0.0911351, 3.927839, -1.329737, 1.457067
 126620165, 0.1366053, 3.744349, -1.351723, 1.443709, -0.0291789, 3.897468, -1.339743, 1.451072
 126820918, 0.05829543, 3.868617, -1.364871, 1.439184, 0.1366053, 3.744349, -1.351723, 1.443709
 127020838, 0.1050068, 3.820346, -1.37789, 1.434897, 0.05829543, 3.868617, -1.364871, 1.439184
 127220758, 0.05082377, 3.836231, -1.389495, 1.428617, 0.1050068, 3.820346, -1.37789, 1.434897
 127420678, -0.1731763, 3.773062, -1.398503, 1.425767, 0.05082377, 3.836231, -1.389495, 1.428617
 127620598, 0.00999794, 3.831637, -1.407986, 1.423237, -0.1731763, 3.773062, -1.398503, 1.425767
 127820518, 0.09251205, 3.869742, -1.422483, 1.418432, 0.00999794, 3.831637, -1.407986, 1.423237
 128020438, 0.06468654, 3.911667, -1.43214, 1.41812, 0.09251205, 3.869742, -1.422483, 1.418432
 128220358, -0.1784322, 3.84691, -1.441116, 1.418407, 0.06468654, 3.911667, -1.43214, 1.41812
 128420278, -0.08675557, 3.606262, -1.453553, 1.414117, -0.1784322, 3.84691, -1.441116, 1.418407
 128620198, -0.06469863, 3.722097, -1.461921, 1.415735, -0.08675557, 3.606262, -1.453553, 1.414117
 128820951, -0.0964215, 3.779364, -1.469912, 1.418221, -0.06469863, 3.722097, -1.461921, 1.415735
 129020871, -0.06649348, 3.729066, -1.479266, 1.418399, -0.0964215, 3.779364, -1.469912, 1.418221
 129220791, -0.1172087, 3.793991, -1.488632, 1.422418, -0.06649348, 3.729066, -1.479266, 1.418399
 129420711, -0.1331743, 3.771207, -1.496644, 1.426853, -0.1172087, 3.793991, -1.488632, 1.422418
 129620631, -0.2517818, 3.712819, -1.505848, 1.429372, -0.1331743, 3.771207, -1.496644, 1.426853
 129820551, -0.1584196, 3.80824, -1.5161, 1.430609, -0.2517818, 3.712819, -1.505848, 1.429372
 130020471, -0.2257051, 3.705078, -1.52273, 1.432878, -0.1584196, 3.80824, -1.5161, 1.430609
 130220391, -0.08591142, 3.838914, -1.531002, 1.436412, -0.2257051, 3.705078, -1.52273, 1.432878
 130420311, -0.2284413, 3.840934, -1.538484, 1.440102, -0.08591142, 3.838914, -1.531002, 1.436412
 130620231, -0.167024, 3.779594, -1.546227, 1.444341, -0.2284413, 3.840934, -1.538484, 1.440102
 130820151, -0.1159417, 3.716312, -1.552463, 1.448612, -0.167024, 3.779594, -1.546227, 1.444341
 131020904, -0.1494852, 3.793593, -1.557701, 1.45374, -0.1159417, 3.716312, -1.552463, 1.448612
 131220824, -0.009628609, 3.773142, -1.56572, 1.456644, -0.1494852, 3.793593, -1.557701, 1.45374
 131420744, -0.3435509, 3.753357, -1.571001, 1.460889, -0.009628609, 3.773142, -1.56572, 1.456644
 131620664, -0.1564347, 3.863203, -1.576172, 1.465681, -0.3435509, 3.753357, -1.571001, 1.460889
 131820584, -0.2277386, 3.719272, -1.581538, 1.470276, -0.1564347, 3.863203, -1.576172, 1.465681
