TimeUS,COFN,COFE,CNe,CEe,POFN,POFE,PNe,PEe
 8040949, 0.03694408, 0.02330383, 0.09741662, 0.0482171, 0, 0, 0, 0
 8220877, -0.006434309, 0.006648168, 0.09739286, 0.04819769, 0.03694408, 0.02330383, 0.09741662, 0.0482171
 8420797, -0.01097461, 0.001060387, 0.097394, 0.04819672, -0.006434309, 0.006648168, 0.09739286, 0.04819769
 8620717, -0.005633453, 0.008200951, 0.09739386, 0.04819614, -0.01097461, 0.001060387, 0.097394, 0.04819672
 8820637, -0.01215208, 0.006094894, 0.09739739, 0.0481922, -0.005633453, 0.008200951, 0.09739386, 0.04819614
 9020557, -0.0162966, 0.007516824, 0.09740204, 0.04818788, -0.01215208, 0.006094894, 0.09739739, 0.0481922
 9220477, -0.008436936, -0.0002459844, 0.09739836, 0.04818604, -0.0162966, 0.007516824, 0.09740204, 0.04818788
 9420397, -0.00783805, -0.001941616, 0.09739904, 0.04818444, -0.008436936, -0.0002459844, 0.09739836, 0.04818604
 9620317, -0.01767992, 0.00329038, 0.09740512, 0.04818171, -0.00783805, -0.001941616, 0.09739904, 0.04818444
 9820237, -0.006496219, 0.006315065, 0.09739945, 0.04818423, -0.01767992, 0.00329038, 0.09740512, 0.04818171
 10020157, -0.0080772, 0.005343079, 0.09739943, 0.04818471, -0.006496219, 0.006315065, 0.09739945, 0.04818423
 10220910, -0.002775891, 0.002232647, 0.09739827, 0.04818404, -0.0080772, 0.005343079, 0.09739943, 0.04818471
 10420830, -0.005322142, 0.01221527, 0.09740118, 0.04818428, -0.002775891, 0.002232647, 0.09739827, 0.04818404
 10620750, -0.012737, 0.01012928, 0.09740418, 0.04818143, -0.005322142, 0.01221527, 0.09740118, 0.04818428
 10820670, -0.003401017, 0.008578247, 0.09739941, 0.04818443, -0.012737, 0.01012928, 0.09740418, 0.04818143
 11020590, -0.005143855, -0.005117937, 0.09739758, 0.04818692, -0.003401017, 0.008578247, 0.09739941, 0.04818443
 11220510, -0.007735305, 0.005647787, 0.09739799, 0.04818754, -0.005143855, -0.005117937, 0.09739758, 0.04818692
 11420430, -0.01661312, 0.007333419, 0.09740298, 0.04818626, -0.007735305, 0.005647787, 0.09739799, 0.04818754
 11620350, -0.01408147, 0.001153477, 0.09740004, 0.04818739, -0.01661312, 0.007333419, 0.09740298, 0.04818626
 11820270, -0.006754874, 0.003822581, 0.09739719, 0.04818801, -0.01408147, 0.001153477, 0.09740004, 0.04818739
 12020190, -0.008376962, 0.008758711, 0.09739941, 0.04818672, -0.006754874, 0.003822581, 0.09739719, 0.04818801
 12220943, -0.007354667, 0.00441439, 0.09739864, 0.04818556, -0.008376962, 0.008758711, 0.09739941, 0.04818672
 12420863, -0.001437107, 0.008370616, 0.09739754, 0.04818774, -0.007354667, 0.00441439, 0.09739864, 0.04818556
 12620783, -0.006235745, 0.01007632, 0.09739833, 0.04818865, -0.001437107, 0.008370616, 0.09739754, 0.04818774
 12820703, -0.01352867, 0.001975059, 0.09739897, 0.04818908, -0.006235745, 0.01007632, 0.09739833, 0.04818865
 13020623, -0.01502315, 0.004330366, 0.0973993, 0.04819053, -0.01352867, 0.001975059, 0.09739897, 0.04818908
 13220543, -0.003254829, 0.002600715, 0.09739394, 0.04819298, -0.01502315, 0.004330366, 0.0973993, 0.04819053
 13420463, -0.01005428, 0.009590184, 0.09739777, 0.04819173, -0.003254829, 0.002600715, 0.09739394, 0.04819298
 13620383, -0.007987446, 0.001405845, 0.09739649, 0.0481896, -0.01005428, 0.009590184, 0.09739777, 0.04819173
 13820303, -0.0174458, 0.002548476, 0.09740205, 0.04818745, -0.007987446, 0.001405845, 0.09739649, 0.0481896
 14020223, -0.01314579, 0.007785348, 0.09740002, 0.04818867, -0.0174458, 0.002548476, 0.09740205, 0.04818745
 14220976, -0.009635969, 0.003483868, 0.09739751, 0.04818901, -0.01314579, 0.007785348, 0.09740002, 0.04818867
 14420896, -0.01592827, 0.01086353, 0.09740388, 0.04818599, -0.009635969, 0.003483868, 0.09739751, 0.04818901
 14620816, -0.01009597, 0.008647008, 0.09740171, 0.04818315, -0.01592827, 0.01086353, 0.09740388, 0.04818599
 14820736, -0.01069546, 0.00588124, 0.09740277, 0.04818004, -0.01009597, 0.008647008, 0.09740171, 0.04818315
 15020656, -0.006793155, 0.004273103, 0.09740084, 0.04818074, -0.01069546, 0.00588124, 0.09740277, 0.04818004
 15220576, -0.0064634, 0.0102102, 0.09740154, 0.04818237, -0.006793155, 0.004273103, 0.09740084, 0.04818074
 15420496, -0.006898925, 0.005671488, 0.097401, 0.04818103, -0.0064634, 0.0102102, 0.09740154, 0.04818237
 15620416, -0.01671948, 0.006373605, 0.09740645, 0.04817891, -0.006898925, 0.005671488, 0.097401, 0.04818103
 15820336, -0.01077343, 0.01139643, 0.09740356, 0.04818198, -0.01671948, 0.006373605, 0.09740645, 0.04817891
 16020256, -0.01194014, -0.0008017672, 0.09740159, 0.04818216, -0.01077343, 0.01139643, 0.09740356, 0.04818198
 16220176, -0.01090876, 0.00535059, 0.09740157, 0.04818238, -0.01194014, -0.0008017672, 0.09740159, 0.04818216
 16420929, -0.01639878, -0.001217325, 0.09740324, 0.04818354, -0.01090876, 0.00535059, 0.09740157, 0.04818238
 16620849, -0.01105374, 0.01362225, 0.09740261, 0.04818621, -0.01639878, -0.001217325, 0.09740324, 0.04818354
 16820769, -0.01021709, -0.001213645, 0.09739796, 0.04818812, -0.01105374, 0.01362225, 0.09740261, 0.04818621
 17020689, -0.009011231, 0.005379552, 0.09739836, 0.04818749, -0.01021709, -0.001213645, 0.09739796, 0.04818812
 17220609, -0.01029971, 0.008004602, 0.09739983, 0.04818672, -0.009011231, 0.005379552, 0.09739836, 0.04818749
 17420529, -0.01217416, 0.004213338, 0.09740104, 0.04818413, -0.01029971, 0.008004602, 0.09739983, 0.04818672
 17620449, -0.01388757, 0.006575802, 0.09740339, 0.04818195, -0.01217416, 0.004213338, 0.09740104, 0.04818413
 17820369, -0.006253006, 0.003282882, 0.09739922, 0.04818351, -0.01388757, 0.006575802, 0.09740339, 0.04818195
 18020289, -0.007711226, 0.003675808, 0.0973992, 0.04818442, -0.006253006, 0.003282882, 0.09739922, 0.04818351
 18220209, -0.01644952, 0.005133324, 0.09740386, 0.0481833, -0.007711226, 0.003675808, 0.0973992, 0.04818442
 18420962, -0.01539347, -0.0002337294, 0.09740256, 0.04818367, -0.01644952, 0.005133324, 0.09740386, 0.0481833
 18620882, -0.006111798, 0.0118509, 0.09740129, 0.04818405, -0.01539347, -0.0002337294, 0.09740256, 0.04818367
 18820802, -0.003553825, 0.006436029, 0.09740016, 0.04818175, -0.006111798, 0.0118509, 0.09740129, 0.04818405
 19020722, -0.01224304, 0.01305684, 0.09740524, 0.04818135, -0.003553825, 0.006436029, 0.09740016, 0.04818175
 19220642, -0.00839049, 0.001931566, 0.09740069, 0.04818145, -0.01224304, 0.01305684, 0.09740524, 0.04818135
 19420562, -0.006388198, -0.004406542, 0.09739982, 0.04818267, -0.00839049, 0.001931566, 0.09740069, 0.04818145
 19620482, -0.0004832771, 0.006385643, 0.0971389, 0.04870589, -0.006388198, -0.004406542, 0.09739982, 0.04818267
 19820402, -0.006619222, 0.008990772, 0.09667065, 0.04963178, -0.0004832771, 0.006385643, 0.0971389, 0.04870589
 20020322, -0.008271156, 0.00698219, 0.09599099, 0.05093359, -0.006619222, 0.008990772, 0.09667065, 0.04963178
 20220242, -0.01279246, 0.004381568, 0.09517743, 0.05244037, -0.008271156, 0.00698219, 0.09599099, 0.05093359
 20420162, -0.007441369, 0.005888664, 0.09429632, 0.05400562, -0.01279246, 0.004381568, 0.09517743, 0.05244037
 20620915, -0.0007432927, 0.009958423, 0.09340757, 0.05552896, -0.007441369, 0.005888664, 0.09429632, 0.05400562
 20820835, -0.007209976, 0.001341115, 0.09254788, 0.05694881, -0.0007432927, 0.009958423, 0.09340757, 0.05552896
 21020755, 0.05744119, -0.01199975, 0.09180921, 0.05823709, -0.007209976, 0.001341115, 0.09254788, 0.05694881
 21220675, 0.166156, -0.03335406, 0.0916237, 0.05931116, 0.05744119, -0.01199975, 0.09180921, 0.05823709
 21420595, 0.3537171, -0.06094044, 0.09316867, 0.059988, 0.166156, -0.03335406, 0.0916237, 0.05931116
 21620515, 0.5841196, -0.1096096, 0.09734574, 0.06020325, 0.3537171, -0.06094044, 0.09316867, 0.059988
 21820435, 0.8654972, -0.1514767, 0.105015, 0.0599963, 0.5841196, -0.1096096, 0.09734574, 0.06020325
 22020355, 1.154332, -0.1834624, 0.1149143, 0.05981529, 0.8654972, -0.1514767, 0.105015, 0.0599963
 22220275, 1.415116, -0.2069115, 0.1249727, 0.06012032, 1.154332, -0.1834624, 0.1149143, 0.05981529
 22420195, 1.64532, -0.209429, 0.1344749, 0.06127637, 1.415116, -0.2069115, 0.1249727, 0.06012032
 22620948, 1.871296, -0.2181895, 0.1447287, 0.06393947, 1.64532, -0.209429, 0.1344749, 0.06127637
 22820868, 2.056774, -0.2117015, 0.1527787, 0.06614273, 1.871296, -0.2181895, 0.1447287, 0.06393947
 23020788, 2.310685, -0.2104973, 0.1653722, 0.07417674, 2.056774, -0.2117015, 0.1527787, 0.06614273
 23220708, 2.478907, -0.1977635, 0.1798782, 0.09462025, 2.310685, -0.2104973, 0.1653722, 0.07417674
 23420628, 2.658851, -0.1768495, 0.2053622, 0.1255308, 2.478907, -0.1977635, 0.1798782, 0.09462025
 23620548, 2.8485, -0.1999573, 0.2379094, 0.1606408, 2.658851, -0.1768495, 0.2053622, 0.1255308
 23820468, 3.080494, -0.1981507, 0.2773197, 0.1988736, 2.8485, -0.1999573, 0.2379094, 0.1606408
 24020388, 3.238726, -0.1927221, 0.3207969, 0.241844, 3.080494, -0.1981507, 0.2773197, 0.1988736
 24220308, 3.371696, -0.2325357, 0.3716531, 0.2877536, 3.238726, -0.1927221, 0.3207969, 0.241844
 24420228, 3.52622, -0.2700739, 0.4287646, 0.3427331, 3.371696, -0.2325357, 0.3716531, 0.2877536
 24620148, 3.672688, -0.2082908, 0.4922984, 0.3996619, 3.52622, -0.2700739, 0.4287646, 0.3427331
 24820901, 3.68139, -0.2769671, 0.558731, 0.4568691, 3.672688, -0.2082908, 0.4922984, 0.3996619
 25020821, 3.759725, -0.2832452, 0.630847, 0.518061, 3.68139, -0.2769671, 0.558731, 0.4568691
 25220741, 3.806541, -0.2656124, 0.7028731, 0.5829187, 3.759725, -0.2832452, 0.630847, 0.518061
 25420661, 3.849828, -0.3000694, 0.7833768, 0.6466751, 3.806541, -0.2656124, 0.7028731, 0.5829187
 25620581, 3.878116, -0.290671, 0.8718141, 0.7128919, 3.849828, -0.3000694, 0.7833768, 0.6466751
 25820501, 3.982419, -0.2482976, 0.9612978, 0.7824882, 3.878116, -0.290671, 0.8718141, 0.7128919
 26020421, 3.888119, -0.4110449, 1.044025, 0.8501735, 3.982419, -0.2482976, 0.9612978, 0.7824882
 26220341, 3.966337, -0.3544337, 1.124832, 0.9155897, 3.888119, -0.4110449, 1.044025, 0.8501735
 26420261, 4.032753, -0.3369626, 1.204697, 0.9839727, 3.966337, -0.3544337, 1.124832, 0.9155897
 26620181, 3.902101, -0.283394, 1.28449, 1.050007, 4.032753, -0.3369626, 1.204697, 0.9839727
 26820934, 3.971896, -0.4119132, 1.365149, 1.113237, 3.902101, -0.283394, 1.28449, 1.050007
 27020854, 3.83961, -0.2542157, 1.437749, 1.174845, 3.971896, -0.4119132, 1.365149, 1.113237
 27220774, 3.818936, -0.2303953, 1.510668, 1.232472, 3.83961, -0.2542157, 1.437749, 1.174845
 27420694, 3.936043, -0.4375018, 1.581912, 1.284917, 3.818936, -0.2303953, 1.510668, 1.232472
 27620614, 3.901408, -0.3418571, 1.654856, 1.336852, 3.936043, -0.4375018, 1.581912, 1.284917
 27820534, 4.099162, -0.2801592, 1.729089, 1.385801, 3.901408, -0.3418571, 1.654856, 1.336852
 28020454, 3.967785, -0.219247, 1.803736, 1.433685, 4.099162, -0.2801592, 1.729089, 1.385801
 28220374, 3.800969, -0.3877289, 1.876504, 1.480804, 3.967785, -0.219247, 1.803736, 1.433685
 28420294, 3.911877, -0.2766925, 1.949289, 1.526506, 3.800969, -0.3877289, 1.876504, 1.480804
 28620214, 4.032511, -0.3650816, 2.01762, 1.567948, 3.911877, -0.2766925, 1.949289, 1.526506
 28820967, 3.840883, -0.2289298, 2.027729, 1.626186, 4.032511, -0.3650816, 2.01762, 1.567948
 29020887, 3.770161, -0.07348832, 2.142362, 1.715523, 3.840883, -0.2289298, 2.027729, 1.626186
 29220807, 3.940989, -0.5141904, 2.350253, 1.82247, 3.770161, -0.07348832, 2.142362, 1.715523
 29420727, 3.632284, -0.5898998, 2.380002, 1.876198, 3.940989, -0.5141904, 2.350253, 1.82247
 29620647, 3.51407, -0.6221415, 2.278623, 1.889089, 3.632284, -0.5898998, 2.380002, 1.876198
 29820567, 3.604238, -0.2456658, 2.184868, 1.889054, 3.51407, -0.6221415, 2.278623, 1.889089
 30020487, 3.704396, -0.3703162, 2.127079, 1.912772, 3.604238, -0.2456658, 2.184868, 1.889054
 30220407, 3.846707, -0.1605805, 2.103563, 1.938916, 3.704396, -0.3703162, 2.127079, 1.912772
 30420327, 3.753524, 0.01556139, 2.084909, 1.972409, 3.846707, -0.1605805, 2.103563, 1.938916
 30620247, 3.578111, -0.02515624, 2.062599, 2.008031, 3.753524, 0.01556139, 2.084909, 1.972409
 30820167, 3.396468, -0.001346945, 2.038077, 2.037852, 3.578111, -0.02515624, 2.062599, 2.008031
 31020920, 3.469206, 0.01646298, 2.019623, 2.048833, 3.396468, -0.001346945, 2.038077, 2.037852
 31220840, 3.300317, 0.2156063, 2.008296, 2.048541, 3.469206, 0.01646298, 2.019623, 2.048833
 31420760, 3.30581, 0.19698, 2.001478, 2.048604, 3.300317, 0.2156063, 2.008296, 2.048541
 31620680, 3.50115, 0.08148271, 1.993453, 2.048435, 3.30581, 0.19698, 2.001478, 2.048604
 31820600, 3.333083, -0.037543, 1.980942, 2.04482, 3.50115, 0.08148271, 1.993453, 2.048435
 32020520, 3.130985, 0.09522387, 1.9602, 2.042438, 3.333083, -0.037543, 1.980942, 2.04482
 32220440, 3.139343, -0.01173715, 1.940502, 2.0374, 3.130985, 0.09522387, 1.9602, 2.042438
 32420360, 3.121278, 0.1389787, 1.91616, 2.034774, 3.139343, -0.01173715, 1.940502, 2.0374
 32620280, 3.375191, 0.3857927, 1.892246, 2.032713, 3.121278, 0.1389787, 1.91616, 2.034774
 32820200, 3.081764, 0.2712035, 1.865764, 2.026325, 3.375191, 0.3857927, 1.892246, 2.032713
 33020953, 3.384225, 0.2823069, 1.840483, 2.01708, 3.081764, 0.2712035, 1.865764, 2.026325
 33220873, 3.447147, 0.05829622, 1.812353, 2.008044, 3.384225, 0.2823069, 1.840483, 2.01708
 33420793, 3.506077, 0.08908501, 1.784945, 1.998031, 3.447147, 0.05829622, 1.812353, 2.008044
 33620713, 3.463928, 0.2192881, 1.757522, 1.98735, 3.506077, 0.08908501, 1.784945, 1.998031
 33820633, 3.286105, 0.1383714, 1.7322, 1.973894, 3.463928, 0.2192881, 1.757522, 1.98735
 34020553, 3.487939, 0.1333342, 1.705951, 1.961992, 3.286105, 0.1383714, 1.7322, 1.973894
 34220473, 3.588979, 0.2123643, 1.686157, 1.94454, 3.487939, 0.1333342, 1.705951, 1.961992
 34420393, 3.233756, 0.2642603, 1.6622, 1.929305, 3.588979, 0.2123643, 1.686157, 1.94454
 34620313, 3.559451, 0.27762, 1.641524, 1.912965, 3.233756, 0.2642603, 1.6622, 1.929305
 34820233, 3.467723, 0.4017834, 1.620424, 1.894942, 3.559451, 0.27762, 1.641524, 1.912965
 35020153, 3.542172, 0.2752927, 1.598518, 1.879746, 3.467723, 0.4017834, 1.620424, 1.894942
 35220906, 3.43955, 0.3355678, 1.583829, 1.857343, 3.542172, 0.2752927, 1.598518, 1.879746
 35420826, 3.425541, 0.2189559, 1.564053, 1.841806, 3.43955, 0.3355678, 1.583829, 1.857343
 35620746, 3.357016, 0.3954256, 1.544707, 1.826996, 3.425541, 0.2189559, 1.564053, 1.841806
 35820666, 3.482439, 0.2278339, 1.529405, 1.808432, 3.357016, 0.3954256, 1.544707, 1.826996
 36020586, 3.534206, 0.2967468, 1.515068, 1.789338, 3.482439, 0.2278339, 1.529405, 1.808432
 36220506, 3.706185, 0.2311165, 1.499732, 1.771267, 3.534206, 0.2967468, 1.515068, 1.789338
 36420426, 3.518121, 0.2988293, 1.484272, 1.752897, 3.706185, 0.2311165, 1.499732, 1.771267
 36620346, 3.528074, 0.2249912, 1.467825, 1.739306, 3.518121, 0.2988293, 1.484272, 1.752897
 36820266, 3.388815, 0.4135922, 1.453942, 1.720612, 3.528074, 0.2249912, 1.467825, 1.739306
 37020186, 3.493447, 0.4765172, 1.438551, 1.703978, 3.388815, 0.4135922, 1.453942, 1.720612
 37220939, 3.532572, 0.3685165, 1.427446, 1.686145, 3.493447, 0.4765172, 1.438551, 1.703978
 37420859, 3.451331, 0.4019003, 1.418478, 1.66966, 3.532572, 0.3685165, 1.427446, 1.686145
 37620779, 3.67873, 0.2172404, 1.408097, 1.658349, 3.451331, 0.4019003, 1.418478, 1.66966
 37820699, 3.563533, 0.4489511, 1.395826, 1.647983, 3.67873, 0.2172404, 1.408097, 1.658349
 38020619, 3.793201, 0.4732878, 1.388379, 1.634903, 3.563533, 0.4489511, 1.395826, 1.647983
 38220539, 3.696301, 0.250762, 1.378798, 1.622838, 3.793201, 0.4732878, 1.388379, 1.634903
 38420459, 3.675796, 0.2366293, 1.368476, 1.611801, 3.696301, 0.250762, 1.378798, 1.622838
 38620379, 3.732102, 0.3414272, 1.35901, 1.600759, 3.675796, 0.2366293, 1.368476, 1.611801
 38820299, 3.607156, 0.2767714, 1.35048, 1.588969, 3.732102, 0.3414272, 1.35901, 1.600759
 39020219, 3.665056, 0.3247087, 1.345125, 1.577941, 3.607156, 0.2767714, 1.35048, 1.588969
 39220972, 3.678327, 0.3824342, 1.338341, 1.569417, 3.665056, 0.3247087, 1.345125, 1.577941
 39420892, 3.664523, 0.412564, 1.331578, 1.559607, 3.678327, 0.3824342, 1.338341, 1.569417
 39620812, 3.766603, 0.226624, 1.324397, 1.55112, 3.664523, 0.412564, 1.331578, 1.559607
 39820732, 3.553406, 0.2332314, 1.318251, 1.542006, 3.766603, 0.226624, 1.324397, 1.55112
 40020652, 3.685602, 0.4106209, 1.312438, 1.534925, 3.553406, 0.2332314, 1.318251, 1.542006
 40220572, 3.675931, 0.2008216, 1.308605, 1.524599, 3.685602, 0.4106209, 1.312438, 1.534925
 40420492, 3.599025, 0.2319718, 1.301899, 1.516924, 3.675931, 0.2008216, 1.308605, 1.524599
 40620412, 3.685283, 0.2293744, 1.298505, 1.509165, 3.599025, 0.2319718, 1.301899, 1.516924
 40820332, 3.606016, 0.3007136, 1.297056, 1.507202, 3.685283, 0.2293744, 1.298505, 1.509165
 41020252, 3.569108, 0.282944, 1.301236, 1.509716, 3.606016, 0.3007136, 1.297056, 1.507202
 41220172, 3.793242, 0.3442937, 1.308495, 1.513754, 3.569108, 0.282944, 1.301236, 1.509716
 41420925, 3.684305, 0.2997879, 1.313919, 1.518112, 3.793242, 0.3442937, 1.308495, 1.513754
 41620845, 3.891659, 0.2301949, 1.317464, 1.524181, 3.684305, 0.2997879, 1.313919, 1.518112
 41820765, 3.749652, 0.2712071, 1.323148, 1.527771, 3.891659, 0.2301949, 1.317464, 1.524181
 42020685, 3.705016, 0.2906651, 1.327912, 1.532945, 3.749652, 0.2712071, 1.323148, 1.527771
 42220605, 3.755526, 0.2887923, 1.334874, 1.538814, 3.705016, 0.2906651, 1.327912, 1.532945
 42420525, 3.830064, 0.3974164, 1.342523, 1.54646, 3.755526, 0.2887923, 1.334874, 1.538814
 42620445, 3.653762, 0.3975137, 1.349659, 1.551162, 3.830064, 0.3974164, 1.342523, 1.54646
 42820365, 3.564146, 0.4066436, 1.354003, 1.558986, 3.653762, 0.3975137, 1.349659, 1.551162
 43020285, 3.634813, 0.3175848, 1.360336, 1.566843, 3.564146, 0.4066436, 1.354003, 1.558986
 43220205, 3.716707, 0.2314914, 1.36905, 1.5735, 3.634813, 0.3175848, 1.360336, 1.566843
 43420958, 3.75719, 0.3764297, 1.378089, 1.581774, 3.716707, 0.2314914, 1.36905, 1.5735
 43620878, 3.772037, 0.2363516, 1.386083, 1.589198, 3.75719, 0.3764297, 1.378089, 1.581774
 43820798, 3.785142, 0.2719699, 1.394461, 1.597456, 3.772037, 0.2363516, 1.386083, 1.589198
 44020718, 3.719634, 0.2775843, 1.402494, 1.605822, 3.785142, 0.2719699, 1.394461, 1.597456
 44220638, 3.715792, 0.3044919, 1.411785, 1.612303, 3.719634, 0.2775843, 1.402494, 1.605822
 44420558, 3.774926, 0.4538546, 1.417844, 1.624814, 3.715792, 0.3044919, 1.411785, 1.612303
 44620478, 3.925821, 0.3862091, 1.427981, 1.636627, 3.774926, 0.4538546, 1.417844, 1.624814
 44820398, 3.62072, 0.3626277, 1.438772, 1.646487, 3.925821, 0.3862091, 1.427981, 1.636627
 45020318, 3.728976, 0.2282835, 1.447604, 1.658909, 3.62072, 0.3626277, 1.438772, 1.646487
 45220238, 3.589294, 0.2917543, 1.458078, 1.667665, 3.728976, 0.2282835, 1.447604, 1.658909
 45420158, 3.785158, 0.2689613, 1.469946, 1.677548, 3.589294, 0.2917543, 1.458078, 1.667665
 45620911, 3.854412, 0.2796029, 1.479559, 1.690277, 3.785158, 0.2689613, 1.469946, 1.677548
 45820831, 3.716609, 0.3211991, 1.491499, 1.699911, 3.854412, 0.2796029, 1.479559, 1.690277
 46020751, 3.678897, 0.3299547, 1.502641, 1.711742, 3.716609, 0.3211991, 1.491499, 1.699911
 46220671, 3.73569, 0.4496618, 1.516972, 1.722464, 3.678897, 0.3299547, 1.502641, 1.711742
 46420591, 3.819811, 0.2410149, 1.529764, 1.734486, 3.73569, 0.4496618, 1.516972, 1.722464
 46620511, 3.725168, 0.3577591, 1.543628, 1.74386, 3.819811, 0.2410149, 1.529764, 1.734486
 46820431, 3.725772, 0.1143114, 1.557455, 1.753858, 3.725168, 0.3577591, 1.543628, 1.74386
 47020351, 3.554414, 0.3797548, 1.570176, 1.76485, 3.725772, 0.1143114, 1.557455, 1.753858
 47220271, 3.821808, 0.3564553, 1.584491, 1.777084, 3.554414, 0.3797548, 1.570176, 1.76485
 47420191, 3.674597, 0.2425096, 1.593613, 1.790655, 3.821808, 0.3564553, 1.584491, 1.777084
 47620944, 3.748096, 0.1907226, 1.609002, 1.799252, 3.674597, 0.2425096, 1.593613, 1.790655
 47820864, 3.831209, 0.3704614, 1.616844, 1.809669, 3.748096, 0.1907226, 1.609002, 1.799252
 48020784, 3.659808, 0.091601, 1.619376, 1.813067, 3.831209, 0.3704614, 1.616844, 1.809669
 48220704, 3.936639, 0.1235719, 1.625416, 1.814875, 3.659808, 0.091601, 1.619376, 1.813067
 48420624, 3.649564, 0.1639737, 1.624247, 1.815767, 3.936639, 0.1235719, 1.625416, 1.814875
 48620544, 3.966711, 0.1649378, 1.632124, 1.814418, 3.649564, 0.1639737, 1.624247, 1.815767
 48820464, 3.915165, 0.344552, 1.63435, 1.814678, 3.966711, 0.1649378, 1.632124, 1.814418
 49020384, 3.783841, 0.379412, 1.634711, 1.817266, 3.915165, 0.344552, 1.63435, 1.814678
 49220304, 3.775087, 0.2491336, 1.64046, 1.816984, 3.783841, 0.379412, 1.634711, 1.817266
 49420224, 3.864069, 0.3643784, 1.64302, 1.818195, 3.775087, 0.2491336, 1.64046, 1.816984
 49620977, 3.76446, 0.332952, 1.647357, 1.817313, 3.864069, 0.3643784, 1.64302, 1.818195
 49820897, 3.783146, 0.3405635, 1.649218, 1.819984, 3.76446, 0.332952, 1.647357, 1.817313
 50020817, 3.71433, 0.3238654, 1.654633, 1.820379, 3.783146, 0.3405635, 1.649218, 1.819984
 50220737, 3.667513, 0.4496424, 1.657149, 1.823276, 3.71433, 0.3238654, 1.654633, 1.820379
 50420657, 3.667075, 0.314142, 1.658382, 1.825374, 3.667513, 0.4496424, 1.657149, 1.823276
 50620577, 3.994691, 0.3116639, 1.66266, 1.827193, 3.667075, 0.314142, 1.658382, 1.825374
 50820497, 3.786963, 0.1946106, 1.66602, 1.825089, 3.994691, 0.3116639, 1.66266, 1.827193
 51020417, 3.673316, 0.1366036, 1.668414, 1.826102, 3.786963, 0.1946106, 1.66602, 1.825089
 51220337, 3.66436, 0.1448859, 1.668913, 1.829206, 3.673316, 0.1366036, 1.668414, 1.826102
 51420257, 3.799408, 0.3232933, 1.672581, 1.82479, 3.66436, 0.1448859, 1.668913, 1.829206
 51620177, 3.829547, 0.102706, 1.671918, 1.819632, 3.799408, 0.3232933, 1.672581, 1.82479
 51820930, 3.885111, 0.1855548, 1.668399, 1.816128, 3.829547, 0.102706, 1.671918, 1.819632
 52020850, 3.924782, 0.417543, 1.665901, 1.808459, 3.885111, 0.1855548, 1.668399, 1.816128
 52220770, 3.831539, 0.1693109, 1.661605, 1.803023, 3.924782, 0.417543, 1.665901, 1.808459
 52420690, 3.792403, 0.1704937, 1.659119, 1.797087, 3.831539, 0.1693109, 1.661605, 1.803023
 52620610, 3.857905, 0.2353136, 1.660187, 1.789561, 3.792403, 0.1704937, 1.659119, 1.797087
 52820530, 3.795278, 0.2674054, 1.655127, 1.786233, 3.857905, 0.2353136, 1.660187, 1.789561
 53020450, 3.790331, 0.1090584, 1.651713, 1.781457, 3.795278, 0.2674054, 1.655127, 1.786233
 53220370, 3.690407, 0.04873545, 1.649078, 1.775599, 3.790331, 0.1090584, 1.651713, 1.781457
 53420290, 3.826768, 0.1546611, 1.644615, 1.771376, 3.690407, 0.04873545, 1.649078, 1.775599
 53620210, 3.875556, 0.008661211, 1.641965, 1.767024, 3.826768, 0.1546611, 1.644615, 1.771376
 53820963, 3.968969, 0.164454, 1.643343, 1.759429, 3.875556, 0.008661211, 1.641965, 1.767024
 54020883, 3.869822, 0.2888042, 1.641701, 1.754696, 3.968969, 0.164454, 1.643343, 1.759429
 54220803, 4.003858, 0.2576301, 1.638673, 1.750028, 3.869822, 0.2888042, 1.641701, 1.754696
 54420723, 3.622666, 0.3420117, 1.632744, 1.746454, 4.003858, 0.2576301, 1.638673, 1.750028
 54620643, 3.704774, 0.2543114, 1.626151, 1.74328, 3.622666, 0.3420117, 1.632744, 1.746454
 54820563, 3.735487, 0.134455, 1.629945, 1.739572, 3.704774, 0.2543114, 1.626151, 1.74328
 55020483, 3.748648, 0.1667219, 1.635235, 1.743197, 3.735487, 0.134455, 1.629945, 1.739572
 55220403, 3.820173, 0.07508694, 1.642791, 1.74903, 3.748648, 0.1667219, 1.635235, 1.743197
 55420323, 3.812705, 0.2431908, 1.650545, 1.753166, 3.820173, 0.07508694, 1.642791, 1.74903
 55620243, 3.848405, -0.01965949, 1.654093, 1.762447, 3.812705, 0.2431908, 1.650545, 1.753166
 55820163, 3.900336, 0.2064333, 1.660046, 1.768669, 3.848405, -0.01965949, 1.654093, 1.762447
 56020916, 3.824854, 0.191749, 1.668591, 1.772329, 3.900336, 0.2064333, 1.660046, 1.768669
 56220836, 3.76635, 0.1432935, 1.676242, 1.778737, 3.824854, 0.191749, 1.668591, 1.772329
 56420756, 3.712457, 0.2911716, 1.683179, 1.786012, 3.76635, 0.1432935, 1.676242, 1.778737
 56620676, 3.61688, 0.02305993, 1.686306, 1.795321, 3.712457, 0.2911716, 1.683179, 1.786012
 56820596, 3.780623, 0.1877297, 1.69396, 1.800233, 3.61688, 0.02305993, 1.686306, 1.795321
 57020516, 3.773576, 0.2747527, 1.699609, 1.804722, 3.780623, 0.1877297, 1.69396, 1.800233
 57220436, 3.744777, 0.2222446, 1.703865, 1.812214, 3.773576, 0.2747527, 1.699609, 1.804722
 57420356, 3.78698, 0.2406124, 1.715827, 1.815478, 3.744777, 0.2222446, 1.703865, 1.812214
 57620276, 3.912058, 0.1688658, 1.723248, 1.823552, 3.78698, 0.2406124, 1.715827, 1.815478
 57820196, 3.687671, 0.2735493, 1.727673, 1.832295, 3.912058, 0.1688658, 1.723248, 1.823552
 58020949, 3.799532, 0.06986353, 1.734855, 1.838571, 3.687671, 0.2735493, 1.727673, 1.832295
 58220869, 3.79928, 0.02459928, 1.742395, 1.844773, 3.799532, 0.06986353, 1.734855, 1.838571
 58420789, 3.738354, 0.03470764, 1.747887, 1.85048, 3.79928, 0.02459928, 1.742395, 1.844773
 58620709, 3.758283, 0.2202727, 1.756, 1.853319, 3.738354, 0.03470764, 1.747887, 1.85048
 58820629, 3.755352, 0.2950248, 1.758619, 1.86434, 3.758283, 0.2202727, 1.756, 1.853319
 59020549, 3.879712, 0.3118357, 1.765225, 1.872907, 3.755352, 0.2950248, 1.758619, 1.86434
 59220469, 3.763683, 0.08477321, 1.772441, 1.879221, 3.879712, 0.3118357, 1.765225, 1.872907
 59420389, 3.7974, 0.2709109, 1.779266, 1.884247, 3.763683, 0.08477321, 1.772441, 1.879221
 59620309, 3.833158, 0.1624287, 1.784645, 1.890752, 3.7974, 0.2709109, 1.779266, 1.884247
 59820229, 3.758468, 0.3441143, 1.790818, 1.896488, 3.833158, 0.1624287, 1.784645, 1.890752
 60020149, 3.907938, 0.1030327, 1.801261, 1.897248, 3.758468, 0.3441143, 1.790818, 1.896488
 60220902, 3.855235, 0.09476299, 1.804966, 1.905424, 3.907938, 0.1030327, 1.801261, 1.897248
 60420822, 3.960225, 0.1765407, 1.813951, 1.911235, 3.855235, 0.09476299, 1.804966, 1.905424
 60620742, 3.820739, 0.0858098, 1.821605, 1.916479, 3.960225, 0.1765407, 1.813951, 1.911235
 60820662, 3.778965, 0.2852882, 1.829754, 1.921068, 3.820739, 0.0858098, 1.821605, 1.916479
 61020582, 3.983341, -0.003648914, 1.834392, 1.930269, 3.778965, 0.2852882, 1.829754, 1.921068
 61220502, 3.740817, 0.2880924, 1.842356, 1.933827, 3.983341, -0.003648914, 1.834392, 1.930269
 61420422, 3.882493, 0.2532558, 1.851282, 1.939025, 3.740817, 0.2880924, 1.842356, 1.933827
 61620342, 3.7449, 0.1295519, 1.857275, 1.943668, 3.882493, 0.2532558, 1.851282, 1.939025
 61820262, 3.709333, 0.2907853, 1.85647, 1.947308, 3.7449, 0.1295519, 1.857275, 1.943668
 62020182, 3.885565, 0.3532651, 1.835537, 1.995903, 3.709333, 0.2907853, 1.85647, 1.947308
 62220935, 3.963993, 0.5700504, 1.92999, 2.166916, 3.885565, 0.3532651, 1.835537, 1.995903
 62420855, 4.041827, 0.4924551, 2.221243, 2.585843, 3.963993, 0.5700504, 1.92999, 2.166916
 62620775, 3.735755, 0.6804668, 2.937921, 3.740336, 4.041827, 0.4924551, 2.221243, 2.585843
 62820695, 3.640539, 0.44127, 3.274198, 4.937258, 3.735755, 0.6804668, 2.937921, 3.740336
 63020615, 2.919305, 1.538513, 2.522186, 5.172705, 3.640539, 0.44127, 3.274198, 4.937258
 63220535, 2.850755, 1.052831, 1.576226, 4.962054, 2.919305, 1.538513, 2.522186, 5.172705
 63420455, 2.621937, 1.807674, 0.8934778, 4.821068, 2.850755, 1.052831, 1.576226, 4.962054
 63620375, 2.165188, 2.193247, 0.4038072, 4.798505, 2.621937, 1.807674, 0.8934778, 4.821068
 63820295, 2.067057, 2.471426, -0.006517887, 4.7875, 2.165188, 2.193247, 0.4038072, 4.798505
 64020215, 1.87288, 2.750089, -0.3932965, 4.716365, 2.067057, 2.471426, -0.006517887, 4.7875
 64220968, 1.524989, 2.12623, -0.7759414, 4.63093, 1.87288, 2.750089, -0.3932965, 4.716365
 64420888, 1.496778, 2.778341, -1.173051, 4.493797, 1.524989, 2.12623, -0.7759414, 4.63093
 64620808, 1.558484, 2.779545, -1.548495, 4.322589, 1.496778, 2.778341, -1.173051, 4.493797
 64820728, 1.202748, 2.729182, -1.915092, 4.155606, 1.558484, 2.779545, -1.548495, 4.322589
 65020648, 0.8431054, 2.84568, -2.265027, 3.95122, 1.202748, 2.729182, -1.915092, 4.155606
 65220568, 0.2556927, 2.223131, -2.582262, 3.716675, 0.8431054, 2.84568, -2.265027, 3.95122
 65420488, -0.05132262, 2.461389, -2.889028, 3.470687, 0.2556927, 2.223131, -2.582262, 3.716675
 65620408, -0.4320022, 2.558574, -3.166406, 3.207809, -0.05132262, 2.461389, -2.889028, 3.470687
 65820328, -0.1039805, 2.552502, -3.434367, 2.922001, -0.4320022, 2.558574, -3.166406, 3.207809
 66020248, -0.742245, 2.638523, -3.687644, 2.621951, -0.1039805, 2.552502, -3.434367, 2.922001
 66220168, -0.6907377, 2.756713, -3.896624, 2.291222, -0.742245, 2.638523, -3.687644, 2.621951
 66420921, -0.6895119, 2.504738, -4.071412, 1.948196, -0.6907377, 2.756713, -3.896624, 2.291222
 66620841, -1.352566, 2.230739, -4.196622, 1.593507, -0.6895119, 2.504738, -4.071412, 1.948196
 66820761, -1.153246, 2.711734, -4.282624, 1.243875, -1.352566, 2.230739, -4.196622, 1.593507
 67020681, -1.562239, 2.420418, -4.323458, 0.9110136, -1.153246, 2.711734, -4.282624, 1.243875
 67220601, -1.496751, 1.92484, -4.321808, 0.5880487, -1.562239, 2.420418, -4.323458, 0.9110136
 67420521, -1.813343, 1.667639, -4.272497, 0.2784946, -1.496751, 1.92484, -4.321808, 0.5880487
 67620441, -2.150313, 1.827588, -4.186059, -0.001384735, -1.813343, 1.667639, -4.272497, 0.2784946
 67820361, -2.10283, 1.647507, -4.071615, -0.2306454, -2.150313, 1.827588, -4.186059, -0.001384735
 68020281, -2.264691, 2.043685, -3.93997, -0.4317688, -2.10283, 1.647507, -4.071615, -0.2306454
 68220201, -2.599764, 1.759204, -3.811649, -0.6030495, -2.264691, 2.043685, -3.93997, -0.4317688
 68420954, -2.35155, 1.411839, -3.693003, -0.7744436, -2.599764, 1.759204, -3.811649, -0.6030495
 68620874, -2.626749, 1.476085, -3.574036, -0.9155819, -2.35155, 1.411839, -3.693003, -0.7744436
 68820794, -2.624003, 1.492053, -3.450166, -1.050143, -2.626749, 1.476085, -3.574036, -0.9155819
 69020714, -2.741875, 1.297399, -3.313892, -1.165054, -2.624003, 1.492053, -3.450166, -1.050143
 69220634, -2.467195, 1.311451, -3.185953, -1.255822, -2.741875, 1.297399, -3.313892, -1.165054
 69420554, -2.871856, 1.023654, -3.067304, -1.334199, -2.467195, 1.311451, -3.185953, -1.255822
 69620474, -2.865545, 1.009921, -2.953898, -1.41343, -2.871856, 1.023654, -3.067304, -1.334199
 69820394, -2.899251, 1.126263, -2.844193, -1.481134, -2.865545, 1.009921, -2.953898, -1.41343
 70020314, -3.15757, 0.7143698, -2.738178, -1.535144, -2.899251, 1.126263, -2.844193, -1.481134
 70220234, -3.031879, 0.8299567, -2.635906, -1.58823, -3.15757, 0.7143698, -2.738178, -1.535144
 70420154, -3.374411, 0.6774699, -2.542682, -1.631436, -3.031879, 0.8299567, -2.635906, -1.58823
 70620907, -3.043175, 0.7914878, -2.454089, -1.669153, -3.374411, 0.6774699, -2.542682, -1.631436
 70820827, -3.245903, 0.4344212, -2.372567, -1.70147, -3.043175, 0.7914878, -2.454089, -1.669153
 71020747, -3.377181, 0.6043558, -2.300892, -1.725655, -3.245903, 0.4344212, -2.372567, -1.70147
 71220667, -3.306643, 0.3286763, -2.235925, -1.744412, -3.377181, 0.6043558, -2.300892, -1.725655
 71420587, -3.237698, 0.4702676, -2.170742, -1.772384, -3.306643, 0.3286763, -2.235925, -1.744412
 71620507, -3.598254, 0.09628625, -2.11439, -1.79275, -3.237698, 0.4702676, -2.170742, -1.772384
 71820427, -3.369229, 0.2313544, -2.062832, -1.804394, -3.598254, 0.09628625, -2.11439, -1.79275
 72020347, -3.523318, 0.1579792, -2.019052, -1.810729, -3.369229, 0.2313544, -2.062832, -1.804394
 72220267, -3.444943, 0.148359, -1.974958, -1.819705, -3.523318, 0.1579792, -2.019052, -1.810729
 72420187, -3.587392, -0.02653258, -1.93413, -1.827241, -3.444943, 0.148359, -1.974958, -1.819705
 72620940, -3.61832, 0.1318057, -1.895636, -1.833935, -3.587392, -0.02653258, -1.93413, -1.827241
 72820860, -3.497326, -0.0648141, -1.859434, -1.838431, -3.61832, 0.1318057, -1.895636, -1.833935
 73020780, -3.678854, -0.1287093, -1.829245, -1.839753, -3.497326, -0.0648141, -1.859434, -1.838431
 73220700, -3.754668, -0.2060427, -1.801374, -1.839086, -3.678854, -0.1287093, -1.829245, -1.839753
 73420620, -3.772533, -0.06247118, -1.773485, -1.843372, -3.754668, -0.2060427, -1.801374, -1.839086
 73620540, -3.699316, 0.03798157, -1.754245, -1.845285, -3.772533, -0.06247118, -1.773485, -1.843372
 73820460, -3.719868, -0.02761501, -1.73665, -1.84844, -3.699316, 0.03798157, -1.754245, -1.845285
 74020380, -3.662777, -0.1633986, -1.719507, -1.850945, -3.719868, -0.02761501, -1.73665, -1.84844
 74220300, -3.818922, -0.2182532, -1.703661, -1.854338, -3.662777, -0.1633986, -1.719507, -1.850945
 74420220, -3.572427, -0.1180196, -1.691216, -1.85484, -3.818922, -0.2182532, -1.703661, -1.854338
 74620973, -3.892929, -0.3170522, -1.677421, -1.860103, -3.572427, -0.1180196, -1.691216, -1.85484
 74820893, -3.766187, -0.07082576, -1.66651, -1.860739, -3.892929, -0.3170522, -1.677421, -1.860103
 75020813, -3.637637, -0.05117269, -1.655953, -1.861665, -3.766187, -0.07082576, -1.66651, -1.860739
 75220733, -3.657719, -0.2562599, -1.644628, -1.863736, -3.637637, -0.05117269, -1.655953, -1.861665
 75420653, -3.598674, -0.4580956, -1.635614, -1.865508, -3.657719, -0.2562599, -1.644628, -1.863736
 75620573, -3.853981, -0.2516082, -1.628307, -1.867184, -3.598674, -0.4580956, -1.635614, -1.865508
 75820493, -3.524718, -0.2284711, -1.620141, -1.866878, -3.853981, -0.2516082, -1.628307, -1.867184
 76020413, -3.63712, -0.1655902, -1.614121, -1.867571, -3.524718, -0.2284711, -1.620141, -1.866878
 76220333, -3.808819, -0.3206824, -1.604597, -1.869754, -3.63712, -0.1655902, -1.614121, -1.867571
 76420253, -3.821598, -0.2988352, -1.603079, -1.865456, -3.808819, -0.3206824, -1.604597, -1.869754
 76620173, -3.672935, -0.5080914, -1.597029, -1.866822, -3.821598, -0.2988352, -1.603079, -1.865456
 76820926, -3.720638, -0.2960317, -1.594707, -1.864201, -3.672935, -0.5080914, -1.597029, -1.866822
 77020846, -3.72166, -0.3775457, -1.585716, -1.864258, -3.720638, -0.2960317, -1.594707, -1.864201
 77220766, -3.636721, -0.4406432, -1.579202, -1.862114, -3.72166, -0.3775457, -1.585716, -1.864258
 77420686, -3.680336, -0.5219572, -1.575618, -1.858639, -3.636721, -0.4406432, -1.579202, -1.862114
 77620606, -3.540136, -0.3527473, -1.570556, -1.856716, -3.680336, -0.5219572, -1.575618, -1.858639
 77820526, -3.580112, -0.1640854, -1.565366, -1.85568, -3.540136, -0.3527473, -1.570556, -1.856716
 78020446, -3.810926, -0.543725, -1.563435, -1.856042, -3.580112, -0.1640854, -1.565366, -1.85568
 78220366, -3.794426, -0.4136332, -1.558335, -1.856404, -3.810926, -0.543725, -1.563435, -1.856042
 78420286, -3.687997, -0.3316332, -1.555115, -1.856099, -3.794426, -0.4136332, -1.558335, -1.856404
 78620206, -3.762921, -0.3733766, -1.55335, -1.854461, -3.687997, -0.3316332, -1.555115, -1.856099
 78820959, -3.801436, -0.534844, -1.549684, -1.855252, -3.762921, -0.3733766, -1.55335, -1.854461
 79020879, -3.819207, -0.5114903, -1.548502, -1.855143, -3.801436, -0.534844, -1.549684, -1.855252
 79220799, -3.661555, -0.1933158, -1.544559, -1.856903, -3.819207, -0.5114903, -1.548502, -1.855143
 79420719, -3.864184, -0.6152809, -1.543061, -1.855521, -3.661555, -0.1933158, -1.544559, -1.856903
 79620639, -3.677357, -0.4186198, -1.53914, -1.856504, -3.864184, -0.6152809, -1.543061, -1.855521
 79820559, -3.615123, -0.2618732, -1.53554, -1.858348, -3.677357, -0.4186198, -1.53914, -1.856504
 80020479, -3.721402, -0.3991107, -1.5393, -1.8585, -3.615123, -0.2618732, -1.53554, -1.858348
 80220399, -3.754885, -0.4913013, -1.538953, -1.860674, -3.721402, -0.3991107, -1.5393, -1.8585
 80420319, -3.760759, -0.5148104, -1.535445, -1.864003, -3.754885, -0.4913013, -1.538953, -1.860674
 80620239, -3.767965, -0.547119, -1.530564, -1.860958, -3.760759, -0.5148104, -1.535445, -1.864003
 80820159, -3.777499, -0.2989657, -1.525576, -1.855315, -3.767965, -0.547119, -1.530564, -1.860958
 81020912, -3.694267, -0.4204253, -1.519885, -1.85008, -3.777499, -0.2989657, -1.525576, -1.855315
 81220832, -3.874902, -0.5033129, -1.514928, -1.844815, -3.694267, -0.4204253, -1.519885, -1.85008
 81420752, -3.678706, -0.5162034, -1.510355, -1.83737, -3.874902, -0.5033129, -1.514928, -1.844815
 81620672, -3.855004, -0.3583993, -1.504783, -1.835711, -3.678706, -0.5162034, -1.510355, -1.83737
 81820592, -3.653342, -0.4905483, -1.501709, -1.830173, -3.855004, -0.3583993, -1.504783, -1.835711
 82020512, -3.804597, -0.3652671, -1.49885, -1.82462, -3.653342, -0.4905483, -1.501709, -1.830173
 82220432, -3.824388, -0.3742681, -1.493544, -1.81944, -3.804597, -0.3652671, -1.49885, -1.82462
 82420352, -3.830032, -0.4733487, -1.489203, -1.813111, -3.824388, -0.3742681, -1.493544, -1.81944
 82620272, -3.554853, -0.4785044, -1.483017, -1.807414, -3.830032, -0.4733487, -1.489203, -1.813111
 82820192, -3.657726, -0.5084762, -1.476207, -1.804433, -3.554853, -0.4785044, -1.483017, -1.807414
 83020945, -3.818973, -0.5058439, -1.47187, -1.800429, -3.657726, -0.5084762, -1.476207, -1.804433
 83220865, -3.768826, -0.2539696, -1.465962, -1.795968, -3.818973, -0.5058439, -1.47187, -1.800429
 83420785, -3.704359, -0.4243837, -1.46166, -1.791012, -3.768826, -0.2539696, -1.465962, -1.795968
 83620705, -3.921796, -0.5674087, -1.460617, -1.78566, -3.704359, -0.4243837, -1.46166, -1.791012
 83820625, -3.703684, -0.3554925, -1.452725, -1.780787, -3.921796, -0.5674087, -1.460617, -1.78566
 84020545, -3.765657, -0.5391169, -1.448981, -1.774155, -3.703684, -0.3554925, -1.452725, -1.780787
 84220465, -3.985919, -0.3887937, -1.446465, -1.767254, -3.765657, -0.5391169, -1.448981, -1.774155
 84420385, -3.749991, -0.616517, -1.44281, -1.761437, -3.985919, -0.3887937, -1.446465, -1.767254
 84620305, -3.629465, -0.4711272, -1.436747, -1.758386, -3.749991, -0.616517, -1.44281, -1.761437
 84820225, -3.75798, -0.4431639, -1.434725, -1.753937, -3.629465, -0.4711272, -1.436747, -1.758386
 85020145, -3.687449, -0.527615, -1.427786, -1.752141, -3.75798, -0.4431639, -1.434725, -1.753937
 85220898, -3.683562, -0.2970579, -1.42329, -1.746896, -3.687449, -0.527615, -1.427786, -1.752141
 85420818, -3.85499, -0.5377145, -1.421972, -1.741395, -3.683562, -0.2970579, -1.42329, -1.746896
 85620738, -3.748114, -0.3356975, -1.415958, -1.73723, -3.85499, -0.5377145, -1.421972, -1.741395
 85820658, -3.83601, -0.4099854, -1.410261, -1.733966, -3.748114, -0.3356975, -1.415958, -1.73723
 86020578, -3.922833, -0.5633497, -1.404483, -1.728455, -3.83601, -0.4099854, -1.410261, -1.733966
 86220498, -3.855941, -0.4592862, -1.398471, -1.72222, -3.922833, -0.5633497, -1.404483, -1.728455
 86420418, -3.841028, -0.445129, -1.393024, -1.716362, -3.855941, -0.4592862, -1.398471, -1.72222
 86620338, -3.81121, -0.5805113, -1.387859, -1.71078, -3.841028, -0.445129, -1.393024, -1.716362
 86820258, -3.773077, -0.3421845, -1.381444, -1.705584, -3.81121, -0.5805113, -1.387859, -1.71078
 87020178, -3.735288, -0.5070227, -1.375839, -1.697408, -3.773077, -0.3421845, -1.381444, -1.705584
 87220931, -3.710225, -0.5199671, -1.368631, -1.690743, -3.735288, -0.5070227, -1.375839, -1.697408
 87420851, -3.969348, -0.2921002, -1.364168, -1.683069, -3.710225, -0.5199671, -1.368631, -1.690743
 87620771, -3.948678, -0.4009779, -1.360343, -1.678517, -3.969348, -0.2921002, -1.364168, -1.683069
 87820691, -3.826339, -0.4846458, -1.35937, -1.67697, -3.948678, -0.4009779, -1.360343, -1.678517
 88020611, -3.78882, -0.3842338, -1.356641, -1.677087, -3.826339, -0.4846458, -1.35937, -1.67697
 88220531, -3.789293, -0.3452792, -1.35635, -1.67409, -3.78882, -0.3842338, -1.356641, -1.677087
 88420451, -3.821291, -0.5264096, -1.351912, -1.673779, -3.789293, -0.3452792, -1.35635, -1.67409
 88620371, -3.752403, -0.2983677, -1.351173, -1.672207, -3.821291, -0.5264096, -1.351912, -1.673779
 88820291, -3.851907, -0.618479, -1.351789, -1.672339, -3.752403, -0.2983677, -1.351173, -1.672207
 89020211, -3.777449, -0.6091588, -1.349223, -1.674262, -3.851907, -0.618479, -1.351789, -1.672339
 89220964, -3.672701, -0.487347, -1.351142, -1.672113, -3.777449, -0.6091588, -1.349223, -1.674262
 89420884, -3.800335, -0.5121431, -1.349, -1.670916, -3.672701, -0.487347, -1.351142, -1.672113
 89620804, -3.730639, -0.3066127, -1.348315, -1.669473, -3.800335, -0.5121431, -1.349, -1.670916
 89820724, -3.741045, -0.513773, -1.34443, -1.669283, -3.730639, -0.3066127, -1.348315, -1.669473
 90020644, -3.792209, -0.5502095, -1.344275, -1.668949, -3.741045, -0.513773, -1.34443, -1.669283
 90220564, -3.867134, -0.4291795, -1.343478, -1.665394, -3.792209, -0.5502095, -1.344275, -1.668949
 90420484, -3.744977, -0.3844005, -1.340468, -1.664447, -3.867134, -0.4291795, -1.343478, -1.665394
 90620404, -3.861308, -0.6602405, -1.339054, -1.663677, -3.744977, -0.3844005, -1.340468, -1.664447
 90820324, -3.904419, -0.4171258, -1.33738, -1.660906, -3.861308, -0.6602405, -1.339054, -1.663677
 91020244, -3.824293, -0.4992704, -1.336649, -1.661925, -3.904419, -0.4171258, -1.33738, -1.660906
 91220164, -3.63198, -0.2770405, -1.340758, -1.665813, -3.824293, -0.4992704, -1.336649, -1.661925
 91420917, -3.801236, -0.5288827, -1.347031, -1.673423, -3.63198, -0.2770405, -1.340758, -1.665813
 91620837, -3.612528, -0.6127491, -1.348487, -1.681988, -3.801236, -0.5288827, -1.347031, -1.673423
 91820757, -4.003622, -0.2813755, -1.35694, -1.688288, -3.612528, -0.6127491, -1.348487, -1.681988
 92020677, -3.723269, -0.6691546, -1.359586, -1.695609, -4.003622, -0.2813755, -1.35694, -1.688288
 92220597, -3.64221, -0.3392751, -1.364682, -1.702404, -3.723269, -0.6691546, -1.359586, -1.695609
 92420517, -3.882375, -0.5430548, -1.372928, -1.709074, -3.64221, -0.3392751, -1.364682, -1.702404
 92620437, -3.612462, -0.547911, -1.377828, -1.714913, -3.882375, -0.5430548, -1.372928, -1.709074
 92820357, -3.914727, -0.613785, -1.38123, -1.724081, -3.612462, -0.547911, -1.377828, -1.714913
 93020277, -3.837048, -0.274411, -1.398186, -1.721873, -3.914727, -0.613785, -1.38123, -1.724081
 93220197, -3.794009, -0.4633321, -1.417191, -1.736697, -3.837048, -0.274411, -1.398186, -1.721873
 93420950, -3.86444, -0.4537217, -1.460791, -1.766951, -3.794009, -0.4633321, -1.417191, -1.736697
 93620870, -3.730795, -0.3345723, -1.524329, -1.80464, -3.86444, -0.4537217, -1.460791, -1.766951
 93820790, -3.871778, -0.3992123, -1.603661, -1.835431, -3.730795, -0.3345723, -1.524329, -1.80464
 94020710, -3.508817, -0.07016142, -1.696851, -1.854085, -3.871778, -0.3992123, -1.603661, -1.835431
 94220630, -3.681022, -0.2353683, -1.807917, -1.862202, -3.508817, -0.07016142, -1.696851, -1.854085
 94420550, -3.849122, -0.06659791, -1.933358, -1.856604, -3.681022, -0.2353683, -1.807917, -1.862202
 94620470, -3.406448, 0.06056882, -2.055593, -1.83679, -3.849122, -0.06659791, -1.933358, -1.856604
 94820390, -3.312587, 0.2424406, -2.188043, -1.781651, -3.406448, 0.06056882, -2.055593, -1.83679
 95020310, -3.403186, 0.6409283, -2.328697, -1.705928, -3.312587, 0.2424406, -2.188043, -1.781651
 95220230, -3.458584, 0.4268841, -2.536684, -1.646656, -3.403186, 0.6409283, -2.328697, -1.705928
 95420150, -3.112515, 0.9017518, -2.758443, -1.561769, -3.458584, 0.4268841, -2.536684, -1.646656
 95620903, -3.301348, 1.071932, -2.951051, -1.429183, -3.112515, 0.9017518, -2.758443, -1.561769
 95820823, -2.998991, 1.14694, -3.081122, -1.268403, -3.301348, 1.071932, -2.951051, -1.429183
 96020743, -2.94736, 1.662062, -3.168673, -1.088663, -2.998991, 1.14694, -3.081122, -1.268403
 96220663, -2.906565, 1.394001, -3.218426, -0.8989842, -2.94736, 1.662062, -3.168673, -1.088663
 96420583, -2.751811, 1.799169, -3.231659, -0.7039498, -2.906565, 1.394001, -3.218426, -0.8989842
 96620503, -2.787854, 1.865486, -3.209001, -0.5119377, -2.751811, 1.799169, -3.231659, -0.7039498
 96820423, -2.81535, 1.883836, -3.144947, -0.3455602, -2.787854, 1.865486, -3.209001, -0.5119377
 97020343, -2.578215, 2.134214, -3.034907, -0.1872218, -2.81535, 1.883836, -3.144947, -0.3455602
 97220263, -2.321729, 1.931324, -2.902887, -0.05655277, -2.578215, 2.134214, -3.034907, -0.1872218
 97420183, -2.208514, 2.058898, -2.784501, 0.06109345, -2.321729, 1.931324, -2.902887, -0.05655277
 97620936, -2.07377, 2.179049, -2.714054, 0.162653, -2.208514, 2.058898, -2.784501, 0.06109345
 97820856, -2.197462, 2.335243, -2.657715, 0.2533245, -2.07377, 2.179049, -2.714054, 0.162653
 98020776, -1.9499, 2.376984, -2.602792, 0.3350446, -2.197462, 2.335243, -2.657715, 0.2533245
 98220696, -1.921698, 2.525044, -2.549357, 0.4044431, -1.9499, 2.376984, -2.602792, 0.3350446
 98420616, -1.887971, 2.551031, -2.497174, 0.477533, -1.921698, 2.525044, -2.549357, 0.4044431
 98620536, -1.841546, 2.700321, -2.451484, 0.5344293, -1.887971, 2.551031, -2.497174, 0.477533
 98820456, -1.918427, 2.733472, -2.410513, 0.5821253, -1.841546, 2.700321, -2.451484, 0.5344293
 99020376, -1.928874, 2.888805, -2.372828, 0.624262, -1.918427, 2.733472, -2.410513, 0.5821253
 99220296, -1.890382, 3.029674, -2.341507, 0.6696847, -1.928874, 2.888805, -2.372828, 0.624262
 99420216, -1.728529, 3.066794, -2.317198, 0.7016695, -1.890382, 3.029674, -2.341507, 0.6696847
 99620969, -1.778203, 3.226934, -2.299799, 0.7315972, -1.728529, 3.066794, -2.317198, 0.7016695
 99820889, -1.728134, 3.459121, -2.288968, 0.7546782, -1.778203, 3.226934, -2.299799, 0.7315972
 100020809, -1.916078, 3.357162, -2.282854, 0.7757856, -1.728134, 3.459121, -2.288968, 0.7546782
 100220729, -2.015371, 3.516409, -2.280906, 0.791546, -1.916078, 3.357162, -2.282854, 0.7757856
 100420649, -1.653904, 3.370831, -2.279928, 0.7980917, -2.015371, 3.516409, -2.280906, 0.791546
 100620569, -1.644351, 3.49551, -2.284537, 0.8053591, -1.653904, 3.370831, -2.279928, 0.7980917
 100820489, -1.693339, 3.638373, -2.293875, 0.8099988, -1.644351, 3.49551, -2.284537, 0.8053591
 101020409, -1.784299, 3.727053, -2.316025, 0.8109417, -1.693339, 3.638373, -2.293875, 0.8099988
 101220329, -1.916567, 3.544458, -2.344594, 0.8044288, -1.784299, 3.727053, -2.316025, 0.8109417
 101420249, -1.81758, 3.597022, -2.376225, 0.7943001, -1.916567, 3.544458, -2.344594, 0.8044288
 101620169, -1.915728, 3.63322, -2.403911, 0.7807576, -1.81758, 3.597022, -2.376225, 0.7943001
 101820922, -1.96317, 3.836011, -2.427943, 0.7608833, -1.915728, 3.63322, -2.403911, 0.7807576
 102020842, -1.892441, 3.582343, -2.447977, 0.7324121, -1.96317, 3.836011, -2.427943, 0.7608833
 102220762, -1.935999, 3.617663, -2.467208, 0.7041487, -1.892441, 3.582343, -2.447977, 0.7324121
 102420682, -2.261965, 3.400949, -2.492072, 0.670532, -1.935999, 3.617663, -2.467208, 0.7041487
 102620602, -1.843373, 3.40412, -2.515265, 0.6334172, -2.261965, 3.400949, -2.492072, 0.670532
 102820522, -2.152343, 3.387813, -2.536427, 0.5926541, -1.843373, 3.40412, -2.515265, 0.6334172
 103020442, -2.319602, 3.248221, -2.550536, 0.5435277, -2.152343, 3.387813, -2.536427, 0.5926541
 103220362, -2.367707, 3.338828, -2.55926, 0.4963647, -2.319602, 3.248221, -2.550536, 0.5435277
 103420282, -2.22525, 3.085872, -2.568105, 0.4399321, -2.367707, 3.338828, -2.55926, 0.4963647
 103620202, -2.317452, 3.188955, -2.574723, 0.3879986, -2.22525, 3.085872, -2.568105, 0.4399321
 103820955, -2.359705, 2.971182, -2.581418, 0.3286002, -2.317452, 3.188955, -2.574723, 0.3879986
 104020875, -2.626757, 3.042777, -2.585437, 0.2747798, -2.359705, 2.971182, -2.581418, 0.3286002
 104220795, -2.475954, 3.020413, -2.583051, 0.2160372, -2.626757, 3.042777, -2.585437, 0.2747798
 104420715, -2.60949, 2.890307, -2.578696, 0.1510619, -2.475954, 3.020413, -2.583051, 0.2160372
 104620635, -2.539465, 2.570882, -2.570973, 0.09202969, -2.60949, 2.890307, -2.578696, 0.1510619
 104820555, -2.631001, 2.71746, -2.558713, 0.03007686, -2.539465, 2.570882, -2.570973, 0.09202969
 105020475, -2.868542, 2.812752, -2.543322, -0.03192079, -2.631001, 2.71746, -2.558713, 0.03007686
 105220395, -2.768496, 2.678165, -2.523762, -0.08759367, -2.868542, 2.812752, -2.543322, -0.03192079
 105420315, -2.937774, 2.552403, -2.502699, -0.1477052, -2.768496, 2.678165, -2.523762, -0.08759367
 105620235, -2.695853, 2.376459, -2.488972, -0.2099286, -2.937774, 2.552403, -2.502699, -0.1477052
 105820155, -2.851556, 2.398136, -2.476741, -0.2687984, -2.695853, 2.376459, -2.488972, -0.2099286
 106020908, -2.860161, 2.080885, -2.461459, -0.3274273, -2.851556, 2.398136, -2.476741, -0.2687984
 106220828, -3.056977, 2.055926, -2.448053, -0.3852226, -2.860161, 2.080885, -2.461459, -0.3274273
 106420748, -3.089444, 1.955777, -2.431096, -0.4435228, -3.056977, 2.055926, -2.448053, -0.3852226
 106620668, -2.962034, 2.046811, -2.411974, -0.5040754, -3.089444, 1.955777, -2.431096, -0.4435228
 106820588, -3.036194, 1.82873, -2.38803, -0.5654466, -2.962034, 2.046811, -2.411974, -0.5040754
 107020508, -2.999843, 1.676589, -2.363839, -0.6176132, -3.036194, 1.82873, -2.38803, -0.5654466
 107220428, -3.173212, 1.747089, -2.338113, -0.6705621, -2.999843, 1.676589, -2.363839, -0.6176132
 107420348, -3.322655, 1.837353, -2.315284, -0.7237505, -3.173212, 1.747089, -2.338113, -0.6705621
 107620268, -3.24147, 1.61877, -2.287966, -0.7774321, -3.322655, 1.837353, -2.315284, -0.7237505
 107820188, -3.320064, 1.584723, -2.26721, -0.8242386, -3.24147, 1.61877, -2.287966, -0.7774321
 108020941, -3.527158, 1.390576, -2.24766, -0.869174, -3.320064, 1.584723, -2.26721, -0.8242386
 108220861, -3.246662, 1.380081, -2.221677, -0.9238349, -3.527158, 1.390576, -2.24766, -0.869174
 108420781, -3.148723, 1.261026, -2.199375, -0.9733351, -3.246662, 1.380081, -2.221677, -0.9238349
 108620701, -3.443709, 1.265779, -2.179675, -1.013508, -3.148723, 1.261026, -2.199375, -0.9733351
 108820621, -3.461819, 1.081105, -2.153816, -1.058125, -3.443709, 1.265779, -2.179675, -1.013508
 109020541, -3.278448, 1.022897, -2.130969, -1.101374, -3.461819, 1.081105, -2.153816, -1.058125
 109220461, -3.359156, 1.097844, -2.1091, -1.143821, -3.278448, 1.022897, -2.130969, -1.101374
 109420381, -3.402522, 0.7450265, -2.078943, -1.191205, -3.359156, 1.097844, -2.1091, -1.143821
 109620301, -3.640436, 0.7391006, -2.054136, -1.232539, -3.402522, 0.7450265, -2.078943, -1.191205
 109820221, -3.536286, 0.6441001, -2.024848, -1.274793, -3.640436, 0.7391006, -2.054136, -1.232539
 110020974, -3.521886, 0.6884986, -1.996216, -1.315463, -3.536286, 0.6441001, -2.024848, -1.274793
 110220894, -3.483714, 0.6168765, -1.968558, -1.357431, -3.521886, 0.6884986, -1.996216, -1.315463
 110420814, -3.555668, 0.4495727, -1.940557, -1.394614, -3.483714, 0.6168765, -1.968558, -1.357431
 110620734, -3.704729, 0.5298904, -1.913217, -1.428152, -3.555668, 0.4495727, -1.940557, -1.394614
 110820654, -3.48634, 0.4555232, -1.884804, -1.46223, -3.704729, 0.5298904, -1.913217, -1.428152
 111020574, -3.66894, 0.3146804, -1.859036, -1.496406, -3.48634, 0.4555232, -1.884804, -1.46223
 111220494, -3.569792, 0.4500957, -1.831365, -1.53295, -3.66894, 0.3146804, -1.859036, -1.496406
 111420414, -3.67906, 0.2257886, -1.806831, -1.565287, -3.569792, 0.4500957, -1.831365, -1.53295
 111620334, -3.427232, 0.0932379, -1.778677, -1.599131, -3.67906, 0.2257886, -1.806831, -1.565287
 111820254, -3.648744, -0.0618223, -1.748817, -1.634378, -3.427232, 0.0932379, -1.778677, -1.599131
 112020174, -3.680102, 0.1452527, -1.719826, -1.664546, -3.648744, -0.0618223, -1.748817, -1.634378
 112220927, -3.709346, 0.08471707, -1.688408, -1.695262, -3.680102, 0.1452527, -1.719826, -1.664546
 112420847, -3.615902, -0.02919457, -1.658945, -1.724398, -3.709346, 0.08471707, -1.688408, -1.695262
 112620767, -3.582109, -0.1649024, -1.629596, -1.754521, -3.615902, -0.02919457, -1.658945, -1.724398
 112820687, -3.599194, -0.2461167, -1.599378, -1.780657, -3.582109, -0.1649024, -1.629596, -1.754521
 113020607, -3.747936, -0.3289148, -1.567168, -1.806504, -3.599194, -0.2461167, -1.599378, -1.780657
 113220527, -3.605637, -0.2310374, -1.533259, -1.831972, -3.747936, -0.3289148, -1.567168, -1.806504
 113420447, -3.66007, -0.4207439, -1.499617, -1.856345, -3.605637, -0.2310374, -1.533259, -1.831972
 113620367, -3.698066, -0.547833, -1.468799, -1.876986, -3.66007, -0.4207439, -1.499617, -1.856345
 113820287, -3.406512, -0.4856226, -1.435153, -1.895956, -3.698066, -0.547833, -1.468799, -1.876986
 114020207, -3.558125, -0.3809434, -1.398434, -1.918464, -3.406512, -0.4856226, -1.435153, -1.895956
 114220960, -3.470247, -0.5807955, -1.365014, -1.936998, -3.558125, -0.3809434, -1.398434, -1.918464
 114420880, -3.639129, -0.7000594, -1.335553, -1.954592, -3.470247, -0.5807955, -1.365014, -1.936998
 114620800, -3.729286, -0.7360559, -1.300514, -1.975401, -3.639129, -0.7000594, -1.335553, -1.954592
 114820720, -3.384455, -0.7132959, -1.265531, -1.992428, -3.729286, -0.7360559, -1.300514, -1.975401
 115020640, -3.614034, -0.9527494, -1.234333, -2.009139, -3.384455, -0.7132959, -1.265531, -1.992428
 115220560, -3.584739, -0.8814867, -1.202207, -2.02514, -3.614034, -0.9527494, -1.234333, -2.009139
 115420480, -3.44812, -0.8747263, -1.168969, -2.04126, -3.584739, -0.8814867, -1.202207, -2.02514
 115620400, -3.548246, -1.034781, -1.128023, -2.061039, -3.44812, -0.8747263, -1.168969, -2.04126
 115820320, -3.353508, -1.038724, -1.093993, -2.075383, -3.548246, -1.034781, -1.128023, -2.061039
 116020240, -3.521154, -1.181874, -1.064991, -2.088974, -3.353508, -1.038724, -1.093993, -2.075383
 116220160, -3.36716, -1.06305, -1.028303, -2.103855, -3.521154, -1.181874, -1.064991, -2.088974
 116420913, -3.281073, -1.139846, -0.9928374, -2.119309, -3.36716, -1.06305, -1.028303, -2.103855
 116620833, -3.293459, -1.198115, -0.9597445, -2.132917, -3.281073, -1.139846, -0.9928374, -2.119309
 116820753, -3.479527, -1.476509, -0.9261474, -2.145065, -3.293459, -1.198115, -0.9597445, -2.132917
 117020673, -3.37862, -1.576891, -0.8891534, -2.158336, -3.479527, -1.476509, -0.9261474, -2.145065
 117220593, -3.272594, -1.695044, -0.8487903, -2.170745, -3.37862, -1.576891, -0.8891534, -2.158336
 117420513, -3.297343, -1.589049, -0.8086169, -2.182842, -3.272594, -1.695044, -0.8487903, -2.170745
 117620433, -3.231138, -1.723451, -0.7732455, -2.192465, -3.297343, -1.589049, -0.8086169, -2.182842
 117820353, -3.068377, -1.604505, -0.7343689, -2.203929, -3.231138, -1.723451, -0.7732455, -2.192465
 118020273, -3.251158, -1.562799, -0.6960976, -2.213293, -3.068377, -1.604505, -0.7343689, -2.203929
 118220193, -3.204977, -1.733106, -0.659913, -2.222728, -3.251158, -1.562799, -0.6960976, -2.213293
 118420946, -3.314437, -1.833012, -0.62262, -2.230385, -3.204977, -1.733106, -0.659913, -2.222728
 118620866, -3.094142, -1.863974, -0.5864174, -2.235985, -3.314437, -1.833012, -0.62262, -2.230385
 118820786, -3.125504, -2.074334, -0.5461341, -2.241619, -3.094142, -1.863974, -0.5864174, -2.235985
 119020706, -3.13201, -1.822945, -0.5054376, -2.24691, -3.125504, -2.074334, -0.5461341, -2.241619
 119220626, -3.00996, -1.932605, -0.4657397, -2.252025, -3.13201, -1.822945, -0.5054376, -2.24691
 119420546, -2.965213, -2.115834, -0.4293469, -2.254278, -3.00996, -1.932605, -0.4657397, -2.252025
 119620466, -2.936859, -2.228796, -0.3931315, -2.257381, -2.965213, -2.115834, -0.4293469, -2.254278
 119820386, -2.936268, -2.162593, -0.35412, -2.259627, -2.936859, -2.228796, -0.3931315, -2.257381
 120020306, -2.88289, -2.024152, -0.3147586, -2.260978, -2.936268, -2.162593, -0.35412, -2.259627
 120220226, -2.987753, -2.224629, -0.280733, -2.262933, -2.88289, -2.024152, -0.3147586, -2.260978
 120420146, -2.878676, -2.207943, -0.2402442, -2.263343, -2.987753, -2.224629, -0.280733, -2.262933
 120620899, -2.796684, -2.523195, -0.2024651, -2.265851, -2.878676, -2.207943, -0.2402442, -2.263343
 120820819, -2.744683, -2.444578, -0.1609126, -2.267478, -2.796684, -2.523195, -0.2024651, -2.265851
 121020739, -2.555043, -2.550324, -0.1222285, -2.266373, -2.744683, -2.444578, -0.1609126, -2.267478
 121220659, -2.635604, -2.548098, -0.08781016, -2.266394, -2.555043, -2.550324, -0.1222285, -2.266373
 121420579, -2.636732, -2.597806, -0.04711795, -2.264592, -2.635604, -2.548098, -0.08781016, -2.266394
 121620499, -2.54381, -2.65745, -0.009140372, -2.261842, -2.636732, -2.597806, -0.04711795, -2.264592
 121820419, -2.529155, -2.685043, 0.02925682, -2.259288, -2.54381, -2.65745, -0.009140372, -2.261842
 122020339, -2.410708, -2.733122, 0.06561804, -2.254485, -2.529155, -2.685043, 0.02925682, -2.259288
 122220259, -2.39633, -2.741569, 0.1051037, -2.248393, -2.410708, -2.733122, 0.06561804, -2.254485
 122420179, -2.359799, -2.632423, 0.1450831, -2.241778, -2.39633, -2.741569, 0.1051037, -2.248393
 122620932, -2.470387, -2.760471, 0.181646, -2.234545, -2.359799, -2.632423, 0.1450831, -2.241778
 122820852, -2.324131, -2.692166, 0.2187814, -2.225948, -2.470387, -2.760471, 0.181646, -2.234545
 123020772, -2.248977, -3.00138, 0.2522436, -2.217614, -2.324131, -2.692166, 0.2187814, -2.225948
 123220692, -2.307806, -2.997597, 0.2892188, -2.206465, -2.248977, -3.00138, 0.2522436, -2.217614
 123420612, -2.08046, -2.974319, 0.3282891, -2.193715, -2.307806, -2.997597, 0.2892188, -2.206465
 123620532, -2.138186, -2.897484, 0.3639926, -2.180428, -2.08046, -2.974319, 0.3282891, -2.193715
 123820452, -2.076943, -2.984831, 0.3991123, -2.16539, -2.138186, -2.897484, 0.3639926, -2.180428
 124020372, -2.109696, -3.15766, 0.4329693, -2.15176, -2.076943, -2.984831, 0.3991123, -2.16539
 124220292, -2.150829, -3.180964, 0.4640577, -2.137309, -2.109696, -3.15766, 0.4329693, -2.15176
 124420212, -2.062493, -3.103271, 0.4964193, -2.120643, -2.150829, -3.180964, 0.4640577, -2.137309
 124620965, -1.688818, -3.098763, 0.5327725, -2.102736, -2.062493, -3.103271, 0.4964193, -2.120643
 124820885, -1.80384, -3.137917, 0.5635978, -2.08831, -1.688818, -3.098763, 0.5327725, -2.102736
 125020805, -1.703451, -3.400994, 0.5997832, -2.073018, -1.80384, -3.137917, 0.5635978, -2.08831
 125220725, -1.632737, -3.294295, 0.6358168, -2.05655, -1.703451, -3.400994, 0.5997832, -2.073018
 125420645, -1.690406, -3.116642, 0.6687135, -2.04099, -1.632737, -3.294295, 0.6358168, -2.05655
 125620565, -1.599865, -3.341341, 0.6996015, -2.028708, -1.690406, -3.116642, 0.6687135, -2.04099
 125820485, -1.436388, -3.333271, 0.7341124, -2.012297, -1.599865, -3.341341, 0.6996015, -2.028708
 126020405, -1.559174, -3.483589, 0.7663407, -1.998397, -1.436388, -3.333271, 0.7341124, -2.012297
 126220325, -1.389336, -3.482661, 0.8021885, -1.979099, -1.559174, -3.483589, 0.7663407, -1.998397
 126420245, -1.227273, -3.518014, 0.8323624, -1.961476, -1.389336, -3.482661, 0.8021885, -1.979099
 126620165, -1.311125, -3.325544, 0.8652171, -1.941308, -1.227273, -3.518014, 0.8323624, -1.961476
 126820918, -1.240477, -3.495532, 0.8980159, -1.922312, -1.311125, -3.325544, 0.8652171, -1.941308
 127020838, -1.237427, -3.442524, 0.9293324, -1.904221, -1.240477, -3.495532, 0.8980159, -1.922312
 127220758, -1.150582, -3.494088, 0.9627682, -1.884898, -1.237427, -3.442524, 0.9293324, -1.904221
 127420678, -0.8608658, -3.512307, 0.9929304, -1.86523, -1.150582, -3.494088, 0.9627682, -1.884898
 127620598, -1.023643, -3.532894, 1.02252, -1.845739, -0.8608658, -3.512307, 0.9929304, -1.86523
 127820518, -1.078988, -3.561214, 1.05624, -1.82332, -1.023643, -3.532894, 1.02252, -1.845739
 128020438, -1.016979, -3.627009, 1.085962, -1.805216, -1.078988, -3.561214, 1.05624, -1.82332
 128220358, -0.7065614, -3.6326, 1.113653, -1.784941, -1.016979, -3.627009, 1.085962, -1.805216
 128420278, -0.7001376, -3.383818, 1.143763, -1.758227, -0.7065614, -3.6326, 1.113653, -1.784941
 128620198, -0.7038688, -3.509442, 1.166876, -1.733403, -0.7001376, -3.383818, 1.143763, -1.758227
 128820951, -0.628404, -3.581389, 1.191419, -1.704898, -0.7038688, -3.509442, 1.166876, -1.733403
 129020871, -0.5957034, -3.534494, 1.217417, -1.675093, -0.628404, -3.581389, 1.191419, -1.704898
 129220791, -0.508625, -3.616196, 1.239393, -1.649793, -0.5957034, -3.534494, 1.217417, -1.675093
 129420711, -0.4394426, -3.606293, 1.259861, -1.624402, -0.508625, -3.616196, 1.239393, -1.649793
 129620631, -0.2620226, -3.572958, 1.281925, -1.595686, -0.4394426, -3.606293, 1.259861, -1.624402
 129820551, -0.3092392, -3.662311, 1.305932, -1.566236, -0.2620226, -3.572958, 1.281925, -1.595686
 130020471, -0.1747828, -3.572244, 1.328461, -1.537538, -0.3092392, -3.662311, 1.305932, -1.566236
 130220391, -0.2631768, -3.688624, 1.351031, -1.507702, -0.1747828, -3.572244, 1.328461, -1.537538
 130420311, -0.07267994, -3.706594, 1.369891, -1.479572, -0.2631768, -3.688624, 1.351031, -1.507702
 130620231, -0.07031538, -3.647726, 1.387906, -1.449636, -0.07267994, -3.706594, 1.369891, -1.479572
 130820151, -0.05573988, -3.591408, 1.407099, -1.420779, -0.07031538, -3.647726, 1.387906, -1.449636
