TimeUS,COFN,COFE,CNe,CEe,POFN,POFE,PNe,PEe
 8040949, -0.04184973, -0.008596405, 0.09742482, 0.04819756, 0, 0, 0, 0
 8220877, -0.005144761, 0.00720447, 0.0973926, 0.04819802, -0.04184973, -0.008596405, 0.09742482, 0.04819756
 8420797, -0.009685061, 0.001616682, 0.09739353, 0.0481968, -0.005144761, 0.00720447, 0.0973926, 0.04819802
 8620717, -0.004343893, 0.008757228, 0.09739363, 0.04819654, -0.009685061, 0.001616682, 0.09739353, 0.0481968
 8820637, -0.01086251, 0.006651137, 0.09739686, 0.04819251, -0.004343893, 0.008757228, 0.09739363, 0.04819654
 9020557, -0.01500701, 0.008073024, 0.09740131, 0.04818826, -0.01086251, 0.006651137, 0.09739686, 0.04819251
 9220477, -0.007147322, 0.0003101631, 0.09739803, 0.04818607, -0.01500701, 0.008073024, 0.09740131, 0.04818826
 9420397, -0.006548426, -0.001385494, 0.09739872, 0.04818439, -0.007147322, 0.0003101631, 0.09739803, 0.04818607
 9620317, -0.0163903, 0.003846497, 0.09740433, 0.04818191, -0.006548426, -0.001385494, 0.09739872, 0.04818439
 9820237, -0.005206595, 0.006871189, 0.09739919, 0.04818454, -0.0163903, 0.003846497, 0.09740433, 0.04818191
 10020157, -0.00678758, 0.005899213, 0.09739909, 0.04818499, -0.005206595, 0.006871189, 0.09739919, 0.04818454
 10220910, -0.001486263, 0.002788766, 0.0973982, 0.04818418, -0.00678758, 0.005899213, 0.09739909, 0.04818499
 10420830, -0.004032506, 0.01277137, 0.09740097, 0.04818484, -0.001486263, 0.002788766, 0.0973982, 0.04818418
 10620750, -0.01144737, 0.01068538, 0.09740362, 0.04818191, -0.004032506, 0.01277137, 0.09740097, 0.04818484
 10820670, -0.002111386, 0.009134362, 0.09739929, 0.04818483, -0.01144737, 0.01068538, 0.09740362, 0.04818191
 11020590, -0.003854239, -0.004561794, 0.09739741, 0.04818673, -0.002111386, 0.009134362, 0.09739929, 0.04818483
 11220510, -0.006445699, 0.006203958, 0.09739767, 0.04818783, -0.003854239, -0.004561794, 0.09739741, 0.04818673
 11420430, -0.01532353, 0.0078896, 0.09740224, 0.04818664, -0.006445699, 0.006203958, 0.09739767, 0.04818783
 11620350, -0.01279187, 0.001709654, 0.09739942, 0.04818749, -0.01532353, 0.0078896, 0.09740224, 0.04818664
 11820270, -0.005465272, 0.004378758, 0.09739692, 0.04818821, -0.01279187, 0.001709654, 0.09739942, 0.04818749
 12020190, -0.007087349, 0.00931487, 0.09739906, 0.04818714, -0.005465272, 0.004378758, 0.09739692, 0.04818821
 12220943, -0.006065052, 0.004970535, 0.09739833, 0.04818579, -0.007087349, 0.00931487, 0.09739906, 0.04818714
 12420863, -0.0001474924, 0.008926772, 0.09739752, 0.04818814, -0.006065052, 0.004970535, 0.09739833, 0.04818579
 12620783, -0.004946139, 0.01063249, 0.09739807, 0.04818913, -0.0001474924, 0.008926772, 0.09739752, 0.04818814
 12820703, -0.01223908, 0.00253126, 0.09739838, 0.04818922, -0.004946139, 0.01063249, 0.09739807, 0.04818913
 13020623, -0.01373357, 0.004886596, 0.09739865, 0.04819077, -0.01223908, 0.00253126, 0.09739838, 0.04818922
 13220543, -0.001965253, 0.003156953, 0.09739384, 0.04819312, -0.01373357, 0.004886596, 0.09739865, 0.04819077
 13420463, -0.008764696, 0.01014641, 0.09739734, 0.0481922, -0.001965253, 0.003156953, 0.09739384, 0.04819312
 13620383, -0.006697854, 0.001962042, 0.09739617, 0.0481897, -0.008764696, 0.01014641, 0.09739734, 0.0481922
 13820303, -0.0161562, 0.003104667, 0.09740128, 0.04818761, -0.006697854, 0.001962042, 0.09739617, 0.0481897
 14020223, -0.0118562, 0.008341547, 0.09739945, 0.04818906, -0.0161562, 0.003104667, 0.09740128, 0.04818761
 14220976, -0.008346376, 0.004040063, 0.0973971, 0.0481892, -0.0118562, 0.008341547, 0.09739945, 0.04818906
 14420896, -0.01463867, 0.0114197, 0.09740317, 0.04818652, -0.008346376, 0.004040063, 0.0973971, 0.0481892
 14620816, -0.008806343, 0.009203125, 0.09740128, 0.04818357, -0.01463867, 0.0114197, 0.09740317, 0.04818652
 14820736, -0.009405815, 0.00643732, 0.0974023, 0.04818033, -0.008806343, 0.009203125, 0.09740128, 0.04818357
 15020656, -0.005503511, 0.004829183, 0.09740058, 0.04818097, -0.009405815, 0.00643732, 0.0974023, 0.04818033
 15220576, -0.00517376, 0.01076629, 0.09740128, 0.04818286, -0.005503511, 0.004829183, 0.09740058, 0.04818097
 15420496, -0.005609281, 0.006227572, 0.09740072, 0.04818131, -0.00517376, 0.01076629, 0.09740128, 0.04818286
 15620416, -0.01542983, 0.006929689, 0.0974057, 0.04817925, -0.005609281, 0.006227572, 0.09740072, 0.04818131
 15820336, -0.009483793, 0.01195253, 0.09740309, 0.04818252, -0.01542983, 0.006929689, 0.0974057, 0.04817925
 16020256, -0.0106505, -0.000245668, 0.09740108, 0.04818216, -0.009483793, 0.01195253, 0.09740309, 0.04818252
 16220176, -0.009619129, 0.005906701, 0.0974011, 0.04818265, -0.0106505, -0.000245668, 0.09740108, 0.04818216
 16420929, -0.01510916, -0.0006612041, 0.09740251, 0.04818354, -0.009619129, 0.005906701, 0.0974011, 0.04818265
 16620849, -0.009764127, 0.0141784, 0.09740211, 0.04818686, -0.01510916, -0.0006612041, 0.09740251, 0.04818354
 16820769, -0.008927484, -0.0006574707, 0.09739753, 0.04818811, -0.009764127, 0.0141784, 0.09740211, 0.04818686
 17020689, -0.007721628, 0.005935726, 0.09739797, 0.04818776, -0.008927484, -0.0006574707, 0.09739753, 0.04818811
 17220609, -0.009010104, 0.008560767, 0.09739938, 0.04818711, -0.007721628, 0.005935726, 0.09739797, 0.04818776
 17420529, -0.01088454, 0.004769474, 0.0974005, 0.04818436, -0.009010104, 0.008560767, 0.09739938, 0.04818711
 17620449, -0.01259795, 0.007131916, 0.09740277, 0.0481823, -0.01088454, 0.004769474, 0.0974005, 0.04818436
 17820369, -0.004963377, 0.003838998, 0.09739897, 0.04818369, -0.01259795, 0.007131916, 0.09740277, 0.0481823
 18020289, -0.006421604, 0.004231939, 0.09739888, 0.04818463, -0.004963377, 0.003838998, 0.09739897, 0.04818369
 18220209, -0.0151599, 0.005689463, 0.09740312, 0.04818358, -0.006421604, 0.004231939, 0.09739888, 0.04818463
 18420962, -0.01410385, 0.0003223969, 0.09740189, 0.04818372, -0.0151599, 0.005689463, 0.09740312, 0.04818358
 18620882, -0.004822165, 0.01240701, 0.09740104, 0.04818461, -0.01410385, 0.0003223969, 0.09740189, 0.04818372
 18820802, -0.002264182, 0.006992114, 0.09740005, 0.04818206, -0.004822165, 0.01240701, 0.09740104, 0.04818461
 19020722, -0.0109534, 0.01361293, 0.09740469, 0.04818197, -0.002264182, 0.006992114, 0.09740005, 0.04818206
 19220642, -0.007100852, 0.002487657, 0.09740034, 0.04818156, -0.0109534, 0.01361293, 0.09740469, 0.04818197
 19420562, -0.005098558, -0.003850452, 0.09739959, 0.04818251, -0.007100852, 0.002487657, 0.09740034, 0.04818156
 19620482, 0.0008033537, 0.006948664, 0.09713893, 0.0487062, -0.005098558, -0.003850452, 0.09739959, 0.04818251
 19820402, -0.005338033, 0.009566065, 0.09667037, 0.04963221, 0.0008033537, 0.006948664, 0.09713893, 0.0487062
 20020322, -0.006997863, 0.007574752, 0.09599065, 0.05093394, -0.005338033, 0.009566065, 0.09667037, 0.04963221
 20220242, -0.01152867, 0.00499414, 0.09517687, 0.05244061, -0.006997863, 0.007574752, 0.09599065, 0.05093394
 20420162, -0.006187866, 0.006522019, 0.09429602, 0.05400592, -0.01152867, 0.00499414, 0.09517687, 0.05244061
 20620915, 0.0004997817, 0.01061201, 0.09340758, 0.05552943, -0.006187866, 0.006522019, 0.09429602, 0.05400592
 20820835, -0.005977044, 0.002013638, 0.09254759, 0.05694891, 0.0004997817, 0.01061201, 0.09340758, 0.05552943
 21020755, 0.0586645, -0.01130983, 0.09181206, 0.05823654, -0.005977044, 0.002013638, 0.09254759, 0.05694891
 21220675, 0.1673704, -0.03264824, 0.09163173, 0.05930959, 0.0586645, -0.01130983, 0.09181206, 0.05823654
 21420595, 0.3549235, -0.06021991, 0.09318522, 0.05998517, 0.1673704, -0.03264824, 0.09163173, 0.05930959
 21620515, 0.5853189, -0.1088749, 0.09737143, 0.06019846, 0.3549235, -0.06021991, 0.09318522, 0.05998517
 21820435, 0.8666902, -0.150727, 0.1050496, 0.05999026, 0.5853189, -0.1088749, 0.09737143, 0.06019846
 22020355, 1.155518, -0.1826955, 0.1149556, 0.05980877, 0.8666902, -0.150727, 0.1050496, 0.05999026
 22220275, 1.416295, -0.2061251, 0.1250183, 0.06011366, 1.155518, -0.1826955, 0.1149556, 0.05980877
 22420195, 1.646497, -0.2086184, 0.1345236, 0.06127028, 1.416295, -0.2061251, 0.1250183, 0.06011366
 22620948, 1.872491, -0.2173408, 0.14478, 0.06393348, 1.646497, -0.2086184, 0.1345236, 0.06127028
 22820868, 2.057974, -0.2108242, 0.1528317, 0.06613727, 1.872491, -0.2173408, 0.14478, 0.06393348
 23020788, 2.311984, -0.2095245, 0.1654281, 0.07417164, 2.057974, -0.2108242, 0.1528317, 0.06613727
 23220708, 2.48049, -0.1965557, 0.1799389, 0.09461551, 2.311984, -0.2095245, 0.1654281, 0.07417164
 23420628, 2.660882, -0.1752783, 0.2054297, 0.1255266, 2.48049, -0.1965557, 0.1799389, 0.09461551
 23620548, 2.851039, -0.1979671, 0.2379837, 0.1606356, 2.660882, -0.1752783, 0.2054297, 0.1255266
 23820468, 3.083609, -0.1956998, 0.2774007, 0.1988685, 2.851039, -0.1979671, 0.2379837, 0.1606356
 24020388, 3.242488, -0.1897535, 0.3208829, 0.2418391, 3.083609, -0.1956998, 0.2774007, 0.1988685
 24220308, 3.376201, -0.2290132, 0.3717431, 0.2877475, 3.242488, -0.1897535, 0.3208829, 0.2418391
 24420228, 3.531542, -0.2658871, 0.4288586, 0.3427257, 3.376201, -0.2290132, 0.3717431, 0.2877475
 24620148, 3.678901, -0.2034155, 0.492397, 0.3996568, 3.531542, -0.2658871, 0.4288586, 0.3427257
 24820901, 3.688549, -0.2714026, 0.5588307, 0.4568616, 3.678901, -0.2034155, 0.492397, 0.3996568
 25020821, 3.767889, -0.2769426, 0.6309486, 0.5180535, 3.688549, -0.2714026, 0.5588307, 0.4568616
 25220741, 3.815708, -0.2585253, 0.7029762, 0.5829118, 3.767889, -0.2769426, 0.6309486, 0.5180535
 25420661, 3.860104, -0.2922157, 0.7834806, 0.6466673, 3.815708, -0.2585253, 0.7029762, 0.5829118
 25620581, 3.889605, -0.2820242, 0.8719177, 0.712885, 3.860104, -0.2922157, 0.7834806, 0.6466673
 25820501, 3.995121, -0.2388139, 0.9614047, 0.7824831, 3.889605, -0.2820242, 0.8719177, 0.712885
 26020421, 3.901959, -0.4007463, 1.044132, 0.850162, 3.995121, -0.2388139, 0.9614047, 0.7824831
 26220341, 3.981269, -0.3433459, 1.124942, 0.9155803, 3.901959, -0.4007463, 1.044132, 0.850162
 26420261, 4.048766, -0.3250471, 1.20481, 0.9839638, 3.981269, -0.3433459, 1.124942, 0.9155803
 26620181, 3.919212, -0.2706834, 1.284601, 1.049999, 4.048766, -0.3250471, 1.20481, 0.9839638
 26820934, 3.990092, -0.398441, 1.365263, 1.113225, 3.919212, -0.2706834, 1.284601, 1.049999
 27020854, 3.858805, -0.2400003, 1.43786, 1.174839, 3.990092, -0.398441, 1.365263, 1.113225
 27220774, 3.839118, -0.2154865, 1.51078, 1.232467, 3.858805, -0.2400003, 1.43786, 1.174839
 27420694, 3.957175, -0.4219628, 1.582029, 1.284904, 3.839118, -0.2154865, 1.51078, 1.232467
 27620614, 3.923525, -0.3256979, 1.654973, 1.336842, 3.957175, -0.4219628, 1.582029, 1.284904
 27820534, 4.122262, -0.2634168, 1.729212, 1.385793, 3.923525, -0.3256979, 1.654973, 1.336842
 28020454, 3.991896, -0.2019391, 1.803856, 1.433679, 4.122262, -0.2634168, 1.729212, 1.385793
 28220374, 3.826066, -0.3698633, 1.87662, 1.480793, 3.991896, -0.2019391, 1.803856, 1.433679
 28420294, 3.937941, -0.2582853, 1.949409, 1.526499, 3.826066, -0.3698633, 1.87662, 1.480793
 28620214, 4.05948, -0.3461842, 2.017745, 1.567938, 3.937941, -0.2582853, 1.949409, 1.526499
 28820967, 3.868027, -0.2093252, 2.027862, 1.626164, 4.05948, -0.3461842, 2.017745, 1.567938
 29020887, 3.788065, -0.0721541, 2.13725, 1.70211, 3.868027, -0.2093252, 2.027862, 1.626164
 29220807, 3.947356, -0.5293312, 2.29574, 1.764766, 3.788065, -0.0721541, 2.13725, 1.70211
 29420727, 3.692349, -0.5955864, 2.300749, 1.792486, 3.947356, -0.5293312, 2.29574, 1.764766
 29620647, 3.591146, -0.6203449, 2.22713, 1.810915, 3.692349, -0.5955864, 2.300749, 1.792486
 29820567, 3.6673, -0.2558205, 2.169245, 1.826348, 3.591146, -0.6203449, 2.22713, 1.810915
 30020487, 3.748765, -0.39432, 2.135799, 1.856473, 3.6673, -0.2558205, 2.169245, 1.826348
 30220407, 3.886688, -0.2054449, 2.123549, 1.881944, 3.748765, -0.39432, 2.135799, 1.856473
 30420327, 3.799674, -0.03779384, 2.10923, 1.912884, 3.886688, -0.2054449, 2.123549, 1.881944
 30620247, 3.62536, -0.07888101, 2.090826, 1.945788, 3.799674, -0.03779384, 2.10923, 1.912884
 30820167, 3.443795, -0.0519272, 2.071098, 1.975834, 3.62536, -0.07888101, 2.090826, 1.945788
 31020920, 3.512269, -0.03408542, 2.056116, 1.989819, 3.443795, -0.0519272, 2.071098, 1.975834
 31220840, 3.344321, 0.1684806, 2.047443, 1.992776, 3.512269, -0.03408542, 2.056116, 1.989819
 31420760, 3.348568, 0.1461613, 2.044096, 1.994364, 3.344321, 0.1684806, 2.047443, 1.992776
 31620680, 3.540459, 0.02247867, 2.038162, 1.993993, 3.348568, 0.1461613, 2.044096, 1.994364
 31820600, 3.369219, -0.09460236, 2.026844, 1.989387, 3.540459, 0.02247867, 2.038162, 1.993993
 32020520, 3.170039, 0.04068674, 2.007805, 1.98601, 3.369219, -0.09460236, 2.026844, 1.989387
 32220440, 3.174802, -0.06931715, 1.989933, 1.979533, 3.170039, 0.04068674, 2.007805, 1.98601
 32420360, 3.159709, 0.07791018, 1.967901, 1.975914, 3.174802, -0.06931715, 1.989933, 1.979533
 32620280, 3.417719, 0.3134797, 1.944426, 1.971508, 3.159709, 0.07791018, 1.967901, 1.975914
 32820200, 3.121208, 0.2047646, 1.919463, 1.964373, 3.417719, 0.3134797, 1.944426, 1.971508
 33020953, 3.422215, 0.2043981, 1.895022, 1.9544, 3.121208, 0.2047646, 1.919463, 1.964373
 33220873, 3.478222, -0.02255934, 1.867989, 1.945348, 3.422215, 0.2043981, 1.895022, 1.9544
 33420793, 3.537326, 0.004034646, 1.841012, 1.93471, 3.478222, -0.02255934, 1.867989, 1.945348
 33620713, 3.498633, 0.1336859, 1.814122, 1.924255, 3.537326, 0.004034646, 1.841012, 1.93471
 33820633, 3.319449, 0.05747234, 1.789037, 1.910942, 3.498633, 0.1336859, 1.814122, 1.924255
 34020553, 3.518639, 0.04460996, 1.762951, 1.899267, 3.319449, 0.05747234, 1.789037, 1.910942
 34220473, 3.622175, 0.1189499, 1.743202, 1.882265, 3.518639, 0.04460996, 1.762951, 1.899267
 34420393, 3.268104, 0.1816186, 1.718953, 1.867611, 3.622175, 0.1189499, 1.743202, 1.882265
 34620313, 3.592188, 0.1836897, 1.69809, 1.851889, 3.268104, 0.1816186, 1.718953, 1.867611
 34820233, 3.504958, 0.3099667, 1.677271, 1.835273, 3.592188, 0.1836897, 1.69809, 1.851889
 35020153, 3.572488, 0.1810482, 1.655207, 1.82096, 3.504958, 0.3099667, 1.677271, 1.835273
 35220906, 3.470978, 0.2441174, 1.640657, 1.799976, 3.572488, 0.1810482, 1.655207, 1.82096
 35420826, 3.451762, 0.1280501, 1.620546, 1.785285, 3.470978, 0.2441174, 1.640657, 1.799976
 35620746, 3.389005, 0.3059894, 1.601089, 1.771521, 3.451762, 0.1280501, 1.620546, 1.785285
 35820666, 3.507833, 0.1331004, 1.58601, 1.753719, 3.389005, 0.3059894, 1.601089, 1.771521
 36020586, 3.562731, 0.2002811, 1.571748, 1.736151, 3.507833, 0.1331004, 1.58601, 1.753719
 36220506, 3.731988, 0.1299863, 1.556626, 1.719728, 3.562731, 0.2002811, 1.571748, 1.736151
 36420426, 3.546084, 0.2031124, 1.541154, 1.702132, 3.731988, 0.1299863, 1.556626, 1.719728
 36620346, 3.552255, 0.1283351, 1.524788, 1.689415, 3.546084, 0.2031124, 1.541154, 1.702132
 36820266, 3.419797, 0.3210728, 1.51106, 1.671824, 3.552255, 0.1283351, 1.524788, 1.689415
 37020186, 3.526128, 0.3800847, 1.49576, 1.656113, 3.419797, 0.3210728, 1.51106, 1.671824
 37220939, 3.560729, 0.2701174, 1.484644, 1.638883, 3.526128, 0.3800847, 1.49576, 1.656113
 37420859, 3.479841, 0.3055876, 1.476272, 1.623536, 3.560729, 0.2701174, 1.484644, 1.638883
 37620779, 3.700009, 0.112325, 1.465983, 1.612649, 3.479841, 0.3055876, 1.476272, 1.623536
 37820699, 3.59229, 0.3472755, 1.454488, 1.603305, 3.700009, 0.112325, 1.465983, 1.612649
 38020619, 3.820648, 0.3627972, 1.44785, 1.591332, 3.59229, 0.3472755, 1.454488, 1.603305
 38220539, 3.715868, 0.1426892, 1.43897, 1.580392, 3.820648, 0.3627972, 1.44785, 1.591332
 38420459, 3.696102, 0.1284994, 1.430047, 1.571117, 3.715868, 0.1426892, 1.43897, 1.580392
 38620379, 3.755885, 0.2309173, 1.420724, 1.560376, 3.696102, 0.1284994, 1.430047, 1.571117
 38820299, 3.629181, 0.1694457, 1.413295, 1.549838, 3.755885, 0.2309173, 1.420724, 1.560376
 39020219, 3.688521, 0.2146749, 1.408866, 1.539732, 3.629181, 0.1694457, 1.413295, 1.549838
 39220972, 3.703045, 0.2712524, 1.402624, 1.531575, 3.688521, 0.2146749, 1.408866, 1.539732
 39420892, 3.691367, 0.3008678, 1.397191, 1.522863, 3.703045, 0.2712524, 1.402624, 1.531575
 39620812, 3.788929, 0.1077649, 1.392032, 1.515977, 3.691367, 0.3008678, 1.397191, 1.522863
 39820732, 3.572166, 0.1215197, 1.386501, 1.507423, 3.788929, 0.1077649, 1.392032, 1.515977
 40020652, 3.711355, 0.2943187, 1.381511, 1.500566, 3.572166, 0.1215197, 1.386501, 1.507423
 40220572, 3.694482, 0.08087064, 1.379478, 1.491222, 3.711355, 0.2943187, 1.381511, 1.500566
 40420492, 3.61827, 0.1139769, 1.374718, 1.484983, 3.694482, 0.08087064, 1.379478, 1.491222
 40620412, 3.703412, 0.1063671, 1.372603, 1.477528, 3.61827, 0.1139769, 1.374718, 1.484983
 40820332, 3.628031, 0.1796858, 1.372412, 1.475303, 3.703412, 0.1063671, 1.372603, 1.477528
 41020252, 3.590513, 0.161063, 1.378232, 1.477529, 3.628031, 0.1796858, 1.372412, 1.475303
 41220172, 3.82134, 0.2122165, 1.386979, 1.480909, 3.590513, 0.161063, 1.378232, 1.477529
 41420925, 3.708222, 0.1675358, 1.393832, 1.483666, 3.82134, 0.2122165, 1.386979, 1.480909
 41620845, 3.915246, 0.08460331, 1.399167, 1.488768, 3.708222, 0.1675358, 1.393832, 1.483666
 41820765, 3.773541, 0.1303746, 1.406585, 1.491407, 3.915246, 0.08460331, 1.399167, 1.488768
 42020685, 3.729973, 0.1493345, 1.413621, 1.495681, 3.773541, 0.1303746, 1.406585, 1.491407
 42220605, 3.783599, 0.141709, 1.42265, 1.499949, 3.729973, 0.1493345, 1.413621, 1.495681
 42420525, 3.865197, 0.2438043, 1.432159, 1.505264, 3.783599, 0.141709, 1.42265, 1.499949
 42620445, 3.687199, 0.2458214, 1.442096, 1.507809, 3.865197, 0.2438043, 1.432159, 1.505264
 42820365, 3.595578, 0.2547159, 1.449871, 1.514566, 3.687199, 0.2458214, 1.442096, 1.507809
 43020285, 3.660413, 0.1575722, 1.458392, 1.519848, 3.595578, 0.2547159, 1.449871, 1.514566
 43220205, 3.740377, 0.0606286, 1.471037, 1.524541, 3.660413, 0.1575722, 1.458392, 1.519848
 43420958, 3.788853, 0.1992644, 1.483461, 1.530074, 3.740377, 0.0606286, 1.471037, 1.524541
 43620878, 3.794587, 0.04521237, 1.496183, 1.53414, 3.788853, 0.1992644, 1.483461, 1.530074
 43820798, 3.810651, 0.05779705, 1.512249, 1.537451, 3.794587, 0.04521237, 1.496183, 1.53414
 44020718, 3.747598, 0.01699273, 1.539465, 1.538434, 3.810651, 0.05779705, 1.512249, 1.537451
 44220638, 3.759583, -0.04447978, 1.609621, 1.564834, 3.747598, 0.01699273, 1.539465, 1.538434
 44420558, 3.75129, 0.3349739, 1.553082, 1.58359, 3.759583, -0.04447978, 1.609621, 1.564834
 44620478, 3.97121, 0.2907147, 1.561718, 1.568967, 3.75129, 0.3349739, 1.553082, 1.58359
 44820398, 3.680043, 0.1246918, 1.629252, 1.573632, 3.97121, 0.2907147, 1.561718, 1.568967
 45020318, 3.748425, -0.1262085, 1.639606, 1.569951, 3.680043, 0.1246918, 1.629252, 1.573632
 45220238, 3.613489, -0.03796166, 1.621264, 1.572447, 3.748425, -0.1262085, 1.639606, 1.569951
 45420158, 3.81756, -0.01213039, 1.608523, 1.590188, 3.613489, -0.03796166, 1.621264, 1.572447
 45620911, 3.889149, 0.04577069, 1.603867, 1.609892, 3.81756, -0.01213039, 1.608523, 1.590188
 45820831, 3.753734, 0.1182688, 1.609382, 1.623288, 3.889149, 0.04577069, 1.603867, 1.609892
 46020751, 3.716273, 0.1337582, 1.615673, 1.636476, 3.753734, 0.1182688, 1.609382, 1.623288
 46220671, 3.780541, 0.2562651, 1.623418, 1.64887, 3.716273, 0.1337582, 1.615673, 1.636476
 46420591, 3.852603, 0.05191443, 1.628139, 1.662498, 3.780541, 0.2562651, 1.623418, 1.64887
 46620511, 3.764198, 0.188241, 1.633076, 1.674389, 3.852603, 0.05191443, 1.628139, 1.662498
 46820431, 3.753667, -0.03975766, 1.637997, 1.68671, 3.764198, 0.188241, 1.633076, 1.674389
 47020351, 3.593604, 0.2470413, 1.642639, 1.699036, 3.753667, -0.03975766, 1.637997, 1.68671
 47220271, 3.859021, 0.2226903, 1.650607, 1.711861, 3.593604, 0.2470413, 1.642639, 1.699036
 47420191, 3.709039, 0.1237083, 1.654014, 1.726635, 3.859021, 0.2226903, 1.650607, 1.711861
 47620944, 3.778924, 0.07782745, 1.662595, 1.735133, 3.709039, 0.1237083, 1.654014, 1.726635
 47820864, 3.866127, 0.2615046, 1.66612, 1.747491, 3.778924, 0.07782745, 1.662595, 1.735133
 48020784, 3.686026, -0.002844237, 1.666233, 1.755132, 3.866127, 0.2615046, 1.66612, 1.747491
 48220704, 3.959596, 0.02994946, 1.669315, 1.761064, 3.686026, -0.002844237, 1.666233, 1.755132
 48420624, 3.677297, 0.08686872, 1.666252, 1.768049, 3.959596, 0.02994946, 1.669315, 1.761064
 48620544, 3.993621, 0.0886334, 1.671401, 1.771253, 3.677297, 0.08686872, 1.666252, 1.768049
 48820464, 3.946876, 0.277104, 1.671317, 1.776305, 3.993621, 0.0886334, 1.671401, 1.771253
 49020384, 3.815843, 0.322748, 1.668144, 1.782307, 3.946876, 0.277104, 1.671317, 1.776305
 49220304, 3.80619, 0.2012696, 1.670933, 1.785585, 3.815843, 0.322748, 1.668144, 1.782307
 49420224, 3.900721, 0.321125, 1.671708, 1.790065, 3.80619, 0.2012696, 1.670933, 1.785585
 49620977, 3.799619, 0.2931865, 1.674001, 1.788358, 3.900721, 0.321125, 1.671708, 1.790065
 49820897, 3.820116, 0.2983072, 1.677194, 1.790317, 3.799619, 0.2931865, 1.674001, 1.788358
 50020817, 3.749888, 0.2782527, 1.684625, 1.788525, 3.820116, 0.2983072, 1.677194, 1.790317
 50220737, 3.705911, 0.3996686, 1.690238, 1.789579, 3.749888, 0.2782527, 1.684625, 1.788525
 50420657, 3.705393, 0.2596517, 1.695293, 1.79069, 3.705911, 0.3996686, 1.690238, 1.789579
 50620577, 4.033927, 0.2466522, 1.701523, 1.790624, 3.705393, 0.2596517, 1.695293, 1.79069
 50820497, 3.825033, 0.1314237, 1.707751, 1.788435, 4.033927, 0.2466522, 1.701523, 1.790624
 51020417, 3.708062, 0.07339574, 1.712379, 1.789016, 3.825033, 0.1314237, 1.707751, 1.788435
 51220337, 3.698436, 0.07921805, 1.715726, 1.792453, 3.708062, 0.07339574, 1.712379, 1.789016
 51420257, 3.837727, 0.2526022, 1.721959, 1.788571, 3.698436, 0.07921805, 1.715726, 1.792453
 51620177, 3.861567, 0.02919913, 1.72353, 1.784398, 3.837727, 0.2526022, 1.721959, 1.788571
 51820930, 3.916, 0.1096133, 1.721398, 1.781103, 3.861567, 0.02919913, 1.72353, 1.784398
 52020850, 3.961952, 0.34036, 1.72178, 1.775287, 3.916, 0.1096133, 1.721398, 1.781103
 52220770, 3.860953, 0.09183438, 1.719807, 1.771233, 3.961952, 0.34036, 1.72178, 1.775287
 52420690, 3.820225, 0.1092627, 1.711753, 1.773864, 3.860953, 0.09183438, 1.719807, 1.771233
 52620610, 3.885166, 0.1710498, 1.71418, 1.766429, 3.820225, 0.1092627, 1.711753, 1.773864
 52820530, 3.822033, 0.2040497, 1.710817, 1.764041, 3.885166, 0.1710498, 1.71418, 1.766429
 53020450, 3.813623, 0.04222626, 1.708967, 1.758824, 3.822033, 0.2040497, 1.710817, 1.764041
 53220370, 3.710598, -0.01949414, 1.707094, 1.750845, 3.813623, 0.04222626, 1.708967, 1.758824
 53420290, 3.853662, 0.08025753, 1.704475, 1.745165, 3.710598, -0.01949414, 1.707094, 1.750845
 53620210, 3.898694, -0.07249817, 1.703277, 1.738623, 3.853662, 0.08025753, 1.704475, 1.745165
 53820963, 3.997949, 0.07815583, 1.706637, 1.72949, 3.898694, -0.07249817, 1.703277, 1.738623
 54020883, 3.902138, 0.2012711, 1.70694, 1.722316, 3.997949, 0.07815583, 1.706637, 1.72949
 54220803, 4.038501, 0.16014, 1.707117, 1.716001, 3.902138, 0.2012711, 1.70694, 1.722316
 54420723, 3.655929, 0.2507215, 1.70391, 1.709779, 4.038501, 0.16014, 1.707117, 1.716001
 54620643, 3.735761, 0.1529757, 1.700714, 1.704481, 3.655929, 0.2507215, 1.70391, 1.709779
 54820563, 3.765885, 0.02518893, 1.706901, 1.697297, 3.735761, 0.1529757, 1.700714, 1.704481
 55020483, 3.780557, 0.05113807, 1.713475, 1.695939, 3.765885, 0.02518893, 1.706901, 1.697297
 55220403, 3.849125, -0.05053474, 1.721071, 1.695216, 3.780557, 0.05113807, 1.713475, 1.695939
 55420323, 3.849385, 0.1115656, 1.729131, 1.69289, 3.849125, -0.05053474, 1.721071, 1.695216
 55620243, 3.873541, -0.1608272, 1.732982, 1.69543, 3.849385, 0.1115656, 1.729131, 1.69289
 55820163, 3.934963, 0.05477098, 1.740524, 1.695261, 3.873541, -0.1608272, 1.732982, 1.69543
 56020916, 3.859916, 0.03504061, 1.750093, 1.69211, 3.934963, 0.05477098, 1.740524, 1.695261
 56220836, 3.801154, -0.01902843, 1.758446, 1.691056, 3.859916, 0.03504061, 1.750093, 1.69211
 56420756, 3.75299, 0.1223874, 1.765663, 1.69045, 3.801154, -0.01902843, 1.758446, 1.691056
 56620676, 3.639958, -0.1472949, 1.769506, 1.692307, 3.75299, 0.1223874, 1.765663, 1.69045
 56820596, 3.810069, -0.0005268306, 1.778229, 1.69014, 3.639958, -0.1472949, 1.769506, 1.692307
 57020516, 3.808722, 0.07733805, 1.786433, 1.68859, 3.810069, -0.0005268306, 1.778229, 1.69014
 57220436, 3.778041, 0.01793651, 1.793148, 1.689233, 3.808722, 0.07733805, 1.786433, 1.68859
 57420356, 3.82213, 0.02389067, 1.806857, 1.685122, 3.778041, 0.01793651, 1.793148, 1.689233
 57620276, 3.940116, -0.06422609, 1.816086, 1.685752, 3.82213, 0.02389067, 1.806857, 1.685122
 57820196, 3.726991, 0.04394555, 1.822572, 1.687187, 3.940116, -0.06422609, 1.816086, 1.685752
 58020949, 3.822472, -0.1735018, 1.831445, 1.685288, 3.726991, 0.04394555, 1.822572, 1.687187
 58220869, 3.817293, -0.2288181, 1.840871, 1.682784, 3.822472, -0.1735018, 1.831445, 1.685288
 58420789, 3.755908, -0.2248019, 1.850828, 1.682352, 3.817293, -0.2288181, 1.840871, 1.682784
 58620709, 3.787412, 0.02117907, 1.829229, 1.715877, 3.755908, -0.2248019, 1.850828, 1.682352
 58820629, 3.787753, 0.105826, 1.830672, 1.726685, 3.787412, 0.02117907, 1.829229, 1.715877
 59020549, 3.913578, 0.1108924, 1.840207, 1.732091, 3.787753, 0.105826, 1.830672, 1.726685
 59220469, 3.785691, -0.1203671, 1.84982, 1.734832, 3.913578, 0.1108924, 1.840207, 1.732091
 59420389, 3.829754, 0.05625328, 1.856161, 1.739818, 3.785691, -0.1203671, 1.84982, 1.734832
 59620309, 3.856963, -0.04921335, 1.859243, 1.746839, 3.829754, 0.05625328, 1.856161, 1.739818
 59820229, 3.794481, 0.1390545, 1.863283, 1.754007, 3.856963, -0.04921335, 1.859243, 1.746839
 60020149, 3.927903, -0.1022529, 1.871794, 1.755289, 3.794481, 0.1390545, 1.863283, 1.754007
 60220902, 3.877757, -0.1044701, 1.873951, 1.764127, 3.927903, -0.1022529, 1.871794, 1.755289
 60420822, 3.986585, -0.02717961, 1.881342, 1.770305, 3.877757, -0.1044701, 1.873951, 1.764127
 60620742, 3.846406, -0.1063682, 1.886994, 1.775072, 3.986585, -0.02717961, 1.881342, 1.770305
 60820662, 3.816201, 0.09280508, 1.892962, 1.779064, 3.846406, -0.1063682, 1.886994, 1.775072
 61020582, 4.00032, -0.1994239, 1.896135, 1.787432, 3.816201, 0.09280508, 1.892962, 1.779064
 61220502, 3.778012, 0.1011114, 1.902177, 1.79107, 4.00032, -0.1994239, 1.896135, 1.787432
 61420422, 3.911616, 0.0628095, 1.908992, 1.795853, 3.778012, 0.1011114, 1.902177, 1.79107
 61620342, 3.769027, -0.04851846, 1.913821, 1.800584, 3.911616, 0.0628095, 1.908992, 1.795853
 61820262, 3.741153, 0.1123032, 1.913404, 1.805657, 3.769027, -0.04851846, 1.913821, 1.800584
 62020182, 3.897086, 0.04221013, 1.913203, 1.807849, 3.741153, 0.1123032, 1.913404, 1.805657
 62220935, 3.906722, 0.1017008, 1.914807, 1.811175, 3.897086, 0.04221013, 1.913203, 1.807849
 62420855, 3.934168, -0.03040759, 1.917614, 1.812711, 3.906722, 0.1017008, 1.914807, 1.811175
 62620775, 3.678448, 0.01683194, 1.914926, 1.821014, 3.934168, -0.03040759, 1.917614, 1.812711
 62820695, 3.857783, -0.1989214, 1.921934, 1.821147, 3.678448, 0.01683194, 1.914926, 1.821014
 63020615, 3.882848, 0.1917101, 1.924168, 1.822925, 3.857783, -0.1989214, 1.921934, 1.821147
 63220535, 3.752232, -0.2111723, 1.923421, 1.826201, 3.882848, 0.1917101, 1.924168, 1.822925
 63420455, 3.810205, -0.01730058, 1.923895, 1.830483, 3.752232, -0.2111723, 1.923421, 1.826201
 63620375, 3.764794, 0.128731, 1.925846, 1.833523, 3.810205, -0.01730058, 1.923895, 1.830483
 63820295, 3.901701, 0.123775, 1.929979, 1.83569, 3.764794, 0.128731, 1.925846, 1.833523
 64020215, 4.017664, 0.1694752, 1.929919, 1.842203, 3.901701, 0.123775, 1.929979, 1.83569
 64220968, 3.665851, -0.02778251, 1.931455, 1.842041, 4.017664, 0.1694752, 1.929919, 1.842203
 64420888, 4.011389, 0.0391158, 1.933427, 1.846243, 3.665851, -0.02778251, 1.931455, 1.842041
 64620808, 4.050807, -0.1503349, 1.933031, 1.849796, 4.011389, 0.0391158, 1.933427, 1.846243
 64820728, 3.961365, -0.1229445, 1.934668, 1.854058, 4.050807, -0.1503349, 1.933031, 1.849796
 65020648, 3.984124, -0.05515279, 1.936655, 1.858368, 3.961365, -0.1229445, 1.934668, 1.854058
 65220568, 3.565168, 0.07905011, 1.938383, 1.863251, 3.984124, -0.05515279, 1.936655, 1.858368
 65420488, 3.70567, 0.1603313, 1.941523, 1.870472, 3.565168, 0.07905011, 1.938383, 1.863251
 65620408, 3.784267, 0.2654683, 1.944509, 1.87476, 3.70567, 0.1603313, 1.941523, 1.870472
 65820328, 3.782774, -0.05990588, 1.945907, 1.880245, 3.784267, 0.2654683, 1.944509, 1.87476
 66020248, 3.895035, 0.1750438, 1.950311, 1.884839, 3.782774, -0.05990588, 1.945907, 1.880245
 66220168, 3.964834, -0.005433332, 1.950988, 1.892777, 3.895035, 0.1750438, 1.950311, 1.884839
 66420921, 3.808245, -0.09432806, 1.952066, 1.898716, 3.964834, -0.005433332, 1.950988, 1.892777
 66620841, 3.798933, 0.2111829, 1.954632, 1.903445, 3.808245, -0.09432806, 1.952066, 1.898716
 66820761, 3.985861, -0.1663778, 1.958935, 1.90628, 3.798933, 0.2111829, 1.954632, 1.903445
 67020681, 3.947444, 0.01340579, 1.960396, 1.911246, 3.985861, -0.1663778, 1.958935, 1.90628
 67220601, 3.660507, 0.04764818, 1.961252, 1.915978, 3.947444, 0.01340579, 1.960396, 1.911246
 67420521, 3.645295, 0.2057047, 1.962391, 1.921618, 3.660507, 0.04764818, 1.961252, 1.915978
 67620441, 3.856493, 0.1870441, 1.966968, 1.927004, 3.645295, 0.2057047, 1.962391, 1.921618
 67820361, 3.736084, 0.1539984, 1.971135, 1.931679, 3.856493, 0.1870441, 1.966968, 1.927004
 68020281, 3.974145, -0.08538233, 1.976925, 1.936464, 3.736084, 0.1539984, 1.971135, 1.931679
 68220201, 4.024165, 0.1162036, 1.980817, 1.940919, 3.974145, -0.08538233, 1.976925, 1.936464
 68420954, 3.71397, 0.1323092, 1.977868, 1.948489, 4.024165, 0.1162036, 1.980817, 1.940919
 68620874, 3.895599, 0.101442, 1.985325, 1.951594, 3.71397, 0.1323092, 1.977868, 1.948489
 68820794, 3.872556, -0.002675489, 1.985583, 1.959935, 3.895599, 0.101442, 1.985325, 1.951594
 69020714, 3.862533, 0.07755801, 1.988764, 1.966599, 3.872556, -0.002675489, 1.985583, 1.959935
 69220634, 3.629339, -0.1135687, 1.992488, 1.971891, 3.862533, 0.07755801, 1.988764, 1.966599
 69420554, 3.81814, 0.1482034, 1.997599, 1.976829, 3.629339, -0.1135687, 1.992488, 1.971891
 69620474, 3.775009, 0.07355995, 1.995393, 1.982738, 3.81814, 0.1482034, 1.997599, 1.976829
 69820394, 3.794974, -0.09784602, 1.993921, 1.988347, 3.775009, 0.07355995, 1.995393, 1.982738
 70020314, 3.872251, 0.2251731, 1.998749, 1.990152, 3.794974, -0.09784602, 1.993921, 1.988347
 70220234, 3.750584, 0.005902133, 1.999979, 1.994226, 3.872251, 0.2251731, 1.998749, 1.990152
 70420154, 3.99265, 0.1337436, 2.003006, 2.000814, 3.750584, 0.005902133, 1.999979, 1.994226
 70620907, 3.666642, -0.1164283, 2.003084, 2.006208, 3.99265, 0.1337436, 2.003006, 2.000814
 70820827, 3.754741, 0.1811938, 2.004294, 2.012895, 3.666642, -0.1164283, 2.003084, 2.006208
 71020747, 3.871619, -0.03921974, 2.008872, 2.01587, 3.754741, 0.1811938, 2.004294, 2.012895
 71220667, 3.732941, 0.1555289, 2.012392, 2.019678, 3.871619, -0.03921974, 2.008872, 2.01587
 71420587, 3.64078, -0.06145333, 2.008593, 2.026461, 3.732941, 0.1555289, 2.012392, 2.019678
 71620507, 3.941004, 0.2917667, 2.011008, 2.032828, 3.64078, -0.06145333, 2.008593, 2.026461
 71820427, 3.691679, 0.07721409, 2.013883, 2.037189, 3.941004, 0.2917667, 2.011008, 2.032828
 72020347, 3.821913, 0.1115771, 2.020866, 2.038583, 3.691679, 0.07721409, 2.013883, 2.037189
 72220267, 3.713792, 0.0729424, 2.02016, 2.044679, 3.821913, 0.1115771, 2.020866, 2.038583
 72420187, 3.835191, 0.2220461, 2.019352, 2.047675, 3.713792, 0.0729424, 2.02016, 2.044679
 72620940, 3.855241, 0.003915776, 2.020311, 2.051962, 3.835191, 0.2220461, 2.019352, 2.047675
 72820860, 3.698413, 0.1754757, 2.019323, 2.056143, 3.855241, 0.003915776, 2.020311, 2.051962
 73020780, 3.879229, 0.2161416, 2.020288, 2.059763, 3.698413, 0.1754757, 2.019323, 2.056143
 73220700, 3.945773, 0.2697831, 2.02268, 2.061345, 3.879229, 0.2161416, 2.020288, 2.059763
 73420620, 3.947204, 0.0760525, 2.01867, 2.065981, 3.945773, 0.2697831, 2.02268, 2.061345
 73620540, 3.852398, -0.06845273, 2.02201, 2.06703, 3.947204, 0.0760525, 2.01867, 2.065981
 73820460, 3.864907, -0.01880846, 2.023169, 2.07126, 3.852398, -0.06845273, 2.02201, 2.06703
 74020380, 3.794176, 0.1157527, 2.02251, 2.074278, 3.864907, -0.01880846, 2.023169, 2.07126
 74220300, 3.969556, 0.1516477, 2.022859, 2.07848, 3.794176, 0.1157527, 2.02251, 2.074278
 74420220, 3.672988, 0.02896963, 2.023246, 2.078754, 3.969556, 0.1516477, 2.022859, 2.07848
 74620973, 4.046255, 0.2300316, 2.021938, 2.087239, 3.672988, 0.02896963, 2.023246, 2.078754
 74820893, 3.88377, -0.06676517, 2.023307, 2.09009, 4.046255, 0.2300316, 2.021938, 2.087239
 75020813, 3.727533, -0.09656958, 2.02336, 2.092873, 3.88377, -0.06676517, 2.023307, 2.09009
 75220733, 3.759128, 0.1292671, 2.021475, 2.096902, 3.727533, -0.09656958, 2.02336, 2.092873
 75420653, 3.695405, 0.3591111, 2.019445, 2.099354, 3.759128, 0.1292671, 2.021475, 2.096902
 75620573, 3.985115, 0.09646697, 2.017513, 2.103259, 3.695405, 0.3591111, 2.019445, 2.099354
 75820493, 3.595363, 0.08092346, 2.014698, 2.104179, 3.985115, 0.09646697, 2.017513, 2.103259
 76020413, 3.7184, -0.008462235, 2.012194, 2.103907, 3.595363, 0.08092346, 2.014698, 2.104179
 76220333, 3.927989, 0.1554547, 2.006221, 2.108105, 3.7184, -0.008462235, 2.012194, 2.103907
 76420253, 3.940878, 0.1264261, 2.009054, 2.105057, 3.927989, 0.1554547, 2.006221, 2.108105
 76620173, 3.774737, 0.3810281, 2.004326, 2.107591, 3.940878, 0.1264261, 2.009054, 2.105057
 76820926, 3.815607, 0.1236143, 2.004014, 2.104677, 3.774737, 0.3810281, 2.004326, 2.107591
 77020846, 3.822625, 0.216057, 1.997476, 2.108376, 3.815607, 0.1236143, 2.004014, 2.104677
 77220766, 3.724151, 0.2940752, 1.992836, 2.108537, 3.822625, 0.216057, 1.997476, 2.108376
 77420686, 3.778712, 0.3874145, 1.990381, 2.105911, 3.724151, 0.2940752, 1.992836, 2.108537
 77620606, 3.598882, 0.1951657, 1.987282, 2.10669, 3.778712, 0.3874145, 1.990381, 2.105911
 77820526, 3.628559, -0.03434458, 1.982456, 2.106559, 3.598882, 0.1951657, 1.987282, 2.10669
 78020446, 3.925205, 0.4012777, 1.980966, 2.108066, 3.628559, -0.03434458, 1.982456, 2.106559
 78220366, 3.895924, 0.2462648, 1.977091, 2.111497, 3.925205, 0.4012777, 1.980966, 2.108066
 78420286, 3.76148, 0.1556045, 1.974599, 2.113345, 3.895924, 0.2462648, 1.977091, 2.111497
 78620206, 3.851187, 0.2001645, 1.972339, 2.111826, 3.76148, 0.1556045, 1.974599, 2.113345
 78820959, 3.90644, 0.390017, 1.968294, 2.114233, 3.851187, 0.2001645, 1.972339, 2.111826
 79020879, 3.921931, 0.3620988, 1.968388, 2.117333, 3.90644, 0.390017, 1.968294, 2.114233
 79220799, 3.704393, -0.008307457, 1.964469, 2.121612, 3.921931, 0.3620988, 1.968388, 2.117333
 79420719, 3.974337, 0.4844037, 1.964323, 2.123421, 3.704393, -0.008307457, 1.964469, 2.121612
 79620639, 3.738557, 0.2613864, 1.961853, 2.128472, 3.974337, 0.4844037, 1.964323, 2.123421
 79820559, 3.653471, 0.0775051, 1.958709, 2.133732, 3.738557, 0.2613864, 1.961853, 2.128472
 80020479, 3.784497, 0.2377198, 1.962643, 2.134642, 3.653471, 0.0775051, 1.958709, 2.133732
 80220399, 3.823301, 0.3459707, 1.960934, 2.137187, 3.784497, 0.2377198, 1.962643, 2.134642
 80420319, 3.827735, 0.3756142, 1.956847, 2.144458, 3.823301, 0.3459707, 1.960934, 2.137187
 80620239, 3.830859, 0.4149271, 1.956111, 2.148922, 3.827735, 0.3756142, 1.956847, 2.144458
 80820159, 3.822165, 0.117072, 1.956317, 2.152346, 3.830859, 0.4149271, 1.956111, 2.148922
 81020912, 3.72218, 0.2708542, 1.954268, 2.155174, 3.822165, 0.117072, 1.956317, 2.152346
 81220832, 3.944249, 0.3641168, 1.95391, 2.160039, 3.72218, 0.2708542, 1.954268, 2.155174
 81420752, 3.699939, 0.3963884, 1.953435, 2.16119, 3.944249, 0.3641168, 1.95391, 2.160039
 81620672, 3.904583, 0.1938014, 1.951852, 2.169812, 3.699939, 0.3963884, 1.953435, 2.16119
 81820592, 3.66145, 0.3734876, 1.953329, 2.173497, 3.904583, 0.1938014, 1.951852, 2.169812
 82020512, 3.837564, 0.2143194, 1.954295, 2.176583, 3.66145, 0.3734876, 1.953329, 2.173497
 82220432, 3.856297, 0.2267991, 1.951748, 2.179296, 3.837564, 0.2143194, 1.954295, 2.176583
 82420352, 3.86927, 0.3537641, 1.952009, 2.18233, 3.856297, 0.2267991, 1.951748, 2.179296
 82620272, 3.525084, 0.3786462, 1.949477, 2.185226, 3.86927, 0.3537641, 1.952009, 2.18233
 82820192, 3.650915, 0.4121395, 1.944716, 2.190308, 3.525084, 0.3786462, 1.949477, 2.185226
 83020945, 3.850763, 0.4027683, 1.944274, 2.195374, 3.650915, 0.4121395, 1.944716, 2.190308
 83220865, 3.772594, 0.09080806, 1.941873, 2.200123, 3.850763, 0.4027683, 1.944274, 2.195374
 83420785, 3.699723, 0.3152177, 1.941535, 2.204876, 3.772594, 0.09080806, 1.941873, 2.200123
 83620705, 3.981303, 0.4916238, 1.94494, 2.208046, 3.699723, 0.3152177, 1.941535, 2.204876
 83820625, 3.688684, 0.2316473, 1.940163, 2.212467, 3.981303, 0.4916238, 1.94494, 2.208046
 84020545, 3.772396, 0.4687793, 1.938817, 2.213925, 3.688684, 0.2316473, 1.940163, 2.212467
 84220465, 4.047969, 0.2709943, 1.938529, 2.214959, 3.772396, 0.4687793, 1.938817, 2.213925
 84420385, 3.753005, 0.5826703, 1.938422, 2.218294, 4.047969, 0.2709943, 1.938529, 2.214959
 84620305, 3.585855, 0.40218, 1.933464, 2.222987, 3.753005, 0.5826703, 1.938422, 2.218294
 84820225, 3.750287, 0.3645505, 1.935015, 2.227232, 3.585855, 0.40218, 1.933464, 2.222987
 85020145, 3.659536, 0.4795128, 1.930584, 2.235073, 3.750287, 0.3645505, 1.935015, 2.227232
 85220898, 3.642263, 0.1806032, 1.92916, 2.237912, 3.659536, 0.4795128, 1.930584, 2.235073
 85420818, 3.871656, 0.4957905, 1.930192, 2.238692, 3.642263, 0.1806032, 1.92916, 2.237912
 85620738, 3.725699, 0.2357962, 1.928368, 2.244475, 3.871656, 0.4957905, 1.930192, 2.238692
 85820658, 3.843111, 0.3314442, 1.926866, 2.251948, 3.725699, 0.2357962, 1.928368, 2.244475
 86020578, 3.96315, 0.5367006, 1.927123, 2.259137, 3.843111, 0.3314442, 1.926866, 2.251948
 86220498, 3.866805, 0.4037219, 1.926925, 2.26481, 3.96315, 0.5367006, 1.927123, 2.259137
 86420418, 3.844447, 0.3892576, 1.927914, 2.271724, 3.866805, 0.4037219, 1.926925, 2.26481
 86620338, 3.807023, 0.5773051, 1.92949, 2.279534, 3.844447, 0.3892576, 1.927914, 2.271724
 86820258, 3.74572, 0.2573064, 1.929805, 2.288753, 3.807023, 0.5773051, 1.92949, 2.279534
 87020178, 3.696252, 0.4892108, 1.932428, 2.295749, 3.74572, 0.2573064, 1.929805, 2.288753
 87220931, 3.653987, 0.5108896, 1.931695, 2.303702, 3.696252, 0.4892108, 1.932428, 2.295749
 87420851, 4.00481, 0.1923379, 1.934641, 2.310976, 3.653987, 0.5108896, 1.931695, 2.303702
 87620771, 3.987471, 0.351092, 1.936509, 2.319309, 4.00481, 0.1923379, 1.934641, 2.310976
 87820691, 3.818647, 0.47647, 1.939356, 2.327629, 3.987471, 0.351092, 1.936509, 2.319309
 88020611, 3.760616, 0.3388633, 1.937888, 2.336511, 3.818647, 0.47647, 1.939356, 2.327629
 88220531, 3.758596, 0.2895865, 1.941082, 2.34259, 3.760616, 0.3388633, 1.937888, 2.336511
 88420451, 3.805578, 0.5471179, 1.939336, 2.353799, 3.758596, 0.2895865, 1.941082, 2.34259
 88620371, 3.701999, 0.2296866, 1.941244, 2.360896, 3.805578, 0.5471179, 1.939336, 2.353799
 88820291, 3.846167, 0.6890737, 1.943788, 2.369507, 3.701999, 0.2296866, 1.941244, 2.360896
 89020211, 3.738629, 0.6796246, 1.942365, 2.381116, 3.846167, 0.6890737, 1.943788, 2.369507
 89220964, 3.582658, 0.5144671, 1.947, 2.386052, 3.738629, 0.6796246, 1.942365, 2.381116
 89420884, 3.767177, 0.5532596, 1.946949, 2.394564, 3.582658, 0.5144671, 1.947, 2.386052
 89620804, 3.663311, 0.2629116, 1.947454, 2.400079, 3.767177, 0.5532596, 1.946949, 2.394564
 89820724, 3.681612, 0.5625007, 1.945173, 2.410071, 3.663311, 0.2629116, 1.947454, 2.400079
 90020644, 3.75139, 0.6200675, 1.946213, 2.417292, 3.681612, 0.5625007, 1.945173, 2.410071
 90220564, 3.85962, 0.4514036, 1.94839, 2.422429, 3.75139, 0.6200675, 1.946213, 2.417292
 90420484, 3.680791, 0.3895169, 1.947565, 2.431051, 3.85962, 0.4514036, 1.94839, 2.422429
 90620404, 3.846799, 0.7957435, 1.948026, 2.439474, 3.680791, 0.3895169, 1.947565, 2.431051
 90820324, 3.909453, 0.4449858, 1.949372, 2.446508, 3.846799, 0.7957435, 1.948026, 2.439474
 91020244, 3.795751, 0.569456, 1.94905, 2.454595, 3.909453, 0.4449858, 1.949372, 2.446508
 91220164, 3.522073, 0.2483457, 1.95086, 2.46036, 3.795751, 0.569456, 1.94905, 2.454595
 91420917, 3.770272, 0.6243898, 1.952331, 2.468989, 3.522073, 0.2483457, 1.95086, 2.46036
 91620837, 3.49103, 0.744875, 1.947418, 2.478631, 3.770272, 0.6243898, 1.952331, 2.468989
 91820757, 4.065623, 0.2713581, 1.952314, 2.48598, 3.49103, 0.744875, 1.947418, 2.478631
 92020677, 3.651233, 0.8379824, 1.950583, 2.495033, 4.065623, 0.2713581, 1.952314, 2.48598
 92220597, 3.53809, 0.3601879, 1.952431, 2.503705, 3.651233, 0.8379824, 1.950583, 2.495033
 92420517, 3.883478, 0.6667417, 1.957002, 2.511032, 3.53809, 0.3601879, 1.952431, 2.503705
 92620437, 3.491799, 0.675249, 1.957204, 2.516361, 3.883478, 0.6667417, 1.957002, 2.511032
 92820357, 3.931444, 0.7790483, 1.94996, 2.524989, 3.491799, 0.675249, 1.957204, 2.516361
 93020277, 3.82158, 0.3535836, 1.950371, 2.524778, 3.931444, 0.7790483, 1.94996, 2.524989
 93220197, 3.735318, 0.6847919, 1.937806, 2.53425, 3.82158, 0.3535836, 1.950371, 2.524778
 93420950, 3.81995, 0.7060868, 1.93611, 2.533242, 3.735318, 0.6847919, 1.937806, 2.53425
 93620870, 3.655569, 0.5731764, 1.933754, 2.532977, 3.81995, 0.7060868, 1.93611, 2.533242
 93820790, 3.869848, 0.739511, 1.927698, 2.536041, 3.655569, 0.5731764, 1.933754, 2.532977
 94020710, 3.47698, 0.3880336, 1.921132, 2.53692, 3.869848, 0.739511, 1.927698, 2.536041
 94220630, 3.713914, 0.7490118, 1.918777, 2.539199, 3.47698, 0.3880336, 1.921132, 2.53692
 94420550, 3.986292, 0.7283646, 1.919776, 2.537657, 3.713914, 0.7490118, 1.918777, 2.539199
 94620470, 3.555838, 0.6523181, 1.909518, 2.54151, 3.986292, 0.7283646, 1.919776, 2.537657
 94820390, 3.562227, 0.6116157, 1.902612, 2.542902, 3.555838, 0.6523181, 1.909518, 2.54151
 95020310, 3.826324, 0.4119285, 1.900047, 2.540612, 3.562227, 0.6116157, 1.902612, 2.542902
 95220230, 3.756185, 0.8542351, 1.891561, 2.541919, 3.826324, 0.4119285, 1.900047, 2.540612
 95420150, 3.552549, 0.4630383, 1.888233, 2.540271, 3.756185, 0.8542351, 1.891561, 2.541919
 95620903, 3.745376, 0.5985039, 1.884239, 2.538992, 3.552549, 0.4630383, 1.888233, 2.540271
 95820823, 3.501806, 0.593318, 1.874561, 2.5443, 3.745376, 0.5985039, 1.884239, 2.538992
 96020743, 3.719602, 0.3499153, 1.870868, 2.547348, 3.501806, 0.593318, 1.874561, 2.5443
 96220663, 3.534327, 0.7159184, 1.869732, 2.551066, 3.719602, 0.3499153, 1.870868, 2.547348
 96420583, 3.670528, 0.5123065, 1.869489, 2.559651, 3.534327, 0.7159184, 1.869732, 2.551066
 96620503, 3.754069, 0.6805653, 1.869769, 2.56848, 3.670528, 0.5123065, 1.869489, 2.559651
 96820423, 3.803275, 0.8718585, 1.865873, 2.5818, 3.754069, 0.6805653, 1.869769, 2.56848
 97020343, 3.866103, 0.702772, 1.865991, 2.591596, 3.803275, 0.8718585, 1.865873, 2.5818
 97220263, 3.561431, 0.7822044, 1.866004, 2.601175, 3.866103, 0.702772, 1.865991, 2.591596
 97420183, 3.623547, 0.7491412, 1.868266, 2.608094, 3.561431, 0.7822044, 1.866004, 2.601175
 97620936, 3.61014, 0.6773803, 1.869312, 2.616581, 3.623547, 0.7491412, 1.868266, 2.608094
 97820856, 3.778328, 0.8378187, 1.87029, 2.625435, 3.61014, 0.6773803, 1.869312, 2.616581
 98020776, 3.591453, 0.6713566, 1.869734, 2.63423, 3.778328, 0.8378187, 1.87029, 2.625435
 98220696, 3.649937, 0.6612265, 1.869146, 2.645105, 3.591453, 0.6713566, 1.869734, 2.63423
 98420616, 3.558685, 0.7180228, 1.874285, 2.650212, 3.649937, 0.6612265, 1.869146, 2.645105
 98620536, 3.605317, 0.6892465, 1.869755, 2.663398, 3.558685, 0.7180228, 1.874285, 2.650212
 98820456, 3.576159, 0.8559522, 1.867527, 2.676419, 3.605317, 0.6892465, 1.869755, 2.663398
 99020376, 3.659323, 0.8801501, 1.868827, 2.689302, 3.576159, 0.8559522, 1.867527, 2.676419
 99220296, 3.702016, 0.8585316, 1.874074, 2.697857, 3.659323, 0.8801501, 1.868827, 2.689302
 99420216, 3.578111, 0.7056021, 1.873153, 2.710818, 3.702016, 0.8585316, 1.874074, 2.697857
 99620969, 3.70383, 0.7640914, 1.872862, 2.719135, 3.578111, 0.7056021, 1.873153, 2.710818
 99820889, 3.891239, 0.6602014, 1.866157, 2.726192, 3.70383, 0.7640914, 1.872862, 2.719135
 100020809, 3.729128, 0.9898239, 1.860893, 2.726089, 3.891239, 0.6602014, 1.866157, 2.726192
 100220729, 3.888349, 1.095881, 1.855658, 2.728493, 3.729128, 0.9898239, 1.860893, 2.726089
 100420649, 3.49884, 0.691753, 1.845609, 2.730368, 3.888349, 1.095881, 1.855658, 2.728493
 100620569, 3.594316, 0.646819, 1.840734, 2.729213, 3.49884, 0.691753, 1.845609, 2.730368
 100820489, 3.762066, 0.6682778, 1.839972, 2.729206, 3.594316, 0.646819, 1.840734, 2.729213
 101020409, 3.871562, 0.743748, 1.835414, 2.72922, 3.762066, 0.6682778, 1.839972, 2.729206
 101220329, 3.647675, 0.9509565, 1.826639, 2.733379, 3.871562, 0.743748, 1.835414, 2.72922
 101420249, 3.657881, 0.7736699, 1.819022, 2.73837, 3.647675, 0.9509565, 1.826639, 2.733379
 101620169, 3.725202, 0.8504803, 1.81439, 2.738371, 3.657881, 0.7736699, 1.819022, 2.73837
 101820922, 3.99536, 0.793241, 1.811157, 2.738861, 3.725202, 0.8504803, 1.81439, 2.738371
 102020842, 3.668173, 0.7427258, 1.804657, 2.738098, 3.99536, 0.793241, 1.811157, 2.738861
 102220762, 3.745876, 0.7256319, 1.802504, 2.739344, 3.668173, 0.7427258, 1.804657, 2.738098
 102420682, 3.626426, 1.138359, 1.794221, 2.741715, 3.745876, 0.7256319, 1.802504, 2.739344
 102620602, 3.484563, 0.5674841, 1.788177, 2.742314, 3.626426, 1.138359, 1.794221, 2.741715
 102820522, 3.626412, 0.8700338, 1.783803, 2.742618, 3.484563, 0.5674841, 1.788177, 2.742314
 103020442, 3.580269, 1.052883, 1.774415, 2.744829, 3.626412, 0.8700338, 1.783803, 2.742618
 103220362, 3.756889, 0.9876953, 1.768761, 2.737927, 3.580269, 1.052883, 1.774415, 2.744829
 103420282, 3.446073, 0.8562481, 1.753353, 2.734224, 3.756889, 0.9876953, 1.768761, 2.737927
 103620202, 3.660685, 0.8272259, 1.745783, 2.727142, 3.446073, 0.8562481, 1.753353, 2.734224
 103820955, 3.487638, 0.8960228, 1.733536, 2.720897, 3.660685, 0.8272259, 1.745783, 2.727142
 104020875, 3.769454, 1.070739, 1.726201, 2.714023, 3.487638, 0.8960228, 1.733536, 2.720897
 104220795, 3.715256, 0.8273474, 1.715243, 2.708266, 3.769454, 1.070739, 1.726201, 2.714023
 104420715, 3.704993, 0.9468666, 1.701696, 2.702578, 3.715256, 0.8273474, 1.715243, 2.708266
 104620635, 3.374057, 0.9753269, 1.693537, 2.693345, 3.704993, 0.9468666, 1.701696, 2.702578
 104820555, 3.646304, 0.8852748, 1.685748, 2.68568, 3.374057, 0.9753269, 1.693537, 2.693345
 105020475, 3.951937, 0.9680628, 1.676541, 2.677882, 3.646304, 0.8852748, 1.685748, 2.68568
 105220395, 3.793363, 0.8599735, 1.668825, 2.670083, 3.951937, 0.9680628, 1.676541, 2.677882
 105420315, 3.835783, 1.016195, 1.661702, 2.660695, 3.793363, 0.8599735, 1.668825, 2.670083
 105620235, 3.536703, 0.7987247, 1.650523, 2.652764, 3.835783, 1.016195, 1.661702, 2.660695
 105820155, 3.727379, 0.8384368, 1.643597, 2.644463, 3.536703, 0.7987247, 1.650523, 2.652764
 106020908, 3.469929, 1.00295, 1.632071, 2.638096, 3.727379, 0.8384368, 1.643597, 2.644463
 106220828, 3.649832, 1.115652, 1.623607, 2.631528, 3.469929, 1.00295, 1.632071, 2.638096
 106420748, 3.632376, 1.13071, 1.613139, 2.624024, 3.649832, 1.115652, 1.623607, 2.631528
 106620668, 3.648339, 0.8364791, 1.603389, 2.621351, 3.632376, 1.13071, 1.613139, 2.624024
 106820588, 3.557025, 0.991021, 1.593262, 2.623576, 3.648339, 0.8364791, 1.603389, 2.621351
 107020508, 3.427211, 1.001942, 1.590647, 2.620738, 3.557025, 0.991021, 1.593262, 2.623576
 107220428, 3.678082, 0.9906676, 1.588324, 2.621192, 3.427211, 1.001942, 1.590647, 2.620738
 107420348, 3.925593, 0.9288707, 1.584687, 2.620362, 3.678082, 0.9906676, 1.588324, 2.621192
 107620268, 3.700378, 0.9678572, 1.578223, 2.622131, 3.925593, 0.9288707, 1.584687, 2.620362
 107820188, 3.776356, 0.9748573, 1.574708, 2.624978, 3.700378, 0.9678572, 1.578223, 2.622131
 108020941, 3.859391, 1.239063, 1.573581, 2.623217, 3.776356, 0.9748573, 1.574708, 2.624978
 108220861, 3.645868, 0.7276141, 1.708663, 2.531842, 3.859391, 1.239063, 1.573581, 2.623217
 108420781, 3.452664, 0.8581876, 1.638328, 2.600676, 3.645868, 0.7276141, 1.708663, 2.531842
 108620701, 3.680341, 1.148469, 1.674024, 2.830691, 3.452664, 0.8581876, 1.638328, 2.600676
 108820621, 3.343134, 1.306607, 1.87403, 3.365256, 3.680341, 1.148469, 1.674024, 2.830691
 109020541, 2.609987, 1.081156, 2.173307, 4.361588, 3.343134, 1.306607, 1.87403, 3.365256
 109220461, 2.219245, 0.7749884, 2.097155, 5.11201, 2.609987, 1.081156, 2.173307, 4.361588
 109420381, 0.9199509, 0.293457, 1.802913, 5.096534, 2.219245, 0.7749884, 2.097155, 5.11201
