TimeUS,COFN,COFE,CNe,CEe,POFN,POFE,PNe,PEe
 8040949, 0.03694408, 0.02330383, 0.09741662, 0.0482171, 0, 0, 0, 0
 8220877, -0.005582885, 0.006759271, 0.09739261, 0.04819786, 0.03694408, 0.02330383, 0.09741662, 0.0482171
 8420797, -0.01012319, 0.001171487, 0.09739363, 0.04819679, -0.005582885, 0.006759271, 0.09739261, 0.04819786
 8620717, -0.004782027, 0.008312037, 0.09739364, 0.04819635, -0.01012319, 0.001171487, 0.09739363, 0.04819679
 8820637, -0.01130065, 0.006205959, 0.09739697, 0.04819239, -0.004782027, 0.008312037, 0.09739364, 0.04819635
 9020557, -0.01544516, 0.007627861, 0.09740147, 0.04818812, -0.01130065, 0.006205959, 0.09739697, 0.04819239
 9220477, -0.007585499, -0.0001349815, 0.09739809, 0.04818608, -0.01544516, 0.007627861, 0.09740147, 0.04818812
 9420397, -0.00698661, -0.00183063, 0.0973988, 0.04818444, -0.007585499, -0.0001349815, 0.09739809, 0.04818608
 9620317, -0.01682849, 0.003401363, 0.09740451, 0.04818187, -0.00698661, -0.00183063, 0.0973988, 0.04818444
 9820237, -0.00564478, 0.00642605, 0.0973992, 0.04818438, -0.01682849, 0.003401363, 0.09740451, 0.04818187
 10020157, -0.007225762, 0.005454072, 0.09739913, 0.04818487, -0.00564478, 0.00642605, 0.0973992, 0.04818438
 10220910, -0.001924451, 0.00234363, 0.09739818, 0.0481841, -0.007225762, 0.005454072, 0.09739913, 0.04818487
 10420830, -0.004470699, 0.01232624, 0.09740095, 0.04818454, -0.001924451, 0.00234363, 0.09739818, 0.0481841
 10620750, -0.01188556, 0.01024025, 0.09740372, 0.04818169, -0.004470699, 0.01232624, 0.09740095, 0.04818454
 10820670, -0.002549576, 0.008689227, 0.09739926, 0.04818461, -0.01188556, 0.01024025, 0.09740372, 0.04818169
 11020590, -0.004292417, -0.005006936, 0.09739745, 0.04818685, -0.002549576, 0.008689227, 0.09739926, 0.04818461
 11220510, -0.006883869, 0.005758804, 0.09739771, 0.0481877, -0.004292417, -0.005006936, 0.09739745, 0.04818685
 11420430, -0.01576169, 0.007444442, 0.09740239, 0.0481865, -0.006883869, 0.005758804, 0.09739771, 0.0481877
 11620350, -0.01323003, 0.0012645, 0.09739957, 0.04818749, -0.01576169, 0.007444442, 0.09740239, 0.0481865
 11820270, -0.00590344, 0.003933602, 0.09739695, 0.04818812, -0.01323003, 0.0012645, 0.09739957, 0.04818749
 12020190, -0.007525523, 0.008869719, 0.09739909, 0.04818693, -0.00590344, 0.003933602, 0.09739695, 0.04818812
 12220943, -0.006503228, 0.00452539, 0.09739839, 0.04818568, -0.007525523, 0.008869719, 0.09739909, 0.04818693
 12420863, -0.0005856694, 0.008481622, 0.09739746, 0.0481879, -0.006503228, 0.00452539, 0.09739839, 0.04818568
 12620783, -0.005384309, 0.01018734, 0.09739807, 0.04818888, -0.0005856694, 0.008481622, 0.09739746, 0.0481879
 12820703, -0.01267724, 0.002086096, 0.09739851, 0.04818919, -0.005384309, 0.01018734, 0.09739807, 0.04818888
 13020623, -0.01417172, 0.004441423, 0.09739879, 0.04819071, -0.01267724, 0.002086096, 0.09739851, 0.04818919
 13220543, -0.002403399, 0.002711776, 0.09739383, 0.04819304, -0.01417172, 0.004441423, 0.09739879, 0.04819071
 13420463, -0.009202846, 0.009701239, 0.0973974, 0.04819197, -0.002403399, 0.002711776, 0.09739383, 0.04819304
 13620383, -0.007136012, 0.00151688, 0.09739623, 0.04818967, -0.009202846, 0.009701239, 0.0973974, 0.04819197
 13820303, -0.01659436, 0.002659506, 0.09740146, 0.04818759, -0.007136012, 0.00151688, 0.09739623, 0.04818967
 14020223, -0.01229436, 0.007896382, 0.09739956, 0.0481889, -0.01659436, 0.002659506, 0.09740146, 0.04818759
 14220976, -0.008784535, 0.003594901, 0.09739718, 0.04818913, -0.01229436, 0.007896382, 0.09739956, 0.0481889
 14420896, -0.01507684, 0.01097454, 0.09740331, 0.04818629, -0.008784535, 0.003594901, 0.09739718, 0.04818913
 14620816, -0.00924453, 0.008757989, 0.09740134, 0.04818337, -0.01507684, 0.01097454, 0.09740331, 0.04818629
 14820736, -0.009844013, 0.005992197, 0.09740238, 0.0481802, -0.00924453, 0.008757989, 0.09740134, 0.04818337
 15020656, -0.005941712, 0.004384061, 0.09740061, 0.04818087, -0.009844013, 0.005992197, 0.09740238, 0.0481802
 15220576, -0.005611957, 0.01032117, 0.09740128, 0.04818261, -0.005941712, 0.004384061, 0.09740061, 0.04818087
 15420496, -0.006047481, 0.005782447, 0.09740075, 0.04818117, -0.005611957, 0.01032117, 0.09740128, 0.04818261
 15620416, -0.01586803, 0.006484564, 0.09740585, 0.04817913, -0.006047481, 0.005782447, 0.09740075, 0.04818117
 15820336, -0.009921988, 0.0115074, 0.09740315, 0.04818226, -0.01586803, 0.006484564, 0.09740585, 0.04817913
 16020256, -0.0110887, -0.0006907959, 0.0974012, 0.04818221, -0.009921988, 0.0115074, 0.09740315, 0.04818226
 16220176, -0.01005732, 0.005461568, 0.09740119, 0.04818253, -0.0110887, -0.0006907959, 0.0974012, 0.04818221
 16420929, -0.01554734, -0.00110634, 0.09740271, 0.04818361, -0.01005732, 0.005461568, 0.09740119, 0.04818253
 16620849, -0.0102023, 0.01373325, 0.09740217, 0.04818654, -0.01554734, -0.00110634, 0.09740271, 0.04818361
 16820769, -0.00936565, -0.001102624, 0.09739764, 0.04818815, -0.0102023, 0.01373325, 0.09740217, 0.04818654
 17020689, -0.008159797, 0.005490571, 0.09739804, 0.04818764, -0.00936565, -0.001102624, 0.09739764, 0.04818815
 17220609, -0.009448273, 0.008115616, 0.09739945, 0.04818693, -0.008159797, 0.005490571, 0.09739804, 0.04818764
 17420529, -0.01132272, 0.004324332, 0.09740061, 0.04818428, -0.009448273, 0.008115616, 0.09739945, 0.04818693
 17620449, -0.01303613, 0.006686782, 0.0974029, 0.04818216, -0.01132272, 0.004324332, 0.09740061, 0.04818428
 17820369, -0.005401566, 0.003393863, 0.097399, 0.04818361, -0.01303613, 0.006686782, 0.0974029, 0.04818216
 18020289, -0.006859787, 0.003786799, 0.09739894, 0.04818454, -0.005401566, 0.003393863, 0.097399, 0.04818361
 18220209, -0.01559808, 0.00524432, 0.09740329, 0.04818349, -0.006859787, 0.003786799, 0.09739894, 0.04818454
 18420962, -0.01454203, -0.0001227409, 0.09740205, 0.04818375, -0.01559808, 0.00524432, 0.09740329, 0.04818349
 18620882, -0.005260358, 0.01196188, 0.09740103, 0.04818431, -0.01454203, -0.0001227409, 0.09740205, 0.04818375
 18820802, -0.002702382, 0.006546989, 0.09740002, 0.0481819, -0.005260358, 0.01196188, 0.09740103, 0.04818431
 19020722, -0.01139159, 0.0131678, 0.09740476, 0.04818167, -0.002702382, 0.006546989, 0.09740002, 0.0481819
 19220642, -0.007539048, 0.002042531, 0.09740041, 0.04818153, -0.01139159, 0.0131678, 0.09740476, 0.04818167
 19420562, -0.005536755, -0.004295576, 0.09739965, 0.04818262, -0.007539048, 0.002042531, 0.09740041, 0.04818153
 19620482, 0.0003675558, 0.006501186, 0.09713887, 0.04870601, -0.005536755, -0.004295576, 0.09739965, 0.04818262
 19820402, -0.005769532, 0.009114442, 0.09667039, 0.04963199, 0.0003675558, 0.006501186, 0.09713887, 0.04870601
 20020322, -0.007423215, 0.007117337, 0.09599069, 0.05093378, -0.005769532, 0.009114442, 0.09667039, 0.04963199
 20220242, -0.01194676, 0.004530069, 0.09517696, 0.05244053, -0.007423215, 0.007117337, 0.09599069, 0.05093378
 20420162, -0.006598246, 0.006051098, 0.09429594, 0.05400598, -0.01194676, 0.004530069, 0.09517696, 0.05244053
 20620915, 9.707105E-05, 0.01013451, 0.09340736, 0.05552942, -0.006598246, 0.006051098, 0.09429594, 0.05400598
 20820835, -0.00637237, 0.001530058, 0.0925478, 0.0569486, 9.707105E-05, 0.01013451, 0.09340736, 0.05552942
 21020755, 0.05827578, -0.01180025, 0.09181254, 0.05823465, -0.00637237, 0.001530058, 0.0925478, 0.0569486
 21220675, 0.1669868, -0.03314975, 0.09163221, 0.05930595, 0.05827578, -0.01180025, 0.09181254, 0.05823465
 21420595, 0.3545462, -0.06072374, 0.09318168, 0.05998446, 0.1669868, -0.03314975, 0.09163221, 0.05930595
 21620515, 0.5849649, -0.1092856, 0.09735477, 0.06021573, 0.3545462, -0.06072374, 0.09318168, 0.05998446
 21820435, 0.8664021, -0.1507857, 0.1050083, 0.06004804, 0.5849649, -0.1092856, 0.09735477, 0.06021573
 22020355, 1.155354, -0.1819647, 0.1148781, 0.05993792, 0.8664021, -0.1507857, 0.1050083, 0.06004804
 22220275, 1.416304, -0.2040803, 0.1248959, 0.06034303, 1.155354, -0.1819647, 0.1148781, 0.05993792
 22420195, 1.646653, -0.2049386, 0.1343522, 0.06161463, 1.416304, -0.2040803, 0.1248959, 0.06034303
 22620948, 1.872776, -0.211915, 0.1445596, 0.06439321, 1.646653, -0.2049386, 0.1343522, 0.06161463
 22820868, 2.058227, -0.2041998, 0.1525773, 0.06667224, 1.872776, -0.211915, 0.1445596, 0.06439321
 23020788, 2.311602, -0.2022697, 0.1651206, 0.0747247, 2.058227, -0.2041998, 0.1525773, 0.06667224
 23220708, 2.473456, -0.189397, 0.1791158, 0.09468487, 2.311602, -0.2022697, 0.1651206, 0.0747247
 23420628, 2.65341, -0.170967, 0.2046313, 0.1254241, 2.473456, -0.189397, 0.1791158, 0.09468487
 23620548, 2.839153, -0.1969565, 0.2370017, 0.1600262, 2.65341, -0.170967, 0.2046313, 0.1254241
 23820468, 3.066468, -0.1979889, 0.2752801, 0.1966667, 2.839153, -0.1969565, 0.2370017, 0.1600262
 24020388, 3.230539, -0.1955636, 0.3182612, 0.2385505, 3.066468, -0.1979889, 0.2752801, 0.1966667
 24220308, 3.36516, -0.2369579, 0.3686863, 0.2837007, 3.230539, -0.1955636, 0.3182612, 0.2385505
 24420228, 3.521607, -0.2751002, 0.4260682, 0.3386089, 3.36516, -0.2369579, 0.3686863, 0.2837007
 24620148, 3.630731, -0.2098, 0.4865773, 0.3932955, 3.521607, -0.2751002, 0.4260682, 0.3386089
 24820901, 3.603621, -0.273105, 0.5513548, 0.4493081, 3.630731, -0.2098, 0.4865773, 0.3932955
 25020821, 3.639996, -0.2778766, 0.6211056, 0.5082378, 3.603621, -0.273105, 0.5513548, 0.4493081
 25220741, 3.637665, -0.2559964, 0.6876085, 0.5692214, 3.639996, -0.2778766, 0.6211056, 0.5082378
 25420661, 3.618882, -0.2693928, 0.7554342, 0.6270491, 3.637665, -0.2559964, 0.6876085, 0.5692214
 25620581, 3.598733, -0.2368844, 0.8236266, 0.6838597, 3.618882, -0.2693928, 0.7554342, 0.6270491
 25820501, 3.670636, -0.1855115, 0.8913742, 0.741037, 3.598733, -0.2368844, 0.8236266, 0.6838597
 26020421, 3.572464, -0.3327801, 0.9548236, 0.7961233, 3.670636, -0.1855115, 0.8913742, 0.741037
 26220341, 3.624657, -0.2721794, 1.016704, 0.8484476, 3.572464, -0.3327801, 0.9548236, 0.7961233
 26420261, 3.655682, -0.2529859, 1.078212, 0.9020728, 3.624657, -0.2721794, 1.016704, 0.8484476
 26620181, 3.499177, -0.2028254, 1.138163, 0.9527449, 3.655682, -0.2529859, 1.078212, 0.9020728
 26820934, 3.480572, -0.3119118, 1.198018, 0.9988577, 3.499177, -0.2028254, 1.138163, 0.9527449
 27020854, 3.240174, -0.1738225, 1.252441, 1.041073, 3.480572, -0.3119118, 1.198018, 0.9988577
 27220774, 3.102391, -0.149367, 1.304568, 1.077845, 3.240174, -0.1738225, 1.252441, 1.041073
 27420694, 3.110284, -0.3248668, 1.355752, 1.109953, 3.102391, -0.149367, 1.304568, 1.077845
 27620614, 2.999878, -0.2428401, 1.406506, 1.138806, 3.110284, -0.3248668, 1.355752, 1.109953
 27820534, 3.101234, -0.1953567, 1.459047, 1.163402, 2.999878, -0.2428401, 1.406506, 1.138806
 28020454, 2.935176, -0.1499719, 1.511775, 1.186097, 3.101234, -0.1953567, 1.459047, 1.163402
 28220374, 2.752829, -0.2953323, 1.563459, 1.207505, 2.935176, -0.1499719, 1.511775, 1.186097
 28420294, 2.819097, -0.2116921, 1.615415, 1.228489, 2.752829, -0.2953323, 1.563459, 1.207505
 28620214, 2.915396, -0.2957104, 1.667026, 1.248209, 2.819097, -0.2116921, 1.615415, 1.228489
 28820967, 2.762293, -0.2966279, 1.717917, 1.267424, 2.915396, -0.2957104, 1.667026, 1.248209
 29020887, 2.635407, -0.2379519, 1.766139, 1.286395, 2.762293, -0.2966279, 1.717917, 1.267424
 29220807, 2.775484, -0.4953144, 1.813007, 1.307599, 2.635407, -0.2379519, 1.766139, 1.286395
 29420727, 2.612699, -0.5032968, 1.856584, 1.328959, 2.775484, -0.4953144, 1.813007, 1.307599
 29620647, 2.478612, -0.5634616, 1.896503, 1.353686, 2.612699, -0.5032968, 1.856584, 1.328959
 29820567, 2.494913, -0.331135, 1.936738, 1.375045, 2.478612, -0.5634616, 1.896503, 1.353686
 30020487, 2.492591, -0.5219967, 1.971676, 1.394929, 2.494913, -0.331135, 1.936738, 1.375045
 30220407, 2.625448, -0.3513335, 1.99188, 1.440518, 2.492591, -0.5219967, 1.971676, 1.394929
 30420327, 2.669342, -0.2638136, 2.198253, 1.495174, 2.625448, -0.3513335, 1.99188, 1.440518
 30620247, 2.575118, -0.5192131, 2.365672, 1.471346, 2.669342, -0.2638136, 2.198253, 1.495174
 30820167, 2.596747, -0.5316732, 2.126188, 1.433666, 2.575118, -0.5192131, 2.365672, 1.471346
 31020920, 2.93057, -0.427203, 1.863413, 1.415595, 2.596747, -0.5316732, 2.126188, 1.433666
 31220840, 3.007193, -0.176569, 1.725998, 1.391792, 2.93057, -0.427203, 1.863413, 1.415595
 31420760, 3.135258, -0.1892532, 1.654689, 1.355078, 3.007193, -0.176569, 1.725998, 1.391792
 31620680, 3.375146, -0.2938743, 1.589835, 1.31438, 3.135258, -0.1892532, 1.654689, 1.355078
 31820600, 3.354443, -0.3438288, 1.507554, 1.269584, 3.375146, -0.2938743, 1.589835, 1.31438
 32020520, 3.348266, -0.1941523, 1.408702, 1.228149, 3.354443, -0.3438288, 1.507554, 1.269584
 32220440, 3.466576, -0.2200693, 1.323528, 1.191908, 3.348266, -0.1941523, 1.408702, 1.228149
 32420360, 3.552869, -0.09614483, 1.259508, 1.164836, 3.466576, -0.2200693, 1.323528, 1.191908
 32620280, 3.768825, 0.05127236, 1.217288, 1.141868, 3.552869, -0.09614483, 1.259508, 1.164836
 32820200, 3.632526, -0.002478942, 1.186614, 1.123268, 3.768825, 0.05127236, 1.217288, 1.141868
 33020953, 3.846196, 0.0007549897, 1.16655, 1.110578, 3.632526, -0.002478942, 1.186614, 1.123268
 33220873, 3.908056, -0.1197924, 1.150027, 1.10561, 3.846196, 0.0007549897, 1.16655, 1.110578
 33420793, 3.970854, -0.09336419, 1.139451, 1.105991, 3.908056, -0.1197924, 1.150027, 1.10561
 33620713, 3.970427, -0.003432517, 1.131601, 1.111437, 3.970854, -0.09336419, 1.139451, 1.105991
 33820633, 3.875795, -0.03269795, 1.126287, 1.119332, 3.970427, -0.003432517, 1.131601, 1.111437
 34020553, 4.008501, -0.02038581, 1.121454, 1.133149, 3.875795, -0.03269795, 1.126287, 1.119332
 34220473, 4.083876, 0.03591681, 1.122972, 1.145309, 4.008501, -0.02038581, 1.121454, 1.133149
 34420393, 3.871127, 0.1037072, 1.120543, 1.16211, 4.083876, 0.03591681, 1.122972, 1.145309
 34620313, 4.083361, 0.1266987, 1.123897, 1.180212, 3.871127, 0.1037072, 1.120543, 1.16211
 34820233, 4.034542, 0.2326811, 1.128101, 1.201021, 4.083361, 0.1266987, 1.123897, 1.180212
 35020153, 4.083156, 0.173884, 1.133768, 1.2249, 4.034542, 0.2326811, 1.128101, 1.201021
 35220906, 4.015487, 0.2228248, 1.147064, 1.245069, 4.083156, 0.173884, 1.133768, 1.2249
 35420826, 3.997873, 0.1634073, 1.15649, 1.271401, 4.015487, 0.2228248, 1.147064, 1.245069
 35620746, 3.939398, 0.310551, 1.168023, 1.299191, 3.997873, 0.1634073, 1.15649, 1.271401
 35820666, 4.016229, 0.1931677, 1.186156, 1.325927, 3.939398, 0.310551, 1.168023, 1.299191
 36020586, 4.04188, 0.2483733, 1.205608, 1.351746, 4.016229, 0.1931677, 1.186156, 1.325927
 36220506, 4.159128, 0.1992758, 1.225916, 1.378604, 4.04188, 0.2483733, 1.205608, 1.351746
 36420426, 3.981391, 0.2556133, 1.245595, 1.403521, 4.159128, 0.1992758, 1.225916, 1.378604
 36620346, 3.944638, 0.1961607, 1.262257, 1.428742, 3.981391, 0.2556133, 1.245595, 1.403521
 36820266, 3.783625, 0.3535964, 1.279922, 1.446303, 3.944638, 0.1961607, 1.262257, 1.428742
 37020186, 3.82627, 0.4036257, 1.293997, 1.461792, 3.783625, 0.3535964, 1.279922, 1.446303
 37220939, 3.818829, 0.3004321, 1.309336, 1.471819, 3.82627, 0.4036257, 1.293997, 1.461792
 37420859, 3.707085, 0.3258511, 1.322285, 1.478404, 3.818829, 0.3004321, 1.309336, 1.471819
 37620779, 3.875223, 0.1475215, 1.331264, 1.485079, 3.707085, 0.3258511, 1.322285, 1.478404
 37820699, 3.744455, 0.3549888, 1.336412, 1.488713, 3.875223, 0.1475215, 1.331264, 1.485079
 38020619, 3.931934, 0.3626386, 1.346389, 1.489684, 3.744455, 0.3549888, 1.336412, 1.488713
 38220539, 3.811377, 0.1461714, 1.352757, 1.48931, 3.931934, 0.3626386, 1.346389, 1.489684
 38420459, 3.774187, 0.1235629, 1.357079, 1.488222, 3.811377, 0.1461714, 1.352757, 1.48931
 38620379, 3.813133, 0.2113405, 1.358964, 1.482905, 3.774187, 0.1235629, 1.357079, 1.488222
 38820299, 3.677306, 0.1421207, 1.360385, 1.475028, 3.813133, 0.2113405, 1.358964, 1.482905
 39020219, 3.721013, 0.1773657, 1.362507, 1.466336, 3.677306, 0.1421207, 1.360385, 1.475028
 39220972, 3.725113, 0.2242584, 1.361756, 1.458337, 3.721013, 0.1773657, 1.362507, 1.466336
 39420892, 3.705978, 0.2459501, 1.359966, 1.448121, 3.725113, 0.2242584, 1.361756, 1.458337
 39620812, 3.790343, 0.0528279, 1.356669, 1.437993, 3.705978, 0.2459501, 1.359966, 1.448121
 39820732, 3.577228, 0.06138338, 1.3524, 1.425683, 3.790343, 0.0528279, 1.356669, 1.437993
 40020652, 3.710495, 0.2180208, 1.348153, 1.414761, 3.577228, 0.06138338, 1.3524, 1.425683
 40220572, 3.685328, 0.007907249, 1.34498, 1.400231, 3.710495, 0.2180208, 1.348153, 1.414761
 40420492, 3.608716, 0.03449817, 1.338863, 1.388226, 3.685328, 0.007907249, 1.34498, 1.400231
 40620412, 3.687194, 0.0198315, 1.33543, 1.375837, 3.608716, 0.03449817, 1.338863, 1.388226
 40820332, 3.620056, 0.08756875, 1.329057, 1.364789, 3.687194, 0.0198315, 1.33543, 1.375837
 41020252, 3.59001, 0.06938086, 1.323107, 1.353782, 3.620056, 0.08756875, 1.329057, 1.364789
 41220172, 3.806706, 0.1114223, 1.318099, 1.342891, 3.59001, 0.06938086, 1.323107, 1.353782
 41420925, 3.702944, 0.07396153, 1.310141, 1.331634, 3.806706, 0.1114223, 1.318099, 1.342891
 41620845, 3.884599, -0.004234191, 1.306467, 1.327836, 3.702944, 0.07396153, 1.310141, 1.331634
 41820765, 3.748489, 0.03836421, 1.306224, 1.323108, 3.884599, -0.004234191, 1.306467, 1.327836
 42020685, 3.706434, 0.05555012, 1.307861, 1.322685, 3.748489, 0.03836421, 1.306224, 1.323108
 42220605, 3.748393, 0.04827326, 1.310406, 1.321923, 3.706434, 0.05555012, 1.307861, 1.322685
 42420525, 3.820386, 0.139685, 1.314114, 1.323023, 3.748393, 0.04827326, 1.310406, 1.321923
 42620445, 3.656634, 0.1471174, 1.316589, 1.321136, 3.820386, 0.139685, 1.314114, 1.323023
 42820365, 3.579066, 0.1580744, 1.318078, 1.323118, 3.656634, 0.1471174, 1.316589, 1.321136
 43020285, 3.63608, 0.07119602, 1.319486, 1.323257, 3.579066, 0.1580744, 1.318078, 1.323118
 43220205, 3.704642, -0.01278444, 1.323449, 1.323246, 3.63608, 0.07119602, 1.319486, 1.323257
 43420958, 3.748339, 0.1127833, 1.327105, 1.32449, 3.704642, -0.01278444, 1.323449, 1.323246
 43620878, 3.750454, -0.01226129, 1.329234, 1.325552, 3.748339, 0.1127833, 1.327105, 1.32449
 43820798, 3.762276, 0.02013706, 1.332114, 1.328132, 3.750454, -0.01226129, 1.329234, 1.325552
 44020718, 3.70347, 0.03026621, 1.334594, 1.330829, 3.762276, 0.02013706, 1.332114, 1.328132
 44220638, 3.703322, 0.05697177, 1.338109, 1.332712, 3.70347, 0.03026621, 1.334594, 1.330829
 44420558, 3.766816, 0.1907865, 1.337862, 1.339415, 3.703322, 0.05697177, 1.338109, 1.332712
 44620478, 3.895345, 0.1295218, 1.339966, 1.345051, 3.766816, 0.1907865, 1.337862, 1.339415
 44820398, 3.628767, 0.1491175, 1.339436, 1.354281, 3.895345, 0.1295218, 1.339966, 1.345051
 45020318, 3.727875, 0.1234194, 1.340228, 1.394492, 3.628767, 0.1491175, 1.339436, 1.354281
 45220238, 3.570353, 0.0304876, 1.362911, 1.369135, 3.727875, 0.1234194, 1.340228, 1.394492
 45420158, 3.756879, -0.05603919, 1.350197, 1.360711, 3.570353, 0.0304876, 1.362911, 1.369135
 45620911, 3.83883, 0.05735699, 1.343428, 1.393522, 3.756879, -0.05603919, 1.350197, 1.360711
 45820831, 3.711226, 0.181501, 1.341835, 1.406306, 3.83883, 0.05735699, 1.343428, 1.393522
 46020751, 3.676868, 0.2004276, 1.345419, 1.402713, 3.711226, 0.181501, 1.341835, 1.406306
 46220671, 3.73359, 0.2668482, 1.358541, 1.397446, 3.676868, 0.2004276, 1.345419, 1.402713
 46420591, 3.797487, 0.05671978, 1.369615, 1.39793, 3.73359, 0.2668482, 1.358541, 1.397446
 46620511, 3.724272, 0.1473236, 1.378251, 1.399929, 3.797487, 0.05671978, 1.369615, 1.39793
 46820431, 3.71644, -0.05405265, 1.385609, 1.404711, 3.724272, 0.1473236, 1.378251, 1.399929
 47020351, 3.585614, 0.1805294, 1.392909, 1.409912, 3.71644, -0.05405265, 1.385609, 1.404711
 47220271, 3.808902, 0.1482954, 1.402935, 1.414663, 3.585614, 0.1805294, 1.392909, 1.409912
 47420191, 3.6832, 0.05593507, 1.409314, 1.420995, 3.808902, 0.1482954, 1.402935, 1.414663
 47620944, 3.743036, 0.004107982, 1.420891, 1.423806, 3.6832, 0.05593507, 1.409314, 1.420995
 47820864, 3.819159, 0.148174, 1.428869, 1.431674, 3.743036, 0.004107982, 1.420891, 1.423806
 48020784, 3.661123, -0.07754953, 1.435748, 1.438449, 3.819159, 0.148174, 1.428869, 1.431674
 48220704, 3.891836, -0.0650036, 1.44705, 1.445367, 3.661123, -0.07754953, 1.435748, 1.438449
 48420624, 3.653908, -0.0182656, 1.453067, 1.453385, 3.891836, -0.0650036, 1.44705, 1.445367
 48620544, 3.923475, -0.03389972, 1.465799, 1.457825, 3.653908, -0.0182656, 1.453067, 1.453385
 48820464, 3.893169, 0.1198538, 1.470177, 1.460569, 3.923475, -0.03389972, 1.465799, 1.457825
 49020384, 3.785924, 0.1572842, 1.471242, 1.464393, 3.893169, 0.1198538, 1.470177, 1.460569
 49220304, 3.773663, 0.04755251, 1.476746, 1.465805, 3.785924, 0.1572842, 1.471242, 1.464393
 49420224, 3.853061, 0.1431359, 1.479136, 1.468287, 3.773663, 0.04755251, 1.476746, 1.465805
 49620977, 3.767779, 0.1223176, 1.483577, 1.469716, 3.853061, 0.1431359, 1.479136, 1.468287
 49820897, 3.78541, 0.1286815, 1.486803, 1.47413, 3.767779, 0.1223176, 1.483577, 1.469716
 50020817, 3.724448, 0.1170767, 1.492672, 1.476305, 3.78541, 0.1286815, 1.486803, 1.47413
 50220737, 3.690903, 0.2274545, 1.496798, 1.481088, 3.724448, 0.1170767, 1.492672, 1.476305
 50420657, 3.68561, 0.113254, 1.499945, 1.485606, 3.690903, 0.2274545, 1.496798, 1.481088
 50620577, 3.965944, 0.09896289, 1.504857, 1.489443, 3.68561, 0.113254, 1.499945, 1.485606
 50820497, 3.787185, 0.009028224, 1.510303, 1.492132, 3.965944, 0.09896289, 1.504857, 1.489443
 51020417, 3.68868, -0.0336789, 1.513654, 1.496246, 3.787185, 0.009028224, 1.510303, 1.492132
 51220337, 3.684425, -0.0229882, 1.517142, 1.503708, 3.68868, -0.0336789, 1.513654, 1.496246
 51420257, 3.806545, 0.1259404, 1.525594, 1.506948, 3.684425, -0.0229882, 1.517142, 1.503708
 51620177, 3.82366, -0.06462415, 1.531871, 1.511891, 3.806545, 0.1259404, 1.525594, 1.506948
 51820930, 3.873346, 0.009225389, 1.535503, 1.518731, 3.82366, -0.06462415, 1.531871, 1.511891
 52020850, 3.917406, 0.2151324, 1.541655, 1.523661, 3.873346, 0.009225389, 1.535503, 1.518731
 52220770, 3.829112, 0.002920634, 1.543852, 1.527862, 3.917406, 0.2151324, 1.541655, 1.523661
 52420690, 3.800663, 0.008655394, 1.544494, 1.528806, 3.829112, 0.002920634, 1.543852, 1.527862
 52620610, 3.863716, 0.06511424, 1.547041, 1.526808, 3.800663, 0.008655394, 1.544494, 1.528806
 52820530, 3.811324, 0.1012359, 1.544411, 1.529241, 3.863716, 0.06511424, 1.547041, 1.526808
 53020450, 3.802235, -0.03682682, 1.543741, 1.529975, 3.811324, 0.1012359, 1.544411, 1.529241
 53220370, 3.711685, -0.084911, 1.543497, 1.529563, 3.802235, -0.03682682, 1.543741, 1.529975
 53420290, 3.839154, 0.008034384, 1.542472, 1.531413, 3.711685, -0.084911, 1.543497, 1.529563
 53620210, 3.877044, -0.121652, 1.542024, 1.532262, 3.839154, 0.008034384, 1.542472, 1.531413
 53820963, 3.965396, 0.01673878, 1.545052, 1.529753, 3.877044, -0.121652, 1.542024, 1.532262
 54020883, 3.878799, 0.1349539, 1.545127, 1.52926, 3.965396, 0.01673878, 1.545052, 1.529753
 54220803, 4.004369, 0.1044341, 1.547145, 1.53145, 3.878799, 0.1349539, 1.545127, 1.52926
 54420723, 3.661309, 0.1959631, 1.544806, 1.532991, 4.004369, 0.1044341, 1.547145, 1.53145
 54620643, 3.735095, 0.1163808, 1.542226, 1.535314, 3.661309, 0.1959631, 1.544806, 1.532991
 54820563, 3.762215, 0.006793637, 1.543452, 1.530943, 3.735095, 0.1163808, 1.542226, 1.535314
 55020483, 3.784262, 0.03739412, 1.545162, 1.532492, 3.762215, 0.006793637, 1.543452, 1.530943
 55220403, 3.849636, -0.04476868, 1.545669, 1.533284, 3.784262, 0.03739412, 1.545162, 1.532492
 55420323, 3.850749, 0.1103386, 1.546187, 1.532766, 3.849636, -0.04476868, 1.545669, 1.533284
 55620243, 3.874555, -0.1231523, 1.5428, 1.536548, 3.850749, 0.1103386, 1.546187, 1.532766
 55820163, 3.924458, 0.08157143, 1.546336, 1.541965, 3.874555, -0.1231523, 1.5428, 1.536548
 56020916, 3.857754, 0.07022757, 1.554213, 1.54668, 3.924458, 0.08157143, 1.546336, 1.541965
 56220836, 3.808409, 0.02981802, 1.562349, 1.554973, 3.857754, 0.07022757, 1.554213, 1.54668
 56420756, 3.764096, 0.1666445, 1.568925, 1.56315, 3.808409, 0.02981802, 1.562349, 1.554973
 56620676, 3.66973, -0.06946391, 1.572505, 1.574031, 3.764096, 0.1666445, 1.568925, 1.56315
 56820596, 3.820186, 0.07764293, 1.580461, 1.581258, 3.66973, -0.06946391, 1.572505, 1.574031
 57020516, 3.817035, 0.1583945, 1.587795, 1.588967, 3.820186, 0.07764293, 1.580461, 1.581258
 57220436, 3.790583, 0.1135888, 1.593078, 1.598099, 3.817035, 0.1583945, 1.587795, 1.588967
 57420356, 3.83222, 0.1280765, 1.605663, 1.603209, 3.790583, 0.1135888, 1.593078, 1.598099
 57620276, 3.946136, 0.06247588, 1.613962, 1.613352, 3.83222, 0.1280765, 1.605663, 1.603209
 57820196, 3.746476, 0.1668631, 1.618456, 1.623356, 3.946136, 0.06247588, 1.613962, 1.613352
 58020949, 3.843906, -0.01886616, 1.62611, 1.631422, 3.746476, 0.1668631, 1.618456, 1.623356
 58220869, 3.843318, -0.05934038, 1.634265, 1.639143, 3.843906, -0.01886616, 1.62611, 1.631422
 58420789, 3.788294, -0.04735849, 1.64028, 1.646441, 3.843318, -0.05934038, 1.634265, 1.639143
 58620709, 3.812111, 0.1219446, 1.649245, 1.651653, 3.788294, -0.04735849, 1.64028, 1.646441
 58820629, 3.812096, 0.193474, 1.653392, 1.664538, 3.812111, 0.1219446, 1.649245, 1.651653
 59020549, 3.924612, 0.2080588, 1.660174, 1.673971, 3.812096, 0.193474, 1.653392, 1.664538
 59220469, 3.810729, 0.003490204, 1.669162, 1.682893, 3.924612, 0.2080588, 1.660174, 1.673971
 59420389, 3.844775, 0.1745612, 1.678867, 1.691647, 3.810729, 0.003490204, 1.669162, 1.682893
 59620309, 3.8726, 0.07527343, 1.687396, 1.701965, 3.844775, 0.1745612, 1.678867, 1.691647
 59820229, 3.806518, 0.2455492, 1.696773, 1.711384, 3.8726, 0.07527343, 1.687396, 1.701965
 60020149, 3.941312, 0.01885, 1.710559, 1.716386, 3.806518, 0.2455492, 1.696773, 1.711384
 60220902, 3.891425, 0.01360246, 1.717394, 1.72778, 3.941312, 0.01885, 1.710559, 1.716386
 60420822, 3.989059, 0.08741368, 1.728493, 1.735665, 3.891425, 0.01360246, 1.717394, 1.72778
 60620742, 3.858452, 0.004914956, 1.739406, 1.743478, 3.989059, 0.08741368, 1.728493, 1.735665
 60820662, 3.822332, 0.1904294, 1.750202, 1.749939, 3.858452, 0.004914956, 1.739406, 1.743478
 61020582, 4.00608, -0.08529457, 1.758487, 1.760522, 3.822332, 0.1904294, 1.750202, 1.749939
 61220502, 3.783644, 0.1918622, 1.769115, 1.766148, 4.00608, -0.08529457, 1.758487, 1.760522
 61420422, 3.911359, 0.1556068, 1.779847, 1.772223, 3.783644, 0.1918622, 1.769115, 1.766148
 61620342, 3.776643, 0.04232338, 1.789303, 1.779158, 3.911359, 0.1556068, 1.779847, 1.772223
 61820262, 3.744272, 0.1940697, 1.795104, 1.787572, 3.776643, 0.04232338, 1.789303, 1.779158
 62020182, 3.897123, 0.128414, 1.802946, 1.795007, 3.744272, 0.1940697, 1.795104, 1.787572
 62220935, 3.900886, 0.183361, 1.810393, 1.801425, 3.897123, 0.128414, 1.802946, 1.795007
 62420855, 3.927101, 0.0526519, 1.820033, 1.807219, 3.900886, 0.183361, 1.810393, 1.801425
 62620775, 3.678975, 0.09008794, 1.823543, 1.81898, 3.927101, 0.0526519, 1.820033, 1.807219
 62820695, 3.860313, -0.1184835, 1.834615, 1.821163, 3.678975, 0.09008794, 1.823543, 1.81898
 63020615, 3.873937, 0.2625647, 1.839706, 1.823793, 3.860313, -0.1184835, 1.834615, 1.821163
 63220535, 3.752027, -0.1387218, 1.842772, 1.827114, 3.873937, 0.2625647, 1.839706, 1.823793
 63420455, 3.801814, 0.04853728, 1.847144, 1.83239, 3.752027, -0.1387218, 1.842772, 1.827114
 63620375, 3.752614, 0.187761, 1.852508, 1.83586, 3.801814, 0.04853728, 1.847144, 1.83239
 63820295, 3.886158, 0.182585, 1.860379, 1.838586, 3.752614, 0.187761, 1.852508, 1.83586
 64020215, 4.000753, 0.2263997, 1.86431, 1.845425, 3.886158, 0.182585, 1.860379, 1.838586
 64220968, 3.658571, 0.02231387, 1.86975, 1.845253, 4.000753, 0.2263997, 1.86431, 1.845425
 64420888, 3.996241, 0.08965626, 1.874382, 1.848043, 3.658571, 0.02231387, 1.86975, 1.845253
 64620808, 4.03849, -0.1006728, 1.87793, 1.851415, 3.996241, 0.08965626, 1.874382, 1.848043
 64820728, 3.948289, -0.07892267, 1.881795, 1.854139, 4.03849, -0.1006728, 1.87793, 1.851415
 65020648, 3.971016, -0.01533619, 1.886956, 1.858319, 3.948289, -0.07892267, 1.881795, 1.854139
 65220568, 3.556657, 0.1091987, 1.889811, 1.861682, 3.971016, -0.01533619, 1.886956, 1.858319
 65420488, 3.693388, 0.1891496, 1.892695, 1.866514, 3.556657, 0.1091987, 1.889811, 1.861682
 65620408, 3.770714, 0.2906123, 1.896455, 1.868994, 3.693388, 0.1891496, 1.892695, 1.866514
 65820328, 3.772168, -0.03273119, 1.898276, 1.872681, 3.770714, 0.2906123, 1.896455, 1.868994
 66020248, 3.878622, 0.1977625, 1.902765, 1.8754, 3.772168, -0.03273119, 1.898276, 1.872681
 66220168, 3.94772, 0.01777663, 1.905131, 1.882571, 3.878622, 0.1977625, 1.902765, 1.8754
 66420921, 3.794091, -0.07354996, 1.908687, 1.888754, 3.94772, 0.01777663, 1.905131, 1.882571
 66620841, 3.783207, 0.2259823, 1.913756, 1.893708, 3.794091, -0.07354996, 1.908687, 1.888754
 66820761, 3.969694, -0.1488043, 1.920381, 1.896184, 3.783207, 0.2259823, 1.913756, 1.893708
 67020681, 3.929054, 0.02489459, 1.923683, 1.90031, 3.969694, -0.1488043, 1.920381, 1.896184
 67220601, 3.644871, 0.05306974, 1.926897, 1.904752, 3.929054, 0.02489459, 1.923683, 1.90031
 67420521, 3.628931, 0.2090941, 1.929223, 1.910174, 3.644871, 0.05306974, 1.926897, 1.904752
 67620441, 3.83573, 0.1892687, 1.935428, 1.914394, 3.628931, 0.2090941, 1.929223, 1.910174
 67820361, 3.715974, 0.156644, 1.941129, 1.919252, 3.83573, 0.1892687, 1.935428, 1.914394
 68020281, 3.951453, -0.08338987, 1.949123, 1.922207, 3.715974, 0.156644, 1.941129, 1.919252
 68220201, 4.001628, 0.1100059, 1.955879, 1.925699, 3.951453, -0.08338987, 1.949123, 1.922207
 68420954, 3.694289, 0.1246512, 1.95449, 1.93285, 4.001628, 0.1100059, 1.955879, 1.925699
 68620874, 3.874145, 0.09233019, 1.963195, 1.934288, 3.694289, 0.1246512, 1.95449, 1.93285
 68820794, 3.853094, -0.01477005, 1.96638, 1.941924, 3.874145, 0.09233019, 1.963195, 1.934288
 69020714, 3.852362, 0.186858, 1.948447, 1.993561, 3.853094, -0.01477005, 1.96638, 1.941924
 69220634, 3.688367, 0.1176669, 2.050235, 2.161221, 3.852362, 0.186858, 1.948447, 1.993561
 69420554, 3.907823, 0.4876439, 2.352589, 2.581803, 3.688367, 0.1176669, 2.050235, 2.161221
 69620474, 3.918284, 0.6112387, 3.034251, 3.744126, 3.907823, 0.4876439, 2.352589, 2.581803
 69820394, 3.422138, 0.4624246, 3.243409, 4.971831, 3.918284, 0.6112387, 3.034251, 3.744126
 70020314, 2.834173, 1.447148, 2.393785, 5.25712, 3.422138, 0.4624246, 3.243409, 4.971831
 70220234, 2.562013, 1.350798, 1.38891, 5.108267, 2.834173, 1.447148, 2.393785, 5.25712
 70420154, 2.583086, 2.144282, 0.6525974, 4.993876, 2.562013, 1.350798, 1.38891, 5.108267
 70620907, 2.169122, 1.654495, 0.09930182, 4.921793, 2.583086, 2.144282, 0.6525974, 4.993876
 70820827, 1.655389, 2.222898, -0.3550925, 4.860567, 2.169122, 1.654495, 0.09930182, 4.921793
 71020747, 1.806263, 2.201928, -0.7688715, 4.782726, 1.655389, 2.222898, -0.3550925, 4.860567
 71220667, 1.14867, 2.225743, -1.161669, 4.670224, 1.806263, 2.201928, -0.7688715, 4.782726
 71420587, 1.179506, 1.937619, -1.587958, 4.526295, 1.14867, 2.225743, -1.161669, 4.670224
 71620507, 0.6017254, 2.649028, -1.993692, 4.337615, 1.179506, 1.937619, -1.587958, 4.526295
 71820427, 0.5705767, 2.138479, -2.372825, 4.117909, 0.6017254, 2.649028, -1.993692, 4.337615
 72020347, 0.3325376, 2.361157, -2.725572, 3.86348, 0.5705767, 2.138479, -2.372825, 4.117909
 72220267, 0.176493, 2.151094, -3.053602, 3.592382, 0.3325376, 2.361157, -2.725572, 3.86348
 72420187, -0.2515542, 2.327541, -3.362309, 3.296461, 0.176493, 2.151094, -3.053602, 3.592382
 72620940, -0.1016748, 2.333355, -3.650722, 2.972398, -0.2515542, 2.327541, -3.362309, 3.296461
 72820860, -0.5402241, 2.000147, -3.916082, 2.626537, -0.1016748, 2.333355, -3.650722, 2.972398
 73020780, -0.8562164, 2.202595, -4.133665, 2.259375, -0.5402241, 2.000147, -3.916082, 2.626537
 73220700, -1.176674, 2.195342, -4.311544, 1.870793, -0.8562164, 2.202595, -4.133665, 2.259375
 73420620, -1.082786, 2.254359, -4.426249, 1.46754, -1.176674, 2.195342, -4.311544, 1.870793
 73620540, -1.011923, 2.165951, -4.495874, 1.077914, -1.082786, 2.254359, -4.426249, 1.46754
 73820460, -1.270374, 2.07467, -4.495528, 0.7106102, -1.011923, 2.165951, -4.495874, 1.077914
 74020380, -1.530387, 1.786663, -4.45864, 0.3716035, -1.270374, 2.07467, -4.495528, 0.7106102
 74220300, -1.891837, 1.858435, -4.401736, 0.04912472, -1.530387, 1.786663, -4.45864, 0.3716035
 74420220, -1.582295, 1.579077, -4.300041, -0.2342625, -1.891837, 1.858435, -4.401736, 0.04912472
 74620973, -2.292016, 1.638099, -4.161174, -0.4745609, -1.582295, 1.579077, -4.300041, -0.2342625
 74820893, -1.955658, 1.727045, -4.019269, -0.6769816, -2.292016, 1.638099, -4.161174, -0.4745609
 75020813, -1.863962, 1.547029, -3.886582, -0.8647248, -1.955658, 1.727045, -4.019269, -0.6769816
 75220733, -2.14462, 1.227082, -3.757919, -1.030815, -1.863962, 1.547029, -3.886582, -0.8647248
 75420653, -2.302903, 0.8441865, -3.675448, -1.189003, -2.14462, 1.227082, -3.757919, -1.030815
 75620573, -2.59248, 1.275016, -3.651688, -1.34341, -2.302903, 0.8441865, -3.675448, -1.189003
 75820493, -2.234125, 1.022889, -3.648461, -1.495905, -2.59248, 1.275016, -3.651688, -1.34341
 76020413, -2.460949, 1.158628, -3.647904, -1.639981, -2.234125, 1.022889, -3.648461, -1.495905
 76220333, -2.928752, 1.001225, -3.644034, -1.793111, -2.460949, 1.158628, -3.647904, -1.639981
 76420253, -3.030561, 0.9684657, -3.636848, -1.923164, -2.928752, 1.001225, -3.644034, -1.793111
 76620173, -2.990761, 0.4866033, -3.62126, -2.048247, -3.030561, 0.9684657, -3.636848, -1.923164
 76820926, -3.00084, 0.7924812, -3.607529, -2.154801, -2.990761, 0.4866033, -3.62126, -2.048247
 77020846, -3.088106, 0.6107738, -3.584575, -2.259712, -3.00084, 0.7924812, -3.607529, -2.154801
 77220766, -3.008267, 0.406314, -3.564734, -2.354991, -3.088106, 0.6107738, -3.584575, -2.259712
 77420686, -3.138237, 0.2256071, -3.545292, -2.441161, -3.008267, 0.406314, -3.564734, -2.354991
 77620606, -2.826564, 0.4001405, -3.52214, -2.51814, -3.138237, 0.2256071, -3.545292, -2.441161
 77820526, -2.815925, 0.7025522, -3.499616, -2.596475, -2.826564, 0.4001405, -3.52214, -2.51814
 78020446, -3.365062, 0.08390898, -3.476615, -2.661901, -2.815925, 0.7025522, -3.499616, -2.596475
 78220366, -3.270799, 0.2683627, -3.45034, -2.719275, -3.365062, 0.08390898, -3.476615, -2.661901
 78420286, -3.031901, 0.3378217, -3.42736, -2.767823, -3.270799, 0.2683627, -3.45034, -2.719275
 78620206, -3.15442, 0.2523066, -3.406135, -2.811381, -3.031901, 0.3378217, -3.42736, -2.767823
 78820959, -3.244437, -0.05810848, -3.381658, -2.856441, -3.15442, 0.2523066, -3.406135, -2.811381
 79020879, -3.225945, -0.03799877, -3.358106, -2.88147, -3.244437, -0.05810848, -3.381658, -2.856441
 79220799, -2.80505, 0.4672941, -3.33651, -2.919197, -3.225945, -0.03799877, -3.358106, -2.88147
 79420719, -3.259546, -0.2655219, -3.319259, -2.947968, -2.80505, 0.4672941, -3.33651, -2.919197
 79620639, -2.822218, 0.02398197, -3.297475, -2.973379, -3.259546, -0.2655219, -3.319259, -2.947968
 79820559, -2.625342, 0.2834976, -3.274864, -2.993358, -2.822218, 0.02398197, -3.297475, -2.973379
 80020479, -2.808003, 0.03788918, -3.264774, -3.004691, -2.625342, 0.2834976, -3.274864, -2.993358
 80220399, -2.846035, -0.1380138, -3.248983, -3.022003, -2.808003, 0.03788918, -3.264774, -3.004691
 80420319, -2.814807, -0.1821071, -3.229432, -3.041257, -2.846035, -0.1380138, -3.248983, -3.022003
 80620239, -2.781341, -0.2437993, -3.213965, -3.051188, -2.814807, -0.1821071, -3.229432, -3.041257
 80820159, -2.692243, 0.2012221, -3.200239, -3.055197, -2.781341, -0.2437993, -3.213965, -3.051188
 81020912, -2.520775, -0.04792338, -3.188724, -3.064192, -2.692243, 0.2012221, -3.200239, -3.055197
 81220832, -2.831473, -0.1695219, -3.17951, -3.077625, -2.520775, -0.04792338, -3.188724, -3.064192
 81420752, -2.429195, -0.2494914, -3.172678, -3.081514, -2.831473, -0.1695219, -3.17951, -3.077625
 81620672, -2.676767, 0.08585095, -3.155547, -3.08771, -2.429195, -0.2494914, -3.172678, -3.081514
 81820592, -2.286197, -0.2135579, -3.145763, -3.083979, -2.676767, 0.08585095, -3.155547, -3.08771
 82020512, -2.499734, 0.04283277, -3.137927, -3.082992, -2.286197, -0.2135579, -3.145763, -3.083979
 82220432, -2.501734, 0.02894977, -3.129148, -3.085966, -2.499734, 0.04283277, -3.137927, -3.082992
 82420352, -2.500952, -0.1594932, -3.122845, -3.086063, -2.501734, 0.02894977, -3.129148, -3.085966
 82620272, -1.955534, -0.2269406, -3.114216, -3.086306, -2.500952, -0.1594932, -3.122845, -3.086063
 82820192, -2.119791, -0.25647, -3.10192, -3.092595, -1.955534, -0.2269406, -3.114216, -3.086306
 83020945, -2.388527, -0.217659, -3.094241, -3.095616, -2.119791, -0.25647, -3.10192, -3.092595
 83220865, -2.215494, 0.2437839, -3.084237, -3.096433, -2.388527, -0.217659, -3.094241, -3.095616
 83420785, -2.099362, -0.09124782, -3.075518, -3.091432, -2.215494, 0.2437839, -3.084237, -3.096433
 83620705, -2.511091, -0.3275933, -3.073738, -3.087265, -2.099362, -0.09124782, -3.075518, -3.091432
 83820625, -2.038191, 0.03796623, -3.064289, -3.088224, -2.511091, -0.3275933, -3.073738, -3.087265
 84020545, -2.168227, -0.3017257, -3.061439, -3.087274, -2.038191, 0.03796623, -3.064289, -3.088224
 84220465, -2.529962, 0.02001755, -3.059245, -3.086045, -2.168227, -0.3017257, -3.061439, -3.087274
 84420385, -2.09087, -0.4659654, -3.053933, -3.08207, -2.529962, 0.02001755, -3.059245, -3.086045
 84620305, -1.800473, -0.2062191, -3.042948, -3.082896, -2.09087, -0.4659654, -3.053933, -3.08207
 84820225, -2.007393, -0.1302414, -3.037583, -3.0789, -1.800473, -0.2062191, -3.042948, -3.082896
 85020145, -1.85817, -0.2946064, -3.02597, -3.082271, -2.007393, -0.1302414, -3.037583, -3.0789
 85220898, -1.777788, 0.1450892, -3.02123, -3.082206, -1.85817, -0.2946064, -3.02597, -3.082271
 85420818, -2.120034, -0.2954545, -3.019993, -3.080016, -1.777788, 0.1450892, -3.02123, -3.082206
 85620738, -1.855611, 0.07706247, -3.01385, -3.081271, -2.120034, -0.2954545, -3.019993, -3.080016
 85820658, -2.014282, -0.03867681, -3.007343, -3.084602, -1.855611, 0.07706247, -3.01385, -3.081271
 86020578, -2.189076, -0.3181112, -3.00398, -3.087543, -2.014282, -0.03867681, -3.007343, -3.084602
 86220498, -2.021239, -0.1298506, -3.00133, -3.089638, -2.189076, -0.3181112, -3.00398, -3.087543
 86420418, -1.973354, -0.106911, -2.998931, -3.091667, -2.021239, -0.1298506, -3.00133, -3.089638
 86620338, -1.927683, -0.3750328, -2.996881, -3.093743, -1.973354, -0.106911, -2.998931, -3.091667
 86820258, -1.803949, 0.08840032, -2.993627, -3.09703, -1.927683, -0.3750328, -2.996881, -3.093743
 87020178, -1.749305, -0.2456141, -2.992628, -3.096791, -1.803949, 0.08840032, -2.993627, -3.09703
 87220931, -1.685869, -0.2716079, -2.989132, -3.099867, -1.749305, -0.2456141, -2.992628, -3.096791
 87420851, -2.147366, 0.2253265, -2.988764, -3.100832, -1.685869, -0.2716079, -2.989132, -3.099867
 87620771, -2.132131, 0.00163883, -2.988431, -3.102511, -2.147366, 0.2253265, -2.988764, -3.100832
 87820691, -1.899332, -0.1886345, -2.988125, -3.102567, -2.132131, 0.00163883, -2.988431, -3.102511
 88020611, -1.800383, 0.01061342, -2.984323, -3.105805, -1.899332, -0.1886345, -2.988125, -3.102567
 88220531, -1.790617, 0.0825206, -2.985368, -3.104585, -1.800383, 0.01061342, -2.984323, -3.105805
 88420451, -1.884552, -0.2621007, -2.979971, -3.109994, -1.790617, 0.0825206, -2.985368, -3.104585
 88620371, -1.708262, 0.1765646, -2.9801, -3.110205, -1.884552, -0.2621007, -2.979971, -3.109994
 88820291, -1.963908, -0.4460094, -2.979575, -3.111757, -1.708262, 0.1765646, -2.9801, -3.110205
 89020211, -1.813773, -0.4306802, -2.975094, -3.116587, -1.963908, -0.4460094, -2.979575, -3.111757
 89220964, -1.57816, -0.2179813, -2.978, -3.112466, -1.813773, -0.4306802, -2.975094, -3.116587
 89420884, -1.837882, -0.2431824, -2.9753, -3.114485, -1.57816, -0.2179813, -2.978, -3.112466
 89620804, -1.660567, 0.1528876, -2.97557, -3.114095, -1.837882, -0.2431824, -2.9753, -3.114485
 89820724, -1.723557, -0.246144, -2.970866, -3.119168, -1.660567, 0.1528876, -2.97557, -3.114095
 90020644, -1.829018, -0.3129243, -2.970387, -3.120283, -1.723557, -0.246144, -2.970866, -3.119168
 90220564, -1.961369, -0.065064, -2.971717, -3.118694, -1.829018, -0.3129243, -2.970387, -3.120283
 90420484, -1.711631, 0.007665325, -2.969675, -3.121044, -1.961369, -0.065064, -2.971717, -3.118694
 90620404, -1.994224, -0.5222422, -2.968029, -3.123487, -1.711631, 0.007665325, -2.969675, -3.121044
 90820324, -2.038194, -0.025642, -2.967787, -3.123231, -1.994224, -0.5222422, -2.968029, -3.123487
 91020244, -1.899195, -0.2031505, -2.965891, -3.1247, -2.038194, -0.025642, -2.967787, -3.123231
 91220164, -1.486541, 0.2039053, -2.96718, -3.122745, -1.899195, -0.2031505, -2.965891, -3.1247
 91420917, -1.873474, -0.2712948, -2.966588, -3.12402, -1.486541, 0.2039053, -2.96718, -3.122745
 91620837, -1.513013, -0.4556242, -2.960402, -3.128724, -1.873474, -0.2712948, -2.966588, -3.12402
 91820757, -2.239118, 0.264461, -2.962752, -3.127694, -1.513013, -0.4556242, -2.960402, -3.128724
 92020677, -1.755549, -0.5500859, -2.9598, -3.129771, -2.239118, 0.264461, -2.962752, -3.127694
 92220597, -1.544, 0.0878433, -2.959614, -3.129846, -1.755549, -0.5500859, -2.9598, -3.129771
 92420517, -2.053729, -0.2774843, -2.961557, -3.128602, -1.544, 0.0878433, -2.959614, -3.129846
 92620437, -1.530057, -0.3387946, -2.962617, -3.126875, -2.053729, -0.2774843, -2.961557, -3.128602
 92820357, -2.134526, -0.397997, -2.955001, -3.134121, -1.530057, -0.3387946, -2.962617, -3.126875
 93020277, -1.931226, 0.1569535, -2.959439, -3.130098, -2.134526, -0.397997, -2.955001, -3.134121
 93220197, -1.865641, -0.276908, -2.948503, -3.140144, -1.931226, 0.1569535, -2.959439, -3.130098
 93420950, -1.990741, -0.2933692, -2.952027, -3.137553, -1.865641, -0.276908, -2.948503, -3.140144
 93620870, -1.757151, -0.137874, -2.954873, -3.134282, -1.990741, -0.2933692, -2.952027, -3.137553
 93820790, -2.077133, -0.319475, -2.951522, -3.137442, -1.757151, -0.137874, -2.954873, -3.134282
 94020710, -1.503054, 0.1018787, -2.950867, -3.137313, -2.077133, -0.319475, -2.951522, -3.137442
 94220630, -1.878915, -0.3418581, -2.952071, -3.136678, -1.503054, 0.1018787, -2.950867, -3.137313
 94420550, -2.247966, -0.2740573, -2.958658, -3.131405, -1.878915, -0.3418581, -2.952071, -3.136678
 94620470, -1.662032, -0.2212625, -2.954042, -3.13543, -2.247966, -0.2740573, -2.958658, -3.131405
 94820390, -1.666963, -0.155019, -2.951985, -3.13584, -1.662032, -0.2212625, -2.954042, -3.13543
 95020310, -1.996089, 0.1582403, -2.955818, -3.13238, -1.666963, -0.155019, -2.951985, -3.13584
 95220230, -1.976847, -0.4382868, -2.95301, -3.134128, -1.996089, 0.1582403, -2.955818, -3.13238
 95420150, -1.642441, 0.05813515, -2.956314, -3.130641, -1.976847, -0.4382868, -2.95301, -3.134128
 95620903, -1.933185, -0.08862467, -2.958826, -3.128737, -1.642441, 0.05813515, -2.956314, -3.130641
 95820823, -1.607412, -0.104019, -2.95381, -3.133847, -1.933185, -0.08862467, -2.958826, -3.128737
 96020743, -1.864051, 0.2709602, -2.953946, -3.134202, -1.607412, -0.104019, -2.95381, -3.133847
 96220663, -1.685352, -0.2528125, -2.955869, -3.131711, -1.864051, 0.2709602, -2.953946, -3.134202
 96420583, -1.841457, 0.05319178, -2.955337, -3.131871, -1.685352, -0.2528125, -2.955869, -3.131711
 96620503, -1.989648, -0.1493658, -2.954979, -3.13252, -1.841457, 0.05319178, -2.955337, -3.131871
 96820423, -2.097728, -0.381437, -2.949533, -3.138947, -1.989648, -0.1493658, -2.954979, -3.13252
 97020343, -2.16138, -0.1331571, -2.948473, -3.13995, -2.097728, -0.381437, -2.949533, -3.138947
 97220263, -1.777239, -0.2904888, -2.947892, -3.140355, -2.16138, -0.1331571, -2.948473, -3.13995
 97420183, -1.861483, -0.2321339, -2.949881, -3.137834, -1.777239, -0.2904888, -2.947892, -3.140355
 97620936, -1.836048, -0.131727, -2.951314, -3.136379, -1.861483, -0.2321339, -2.949881, -3.137834
 97820856, -2.095288, -0.3015343, -2.952987, -3.135117, -1.836048, -0.131727, -2.951314, -3.136379
 98020776, -1.825906, -0.1059601, -2.952346, -3.13502, -2.095288, -0.3015343, -2.952987, -3.135117
 98220696, -1.910402, -0.07326674, -2.949948, -3.13759, -1.825906, -0.1059601, -2.952346, -3.13502
 98420616, -1.808404, -0.1686172, -2.956455, -3.130263, -1.910402, -0.07326674, -2.949948, -3.13759
 98620536, -1.874508, -0.1058036, -2.951699, -3.134961, -1.808404, -0.1686172, -2.956455, -3.130263
 98820456, -1.879111, -0.3151848, -2.948479, -3.13857, -1.874508, -0.1058036, -2.951699, -3.134961
 99020376, -1.998756, -0.3208625, -2.94802, -3.139804, -1.879111, -0.3151848, -2.948479, -3.13857
 99220296, -2.055182, -0.283269, -2.952484, -3.134982, -1.998756, -0.3208625, -2.94802, -3.139804
 99420216, -1.87192, -0.09848979, -2.950025, -3.137295, -2.055182, -0.283269, -2.952484, -3.134982
 99620969, -2.049085, -0.140913, -2.950233, -3.137141, -1.87192, -0.09848979, -2.950025, -3.137295
 99820889, -2.268656, 0.04445847, -2.946669, -3.140948, -2.049085, -0.140913, -2.950233, -3.137141
 100020809, -2.13114, -0.4084153, -2.948386, -3.139365, -2.268656, 0.04445847, -2.946669, -3.140948
 100220729, -2.359571, -0.5020884, -2.948598, -3.139413, -2.13114, -0.4084153, -2.948386, -3.139365
 100420649, -1.775887, -0.05105182, -2.945487, -3.140989, -2.359571, -0.5020884, -2.948598, -3.139413
 100620569, -1.893699, 0.03335948, -2.947508, -3.138651, -1.775887, -0.05105182, -2.945487, -3.140989
 100820489, -2.11574, 0.04208592, -2.953083, -3.133931, -1.893699, 0.03335948, -2.947508, -3.138651
 101020409, -2.280928, -0.02271943, -2.955991, -3.132267, -2.11574, 0.04208592, -2.953083, -3.133931
 101220329, -2.043032, -0.3261687, -2.953085, -3.134745, -2.280928, -0.02271943, -2.955991, -3.132267
 101420249, -2.018763, -0.0796667, -2.950383, -3.137525, -2.043032, -0.3261687, -2.953085, -3.134745
 101620169, -2.125296, -0.1576599, -2.952543, -3.135161, -2.018763, -0.0796667, -2.950383, -3.137525
 101820922, -2.464041, -0.01665887, -2.955274, -3.132922, -2.125296, -0.1576599, -2.952543, -3.135161
 102020842, -2.032573, -0.01899419, -2.955769, -3.131648, -2.464041, -0.01665887, -2.955274, -3.132922
 102220762, -2.130362, 0.02480492, -2.959158, -3.129419, -2.032573, -0.01899419, -2.955769, -3.131648
 102420682, -2.079074, -0.5238588, -2.956999, -3.131971, -2.130362, 0.02480492, -2.959158, -3.129419
 102620602, -1.766585, 0.1883853, -2.957472, -3.130589, -2.079074, -0.5238588, -2.956999, -3.131971
 102820522, -2.025153, -0.1613362, -2.958972, -3.129433, -1.766585, 0.1883853, -2.957472, -3.130589
 103020442, -2.010737, -0.3980819, -2.95547, -3.132768, -2.025153, -0.1613362, -2.958972, -3.129433
 103220362, -2.224926, -0.2706469, -2.959215, -3.129664, -2.010737, -0.3980819, -2.95547, -3.132768
 103420282, -1.789213, -0.1602553, -2.953233, -3.134386, -2.224926, -0.2706469, -2.959215, -3.129664
 103620202, -2.059212, -0.06570968, -2.955072, -3.132854, -1.789213, -0.1602553, -2.953233, -3.134386
 103820955, -1.844961, -0.1902414, -2.952886, -3.134111, -2.059212, -0.06570968, -2.955072, -3.132854
 104020875, -2.257036, -0.3421826, -2.955392, -3.133506, -1.844961, -0.1902414, -2.952886, -3.134111
 104220795, -2.120292, -0.02782427, -2.954658, -3.133787, -2.257036, -0.3421826, -2.955392, -3.133506
 104420715, -2.135455, -0.1742359, -2.95096, -3.136777, -2.120292, -0.02782427, -2.954658, -3.133787
 104620635, -1.70172, -0.2996442, -2.954455, -3.133086, -2.135455, -0.1742359, -2.95096, -3.136777
 104820555, -2.036781, -0.1015497, -2.956759, -3.130949, -1.70172, -0.2996442, -2.954455, -3.133086
 105020475, -2.467013, -0.1230148, -2.958318, -3.130404, -2.036781, -0.1015497, -2.956759, -3.130949
 105220395, -2.221608, -0.01444654, -2.961308, -3.127825, -2.467013, -0.1230148, -2.958318, -3.130404
 105420315, -2.319186, -0.2101829, -2.96485, -3.124064, -2.221608, -0.01444654, -2.961308, -3.127825
 105620235, -1.851773, 0.008339942, -2.964309, -3.123776, -2.319186, -0.2101829, -2.96485, -3.124064
 105820155, -2.119251, 0.0136297, -2.967223, -3.121676, -1.851773, 0.008339942, -2.964309, -3.123776
 106020908, -1.815342, -0.2725985, -2.966025, -3.12299, -2.119251, 0.0136297, -2.967223, -3.121676
 106220828, -2.088541, -0.3656982, -2.966478, -3.123497, -1.815342, -0.2725985, -2.966025, -3.12299
 106420748, -2.065862, -0.3859869, -2.965003, -3.124952, -2.088541, -0.3656982, -2.966478, -3.123497
 106620668, -2.001239, 0.03117083, -2.961452, -3.12776, -2.065862, -0.3859869, -2.965003, -3.124952
 106820588, -1.920203, -0.1942136, -2.954891, -3.133591, -2.001239, 0.03117083, -2.961452, -3.12776
 107020508, -1.743609, -0.2483932, -2.958282, -3.130061, -1.920203, -0.1942136, -2.954891, -3.133591
 107220428, -2.081333, -0.1532669, -2.958882, -3.129581, -1.743609, -0.2483932, -2.958282, -3.130061
 107420348, -2.403956, 0.01231042, -2.959232, -3.129725, -2.081333, -0.1532669, -2.958882, -3.129581
 107620268, -2.104558, -0.09831432, -2.95688, -3.13127, -2.403956, 0.01231042, -2.959232, -3.129725
 107820188, -2.210261, -0.07624082, -2.956927, -3.132608, -2.104558, -0.09831432, -2.95688, -3.13127
 108020941, -2.407897, -0.4136803, -2.960899, -3.129217, -2.210261, -0.07624082, -2.956927, -3.132608
 108220861, -1.957238, -0.05611906, -2.956851, -3.130906, -2.407897, -0.4136803, -2.960899, -3.129217
 108420781, -1.723331, -0.04535618, -2.955759, -3.131864, -1.957238, -0.05611906, -2.956851, -3.130906
 108620701, -2.223541, -0.1162651, -2.963485, -3.126063, -1.723331, -0.04535618, -2.955759, -3.131864
 108820621, -2.138519, -0.2981052, -2.960119, -3.129285, -2.223541, -0.1162651, -2.963485, -3.126063
 109020541, -1.796717, -0.1516084, -2.958343, -3.130955, -2.138519, -0.2981052, -2.960119, -3.129285
 109220461, -1.984523, 0.05481231, -2.962574, -3.126436, -1.796717, -0.1516084, -2.958343, -3.130955
 109420381, -1.827645, -0.512117, -2.811002, -3.262831, -1.984523, 0.05481231, -2.962574, -3.126436
 109620301, -2.120047, -0.5155807, -2.814172, -3.266532, -1.827645, -0.512117, -2.811002, -3.262831
 109820221, -1.755969, -0.479877, -2.820832, -3.274961, -2.120047, -0.5155807, -2.814172, -3.266532
 110020974, -1.63673, -0.2510376, -2.831245, -3.288564, -1.755969, -0.479877, -2.820832, -3.274961
