TimeUS,CGpN,CGpE,CGpD,CGpe,PGpN,PGpE,PGpD,PGpe
 8040949, 0, 0, 0, 0.01, 0, 0, 0, 0
 8220877, 0, 0, 0, 0.01, 0, 0, 0, 0.01
 8420797, 0, 0, 0, 0.01, 0, 0, 0, 0.01
 8620717, 0, 0, 0, 0.01, 0, 0, 0, 0.01
 8820637, 0, 0, 0, 0.01, 0, 0, 0, 0.01
 9020557, 0, 0, 0, 0.01, 0, 0, 0, 0.01
 9220477, 0, 0, 0, 0.01, 0, 0, 0, 0.01
 9420397, 0, 0, 0, 0.01, 0, 0, 0, 0.01
 9620317, 0, 0, 0, 0.01, 0, 0, 0, 0.01
 9820237, 0, 0, 0, 0.01, 0, 0, 0, 0.01
 10020157, 0, 0, 0, 0.01, 0, 0, 0, 0.01
 10220910, 0, 0, 0, 0.01, 0, 0, 0, 0.01
 10420830, 0, 0, 0, 0.01, 0, 0, 0, 0.01
 10620750, 0, 0, 0, 0.01, 0, 0, 0, 0.01
 10820670, 0, 0, 0, 0.01, 0, 0, 0, 0.01
 11020590, 0, 0, 0, 0.01, 0, 0, 0, 0.01
 11220510, 0, 0, 0, 0.01, 0, 0, 0, 0.01
 11420430, 0, 0, 0, 0.01, 0, 0, 0, 0.01
 11620350, 0, 0, 0, 0.01, 0, 0, 0, 0.01
 11820270, 0, 0, 0, 0.01, 0, 0, 0, 0.01
 12020190, 0, 0, 0, 0.01, 0, 0, 0, 0.01
 12220943, 0, 0, 0, 0.01, 0, 0, 0, 0.01
 12420863, 0, 0, 0, 0.01, 0, 0, 0, 0.01
 12620783, 0, 0, 0, 0.01, 0, 0, 0, 0.01
 12820703, 0, 0, 0, 0.01, 0, 0, 0, 0.01
 13020623, 0, 0, 0, 0.01, 0, 0, 0, 0.01
 13220543, 0, 0, 0, 0.01, 0, 0, 0, 0.01
 13420463, 0, 0, 0, 0.01, 0, 0, 0, 0.01
 13620383, 0, 0, 0, 0.01, 0, 0, 0, 0.01
 13820303, 0, 0, 0, 0.01, 0, 0, 0, 0.01
 14020223, 0, 0, 0, 0.01, 0, 0, 0, 0.01
 14220976, 0, 0, 0, 0.01, 0, 0, 0, 0.01
 14420896, 0, 0, 0, 0.01, 0, 0, 0, 0.01
 14620816, 0, 0, 0, 0.01, 0, 0, 0, 0.01
 14820736, 0, 0, 0, 0.01, 0, 0, 0, 0.01
 15020656, 0, 0, 0, 0.01, 0, 0, 0, 0.01
 15220576, 0, 0, 0, 0.01, 0, 0, 0, 0.01
 15420496, 0, 0, 0, 0.01, 0, 0, 0, 0.01
 15620416, 0, 0, 0, 0.01, 0, 0, 0, 0.01
 15820336, 0, 0, 0, 0.01, 0, 0, 0, 0.01
 16020256, 0, 0, 0, 0.01, 0, 0, 0, 0.01
 16220176, 0, 0, 0, 0.01, 0, 0, 0, 0.01
 16420929, 0, 0, 0, 0.01, 0, 0, 0, 0.01
 16620849, 0, 0, 0, 0.01, 0, 0, 0, 0.01
 16820769, 0, 0, 0, 0.01, 0, 0, 0, 0.01
 17020689, 0, 0, 0, 0.01, 0, 0, 0, 0.01
 17220609, 0, 0, 0, 0.01, 0, 0, 0, 0.01
 17420529, 0, 0, 0, 0.01, 0, 0, 0, 0.01
 17620449, 0, 0, 0, 0.01, 0, 0, 0, 0.01
 17820369, 0, 0, 0, 0.01, 0, 0, 0, 0.01
 18020289, 0, 0, 0, 0.01, 0, 0, 0, 0.01
 18220209, 0, 0, 0, 0.01, 0, 0, 0, 0.01
 18420962, 0, 0, 0, 0.01, 0, 0, 0, 0.01
 18620882, 0, 0, 0, 0.01, 0, 0, 0, 0.01
 18820802, 0, 0, 0, 0.01, 0, 0, 0, 0.01
 19020722, 0, 0, 0, 0.01, 0, 0, 0, 0.01
 19220642, 0, 0, 0, 0.01, 0, 0, 0, 0.01
 19420562, 0, 0, 0, 0.01, 0, 0, 0, 0.01
 19620482, 0, 0, 0, 0.01, 0, 0, 0, 0.01
 19820402, 0, 0, 0, 0.01, 0, 0, 0, 0.01
 20020322, 0, 0, 0, 0.01, 0, 0, 0, 0.01
 20220242, 0, 0, 0, 0.01, 0, 0, 0, 0.01
 20420162, 0, 0, 0, 0.01, 0, 0, 0, 0.01
 20620915, 0, 0, 0, 0.01, 0, 0, 0, 0.01
 20820835, 0.01, -0.001, 0, 0.01, 0, 0, 0, 0.01
 21020755, 0.251, -0.026, 0, 0.01, 0.01, -0.001, 0, 0.01
 21220675, 0.943, -0.09900001, 0.012, 0.01, 0.251, -0.026, 0, 0.01
 21420595, 2.108, -0.22, 0.038, 0.01, 0.943, -0.09900001, 0.012, 0.01
 21620515, 3.719, -0.391, 0.07600001, 0.01, 2.108, -0.22, 0.038, 0.01
 21820435, 5.726, -0.6020001, 0.126, 0.01, 3.719, -0.391, 0.07600001, 0.01
 22020355, 7.846, -0.8240001, 0.185, 0.01, 5.726, -0.6020001, 0.126, 0.01
 22220275, 9.822001, -1.032, 0.244, 0.01, 7.846, -0.8240001, 0.185, 0.01
 22420195, 11.589, -1.218, 0.278, 0.01, 9.822001, -1.032, 0.244, 0.01
 22620948, 13.135, -1.378, 0.207, 0.01, 11.589, -1.218, 0.278, 0.01
 22820868, 14.475, -1.522, 0.273, 0.01, 13.135, -1.378, 0.207, 0.01
 23020788, 16.232, -1.704, -0.395, 0.01, 14.475, -1.522, 0.273, 0.01
 23220708, 17.914, -1.89, -2.117, 0.01, 16.232, -1.704, -0.395, 0.01
 23420628, 19.338, -2.053, -2.851, 0.01, 17.914, -1.89, -2.117, 0.01
 23620548, 20.682, -2.201, -2.94, 0.01, 19.338, -2.053, -2.851, 0.01
 23820468, 21.895, -2.345, -3.063, 0.01, 20.682, -2.201, -2.94, 0.01
 24020388, 22.894, -2.465, -3.55, 0.01, 21.895, -2.345, -3.063, 0.01
 24220308, 23.715, -2.568, -4.104, 0.01, 22.894, -2.465, -3.55, 0.01
 24420228, 24.392, -2.83, -4.531, 0.01, 23.715, -2.568, -4.104, 0.01
 24620148, 24.943, -3.152, -4.951, 0.01, 24.392, -2.83, -4.531, 0.01
 24820901, 25.432, -3.401, -5.171, 0.01, 24.943, -3.152, -4.951, 0.01
 25020821, 25.838, -3.637, -5.393, 0.01, 25.432, -3.401, -5.171, 0.01
 25220741, 26.172, -3.947, -5.542, 0.01, 25.838, -3.637, -5.393, 0.01
 25420661, 26.437, -4.241, -5.713, 0.01, 26.172, -3.947, -5.542, 0.01
 25620581, 26.516, -4.58, -6.241, 0.01, 26.437, -4.241, -5.713, 0.01
 25820501, 26.484, -4.944, -6.924, 0.01, 26.516, -4.58, -6.241, 0.01
 26020421, 26.463, -5.222, -7.318, 0.01, 26.484, -4.944, -6.924, 0.01
 26220341, 26.547, -5.411, -7.303, 0.01, 26.463, -5.222, -7.318, 0.01
 26420261, 26.678, -5.594, -7.111001, 0.01, 26.547, -5.411, -7.303, 0.01
 26620181, 26.788, -5.778, -6.962, 0.01, 26.678, -5.594, -7.111001, 0.01
 26820934, 26.857, -5.979, -6.916, 0.01, 26.788, -5.778, -6.962, 0.01
 27020854, 26.923, -6.210001, -6.81, 0.01, 26.857, -5.979, -6.916, 0.01
 27220774, 27.026, -6.402, -6.578001, 0.01, 26.923, -6.210001, -6.81, 0.01
 27420694, 27.109, -6.591, -6.41, 0.01, 27.026, -6.402, -6.578001, 0.01
 27620614, 27.212, -6.78, -6.177001, 0.01, 27.109, -6.591, -6.41, 0.01
 27820534, 27.254, -7, -6.163, 0.01, 27.212, -6.78, -6.177001, 0.01
 28020454, 27.276, -7.214, -6.164001, 0.01, 27.254, -7, -6.163, 0.01
 28220374, 27.258, -7.417, -6.271, 0.01, 27.276, -7.214, -6.164001, 0.01
 28420294, 27.176, -7.57, -6.282, 0.01, 27.258, -7.417, -6.271, 0.01
 28620214, 27.034, -7.683001, -6.207, 0.01, 27.176, -7.57, -6.282, 0.01
 28820967, 27.015, -7.787, -5.355, 0.01, 27.034, -7.683001, -6.207, 0.01
 29020887, 27.223, -7.5, -3.677, 0.01, 27.015, -7.787, -5.355, 0.01
 29220807, 27.432, -6.972, -2.249, 0.01, 27.223, -7.5, -3.677, 0.01
 29420727, 27.64, -6.212, -1.78, 0.01, 27.432, -6.972, -2.249, 0.01
 29620647, 27.817, -5.428, -2.001, 0.01, 27.64, -6.212, -1.78, 0.01
 29820567, 27.92, -4.936, -2.071, 0.01, 27.817, -5.428, -2.001, 0.01
 30020487, 27.967, -4.693, -1.741, 0.01, 27.92, -4.936, -2.071, 0.01
 30220407, 27.991, -4.404, -1.416, 0.01, 27.967, -4.693, -1.741, 0.01
 30420327, 28.012, -4.064, -1.132, 0.01, 27.991, -4.404, -1.416, 0.01
 30620247, 27.813, -3.574, -1.144, 0.01, 28.012, -4.064, -1.132, 0.01
 30820167, 27.206, -2.932, -1.599, 0.01, 27.813, -3.574, -1.144, 0.01
 31020920, 26.549, -2.443, -1.743, 0.01, 27.206, -2.932, -1.599, 0.01
 31220840, 26.107, -2.205, -1.211, 0.01, 26.549, -2.443, -1.743, 0.01
 31420760, 25.827, -2.07, -0.398, 0.01, 26.107, -2.205, -1.211, 0.01
 31620680, 25.621, -1.899, 0.216, 0.01, 25.827, -2.07, -0.398, 0.01
 31820600, 25.47, -1.674, 0.554, 0.01, 25.621, -1.899, 0.216, 0.01
 32020520, 25.375, -1.445, 0.763, 0.01, 25.47, -1.674, 0.554, 0.01
 32220440, 25.321, -1.209, 0.8710001, 0.01, 25.375, -1.445, 0.763, 0.01
 32420360, 25.3, -1.014, 1.032, 0.01, 25.321, -1.209, 0.8710001, 0.01
 32620280, 25.307, -0.837, 1.197, 0.01, 25.3, -1.014, 1.032, 0.01
 32820200, 25.325, -0.686, 1.421, 0.01, 25.307, -0.837, 1.197, 0.01
 33020953, 25.378, -0.535, 1.546, 0.01, 25.325, -0.686, 1.421, 0.01
 33220873, 25.434, -0.393, 1.563, 0.01, 25.378, -0.535, 1.546, 0.01
 33420793, 25.488, -0.261, 1.527, 0.01, 25.434, -0.393, 1.563, 0.01
 33620713, 25.545, -0.137, 1.547, 0.01, 25.488, -0.261, 1.527, 0.01
 33820633, 25.61, -0.027, 1.631, 0.01, 25.545, -0.137, 1.547, 0.01
 34020553, 25.684, 0.07, 1.659, 0.01, 25.61, -0.027, 1.631, 0.01
 34220473, 25.76, 0.162, 1.62, 0.01, 25.684, 0.07, 1.659, 0.01
 34420393, 25.84, 0.214, 1.627, 0.01, 25.76, 0.162, 1.62, 0.01
 34620313, 25.921, 0.251, 1.656, 0.01, 25.84, 0.214, 1.627, 0.01
 34820233, 26.008, 0.296, 1.65, 0.01, 25.921, 0.251, 1.656, 0.01
 35020153, 26.088, 0.332, 1.594, 0.01, 26.008, 0.296, 1.65, 0.01
 35220906, 26.17, 0.386, 1.559, 0.01, 26.088, 0.332, 1.594, 0.01
 35420826, 26.25, 0.405, 1.523, 0.01, 26.17, 0.386, 1.559, 0.01
 35620746, 26.33, 0.417, 1.489, 0.01, 26.25, 0.405, 1.523, 0.01
 35820666, 26.421, 0.45, 1.512, 0.01, 26.33, 0.417, 1.489, 0.01
 36020586, 26.512, 0.475, 1.474, 0.01, 26.421, 0.45, 1.512, 0.01
 36220506, 26.601, 0.476, 1.496, 0.01, 26.512, 0.475, 1.474, 0.01
 36420426, 26.69, 0.482, 1.397, 0.01, 26.601, 0.476, 1.496, 0.01
 36620346, 26.774, 0.473, 1.344, 0.01, 26.69, 0.482, 1.397, 0.01
 36820266, 26.86, 0.476, 1.377, 0.01, 26.774, 0.473, 1.344, 0.01
 37020186, 26.952, 0.473, 1.36, 0.01, 26.86, 0.476, 1.377, 0.01
 37220939, 27.04, 0.47, 1.329, 0.01, 26.952, 0.473, 1.36, 0.01
 37420859, 27.132, 0.458, 1.237, 0.01, 27.04, 0.47, 1.329, 0.01
 37620779, 27.213, 0.425, 1.17, 0.01, 27.132, 0.458, 1.237, 0.01
 37820699, 27.279, 0.401, 1.117, 0.01, 27.213, 0.425, 1.17, 0.01
 38020619, 27.354, 0.408, 1.09, 0.01, 27.279, 0.401, 1.117, 0.01
 38220539, 27.426, 0.417, 1.033, 0.01, 27.354, 0.408, 1.09, 0.01
 38420459, 27.497, 0.409, 1.013, 0.01, 27.426, 0.417, 1.033, 0.01
 38620379, 27.566, 0.408, 1.004, 0.01, 27.497, 0.409, 1.013, 0.01
 38820299, 27.624, 0.422, 0.85, 0.01, 27.566, 0.408, 1.004, 0.01
 39020219, 27.679, 0.414, 0.689, 0.01, 27.624, 0.422, 0.85, 0.01
 39220972, 27.734, 0.408, 0.714, 0.01, 27.679, 0.414, 0.689, 0.01
 39420892, 27.794, 0.404, 0.6900001, 0.01, 27.734, 0.408, 0.714, 0.01
 39620812, 27.839, 0.41, 0.59, 0.01, 27.794, 0.404, 0.6900001, 0.01
 39820732, 27.878, 0.422, 0.578, 0.01, 27.839, 0.41, 0.59, 0.01
 40020652, 27.913, 0.437, 0.5700001, 0.01, 27.878, 0.422, 0.578, 0.01
 40220572, 27.948, 0.447, 0.502, 0.01, 27.913, 0.437, 0.5700001, 0.01
 40420492, 27.993, 0.433, 0.441, 0.01, 27.948, 0.447, 0.502, 0.01
 40620412, 28.037, 0.42, 0.357, 0.01, 27.993, 0.433, 0.441, 0.01
 40820332, 28.079, 0.399, 0.313, 0.01, 28.037, 0.42, 0.357, 0.01
 41020252, 28.125, 0.386, 0.28, 0.01, 28.079, 0.399, 0.313, 0.01
 41220172, 28.163, 0.39, 0.308, 0.01, 28.125, 0.386, 0.28, 0.01
 41420925, 28.196, 0.393, 0.368, 0.01, 28.163, 0.39, 0.308, 0.01
 41620845, 28.222, 0.389, 0.308, 0.01, 28.196, 0.393, 0.368, 0.01
 41820765, 28.259, 0.406, 0.252, 0.01, 28.222, 0.389, 0.308, 0.01
 42020685, 28.291, 0.406, 0.144, 0.01, 28.259, 0.406, 0.252, 0.01
 42220605, 28.319, 0.399, 0.106, 0.01, 28.291, 0.406, 0.144, 0.01
 42420525, 28.34, 0.405, 0.096, 0.01, 28.319, 0.399, 0.106, 0.01
 42620445, 28.364, 0.416, 0.146, 0.01, 28.34, 0.405, 0.096, 0.01
 42820365, 28.377, 0.418, 0.094, 0.01, 28.364, 0.416, 0.146, 0.01
 43020285, 28.406, 0.424, 0.041, 0.01, 28.377, 0.418, 0.094, 0.01
 43220205, 28.439, 0.455, -0.003, 0.01, 28.406, 0.424, 0.041, 0.01
 43420958, 28.464, 0.464, -0.047, 0.01, 28.439, 0.455, -0.003, 0.01
 43620878, 28.483, 0.459, -0.047, 0.01, 28.464, 0.464, -0.047, 0.01
 43820798, 28.495, 0.465, -0.063, 0.01, 28.483, 0.459, -0.047, 0.01
 44020718, 28.505, 0.48, -0.054, 0.01, 28.495, 0.465, -0.063, 0.01
 44220638, 28.519, 0.491, -0.09, 0.01, 28.505, 0.48, -0.054, 0.01
 44420558, 28.543, 0.487, -0.111, 0.01, 28.519, 0.491, -0.09, 0.01
 44620478, 28.568, 0.522, -0.114, 0.01, 28.543, 0.487, -0.111, 0.01
 44820398, 28.589, 0.553, -0.102, 0.01, 28.568, 0.522, -0.114, 0.01
 45020318, 28.615, 0.5560001, -0.056, 0.01, 28.589, 0.553, -0.102, 0.01
 45220238, 28.619, 0.569, -0.093, 0.01, 28.615, 0.5560001, -0.056, 0.01
 45420158, 28.634, 0.571, -0.097, 0.01, 28.619, 0.569, -0.093, 0.01
 45620911, 28.643, 0.574, -0.161, 0.01, 28.634, 0.571, -0.097, 0.01
 45820831, 28.654, 0.59, -0.178, 0.01, 28.643, 0.574, -0.161, 0.01
 46020751, 28.653, 0.587, -0.233, 0.01, 28.654, 0.59, -0.178, 0.01
 46220671, 28.656, 0.587, -0.241, 0.01, 28.653, 0.587, -0.233, 0.01
 46420591, 28.656, 0.58, -0.222, 0.01, 28.656, 0.587, -0.241, 0.01
 46620511, 28.665, 0.582, -0.112, 0.01, 28.656, 0.58, -0.222, 0.01
 46820431, 28.673, 0.5790001, -0.132, 0.01, 28.665, 0.582, -0.112, 0.01
 47020351, 28.675, 0.561, -0.194, 0.01, 28.673, 0.5790001, -0.132, 0.01
 47220271, 28.678, 0.545, -0.19, 0.01, 28.675, 0.561, -0.194, 0.01
 47420191, 28.683, 0.548, -0.127, 0.01, 28.678, 0.545, -0.19, 0.01
 47620944, 28.691, 0.564, -0.134, 0.01, 28.683, 0.548, -0.127, 0.01
 47820864, 28.716, 0.546, -0.179, 0.01, 28.691, 0.564, -0.134, 0.01
 48020784, 28.735, 0.553, -0.199, 0.01, 28.716, 0.546, -0.179, 0.01
 48220704, 28.733, 0.553, -0.166, 0.01, 28.735, 0.553, -0.199, 0.01
 48420624, 28.743, 0.552, -0.138, 0.01, 28.733, 0.553, -0.166, 0.01
 48620544, 28.762, 0.562, -0.194, 0.01, 28.743, 0.552, -0.138, 0.01
 48820464, 28.775, 0.549, -0.177, 0.01, 28.762, 0.562, -0.194, 0.01
 49020384, 28.773, 0.537, -0.193, 0.01, 28.775, 0.549, -0.177, 0.01
 49220304, 28.765, 0.541, -0.233, 0.01, 28.773, 0.537, -0.193, 0.01
 49420224, 28.773, 0.539, -0.131, 0.01, 28.765, 0.541, -0.233, 0.01
 49620977, 28.786, 0.5420001, -0.156, 0.01, 28.773, 0.539, -0.131, 0.01
 49820897, 28.796, 0.528, -0.216, 0.01, 28.786, 0.5420001, -0.156, 0.01
 50020817, 28.807, 0.524, -0.249, 0.01, 28.796, 0.528, -0.216, 0.01
 50220737, 28.809, 0.508, -0.238, 0.01, 28.807, 0.524, -0.249, 0.01
 50420657, 28.82, 0.513, -0.131, 0.01, 28.809, 0.508, -0.238, 0.01
 50620577, 28.834, 0.515, -0.117, 0.01, 28.82, 0.513, -0.131, 0.01
 50820497, 28.842, 0.527, -0.145, 0.01, 28.834, 0.515, -0.117, 0.01
 51020417, 28.847, 0.518, -0.182, 0.01, 28.842, 0.527, -0.145, 0.01
 51220337, 28.856, 0.503, -0.254, 0.01, 28.847, 0.518, -0.182, 0.01
 51420257, 28.856, 0.52, -0.235, 0.01, 28.856, 0.503, -0.254, 0.01
 51620177, 28.851, 0.509, -0.188, 0.01, 28.856, 0.52, -0.235, 0.01
 51820930, 28.839, 0.486, -0.124, 0.01, 28.851, 0.509, -0.188, 0.01
 52020850, 28.848, 0.48, -0.152, 0.01, 28.839, 0.486, -0.124, 0.01
 52220770, 28.847, 0.474, -0.154, 0.01, 28.848, 0.48, -0.152, 0.01
 52420690, 28.846, 0.491, -0.191, 0.01, 28.847, 0.474, -0.154, 0.01
 52620610, 28.85, 0.514, -0.179, 0.01, 28.846, 0.491, -0.191, 0.01
 52820530, 28.857, 0.495, -0.15, 0.01, 28.85, 0.514, -0.179, 0.01
 53020450, 28.859, 0.498, -0.128, 0.01, 28.857, 0.495, -0.15, 0.01
 53220370, 28.866, 0.503, -0.089, 0.01, 28.859, 0.498, -0.128, 0.01
 53420290, 28.871, 0.504, -0.137, 0.01, 28.866, 0.503, -0.089, 0.01
 53620210, 28.872, 0.512, -0.184, 0.01, 28.871, 0.504, -0.137, 0.01
 53820963, 28.871, 0.525, -0.165, 0.01, 28.872, 0.512, -0.184, 0.01
 54020883, 28.873, 0.512, -0.158, 0.01, 28.871, 0.525, -0.165, 0.01
 54220803, 28.875, 0.501, -0.119, 0.01, 28.873, 0.512, -0.158, 0.01
 54420723, 28.88, 0.497, -0.098, 0.01, 28.875, 0.501, -0.119, 0.01
 54620643, 28.89, 0.509, -0.039, 0.01, 28.88, 0.497, -0.098, 0.01
 54820563, 28.898, 0.536, -0.066, 0.01, 28.89, 0.509, -0.039, 0.01
 55020483, 28.901, 0.532, -0.079, 0.01, 28.898, 0.536, -0.066, 0.01
 55220403, 28.917, 0.5100001, -0.109, 0.01, 28.901, 0.532, -0.079, 0.01
 55420323, 28.929, 0.509, -0.068, 0.01, 28.917, 0.5100001, -0.109, 0.01
 55620243, 28.924, 0.505, -0.1, 0.01, 28.929, 0.509, -0.068, 0.01
 55820163, 28.93, 0.528, -0.06, 0.01, 28.924, 0.505, -0.1, 0.01
 56020916, 28.949, 0.5470001, -0.135, 0.01, 28.93, 0.528, -0.06, 0.01
 56220836, 28.954, 0.5330001, -0.187, 0.01, 28.949, 0.5470001, -0.135, 0.01
 56420756, 28.948, 0.527, -0.119, 0.01, 28.954, 0.5330001, -0.187, 0.01
 56620676, 28.952, 0.521, -0.047, 0.01, 28.948, 0.527, -0.119, 0.01
 56820596, 28.952, 0.541, -0.081, 0.01, 28.952, 0.521, -0.047, 0.01
 57020516, 28.95, 0.559, -0.09, 0.01, 28.952, 0.541, -0.081, 0.01
 57220436, 28.941, 0.563, -0.171, 0.01, 28.95, 0.559, -0.09, 0.01
 57420356, 28.929, 0.58, -0.222, 0.01, 28.941, 0.563, -0.171, 0.01
 57620276, 28.938, 0.561, -0.177, 0.01, 28.929, 0.58, -0.222, 0.01
 57820196, 28.943, 0.545, -0.122, 0.01, 28.938, 0.561, -0.177, 0.01
 58020949, 28.947, 0.5560001, -0.086, 0.01, 28.943, 0.545, -0.122, 0.01
 58220869, 28.959, 0.563, -0.07300001, 0.01, 28.947, 0.5560001, -0.086, 0.01
 58420789, 28.964, 0.5700001, -0.039, 0.01, 28.959, 0.563, -0.07300001, 0.01
 58620709, 28.959, 0.58, -0.126, 0.01, 28.964, 0.5700001, -0.039, 0.01
 58820629, 28.951, 0.572, -0.219, 0.01, 28.959, 0.58, -0.126, 0.01
 59020549, 28.953, 0.586, -0.141, 0.01, 28.951, 0.572, -0.219, 0.01
 59220469, 28.962, 0.618, -0.079, 0.01, 28.953, 0.586, -0.141, 0.01
 59420389, 28.962, 0.625, -0.017, 0.01, 28.962, 0.618, -0.079, 0.01
 59620309, 28.96, 0.631, -0.016, 0.01, 28.962, 0.625, -0.017, 0.01
 59820229, 28.974, 0.631, -0.048, 0.01, 28.96, 0.631, -0.016, 0.01
 60020149, 28.973, 0.6390001, -0.027, 0.01, 28.974, 0.631, -0.048, 0.01
 60220902, 28.968, 0.594, -0.106, 0.01, 28.973, 0.6390001, -0.027, 0.01
 60420822, 28.97, 0.582, -0.142, 0.01, 28.968, 0.594, -0.106, 0.01
 60620742, 28.984, 0.58, -0.066, 0.01, 28.97, 0.582, -0.142, 0.01
 60820662, 28.987, 0.572, -0.035, 0.01, 28.984, 0.58, -0.066, 0.01
 61020582, 28.987, 0.557, -0.072, 0.01, 28.987, 0.572, -0.035, 0.01
 61220502, 28.979, 0.559, -0.052, 0.01, 28.987, 0.557, -0.072, 0.01
 61420422, 28.986, 0.566, -0.06900001, 0.01, 28.979, 0.559, -0.052, 0.01
 61620342, 28.991, 0.549, -0.019, 0.01, 28.986, 0.566, -0.06900001, 0.01
 61820262, 28.992, 0.527, 0.03, 0.01, 28.991, 0.549, -0.019, 0.01
 62020182, 28.989, 0.494, -0.023, 0.01, 28.992, 0.527, 0.03, 0.01
 62220935, 28.977, 0.7, -0.097, 0.01, 28.989, 0.494, -0.023, 0.01
 62420855, 28.944, 1.672, -0.062, 0.01, 28.977, 0.7, -0.097, 0.01
 62620775, 28.893, 3.127, 0.162, 0.01, 28.944, 1.672, -0.062, 0.01
 62820695, 28.813, 5.233, 0.6810001, 0.01, 28.893, 3.127, 0.162, 0.01
 63020615, 28.454, 8.311001, 0.878, 0.01, 28.813, 5.233, 0.6810001, 0.01
 63220535, 27.33, 12.31, 0.355, 0.01, 28.454, 8.311001, 0.878, 0.01
 63420455, 25.507, 16.173, -0.486, 0.01, 27.33, 12.31, 0.355, 0.01
 63620375, 23.522, 19.185, -1.074, 0.01, 25.507, 16.173, -0.486, 0.01
 63820295, 21.606, 21.491, -1.29, 0.01, 23.522, 19.185, -1.074, 0.01
 64020215, 19.667, 23.389, -1.305, 0.01, 21.606, 21.491, -1.29, 0.01
 64220968, 17.609, 25.076, -1.238, 0.01, 19.667, 23.389, -1.305, 0.01
 64420888, 15.374, 26.55, -1.205, 0.01, 17.609, 25.076, -1.238, 0.01
 64620808, 12.919, 27.84, -1.209, 0.01, 15.374, 26.55, -1.205, 0.01
 64820728, 10.385, 28.86, -1.175, 0.01, 12.919, 27.84, -1.209, 0.01
 65020648, 7.828001, 29.625, -1.101, 0.01, 10.385, 28.86, -1.175, 0.01
 65220568, 5.251, 30.16, -1.008, 0.01, 7.828001, 29.625, -1.101, 0.01
 65420488, 2.696, 30.462, -0.897, 0.01, 5.251, 30.16, -1.008, 0.01
 65620408, 0.137, 30.537, -0.784, 0.01, 2.696, 30.462, -0.897, 0.01
 65820328, -2.395, 30.406, -0.664, 0.01, 0.137, 30.537, -0.784, 0.01
 66020248, -4.952, 30.058, -0.576, 0.01, -2.395, 30.406, -0.664, 0.01
 66220168, -7.507, 29.485, -0.524, 0.01, -4.952, 30.058, -0.576, 0.01
 66420921, -9.975, 28.715, -0.449, 0.01, -7.507, 29.485, -0.524, 0.01
 66620841, -12.353, 27.739, -0.396, 0.01, -9.975, 28.715, -0.449, 0.01
 66820761, -14.59, 26.56, -0.374, 0.01, -12.353, 27.739, -0.396, 0.01
 67020681, -16.619, 25.233, -0.358, 0.01, -14.59, 26.56, -0.374, 0.01
 67220601, -18.413, 23.803, -0.296, 0.01, -16.619, 25.233, -0.358, 0.01
 67420521, -20.038, 22.263, -0.24, 0.01, -18.413, 23.803, -0.296, 0.01
 67620441, -21.47, 20.648, -0.204, 0.01, -20.038, 22.263, -0.24, 0.01
 67820361, -22.662, 19.024, -0.174, 0.01, -21.47, 20.648, -0.204, 0.01
 68020281, -23.566, 17.529, -0.051, 0.01, -22.662, 19.024, -0.174, 0.01
 68220201, -24.294, 16.096, 0.07700001, 0.01, -23.566, 17.529, -0.051, 0.01
 68420954, -24.854, 14.773, 0.26, 0.01, -24.294, 16.096, 0.07700001, 0.01
 68620874, -25.352, 13.43, 0.406, 0.01, -24.854, 14.773, 0.26, 0.01
 68820794, -25.744, 12.213, 0.594, 0.01, -25.352, 13.43, 0.406, 0.01
 69020714, -26.099, 11.015, 0.739, 0.01, -25.744, 12.213, 0.594, 0.01
 69220634, -26.389, 9.884001, 0.851, 0.01, -26.099, 11.015, 0.739, 0.01
 69420554, -26.606, 8.888, 1.01, 0.01, -26.389, 9.884001, 0.851, 0.01
 69620474, -26.789, 7.965, 1.161, 0.01, -26.606, 8.888, 1.01, 0.01
 69820394, -26.964, 7.043, 1.255, 0.01, -26.789, 7.965, 1.161, 0.01
 70020314, -27.104, 6.164001, 1.345, 0.01, -26.964, 7.043, 1.255, 0.01
 70220234, -27.232, 5.335, 1.349, 0.01, -27.104, 6.164001, 1.345, 0.01
 70420154, -27.337, 4.561, 1.317, 0.01, -27.232, 5.335, 1.349, 0.01
 70620907, -27.417, 3.851, 1.32, 0.01, -27.337, 4.561, 1.317, 0.01
 70820827, -27.477, 3.196, 1.299, 0.01, -27.417, 3.851, 1.32, 0.01
 71020747, -27.54, 2.591, 1.271, 0.01, -27.477, 3.196, 1.299, 0.01
 71220667, -27.586, 2.057, 1.261, 0.01, -27.54, 2.591, 1.271, 0.01
 71420587, -27.622, 1.593, 1.273, 0.01, -27.586, 2.057, 1.261, 0.01
 71620507, -27.657, 1.08, 1.143, 0.01, -27.622, 1.593, 1.273, 0.01
 71820427, -27.68, 0.6210001, 1.053, 0.01, -27.657, 1.08, 1.143, 0.01
 72020347, -27.711, 0.239, 1.046, 0.01, -27.68, 0.6210001, 1.053, 0.01
 72220267, -27.746, -0.071, 1.029, 0.01, -27.711, 0.239, 1.046, 0.01
 72420187, -27.787, -0.348, 1.025, 0.01, -27.746, -0.071, 1.029, 0.01
 72620940, -27.827, -0.623, 0.9680001, 0.01, -27.787, -0.348, 1.025, 0.01
 72820860, -27.861, -0.8940001, 0.9070001, 0.01, -27.827, -0.623, 0.9680001, 0.01
 73020780, -27.899, -1.147, 0.851, 0.01, -27.861, -0.8940001, 0.9070001, 0.01
 73220700, -27.935, -1.363, 0.827, 0.01, -27.899, -1.147, 0.851, 0.01
 73420620, -27.965, -1.553, 0.7460001, 0.01, -27.935, -1.363, 0.827, 0.01
 73620540, -28.005, -1.726, 0.679, 0.01, -27.965, -1.553, 0.7460001, 0.01
 73820460, -28.034, -1.879, 0.609, 0.01, -28.005, -1.726, 0.679, 0.01
 74020380, -28.057, -2.004, 0.612, 0.01, -28.034, -1.879, 0.609, 0.01
 74220300, -28.077, -2.126, 0.583, 0.01, -28.057, -2.004, 0.612, 0.01
 74420220, -28.088, -2.264, 0.424, 0.01, -28.077, -2.126, 0.583, 0.01
 74620973, -28.091, -2.354, 0.348, 0.01, -28.088, -2.264, 0.424, 0.01
 74820893, -28.1, -2.454, 0.393, 0.01, -28.091, -2.354, 0.348, 0.01
 75020813, -28.121, -2.532, 0.422, 0.01, -28.1, -2.454, 0.393, 0.01
 75220733, -28.131, -2.602, 0.355, 0.01, -28.121, -2.532, 0.422, 0.01
 75420653, -28.138, -2.68, 0.255, 0.01, -28.131, -2.602, 0.355, 0.01
 75620573, -28.143, -2.755, 0.201, 0.01, -28.138, -2.68, 0.255, 0.01
 75820493, -28.145, -2.817, 0.253, 0.01, -28.143, -2.755, 0.201, 0.01
 76020413, -28.154, -2.871, 0.263, 0.01, -28.145, -2.817, 0.253, 0.01
 76220333, -28.171, -2.918, 0.182, 0.01, -28.154, -2.871, 0.263, 0.01
 76420253, -28.185, -2.976, 0.123, 0.01, -28.171, -2.918, 0.182, 0.01
 76620173, -28.206, -2.994, 0.117, 0.01, -28.185, -2.976, 0.123, 0.01
 76820926, -28.22, -3.012, 0.147, 0.01, -28.206, -2.994, 0.117, 0.01
 77020846, -28.236, -3.03, 0.154, 0.01, -28.22, -3.012, 0.147, 0.01
 77220766, -28.252, -3.07, 0.124, 0.01, -28.236, -3.03, 0.154, 0.01
 77420686, -28.274, -3.117, 0.061, 0.01, -28.252, -3.07, 0.124, 0.01
 77620606, -28.29, -3.147, 0.009000001, 0.01, -28.274, -3.117, 0.061, 0.01
 77820526, -28.311, -3.156, -0.029, 0.01, -28.29, -3.147, 0.009000001, 0.01
 78020446, -28.323, -3.182, -0.106, 0.01, -28.311, -3.156, -0.029, 0.01
 78220366, -28.329, -3.212, -0.158, 0.01, -28.323, -3.182, -0.106, 0.01
 78420286, -28.332, -3.237, -0.139, 0.01, -28.329, -3.212, -0.158, 0.01
 78620206, -28.336, -3.258, -0.135, 0.01, -28.332, -3.237, -0.139, 0.01
 78820959, -28.335, -3.282, -0.177, 0.01, -28.336, -3.258, -0.135, 0.01
 79020879, -28.337, -3.32, -0.244, 0.01, -28.335, -3.282, -0.177, 0.01
 79220799, -28.355, -3.344, -0.116, 0.01, -28.337, -3.32, -0.244, 0.01
 79420719, -28.366, -3.371, -0.165, 0.01, -28.355, -3.344, -0.116, 0.01
 79620639, -28.375, -3.397, -0.228, 0.01, -28.366, -3.371, -0.165, 0.01
 79820559, -28.38, -3.426, -0.261, 0.01, -28.375, -3.397, -0.228, 0.01
 80020479, -28.386, -3.462, -0.226, 0.01, -28.38, -3.426, -0.261, 0.01
 80220399, -28.402, -3.472, -0.245, 0.01, -28.386, -3.462, -0.226, 0.01
 80420319, -28.411, -3.487, -0.271, 0.01, -28.402, -3.472, -0.245, 0.01
 80620239, -28.421, -3.524, -0.329, 0.01, -28.411, -3.487, -0.271, 0.01
 80820159, -28.44, -3.562, -0.312, 0.01, -28.421, -3.524, -0.329, 0.01
 81020912, -28.46, -3.582, -0.329, 0.01, -28.44, -3.562, -0.312, 0.01
 81220832, -28.472, -3.595, -0.373, 0.01, -28.46, -3.582, -0.329, 0.01
 81420752, -28.477, -3.617, -0.472, 0.01, -28.472, -3.595, -0.373, 0.01
 81620672, -28.479, -3.618, -0.534, 0.01, -28.477, -3.617, -0.472, 0.01
 81820592, -28.485, -3.644, -0.46, 0.01, -28.479, -3.618, -0.534, 0.01
 82020512, -28.492, -3.654, -0.405, 0.01, -28.485, -3.644, -0.46, 0.01
 82220432, -28.504, -3.653, -0.369, 0.01, -28.492, -3.654, -0.405, 0.01
 82420352, -28.514, -3.66, -0.414, 0.01, -28.504, -3.653, -0.369, 0.01
 82620272, -28.51, -3.67, -0.422, 0.01, -28.514, -3.66, -0.414, 0.01
 82820192, -28.516, -3.682, -0.419, 0.01, -28.51, -3.67, -0.422, 0.01
 83020945, -28.52, -3.711, -0.425, 0.01, -28.516, -3.682, -0.419, 0.01
 83220865, -28.516, -3.74, -0.458, 0.01, -28.52, -3.711, -0.425, 0.01
 83420785, -28.514, -3.764, -0.478, 0.01, -28.516, -3.74, -0.458, 0.01
 83620705, -28.517, -3.776, -0.408, 0.01, -28.514, -3.764, -0.478, 0.01
 83820625, -28.524, -3.766, -0.359, 0.01, -28.517, -3.776, -0.408, 0.01
 84020545, -28.526, -3.766, -0.267, 0.01, -28.524, -3.766, -0.359, 0.01
 84220465, -28.538, -3.77, -0.307, 0.01, -28.526, -3.766, -0.267, 0.01
 84420385, -28.543, -3.776, -0.41, 0.01, -28.538, -3.77, -0.307, 0.01
 84620305, -28.539, -3.77, -0.422, 0.01, -28.543, -3.776, -0.41, 0.01
 84820225, -28.537, -3.782, -0.43, 0.01, -28.539, -3.77, -0.422, 0.01
 85020145, -28.52, -3.785, -0.38, 0.01, -28.537, -3.782, -0.43, 0.01
 85220898, -28.511, -3.808, -0.317, 0.01, -28.52, -3.785, -0.38, 0.01
 85420818, -28.508, -3.829, -0.39, 0.01, -28.511, -3.808, -0.317, 0.01
 85620738, -28.507, -3.818, -0.409, 0.01, -28.508, -3.829, -0.39, 0.01
 85820658, -28.51, -3.831, -0.34, 0.01, -28.507, -3.818, -0.409, 0.01
 86020578, -28.501, -3.857, -0.249, 0.01, -28.51, -3.831, -0.34, 0.01
 86220498, -28.505, -3.874, -0.285, 0.01, -28.501, -3.857, -0.249, 0.01
 86420418, -28.513, -3.881, -0.322, 0.01, -28.505, -3.874, -0.285, 0.01
 86620338, -28.511, -3.878, -0.353, 0.01, -28.513, -3.881, -0.322, 0.01
 86820258, -28.517, -3.88, -0.324, 0.01, -28.511, -3.878, -0.353, 0.01
 87020178, -28.525, -3.884, -0.258, 0.01, -28.517, -3.88, -0.324, 0.01
 87220931, -28.534, -3.88, -0.225, 0.01, -28.525, -3.884, -0.258, 0.01
 87420851, -28.541, -3.884, -0.231, 0.01, -28.534, -3.88, -0.225, 0.01
 87620771, -28.539, -3.886, -0.326, 0.01, -28.541, -3.884, -0.231, 0.01
 87820691, -28.544, -3.876, -0.273, 0.01, -28.539, -3.886, -0.326, 0.01
 88020611, -28.526, -3.871, -0.229, 0.01, -28.544, -3.876, -0.273, 0.01
 88220531, -28.518, -3.88, -0.219, 0.01, -28.526, -3.871, -0.229, 0.01
 88420451, -28.531, -3.881, -0.206, 0.01, -28.518, -3.88, -0.219, 0.01
 88620371, -28.527, -3.892, -0.206, 0.01, -28.531, -3.881, -0.206, 0.01
 88820291, -28.517, -3.882, -0.24, 0.01, -28.527, -3.892, -0.206, 0.01
 89020211, -28.524, -3.875, -0.252, 0.01, -28.517, -3.882, -0.24, 0.01
 89220964, -28.522, -3.876, -0.192, 0.01, -28.524, -3.875, -0.252, 0.01
 89420884, -28.521, -3.87, -0.152, 0.01, -28.522, -3.876, -0.192, 0.01
 89620804, -28.529, -3.87, -0.168, 0.01, -28.521, -3.87, -0.152, 0.01
 89820724, -28.523, -3.853, -0.166, 0.01, -28.529, -3.87, -0.168, 0.01
 90020644, -28.514, -3.865, -0.162, 0.01, -28.523, -3.853, -0.166, 0.01
 90220564, -28.521, -3.865, -0.137, 0.01, -28.514, -3.865, -0.162, 0.01
 90420484, -28.522, -3.85, -0.169, 0.01, -28.521, -3.865, -0.137, 0.01
 90620404, -28.515, -3.839, -0.15, 0.01, -28.522, -3.85, -0.169, 0.01
 90820324, -28.511, -3.834, -0.127, 0.01, -28.515, -3.839, -0.15, 0.01
 91020244, -28.508, -3.828, -0.147, 0.01, -28.511, -3.834, -0.127, 0.01
 91220164, -28.512, -3.827, -0.124, 0.01, -28.508, -3.828, -0.147, 0.01
 91420917, -28.529, -3.817, -0.108, 0.01, -28.512, -3.827, -0.124, 0.01
 91620837, -28.54, -3.809, -0.062, 0.01, -28.529, -3.817, -0.108, 0.01
 91820757, -28.531, -3.824, -0.13, 0.01, -28.54, -3.809, -0.062, 0.01
 92020677, -28.523, -3.832, -0.149, 0.01, -28.531, -3.824, -0.13, 0.01
 92220597, -28.521, -3.831, -0.167, 0.01, -28.523, -3.832, -0.149, 0.01
 92420517, -28.53, -3.83, -0.118, 0.01, -28.521, -3.831, -0.167, 0.01
 92620437, -28.532, -3.816, -0.085, 0.01, -28.53, -3.83, -0.118, 0.01
 92820357, -28.53, -3.79, -0.071, 0.01, -28.532, -3.816, -0.085, 0.01
 93020277, -28.529, -3.814, -0.129, 0.01, -28.53, -3.79, -0.071, 0.01
 93220197, -28.545, -3.802, -0.089, 0.01, -28.529, -3.814, -0.129, 0.01
 93420950, -28.576, -3.647, -0.09900001, 0.01, -28.545, -3.802, -0.089, 0.01
 93620870, -28.623, -3.253, -0.016, 0.01, -28.576, -3.647, -0.09900001, 0.01
 93820790, -28.692, -2.641, 0.019, 0.01, -28.623, -3.253, -0.016, 0.01
 94020710, -28.782, -1.896, -0.014, 0.01, -28.692, -2.641, 0.019, 0.01
 94220630, -28.875, -1.047, -0.009000001, 0.01, -28.782, -1.896, -0.014, 0.01
 94420550, -28.964, -0.074, -0.001, 0.01, -28.875, -1.047, -0.009000001, 0.01
 94620470, -29.026, 1.026, 0.052, 0.01, -28.964, -0.074, -0.001, 0.01
 94820390, -29.078, 2.207, 0.116, 0.01, -29.026, 1.026, 0.052, 0.01
 95020310, -29.062, 3.622, 0.033, 0.01, -29.078, 2.207, 0.116, 0.01
 95220230, -28.968, 5.14, -0.014, 0.01, -29.062, 3.622, 0.033, 0.01
 95420150, -28.757, 6.848001, -0.161, 0.01, -28.968, 5.14, -0.014, 0.01
 95620903, -28.413, 8.648001, -0.283, 0.01, -28.757, 6.848001, -0.161, 0.01
 95820823, -27.91, 10.527, -0.434, 0.01, -28.413, 8.648001, -0.283, 0.01
 96020743, -27.3, 12.284, -0.546, 0.01, -27.91, 10.527, -0.434, 0.01
 96220663, -26.553, 13.985, -0.625, 0.01, -27.3, 12.284, -0.546, 0.01
 96420583, -25.681, 15.607, -0.67, 0.01, -26.553, 13.985, -0.625, 0.01
 96620503, -24.668, 17.165, -0.744, 0.01, -25.681, 15.607, -0.67, 0.01
 96820423, -23.582, 18.593, -0.804, 0.01, -24.668, 17.165, -0.744, 0.01
 97020343, -22.518, 19.797, -0.774, 0.01, -23.582, 18.593, -0.804, 0.01
 97220263, -21.433, 20.866, -0.737, 0.01, -22.518, 19.797, -0.774, 0.01
 97420183, -20.399, 21.756, -0.592, 0.01, -21.433, 20.866, -0.737, 0.01
 97620936, -19.353, 22.562, -0.467, 0.01, -20.399, 21.756, -0.592, 0.01
 97820856, -18.359, 23.247, -0.3, 0.01, -19.353, 22.562, -0.467, 0.01
 98020776, -17.395, 23.837, -0.146, 0.01, -18.359, 23.247, -0.3, 0.01
 98220696, -16.469, 24.355, -0.021, 0.01, -17.395, 23.837, -0.146, 0.01
 98420616, -15.641, 24.774, 0.116, 0.01, -16.469, 24.355, -0.021, 0.01
 98620536, -14.812, 25.165, 0.177, 0.01, -15.641, 24.774, 0.116, 0.01
 98820456, -14.088, 25.46, 0.252, 0.01, -14.812, 25.165, 0.177, 0.01
 99020376, -13.477, 25.685, 0.35, 0.01, -14.088, 25.46, 0.252, 0.01
 99220296, -12.971, 25.867, 0.471, 0.01, -13.477, 25.685, 0.35, 0.01
 99420216, -12.488, 26.049, 0.507, 0.01, -12.971, 25.867, 0.471, 0.01
 99620969, -12.106, 26.184, 0.58, 0.01, -12.488, 26.049, 0.507, 0.01
 99820889, -11.784, 26.286, 0.598, 0.01, -12.106, 26.184, 0.58, 0.01
 100020809, -11.561, 26.358, 0.6210001, 0.01, -11.784, 26.286, 0.598, 0.01
 100220729, -11.408, 26.413, 0.659, 0.01, -11.561, 26.358, 0.6210001, 0.01
 100420649, -11.322, 26.438, 0.677, 0.01, -11.408, 26.413, 0.659, 0.01
 100620569, -11.305, 26.438, 0.656, 0.01, -11.322, 26.438, 0.677, 0.01
 100820489, -11.35, 26.413, 0.55, 0.01, -11.305, 26.438, 0.656, 0.01
 101020409, -11.434, 26.378, 0.494, 0.01, -11.35, 26.413, 0.55, 0.01
 101220329, -11.584, 26.319, 0.54, 0.01, -11.434, 26.378, 0.494, 0.01
 101420249, -11.816, 26.232, 0.569, 0.01, -11.584, 26.319, 0.54, 0.01
 101620169, -12.129, 26.118, 0.583, 0.01, -11.816, 26.232, 0.569, 0.01
 101820922, -12.478, 25.986, 0.516, 0.01, -12.129, 26.118, 0.583, 0.01
 102020842, -12.87, 25.83, 0.421, 0.01, -12.478, 25.986, 0.516, 0.01
 102220762, -13.296, 25.653, 0.325, 0.01, -12.87, 25.83, 0.421, 0.01
 102420682, -13.713, 25.461, 0.351, 0.01, -13.296, 25.653, 0.325, 0.01
 102620602, -14.17, 25.239, 0.399, 0.01, -13.713, 25.461, 0.351, 0.01
 102820522, -14.691, 24.982, 0.354, 0.01, -14.17, 25.239, 0.399, 0.01
 103020442, -15.253, 24.687, 0.284, 0.01, -14.691, 24.982, 0.354, 0.01
 103220362, -15.837, 24.361, 0.201, 0.01, -15.253, 24.687, 0.284, 0.01
 103420282, -16.398, 24.036, 0.141, 0.01, -15.837, 24.361, 0.201, 0.01
 103620202, -16.978, 23.652, 0.09200001, 0.01, -16.398, 24.036, 0.141, 0.01
 103820955, -17.552, 23.245, 0.045, 0.01, -16.978, 23.652, 0.09200001, 0.01
 104020875, -18.149, 22.785, -0.051, 0.01, -17.552, 23.245, 0.045, 0.01
 104220795, -18.701, 22.355, -0.004, 0.01, -18.149, 22.785, -0.051, 0.01
 104420715, -19.265, 21.887, -0.018, 0.01, -18.701, 22.355, -0.004, 0.01
 104620635, -19.844, 21.365, -0.07, 0.01, -19.265, 21.887, -0.018, 0.01
 104820555, -20.382, 20.842, -0.107, 0.01, -19.844, 21.365, -0.07, 0.01
 105020475, -20.921, 20.301, -0.179, 0.01, -20.382, 20.842, -0.107, 0.01
 105220395, -21.438, 19.764, -0.205, 0.01, -20.921, 20.301, -0.179, 0.01
 105420315, -21.913, 19.233, -0.157, 0.01, -21.438, 19.764, -0.205, 0.01
 105620235, -22.383, 18.655, -0.193, 0.01, -21.913, 19.233, -0.157, 0.01
 105820155, -22.85, 18.069, -0.207, 0.01, -22.383, 18.655, -0.193, 0.01
 106020908, -23.278, 17.492, -0.194, 0.01, -22.85, 18.069, -0.207, 0.01
 106220828, -23.689, 16.912, -0.153, 0.01, -23.278, 17.492, -0.194, 0.01
 106420748, -24.092, 16.312, -0.109, 0.01, -23.689, 16.912, -0.153, 0.01
 106620668, -24.501, 15.687, -0.08800001, 0.01, -24.092, 16.312, -0.109, 0.01
 106820588, -24.9, 15.04, -0.119, 0.01, -24.501, 15.687, -0.08800001, 0.01
 107020508, -25.298, 14.388, -0.136, 0.01, -24.9, 15.04, -0.119, 0.01
 107220428, -25.64, 13.769, -0.141, 0.01, -25.298, 14.388, -0.136, 0.01
 107420348, -25.959, 13.146, -0.19, 0.01, -25.64, 13.769, -0.141, 0.01
 107620268, -26.252, 12.524, -0.229, 0.01, -25.959, 13.146, -0.19, 0.01
 107820188, -26.519, 11.894, -0.256, 0.01, -26.252, 12.524, -0.229, 0.01
 108020941, -26.732, 11.333, -0.148, 0.01, -26.519, 11.894, -0.256, 0.01
 108220861, -26.953, 10.748, -0.13, 0.01, -26.732, 11.333, -0.148, 0.01
 108420781, -27.178, 10.081, -0.24, 0.01, -26.953, 10.748, -0.13, 0.01
 108620701, -27.39, 9.453, -0.296, 0.01, -27.178, 10.081, -0.24, 0.01
 108820621, -27.568, 8.915, -0.253, 0.01, -27.39, 9.453, -0.296, 0.01
 109020541, -27.72, 8.388, -0.159, 0.01, -27.568, 8.915, -0.253, 0.01
 109220461, -27.864, 7.858, -0.043, 0.01, -27.72, 8.388, -0.159, 0.01
 109420381, -28.015, 7.288001, -0.072, 0.01, -27.864, 7.858, -0.043, 0.01
 109620301, -28.153, 6.694, -0.09900001, 0.01, -28.015, 7.288001, -0.072, 0.01
 109820221, -28.28, 6.106, -0.123, 0.01, -28.153, 6.694, -0.09900001, 0.01
 110020974, -28.391, 5.523, -0.211, 0.01, -28.28, 6.106, -0.123, 0.01
 110220894, -28.486, 5, -0.176, 0.01, -28.391, 5.523, -0.211, 0.01
 110420814, -28.574, 4.458, -0.158, 0.01, -28.486, 5, -0.176, 0.01
 110620734, -28.645, 3.926, -0.127, 0.01, -28.574, 4.458, -0.158, 0.01
 110820654, -28.707, 3.424, -0.125, 0.01, -28.645, 3.926, -0.127, 0.01
 111020574, -28.76, 2.931, -0.14, 0.01, -28.707, 3.424, -0.125, 0.01
 111220494, -28.799, 2.454, -0.136, 0.01, -28.76, 2.931, -0.14, 0.01
 111420414, -28.84, 1.942, -0.134, 0.01, -28.799, 2.454, -0.136, 0.01
 111620334, -28.852, 1.446, -0.094, 0.01, -28.84, 1.942, -0.134, 0.01
 111820254, -28.86, 0.9440001, -0.111, 0.01, -28.852, 1.446, -0.094, 0.01
 112020174, -28.874, 0.405, -0.147, 0.01, -28.86, 0.9440001, -0.111, 0.01
 112220927, -28.872, -0.07300001, -0.132, 0.01, -28.874, 0.405, -0.147, 0.01
 112420847, -28.862, -0.555, -0.147, 0.01, -28.872, -0.07300001, -0.132, 0.01
 112620767, -28.851, -1.022, -0.14, 0.01, -28.862, -0.555, -0.147, 0.01
 112820687, -28.821, -1.498, -0.08400001, 0.01, -28.851, -1.022, -0.14, 0.01
 113020607, -28.776, -1.986, -0.117, 0.01, -28.821, -1.498, -0.08400001, 0.01
 113220527, -28.726, -2.458, -0.123, 0.01, -28.776, -1.986, -0.117, 0.01
 113420447, -28.685, -2.938, -0.119, 0.01, -28.726, -2.458, -0.123, 0.01
 113620367, -28.627, -3.419, -0.101, 0.01, -28.685, -2.938, -0.119, 0.01
 113820287, -28.568, -3.878, -0.06, 0.01, -28.627, -3.419, -0.101, 0.01
 114020207, -28.51, -4.315, -0.001, 0.01, -28.568, -3.878, -0.06, 0.01
 114220960, -28.429, -4.794, -0.049, 0.01, -28.51, -4.315, -0.001, 0.01
 114420880, -28.35, -5.255, -0.06, 0.01, -28.429, -4.794, -0.049, 0.01
 114620800, -28.274, -5.679, 0.046, 0.01, -28.35, -5.255, -0.06, 0.01
 114820720, -28.18, -6.162, 0.008, 0.01, -28.274, -5.679, 0.046, 0.01
 115020640, -28.086, -6.633, -0.027, 0.01, -28.18, -6.162, 0.008, 0.01
 115220560, -27.985, -7.068, -0.006, 0.01, -28.086, -6.633, -0.027, 0.01
 115420480, -27.889, -7.501, 0.056, 0.01, -27.985, -7.068, -0.006, 0.01
 115620400, -27.778, -7.959001, 0.017, 0.01, -27.889, -7.501, 0.056, 0.01
 115820320, -27.636, -8.459001, -0.04, 0.01, -27.778, -7.959001, 0.017, 0.01
 116020240, -27.491, -8.931001, -0.05, 0.01, -27.636, -8.459001, -0.04, 0.01
 116220160, -27.336, -9.341001, -0.015, 0.01, -27.491, -8.931001, -0.05, 0.01
 116420913, -27.185, -9.762, 0.044, 0.01, -27.336, -9.341001, -0.015, 0.01
 116620833, -27.026, -10.208, 0.09, 0.01, -27.185, -9.762, 0.044, 0.01
 116820753, -26.867, -10.65, 0.125, 0.01, -27.026, -10.208, 0.09, 0.01
 117020673, -26.704, -11.099, 0.09900001, 0.01, -26.867, -10.65, 0.125, 0.01
 117220593, -26.52, -11.557, 0.03, 0.01, -26.704, -11.099, 0.09900001, 0.01
 117420513, -26.308, -12.014, -0.016, 0.01, -26.52, -11.557, 0.03, 0.01
 117620433, -26.084, -12.469, -0.058, 0.01, -26.308, -12.014, -0.016, 0.01
 117820353, -25.881, -12.882, -0.018, 0.01, -26.084, -12.469, -0.058, 0.01
 118020273, -25.665, -13.311, -0.031, 0.01, -25.881, -12.882, -0.018, 0.01
 118220193, -25.431, -13.733, -0.004, 0.01, -25.665, -13.311, -0.031, 0.01
 118420946, -25.19, -14.156, -0.016, 0.01, -25.431, -13.733, -0.004, 0.01
 118620866, -24.969, -14.557, 0.059, 0.01, -25.19, -14.156, -0.016, 0.01
 118820786, -24.74, -14.964, 0.063, 0.01, -24.969, -14.557, 0.059, 0.01
 119020706, -24.486, -15.39, 0.008, 0.01, -24.74, -14.964, 0.063, 0.01
 119220626, -24.222, -15.813, -0.018, 0.01, -24.486, -15.39, 0.008, 0.01
 119420546, -23.942, -16.233, -0.024, 0.01, -24.222, -15.813, -0.018, 0.01
 119620466, -23.674, -16.623, -0.038, 0.01, -23.942, -16.233, -0.024, 0.01
 119820386, -23.411, -16.995, 0.013, 0.01, -23.674, -16.623, -0.038, 0.01
 120020306, -23.14, -17.382, 0.042, 0.01, -23.411, -16.995, 0.013, 0.01
 120220226, -22.848, -17.77, 0.074, 0.01, -23.14, -17.382, 0.042, 0.01
 120420146, -22.565, -18.143, 0.132, 0.01, -22.848, -17.77, 0.074, 0.01
 120620899, -22.254, -18.54, 0.131, 0.01, -22.565, -18.143, 0.132, 0.01
 120820819, -21.926, -18.929, 0.079, 0.01, -22.254, -18.54, 0.131, 0.01
 121020739, -21.575, -19.319, 0.017, 0.01, -21.926, -18.929, 0.079, 0.01
 121220659, -21.232, -19.685, -0.001, 0.01, -21.575, -19.319, 0.017, 0.01
 121420579, -20.904, -20.028, -0.031, 0.01, -21.232, -19.685, -0.001, 0.01
 121620499, -20.572, -20.362, -0.023, 0.01, -20.904, -20.028, -0.031, 0.01
 121820419, -20.235, -20.693, 0.058, 0.01, -20.572, -20.362, -0.023, 0.01
 122020339, -19.887, -21.035, 0.102, 0.01, -20.235, -20.693, 0.058, 0.01
 122220259, -19.52, -21.385, 0.07300001, 0.01, -19.887, -21.035, 0.102, 0.01
 122420179, -19.135, -21.727, -0.01, 0.01, -19.52, -21.385, 0.07300001, 0.01
 122620932, -18.751, -22.062, -0.022, 0.01, -19.135, -21.727, -0.01, 0.01
 122820852, -18.358, -22.378, -0.086, 0.01, -18.751, -22.062, -0.022, 0.01
 123020772, -17.99, -22.674, -0.038, 0.01, -18.358, -22.378, -0.086, 0.01
 123220692, -17.608, -22.963, -0.045, 0.01, -17.99, -22.674, -0.038, 0.01
 123420612, -17.231, -23.249, -0.007, 0.01, -17.608, -22.963, -0.045, 0.01
 123620532, -16.831, -23.548, 0.021, 0.01, -17.231, -23.249, -0.007, 0.01
 123820452, -16.407, -23.832, -0.063, 0.01, -16.831, -23.548, 0.021, 0.01
 124020372, -16.018, -24.094, -0.061, 0.01, -16.407, -23.832, -0.063, 0.01
 124220292, -15.634, -24.34, 0.01, 0.01, -16.018, -24.094, -0.061, 0.01
 124420212, -15.24, -24.594, 0.045, 0.01, -15.634, -24.34, 0.01, 0.01
 124620965, -14.837, -24.842, 0.066, 0.01, -15.24, -24.594, 0.045, 0.01
 124820885, -14.413, -25.102, 0.08400001, 0.01, -14.837, -24.842, 0.066, 0.01
 125020805, -14.008, -25.337, 0.09900001, 0.01, -14.413, -25.102, 0.08400001, 0.01
 125220725, -13.564, -25.583, 0.063, 0.01, -14.008, -25.337, 0.09900001, 0.01
 125420645, -13.116, -25.821, 0, 0.01, -13.564, -25.583, 0.063, 0.01
 125620565, -12.675, -26.042, -0.046, 0.01, -13.116, -25.821, 0, 0.01
 125820485, -12.274, -26.235, 0.039, 0.01, -12.675, -26.042, -0.046, 0.01
 126020405, -11.844, -26.436, 0.125, 0.01, -12.274, -26.235, 0.039, 0.01
 126220325, -11.357, -26.652, 0.054, 0.01, -11.844, -26.436, 0.125, 0.01
 126420245, -10.884, -26.862, 0.008, 0.01, -11.357, -26.652, 0.054, 0.01
 126620165, -10.442, -27.046, -0.006, 0.01, -10.884, -26.862, 0.008, 0.01
 126820918, -10, -27.211, -0.024, 0.01, -10.442, -27.046, -0.006, 0.01
 127020838, -9.546, -27.367, 0.007, 0.01, -10, -27.211, -0.024, 0.01
 127220758, -9.084001, -27.528, 0.096, 0.01, -9.546, -27.367, 0.007, 0.01
 127420678, -8.583, -27.695, 0.093, 0.01, -9.084001, -27.528, 0.096, 0.01
 127620598, -8.078, -27.84, 0.013, 0.01, -8.583, -27.695, 0.093, 0.01
 127820518, -7.609, -27.967, -0.007, 0.01, -8.078, -27.84, 0.013, 0.01
 128020438, -7.108, -28.096, -0.001, 0.01, -7.609, -27.967, -0.007, 0.01
 128220358, -6.626, -28.222, 0.001, 0.01, -7.108, -28.096, -0.001, 0.01
 128420278, -6.17, -28.338, 0.03, 0.01, -6.626, -28.222, 0.001, 0.01
 128620198, -5.684, -28.441, 0.06900001, 0.01, -6.17, -28.338, 0.03, 0.01
 128820951, -5.199, -28.535, 0.098, 0.01, -5.684, -28.441, 0.06900001, 0.01
 129020871, -4.677, -28.616, -0.026, 0.01, -5.199, -28.535, 0.098, 0.01
 129220791, -4.165, -28.69, -0.114, 0.01, -4.677, -28.616, -0.026, 0.01
 129420711, -3.714, -28.757, -0.059, 0.01, -4.165, -28.69, -0.114, 0.01
 129620631, -3.27, -28.813, 0.008, 0.01, -3.714, -28.757, -0.059, 0.01
 129820551, -2.813, -28.863, 0.04, 0.01, -3.27, -28.813, 0.008, 0.01
 130020471, -2.318, -28.904, 0.06500001, 0.01, -2.813, -28.863, 0.04, 0.01
 130220391, -1.78, -28.935, -0.018, 0.01, -2.318, -28.904, 0.06500001, 0.01
 130420311, -1.246, -28.952, -0.08800001, 0.01, -1.78, -28.935, -0.018, 0.01
 130620231, -0.776, -28.973, -0.026, 0.01, -1.246, -28.952, -0.08800001, 0.01
 130820151, -0.317, -28.998, 0.013, 0.01, -0.776, -28.973, -0.026, 0.01
 131020904, 0.15, -28.993, 0.013, 0.01, -0.317, -28.998, 0.013, 0.01
 131220824, 0.617, -28.98, 0.021, 0.01, 0.15, -28.993, 0.013, 0.01
 131420744, 1.117, -28.979, 0.032, 0.01, 0.617, -28.98, 0.021, 0.01
 131620664, 1.635, -28.957, 0.006, 0.01, 1.117, -28.979, 0.032, 0.01
 131820584, 2.12, -28.916, 0.014, 0.01, 1.635, -28.957, 0.006, 0.01
 132020504, 2.581, -28.877, 0.041, 0.01, 2.12, -28.916, 0.014, 0.01
 132220424, 3.036, -28.831, 0.075, 0.01, 2.581, -28.877, 0.041, 0.01
 132420344, 3.534, -28.766, 0, 0.01, 3.036, -28.831, 0.075, 0.01
 132620264, 4.046, -28.692, -0.051, 0.01, 3.534, -28.766, 0, 0.01
 132820184, 4.556, -28.631, -0.068, 0.01, 4.046, -28.692, -0.051, 0.01
 133020937, 5.009, -28.559, 0, 0.01, 4.556, -28.631, -0.068, 0.01
 133220857, 5.468, -28.471, 0.025, 0.01, 5.009, -28.559, 0, 0.01
 133420777, 5.967, -28.365, -0.008, 0.01, 5.468, -28.471, 0.025, 0.01
 133620697, 6.440001, -28.254, 0.013, 0.01, 5.967, -28.365, -0.008, 0.01
 133820617, 6.914001, -28.138, 0.015, 0.01, 6.440001, -28.254, 0.013, 0.01
 134020537, 7.386, -28.028, 0.017, 0.01, 6.914001, -28.138, 0.015, 0.01
 134220457, 7.866, -27.914, -0.002, 0.01, 7.386, -28.028, 0.017, 0.01
 134420377, 8.334001, -27.791, 0.001, 0.01, 7.866, -27.914, -0.002, 0.01
 134620297, 8.811001, -27.658, 0.026, 0.01, 8.334001, -27.791, 0.001, 0.01
 134820217, 9.263, -27.513, 0.043, 0.01, 8.811001, -27.658, 0.026, 0.01
 135020970, 9.755, -27.346, 0.006, 0.01, 9.263, -27.513, 0.043, 0.01
 135220890, 10.239, -27.182, -0.014, 0.01, 9.755, -27.346, 0.006, 0.01
 135420810, 10.704, -27.003, -0.029, 0.01, 10.239, -27.182, -0.014, 0.01
 135620730, 11.175, -26.807, -0.09100001, 0.01, 10.704, -27.003, -0.029, 0.01
 135820650, 11.625, -26.609, -0.09200001, 0.01, 11.175, -26.807, -0.09100001, 0.01
 136020570, 12.051, -26.416, -0.042, 0.01, 11.625, -26.609, -0.09200001, 0.01
 136220490, 12.475, -26.202, -0.025, 0.01, 12.051, -26.416, -0.042, 0.01
 136420410, 12.918, -25.975, -0.037, 0.01, 12.475, -26.202, -0.025, 0.01
 136620330, 13.332, -25.777, 0.05, 0.01, 12.918, -25.975, -0.037, 0.01
 136820250, 13.764, -25.55, 0.089, 0.01, 13.332, -25.777, 0.05, 0.01
 137020170, 14.231, -25.296, 0.06, 0.01, 13.764, -25.55, 0.089, 0.01
 137220923, 14.71, -25.039, 0.002, 0.01, 14.231, -25.296, 0.06, 0.01
 137420843, 15.125, -24.803, 0.014, 0.01, 14.71, -25.039, 0.002, 0.01
 137620763, 15.509, -24.578, 0.06500001, 0.01, 15.125, -24.803, 0.014, 0.01
 137820683, 15.922, -24.308, 0.054, 0.01, 15.509, -24.578, 0.06500001, 0.01
 138020603, 16.364, -24.009, -0.026, 0.01, 15.922, -24.308, 0.054, 0.01
 138220523, 16.798, -23.722, -0.059, 0.01, 16.364, -24.009, -0.026, 0.01
 138420443, 17.202, -23.432, -0.07600001, 0.01, 16.798, -23.722, -0.059, 0.01
 138620363, 17.578, -23.156, -0.058, 0.01, 17.202, -23.432, -0.07600001, 0.01
 138820283, 17.931, -22.872, -0.011, 0.01, 17.578, -23.156, -0.058, 0.01
 139020203, 18.306, -22.549, -0.068, 0.01, 17.931, -22.872, -0.011, 0.01
 139220956, 18.67, -22.228, -0.017, 0.01, 18.306, -22.549, -0.068, 0.01
 139420876, 19.032, -21.912, 0.082, 0.01, 18.67, -22.228, -0.017, 0.01
 139620796, 19.415, -21.573, 0.022, 0.01, 19.032, -21.912, 0.082, 0.01
 139820716, 19.817, -21.215, -0.045, 0.01, 19.415, -21.573, 0.022, 0.01
 140020636, 20.179, -20.871, -0.074, 0.01, 19.817, -21.215, -0.045, 0.01
 140220556, 20.516, -20.544, -0.057, 0.01, 20.179, -20.871, -0.074, 0.01
 140420476, 20.84, -20.222, 0.002, 0.01, 20.516, -20.544, -0.057, 0.01
 140620396, 21.189, -19.88, 0.071, 0.01, 20.84, -20.222, 0.002, 0.01
 140820316, 21.526, -19.515, 0.08400001, 0.01, 21.189, -19.88, 0.071, 0.01
 141020236, 21.843, -19.144, 0.098, 0.01, 21.526, -19.515, 0.08400001, 0.01
 141220156, 22.182, -18.729, -0.004, 0.01, 21.843, -19.144, 0.098, 0.01
 141420909, 22.512, -18.342, -0.047, 0.01, 22.182, -18.729, -0.004, 0.01
 141620829, 22.808, -17.984, -0.027, 0.01, 22.512, -18.342, -0.047, 0.01
 141820749, 23.091, -17.617, 0.02, 0.01, 22.808, -17.984, -0.027, 0.01
 142020669, 23.372, -17.222, 0.031, 0.01, 23.091, -17.617, 0.02, 0.01
 142220589, 23.669, -16.825, 0.005, 0.01, 23.372, -17.222, 0.031, 0.01
 142420509, 23.959, -16.432, 0.032, 0.01, 23.669, -16.825, 0.005, 0.01
 142620429, 24.241, -16.033, 0.07700001, 0.01, 23.959, -16.432, 0.032, 0.01
 142820349, 24.523, -15.617, 0.066, 0.01, 24.241, -16.033, 0.07700001, 0.01
 143020269, 24.805, -15.18, 0.015, 0.01, 24.523, -15.617, 0.066, 0.01
 143220189, 25.079, -14.741, 0.002, 0.01, 24.805, -15.18, 0.015, 0.01
 143420942, 25.328, -14.296, -0.009000001, 0.01, 25.079, -14.741, 0.002, 0.01
 143620862, 25.536, -13.878, -0.015, 0.01, 25.328, -14.296, -0.009000001, 0.01
 143820782, 25.76, -13.422, -0.044, 0.01, 25.536, -13.878, -0.015, 0.01
 144020702, 25.965, -12.981, -0.036, 0.01, 25.76, -13.422, -0.044, 0.01
 144220622, 26.181, -12.531, 0.001, 0.01, 25.965, -12.981, -0.036, 0.01
 144420542, 26.401, -12.083, -0.02, 0.01, 26.181, -12.531, 0.001, 0.01
 144620462, 26.619, -11.622, -0.041, 0.01, 26.401, -12.083, -0.02, 0.01
 144820382, 26.815, -11.161, 0.005, 0.01, 26.619, -11.622, -0.041, 0.01
 145020302, 27.013, -10.71, 0.022, 0.01, 26.815, -11.161, 0.005, 0.01
 145220222, 27.193, -10.268, 0.026, 0.01, 27.013, -10.71, 0.022, 0.01
 145420975, 27.367, -9.812, 0.014, 0.01, 27.193, -10.268, 0.026, 0.01
 145620895, 27.538, -9.358001, 0.063, 0.01, 27.367, -9.812, 0.014, 0.01
 145820815, 27.684, -8.913, 0.102, 0.01, 27.538, -9.358001, 0.063, 0.01
 146020735, 27.835, -8.435, 0.085, 0.01, 27.684, -8.913, 0.102, 0.01
 146220655, 27.977, -7.961, 0.059, 0.01, 27.835, -8.435, 0.085, 0.01
 146420575, 28.113, -7.492001, 0.096, 0.01, 27.977, -7.961, 0.059, 0.01
 146620495, 28.259, -6.981, 0.101, 0.01, 28.113, -7.492001, 0.096, 0.01
 146820415, 28.384, -6.501, 0.06500001, 0.01, 28.259, -6.981, 0.101, 0.01
 147020335, 28.49, -6.044, 0.07, 0.01, 28.384, -6.501, 0.06500001, 0.01
 147220255, 28.596, -5.566, 0.064, 0.01, 28.49, -6.044, 0.07, 0.01
 147420175, 28.686, -5.076, 0.008, 0.01, 28.596, -5.566, 0.064, 0.01
 147620928, 28.768, -4.591, 0.009000001, 0.01, 28.686, -5.076, 0.008, 0.01
 147820848, 28.838, -4.11, -0.027, 0.01, 28.768, -4.591, 0.009000001, 0.01
 148020768, 28.899, -3.629, -0.024, 0.01, 28.838, -4.11, -0.027, 0.01
 148220688, 28.955, -3.159, 0.021, 0.01, 28.899, -3.629, -0.024, 0.01
 148420608, 28.996, -2.672, 0.013, 0.01, 28.955, -3.159, 0.021, 0.01
 148620528, 29.028, -2.183, 0.051, 0.01, 28.996, -2.672, 0.013, 0.01
 148820448, 29.065, -1.693, -0.011, 0.01, 29.028, -2.183, 0.051, 0.01
 149020368, 29.092, -1.232, 0.049, 0.01, 29.065, -1.693, -0.011, 0.01
 149220288, 29.106, -0.7410001, 0.096, 0.01, 29.092, -1.232, 0.049, 0.01
 149420208, 29.111, -0.223, 0.032, 0.01, 29.106, -0.7410001, 0.096, 0.01
 149620961, 29.111, 0.281, 0.015, 0.01, 29.111, -0.223, 0.032, 0.01
 149820881, 29.106, 0.763, 0.004, 0.01, 29.111, 0.281, 0.015, 0.01
 150020801, 29.093, 1.217, 0.019, 0.01, 29.106, 0.763, 0.004, 0.01
 150220721, 29.071, 1.704, 0.013, 0.01, 29.093, 1.217, 0.019, 0.01
 150420641, 29.036, 2.23, -0.009000001, 0.01, 29.071, 1.704, 0.013, 0.01
 150620561, 28.993, 2.72, 0.008, 0.01, 29.036, 2.23, -0.009000001, 0.01
 150820481, 28.948, 3.207, 0.021, 0.01, 28.993, 2.72, 0.008, 0.01
 151020401, 28.888, 3.722, -0.001, 0.01, 28.948, 3.207, 0.021, 0.01
 151220321, 28.816, 4.23, 0.01, 0.01, 28.888, 3.722, -0.001, 0.01
 151420241, 28.74, 4.723, 0.008, 0.01, 28.816, 4.23, 0.01, 0.01
 151620161, 28.655, 5.221, -0.016, 0.01, 28.74, 4.723, 0.008, 0.01
 151820914, 28.559, 5.696, 0.005, 0.01, 28.655, 5.221, -0.016, 0.01
 152020834, 28.454, 6.175, 0.013, 0.01, 28.559, 5.696, 0.005, 0.01
 152220754, 28.357, 6.647, 0.025, 0.01, 28.454, 6.175, 0.013, 0.01
 152420674, 28.239, 7.131001, 0.064, 0.01, 28.357, 6.647, 0.025, 0.01
 152620594, 28.122, 7.599, 0.026, 0.01, 28.239, 7.131001, 0.064, 0.01
 152820514, 27.995, 8.064, 0.06, 0.01, 28.122, 7.599, 0.026, 0.01
 153020434, 27.86, 8.543, 0.086, 0.01, 27.995, 8.064, 0.06, 0.01
 153220354, 27.707, 9.032001, 0.068, 0.01, 27.86, 8.543, 0.086, 0.01
 153420274, 27.547, 9.514001, 0.105, 0.01, 27.707, 9.032001, 0.068, 0.01
 153620194, 27.382, 9.988001, 0.123, 0.01, 27.547, 9.514001, 0.105, 0.01
 153820947, 27.201, 10.47, 0.066, 0.01, 27.382, 9.988001, 0.123, 0.01
 154020867, 27.009, 10.974, 0, 0.01, 27.201, 10.47, 0.066, 0.01
 154220787, 26.833, 11.427, 0.07300001, 0.01, 27.009, 10.974, 0, 0.01
 154420707, 26.618, 11.933, 0.003, 0.01, 26.833, 11.427, 0.07300001, 0.01
 154620627, 26.386, 12.418, -0.04, 0.01, 26.618, 11.933, 0.003, 0.01
 154820547, 26.157, 12.875, -0.044, 0.01, 26.386, 12.418, -0.04, 0.01
 155020467, 25.946, 13.279, -0.047, 0.01, 26.157, 12.875, -0.044, 0.01
 155220387, 25.733, 13.687, -0.003, 0.01, 25.946, 13.279, -0.047, 0.01
 155420307, 25.5, 14.108, 0.02, 0.01, 25.733, 13.687, -0.003, 0.01
 155620227, 25.251, 14.548, 0.024, 0.01, 25.5, 14.108, 0.02, 0.01
 155820147, 24.982, 14.996, -0.013, 0.01, 25.251, 14.548, 0.024, 0.01
 156020900, 24.695, 15.459, -0.102, 0.01, 24.982, 14.996, -0.013, 0.01
 156220820, 24.44, 15.881, -0.101, 0.01, 24.695, 15.459, -0.102, 0.01
 156420740, 24.167, 16.29, -0.087, 0.01, 24.44, 15.881, -0.101, 0.01
 156620660, 23.907, 16.668, -0.041, 0.01, 24.167, 16.29, -0.087, 0.01
 156820580, 23.632, 17.045, -0.02, 0.01, 23.907, 16.668, -0.041, 0.01
 157020500, 23.343, 17.445, 0.016, 0.01, 23.632, 17.045, -0.02, 0.01
 157220420, 23.048, 17.852, 0.012, 0.01, 23.343, 17.445, 0.016, 0.01
 157420340, 22.754, 18.229, 0.03, 0.01, 23.048, 17.852, 0.012, 0.01
 157620260, 22.451, 18.6, 0.063, 0.01, 22.754, 18.229, 0.03, 0.01
 157820180, 22.135, 18.989, 0.019, 0.01, 22.451, 18.6, 0.063, 0.01
 158020933, 21.807, 19.386, 0.012, 0.01, 22.135, 18.989, 0.019, 0.01
 158220853, 21.461, 19.755, -0.019, 0.01, 21.807, 19.386, 0.012, 0.01
 158420773, 21.136, 20.1, 0.006, 0.01, 21.461, 19.755, -0.019, 0.01
 158620693, 20.803, 20.452, 0.041, 0.01, 21.136, 20.1, 0.006, 0.01
 158820613, 20.446, 20.805, -0.001, 0.01, 20.803, 20.452, 0.041, 0.01
 159020533, 20.1, 21.137, 0.037, 0.01, 20.446, 20.805, -0.001, 0.01
 159220453, 19.736, 21.482, -0.019, 0.01, 20.1, 21.137, 0.037, 0.01
 159420373, 19.344, 21.818, -0.121, 0.01, 19.736, 21.482, -0.019, 0.01
 159620293, 18.986, 22.114, -0.063, 0.01, 19.344, 21.818, -0.121, 0.01
 159820213, 18.607, 22.429, -0.012, 0.01, 18.986, 22.114, -0.063, 0.01
 160020966, 18.224, 22.737, -0.017, 0.01, 18.607, 22.429, -0.012, 0.01
 160220886, 17.831, 23.049, -0.024, 0.01, 18.224, 22.737, -0.017, 0.01
 160420806, 17.452, 23.347, -0.001, 0.01, 17.831, 23.049, -0.024, 0.01
 160620726, 17.06, 23.639, 0.002, 0.01, 17.452, 23.347, -0.001, 0.01
 160820646, 16.646, 23.924, -0.032, 0.01, 17.06, 23.639, 0.002, 0.01
 161020566, 16.21, 24.214, -0.12, 0.01, 16.646, 23.924, -0.032, 0.01
 161220486, 15.798, 24.493, -0.071, 0.01, 16.21, 24.214, -0.12, 0.01
 161420406, 15.408, 24.744, -0.003, 0.01, 15.798, 24.493, -0.071, 0.01
 161620326, 15.01, 24.998, 0.059, 0.01, 15.408, 24.744, -0.003, 0.01
 161820246, 14.593, 25.248, 0.043, 0.01, 15.01, 24.998, 0.059, 0.01
 162020166, 14.162, 25.496, 0.05, 0.01, 14.593, 25.248, 0.043, 0.01
 162220919, 13.702, 25.748, 0.029, 0.01, 14.162, 25.496, 0.05, 0.01
 162420839, 13.237, 25.992, 0.049, 0.01, 13.702, 25.748, 0.029, 0.01
 162620759, 12.772, 26.217, -0.016, 0.01, 13.237, 25.992, 0.049, 0.01
 162820679, 12.315, 26.418, -0.07600001, 0.01, 12.772, 26.217, -0.016, 0.01
 163020599, 11.864, 26.627, -0.086, 0.01, 12.315, 26.418, -0.07600001, 0.01
 163220519, 11.445, 26.817, 0.016, 0.01, 11.864, 26.627, -0.086, 0.01
 163420439, 10.996, 27.006, 0.015, 0.01, 11.445, 26.817, 0.016, 0.01
 163620359, 10.489, 27.201, -0.025, 0.01, 10.996, 27.006, 0.015, 0.01
 163820279, 10.023, 27.368, -0.02, 0.01, 10.489, 27.201, -0.025, 0.01
 164020199, 9.575001, 27.539, -0.008, 0.01, 10.023, 27.368, -0.02, 0.01
 164220952, 9.092, 27.705, -0.019, 0.01, 9.575001, 27.539, -0.008, 0.01
 164420872, 8.631001, 27.847, 0.015, 0.01, 9.092, 27.705, -0.019, 0.01
 164620792, 8.155001, 27.988, 0.041, 0.01, 8.631001, 27.847, 0.015, 0.01
 164820712, 7.682, 28.119, -0.002, 0.01, 8.155001, 27.988, 0.041, 0.01
 165020632, 7.188, 28.239, -0.066, 0.01, 7.682, 28.119, -0.002, 0.01
 165220552, 6.690001, 28.355, -0.085, 0.01, 7.188, 28.239, -0.066, 0.01
 165420472, 6.208, 28.461, -0.053, 0.01, 6.690001, 28.355, -0.085, 0.01
 165620392, 5.721, 28.562, -0.026, 0.01, 6.208, 28.461, -0.053, 0.01
 165820312, 5.238, 28.657, 0, 0.01, 5.721, 28.562, -0.026, 0.01
 166020232, 4.744, 28.741, -0.032, 0.01, 5.238, 28.657, 0, 0.01
 166220152, 4.264, 28.819, -0.011, 0.01, 4.744, 28.741, -0.032, 0.01
 166420905, 3.764, 28.89, -0.074, 0.01, 4.264, 28.819, -0.011, 0.01
 166620825, 3.281, 28.958, -0.035, 0.01, 3.764, 28.89, -0.074, 0.01
 166820745, 2.815, 29.005, -0.041, 0.01, 3.281, 28.958, -0.035, 0.01
 167020665, 2.35, 29.037, -0.038, 0.01, 2.815, 29.005, -0.041, 0.01
 167220585, 1.852, 29.07, 0.033, 0.01, 2.35, 29.037, -0.038, 0.01
 167420505, 1.336, 29.102, 0.023, 0.01, 1.852, 29.07, 0.033, 0.01
 167620425, 0.8190001, 29.138, -0.013, 0.01, 1.336, 29.102, 0.023, 0.01
 167820345, 0.352, 29.156, 0.028, 0.01, 0.8190001, 29.138, -0.013, 0.01
 168020265, -0.139, 29.156, 0.013, 0.01, 0.352, 29.156, 0.028, 0.01
 168220185, -0.622, 29.158, -0.021, 0.01, -0.139, 29.156, 0.013, 0.01
 168420938, -1.117, 29.142, -0.012, 0.01, -0.622, 29.158, -0.021, 0.01
 168620858, -1.617, 29.129, 0.048, 0.01, -1.117, 29.142, -0.012, 0.01
 168820778, -2.126, 29.096, 0.068, 0.01, -1.617, 29.129, 0.048, 0.01
 169020698, -2.63, 29.048, 0.036, 0.01, -2.126, 29.096, 0.068, 0.01
 169220618, -3.137, 28.991, -0.011, 0.01, -2.63, 29.048, 0.036, 0.01
 169420538, -3.664, 28.935, -0.074, 0.01, -3.137, 28.991, -0.011, 0.01
 169620458, -4.171, 28.861, -0.111, 0.01, -3.664, 28.935, -0.074, 0.01
 169820378, -4.66, 28.775, -0.08800001, 0.01, -4.171, 28.861, -0.111, 0.01
 170020298, -5.153, 28.681, -0.07, 0.01, -4.66, 28.775, -0.08800001, 0.01
 170220218, -5.626, 28.582, -0.06500001, 0.01, -5.153, 28.681, -0.07, 0.01
 170420971, -6.101, 28.48, -0.033, 0.01, -5.626, 28.582, -0.06500001, 0.01
 170620891, -6.569, 28.379, 0.01, 0.01, -6.101, 28.48, -0.033, 0.01
 170820811, -7.05, 28.258, -0.004, 0.01, -6.569, 28.379, 0.01, 0.01
 171020731, -7.55, 28.125, -0.044, 0.01, -7.05, 28.258, -0.004, 0.01
 171220651, -8.044001, 27.981, -0.066, 0.01, -7.55, 28.125, -0.044, 0.01
 171420571, -8.491, 27.849, 0.021, 0.01, -8.044001, 27.981, -0.066, 0.01
 171620491, -8.979, 27.698, -0.027, 0.01, -8.491, 27.849, 0.021, 0.01
 171820411, -9.426001, 27.549, -0.005, 0.01, -8.979, 27.698, -0.027, 0.01
 172020331, -9.901, 27.381, 0.021, 0.01, -9.426001, 27.549, -0.005, 0.01
 172220251, -10.405, 27.195, -0.063, 0.01, -9.901, 27.381, 0.021, 0.01
 172420171, -10.862, 27.021, -0.019, 0.01, -10.405, 27.195, -0.063, 0.01
 172620924, -11.329, 26.832, 0.014, 0.01, -10.862, 27.021, -0.019, 0.01
 172820844, -11.795, 26.635, -0.035, 0.01, -11.329, 26.832, 0.014, 0.01
 173020764, -12.238, 26.43, -0.104, 0.01, -11.795, 26.635, -0.035, 0.01
 173220684, -12.657, 26.219, -0.067, 0.01, -12.238, 26.43, -0.104, 0.01
 173420604, -13.081, 26.01, -0.036, 0.01, -12.657, 26.219, -0.067, 0.01
 173620524, -13.501, 25.797, 0.017, 0.01, -13.081, 26.01, -0.036, 0.01
 173820444, -13.918, 25.582, 0.064, 0.01, -13.501, 25.797, 0.017, 0.01
 174020364, -14.367, 25.337, -0.019, 0.01, -13.918, 25.582, 0.064, 0.01
 174220284, -14.823, 25.074, -0.051, 0.01, -14.367, 25.337, -0.019, 0.01
 174420204, -15.251, 24.815, -0.042, 0.01, -14.823, 25.074, -0.051, 0.01
 174620957, -15.654, 24.563, 0.012, 0.01, -15.251, 24.815, -0.042, 0.01
 174820877, -16.068, 24.293, 0.013, 0.01, -15.654, 24.563, 0.012, 0.01
 175020797, -16.483, 24.009, -0.063, 0.01, -16.068, 24.293, 0.013, 0.01
 175220717, -16.864, 23.74, -0.015, 0.01, -16.483, 24.009, -0.063, 0.01
 175420637, -17.254, 23.463, 0.014, 0.01, -16.864, 23.74, -0.015, 0.01
 175620557, -17.661, 23.159, 0.005, 0.01, -17.254, 23.463, 0.014, 0.01
 175820477, -18.059, 22.856, -0.02, 0.01, -17.661, 23.159, 0.005, 0.01
 176020397, -18.442, 22.546, 0.004, 0.01, -18.059, 22.856, -0.02, 0.01
 176220317, -18.812, 22.241, 0.034, 0.01, -18.442, 22.546, 0.004, 0.01
 176420237, -19.203, 21.901, -0.016, 0.01, -18.812, 22.241, 0.034, 0.01
 176620157, -19.576, 21.558, -0.083, 0.01, -19.203, 21.901, -0.016, 0.01
 176820910, -19.953, 21.211, -0.089, 0.01, -19.576, 21.558, -0.083, 0.01
 177020830, -20.281, 20.894, -0.018, 0.01, -19.953, 21.211, -0.089, 0.01
 177220750, -20.626, 20.553, -0.03, 0.01, -20.281, 20.894, -0.018, 0.01
 177420670, -20.969, 20.203, -0.053, 0.01, -20.626, 20.553, -0.03, 0.01
 177620590, -21.309, 19.846, 0.04, 0.01, -20.969, 20.203, -0.053, 0.01
 177820510, -21.668, 19.456, 0.061, 0.01, -21.309, 19.846, 0.04, 0.01
 178020430, -22.028, 19.048, -0.041, 0.01, -21.668, 19.456, 0.061, 0.01
 178220350, -22.348, 18.663, -0.07700001, 0.01, -22.028, 19.048, -0.041, 0.01
 178420270, -22.644, 18.298, -0.044, 0.01, -22.348, 18.663, -0.07700001, 0.01
 178620190, -22.918, 17.931, 0.002, 0.01, -22.644, 18.298, -0.044, 0.01
 178820943, -23.204, 17.562, 0.044, 0.01, -22.918, 17.931, 0.002, 0.01
 179020863, -23.496, 17.164, 0.015, 0.01, -23.204, 17.562, 0.044, 0.01
 179220783, -23.787, 16.773, 0.072, 0.01, -23.496, 17.164, 0.015, 0.01
 179420703, -24.068, 16.373, 0.11, 0.01, -23.787, 16.773, 0.072, 0.01
 179620623, -24.351, 15.957, 0.07600001, 0.01, -24.068, 16.373, 0.11, 0.01
 179820543, -24.65, 15.507, 0.003, 0.01, -24.351, 15.957, 0.07600001, 0.01
 180020463, -24.911, 15.093, 0.026, 0.01, -24.65, 15.507, 0.003, 0.01
 180220383, -25.169, 14.669, 0.015, 0.01, -24.911, 15.093, 0.026, 0.01
 180420303, -25.417, 14.228, 0.009000001, 0.01, -25.169, 14.669, 0.015, 0.01
 180620223, -25.66, 13.781, 0.005, 0.01, -25.417, 14.228, 0.009000001, 0.01
 180820976, -25.903, 13.318, -0.035, 0.01, -25.66, 13.781, 0.005, 0.01
 181020896, -26.128, 12.871, -0.083, 0.01, -25.903, 13.318, -0.035, 0.01
 181220816, -26.32, 12.468, -0.056, 0.01, -26.128, 12.871, -0.083, 0.01
 181420736, -26.492, 12.067, 0.044, 0.01, -26.32, 12.468, -0.056, 0.01
 181620656, -26.691, 11.604, 0.02, 0.01, -26.492, 12.067, 0.044, 0.01
 181820576, -26.895, 11.12, -0.051, 0.01, -26.691, 11.604, 0.02, 0.01
 182020496, -27.083, 10.645, -0.057, 0.01, -26.895, 11.12, -0.051, 0.01
 182220416, -27.252, 10.207, 0.012, 0.01, -27.083, 10.645, -0.057, 0.01
 182420336, -27.423, 9.762, 0.057, 0.01, -27.252, 10.207, 0.012, 0.01
 182620256, -27.602, 9.272, 0, 0.01, -27.423, 9.762, 0.057, 0.01
 182820176, -27.758, 8.754001, -0.041, 0.01, -27.602, 9.272, 0, 0.01
 183020929, -27.894, 8.281, -0.043, 0.01, -27.758, 8.754001, -0.041, 0.01
 183220849, -28.02, 7.793, -0.046, 0.01, -27.894, 8.281, -0.043, 0.01
 183420769, -28.14, 7.298, -0.072, 0.01, -28.02, 7.793, -0.046, 0.01
