TimeUS,COFN,COFE,CNe,CEe,POFN,POFE,PNe,PEe
 8425795, 0.005051716, 0.00860869, 0.01976848, -0.03121446, 0, 0, 0, 0
 8606556, -0.0009805874, 0.002874773, 0.01981309, -0.03116914, 0.005051716, 0.00860869, 0.01976848, -0.03121446
 8806476, 0.0004987827, 0.005202051, 0.02013502, -0.03096558, -0.0009805874, 0.002874773, 0.01981309, -0.03116914
 9006396, 0.0006797496, 0.005247275, 0.02068201, -0.03060308, 0.0004987827, 0.005202051, 0.02013502, -0.03096558
 9206316, -0.0006981497, 0.002924237, 0.02130867, -0.0301664, 0.0006797496, 0.005247275, 0.02068201, -0.03060308
 9406236, -0.004283465, 0.0007768062, 0.02192078, -0.02972655, -0.0006981497, 0.002924237, 0.02130867, -0.0301664
 9606156, -0.002499289, 0.0001516489, 0.02247323, -0.02930858, -0.004283465, 0.0007768062, 0.02192078, -0.02972655
 9806076, -0.002111717, 0.001049694, 0.02297372, -0.0289178, -0.002499289, 0.0001516489, 0.02247323, -0.02930858
 10005996, -0.002610152, 0.003593507, 0.02343048, -0.02855188, -0.002111717, 0.001049694, 0.02297372, -0.0289178
 10205916, -0.001843156, 0.003808418, 0.0238514, -0.02820083, -0.002610152, 0.003593507, 0.02343048, -0.02855188
 10405836, -0.002833548, 0.003283444, 0.02424165, -0.02786627, -0.001843156, 0.003808418, 0.0238514, -0.02820083
 10606589, -0.0008843819, 0.005406491, 0.02459669, -0.02755577, -0.002833548, 0.003283444, 0.02424165, -0.02786627
 10806509, -0.003490184, 0.01220049, 0.02492661, -0.02728592, -0.0008843819, 0.005406491, 0.02459669, -0.02755577
 11006429, 0.01944314, 0.001906276, 0.02531617, -0.02697295, -0.003490184, 0.01220049, 0.02492661, -0.02728592
 11206349, -0.0188413, -0.000875524, 0.02558569, -0.02671173, 0.01944314, 0.001906276, 0.02531617, -0.02697295
 11406269, -0.02145405, 0.01361336, 0.02586035, -0.0265102, -0.0188413, -0.000875524, 0.02558569, -0.02671173
 11606189, -0.004721944, -0.01591489, 0.02598705, -0.02630353, -0.02145405, 0.01361336, 0.02586035, -0.0265102
 11806109, 0.01934591, 0.001264693, 0.02627122, -0.02604233, -0.004721944, -0.01591489, 0.02598705, -0.02630353
 12006029, -0.009939783, -0.014195, 0.02639611, -0.02589862, 0.01934591, 0.001264693, 0.02627122, -0.02604233
 12205949, 0.01188045, -0.006682509, 0.02657219, -0.02569176, -0.009939783, -0.014195, 0.02639611, -0.02589862
 12405869, -0.01110299, 0.004114074, 0.02671868, -0.0255289, 0.01188045, -0.006682509, 0.02657219, -0.02569176
 12605789, 0.006079161, -0.02119434, 0.026836, -0.02548538, -0.01110299, 0.004114074, 0.02671868, -0.0255289
 12806542, 0.002612765, -0.02189537, 0.02695236, -0.02536231, 0.006079161, -0.02119434, 0.026836, -0.02548538
 13006462, 0.01505062, -0.01165028, 0.02710784, -0.02516715, 0.002612765, -0.02189537, 0.02695236, -0.02536231
 13206382, -0.009355704, -0.0216096, 0.02718205, -0.02513194, 0.01505062, -0.01165028, 0.02710784, -0.02516715
 13406302, 0.008553432, -0.006383772, 0.0272556, -0.02494866, -0.009355704, -0.0216096, 0.02718205, -0.02513194
 13606222, 0.01792241, -0.01782447, 0.02738466, -0.02493091, 0.008553432, -0.006383772, 0.0272556, -0.02494866
 13806142, -0.01127585, 0.01435237, 0.02741032, -0.02483048, 0.01792241, -0.01782447, 0.02738466, -0.02493091
 14006062, 0.004819213, -0.006230018, 0.02744669, -0.02472597, -0.01127585, 0.01435237, 0.02741032, -0.02483048
 14205982, -0.01546247, 0.0008794436, 0.02754714, -0.02465639, 0.004819213, -0.006230018, 0.02744669, -0.02472597
 14405902, -0.003903215, -0.005968321, 0.0275443, -0.02461451, -0.01546247, 0.0008794436, 0.02754714, -0.02465639
 14605822, 0.01836992, 0.01174175, 0.02766233, -0.0245834, -0.003903215, -0.005968321, 0.0275443, -0.02461451
 14806575, -0.001645173, 0.01417034, 0.02761829, -0.02456798, 0.01836992, 0.01174175, 0.02766233, -0.0245834
 15006495, -0.009868128, -0.01809484, 0.02767794, -0.02455375, -0.001645173, 0.01417034, 0.02761829, -0.02456798
 15206415, -0.009474901, -0.01413011, 0.02769879, -0.0244978, -0.009868128, -0.01809484, 0.02767794, -0.02455375
 15406335, -0.01177677, -0.01146675, 0.02773047, -0.0244573, -0.009474901, -0.01413011, 0.02769879, -0.0244978
 15606255, -0.0105567, -0.01336243, 0.02774369, -0.02444708, -0.01177677, -0.01146675, 0.02773047, -0.0244573
 15806175, -0.01017893, -0.01364825, 0.02775741, -0.02443146, -0.0105567, -0.01336243, 0.02774369, -0.02444708
 16006095, -0.009489801, -0.01513699, 0.0277674, -0.02442715, -0.01017893, -0.01364825, 0.02775741, -0.02443146
 16206015, -0.007628161, -0.01400673, 0.02776901, -0.02440974, -0.009489801, -0.01513699, 0.0277674, -0.02442715
 16405935, -0.01048475, -0.01025168, 0.02778704, -0.02437973, -0.007628161, -0.01400673, 0.02776901, -0.02440974
 16605855, -0.009250808, -0.01328816, 0.02778972, -0.02438803, -0.01048475, -0.01025168, 0.02778704, -0.02437973
 16805775, -0.008659119, -0.01748162, 0.02779674, -0.02440855, -0.009250808, -0.01328816, 0.02778972, -0.02438803
 17006528, -0.007333452, -0.0161743, 0.02779492, -0.02439492, -0.008659119, -0.01748162, 0.02779674, -0.02440855
 17206448, -0.01099819, -0.01763767, 0.02781386, -0.02440143, -0.007333452, -0.0161743, 0.02779492, -0.02439492
 17406368, -0.01163912, -0.01322078, 0.02781346, -0.02437255, -0.01099819, -0.01763767, 0.02781386, -0.02440143
 17606288, -0.00773882, -0.00984857, 0.02779141, -0.02436074, -0.01163912, -0.01322078, 0.02781346, -0.02437255
 17806208, -0.009559105, -0.01153374, 0.02779716, -0.02437046, -0.00773882, -0.00984857, 0.02779141, -0.02436074
 18006128, -0.008962334, -0.0164196, 0.02779421, -0.02440405, -0.009559105, -0.01153374, 0.02779716, -0.02437046
 18206048, -0.01056614, -0.01518358, 0.02779621, -0.02439991, -0.008962334, -0.0164196, 0.02779421, -0.02440405
 18405968, -0.01073528, -0.01425857, 0.02779131, -0.0243998, -0.01056614, -0.01518358, 0.02779621, -0.02439991
 18605888, -0.01150014, -0.01399245, 0.02778923, -0.02440445, -0.01073528, -0.01425857, 0.02779131, -0.0243998
 18805808, -0.01350208, -0.01357272, 0.0277939, -0.0244084, -0.01150014, -0.01399245, 0.02778923, -0.02440445
 19006561, -0.01172788, -0.009409831, 0.02777363, -0.02439768, -0.01350208, -0.01357272, 0.0277939, -0.0244084
 19206481, -0.01153416, -0.01311828, 0.02776828, -0.02442278, -0.01172788, -0.009409831, 0.02777363, -0.02439768
 19406401, -0.009222912, -0.01490215, 0.02774983, -0.02444422, -0.01153416, -0.01311828, 0.02776828, -0.02442278
 19606321, -0.009523619, -0.01528061, 0.02774277, -0.02445633, -0.009222912, -0.01490215, 0.02774983, -0.02444422
 19806241, -0.01009315, -0.01285324, 0.02773492, -0.02445152, -0.009523619, -0.01528061, 0.02774277, -0.02445633
 20006161, -0.01081663, -0.0132795, 0.02772973, -0.0244637, -0.01009315, -0.01285324, 0.02773492, -0.02445152
 20206081, -0.00999904, -0.01183833, 0.02771515, -0.02446745, -0.01081663, -0.0132795, 0.02772973, -0.0244637
 20406001, -0.01164013, -0.01471091, 0.02771612, -0.02449318, -0.00999904, -0.01183833, 0.02771515, -0.02446745
 20605921, -0.01072682, -0.01245129, 0.02770019, -0.02449159, -0.01164013, -0.01471091, 0.02771612, -0.02449318
 20805841, -0.01023564, -0.01191169, 0.02768745, -0.02450036, -0.01072682, -0.01245129, 0.02770019, -0.02449159
 21005761, -0.01041039, -0.01313438, 0.02767915, -0.02451794, -0.01023564, -0.01191169, 0.02768745, -0.02450036
 21206514, -0.01094164, -0.01408552, 0.02767286, -0.02453395, -0.01041039, -0.01313438, 0.02767915, -0.02451794
 21406434, -0.01114563, -0.01458429, 0.02766407, -0.02454837, -0.01094164, -0.01408552, 0.02767286, -0.02453395
 21606354, -0.009588086, -0.01449963, 0.02764566, -0.02456079, -0.01114563, -0.01458429, 0.02766407, -0.02454837
 21806274, -0.01280574, -0.01308588, 0.02765147, -0.02456215, -0.009588086, -0.01449963, 0.02764566, -0.02456079
 22006194, -0.01075269, -0.01236217, 0.02762917, -0.02457127, -0.01280574, -0.01308588, 0.02765147, -0.02456215
 22206114, -0.01071312, -0.01160679, 0.02761817, -0.02457911, -0.01075269, -0.01236217, 0.02762917, -0.02457127
 22406034, -0.01093425, -0.01502554, 0.0276109, -0.02461015, -0.01071312, -0.01160679, 0.02761817, -0.02457911
 22605954, -0.009950429, -0.01242996, 0.02759401, -0.02460719, -0.01093425, -0.01502554, 0.0276109, -0.02461015
 22805874, -0.01257137, -0.01348178, 0.02759814, -0.02462315, -0.009950429, -0.01242996, 0.02759401, -0.02460719
 23005794, -0.01082594, -0.01169822, 0.02757683, -0.02462657, -0.01257137, -0.01348178, 0.02759814, -0.02462315
 23206547, -0.01098778, -0.01238872, 0.02756814, -0.0246411, -0.01082594, -0.01169822, 0.02757683, -0.02462657
 23406467, -0.008455841, -0.01343309, 0.02754709, -0.02465933, -0.01098778, -0.01238872, 0.02756814, -0.0246411
 23606387, -0.009015866, -0.01147786, 0.02753795, -0.02466027, -0.008455841, -0.01343309, 0.02754709, -0.02465933
 23806307, -0.009144927, -0.01340597, 0.02752923, -0.02468198, -0.009015866, -0.01147786, 0.02753795, -0.02466027
 24006227, -0.008110662, -0.0126488, 0.02751437, -0.02468962, -0.009144927, -0.01340597, 0.02752923, -0.02468198
 24206147, -0.01172052, -0.01764954, 0.02752463, -0.02473121, -0.008110662, -0.0126488, 0.02751437, -0.02468962
 24406067, -0.01237064, -0.01259039, 0.02751486, -0.02470946, -0.01172052, -0.01764954, 0.02752463, -0.02473121
 24605987, -0.01260082, -0.01197688, 0.02750597, -0.02471715, -0.01237064, -0.01259039, 0.02751486, -0.02470946
 24805907, -0.01387003, -0.01592251, 0.02750665, -0.02475052, -0.01260082, -0.01197688, 0.02750597, -0.02471715
 25005827, -0.01141043, -0.01146127, 0.02747903, -0.02473745, -0.01387003, -0.01592251, 0.02750665, -0.02475052
 25206580, -0.01039377, -0.01217668, 0.02746454, -0.02475229, -0.01141043, -0.01146127, 0.02747903, -0.02473745
 25406500, -0.01043956, -0.01109257, 0.02745506, -0.02475706, -0.01039377, -0.01217668, 0.02746454, -0.02475229
 25606420, -0.009977384, -0.01275577, 0.02744413, -0.02477634, -0.01043956, -0.01109257, 0.02745506, -0.02475706
 25806340, -0.008831128, -0.01513293, 0.02743066, -0.02480184, -0.009977384, -0.01275577, 0.02744413, -0.02477634
 26006260, -0.008109957, -0.01355631, 0.02741748, -0.02480282, -0.008831128, -0.01513293, 0.02743066, -0.02480184
 26206180, -0.009610256, -0.01438242, 0.02741505, -0.02481727, -0.008109957, -0.01355631, 0.02741748, -0.02480282
 26406100, -0.010353, -0.01465795, 0.02740943, -0.02482888, -0.009610256, -0.01438242, 0.02741505, -0.02481727
 26606020, -0.01056295, -0.01227114, 0.02740014, -0.02482496, -0.010353, -0.01465795, 0.02740943, -0.02482888
 26805940, -0.009247312, -0.01241228, 0.02738506, -0.02483626, -0.01056295, -0.01227114, 0.02740014, -0.02482496
 27005860, -0.01087376, -0.01297606, 0.02738394, -0.02484862, -0.009247312, -0.01241228, 0.02738506, -0.02483626
 27205780, -0.008079939, -0.01246789, 0.02736222, -0.02485698, -0.01087376, -0.01297606, 0.02738394, -0.02484862
 27406533, -0.008737319, -0.01171498, 0.02735613, -0.02486199, -0.008079939, -0.01246789, 0.02736222, -0.02485698
 27606453, -0.008522343, -0.01526676, 0.02734824, -0.02489242, -0.008737319, -0.01171498, 0.02735613, -0.02486199
 27806373, -0.006095763, -0.01709737, 0.02733179, -0.02491609, -0.008522343, -0.01526676, 0.02734824, -0.02489242
 28006293, -0.009357642, -0.01502873, 0.02733459, -0.02490924, -0.006095763, -0.01709737, 0.02733179, -0.02491609
 28206213, -0.01395528, -0.01168602, 0.0273497, -0.02489687, -0.009357642, -0.01502873, 0.02733459, -0.02490924
 28406133, -0.01217192, -0.01194146, 0.02733076, -0.02490809, -0.01395528, -0.01168602, 0.0273497, -0.02489687
 28606053, -0.0106836, -0.01305287, 0.02731508, -0.02492382, -0.01217192, -0.01194146, 0.02733076, -0.02490809
 28805973, -0.008909504, -0.01398899, 0.02729925, -0.02493894, -0.0106836, -0.01305287, 0.02731508, -0.02492382
 29005893, -0.007947051, -0.01229118, 0.0272867, -0.02493835, -0.008909504, -0.01398899, 0.02729925, -0.02493894
 29205813, -0.007356319, -0.01593675, 0.02727826, -0.02496967, -0.007947051, -0.01229118, 0.0272867, -0.02493835
 29406566, -0.009766825, -0.01308765, 0.02727909, -0.02495901, -0.007356319, -0.01593675, 0.02727826, -0.02496967
 29606486, -0.009944975, -0.01648912, 0.0272742, -0.02498884, -0.009766825, -0.01308765, 0.02727909, -0.02495901
 29806406, -0.007943354, -0.01690736, 0.02725778, -0.02500162, -0.009944975, -0.01648912, 0.0272742, -0.02498884
 30006326, -0.008477653, -0.01273953, 0.02725036, -0.02498275, -0.007943354, -0.01690736, 0.02725778, -0.02500162
 30206246, -0.00799787, -0.01386595, 0.0272415, -0.0249976, -0.008477653, -0.01273953, 0.02725036, -0.02498275
 30406166, -0.008811367, -0.01270046, 0.02723692, -0.02499853, -0.00799787, -0.01386595, 0.0272415, -0.0249976
 30606086, -0.0091241, -0.0135019, 0.02723125, -0.02501095, -0.008811367, -0.01270046, 0.02723692, -0.02499853
 30806006, -0.009846242, -0.01620659, 0.02722866, -0.02503585, -0.0091241, -0.0135019, 0.02723125, -0.02501095
 31005926, -0.008873578, -0.01688952, 0.0272175, -0.02504902, -0.009846242, -0.01620659, 0.02722866, -0.02503585
 31205846, -0.009952656, -0.01477658, 0.02721449, -0.02504136, -0.008873578, -0.01688952, 0.0272175, -0.02504902
 31405766, -0.00962517, -0.01647758, 0.02720775, -0.02505964, -0.009952656, -0.01477658, 0.02721449, -0.02504136
 31606519, -0.01059039, -0.01178189, 0.02720426, -0.0250369, -0.00962517, -0.01647758, 0.02720775, -0.02505964
 31806439, -0.01340929, -0.01461386, 0.02721469, -0.02505896, -0.01059039, -0.01178189, 0.02720426, -0.0250369
 32006359, -0.009503777, -0.01313977, 0.02718619, -0.02505935, -0.01340929, -0.01461386, 0.02721469, -0.02505896
 32206279, -0.008257264, -0.01487621, 0.02717488, -0.02507781, -0.009503777, -0.01313977, 0.02718619, -0.02505935
 32406199, -0.0112356, -0.01560134, 0.02718236, -0.02508848, -0.008257264, -0.01487621, 0.02717488, -0.02507781
 32606119, -0.0104575, -0.01350946, 0.02717086, -0.02508273, -0.0112356, -0.01560134, 0.02718236, -0.02508848
 32806039, -0.0114368, -0.01317433, 0.02716921, -0.02508744, -0.0104575, -0.01350946, 0.02717086, -0.02508273
 33005959, -0.009225865, -0.01648659, 0.02715354, -0.02511669, -0.0114368, -0.01317433, 0.02716921, -0.02508744
 33205879, -0.01073155, -0.01470539, 0.02715337, -0.0251109, -0.009225865, -0.01648659, 0.02715354, -0.02511669
 33405799, -0.01189126, -0.01487331, 0.0271533, -0.02511829, -0.01073155, -0.01470539, 0.02715337, -0.0251109
 33606552, -0.009622582, -0.0146461, 0.02713571, -0.02512431, -0.01189126, -0.01487331, 0.0271533, -0.02511829
 33806472, -0.009951286, -0.01511419, 0.02713133, -0.0251338, -0.009622582, -0.0146461, 0.02713571, -0.02512431
 34006392, -0.01008128, -0.01368797, 0.02712527, -0.02513135, -0.009951286, -0.01511419, 0.02713133, -0.0251338
 34206312, -0.01168797, -0.01066114, 0.02712625, -0.02512124, -0.01008128, -0.01368797, 0.02712527, -0.02513135
 34406232, -0.011723, -0.01533301, 0.02712254, -0.02515382, -0.01168797, -0.01066114, 0.02712625, -0.02512124
 34606152, -0.01068055, -0.01465492, 0.02711095, -0.02515611, -0.011723, -0.01533301, 0.02712254, -0.02515382
 34806072, -0.009615794, -0.01291488, 0.02709934, -0.02515238, -0.01068055, -0.01465492, 0.02711095, -0.02515611
 35005992, -0.008891344, -0.01488893, 0.0270913, -0.02517072, -0.009615794, -0.01291488, 0.02709934, -0.02515238
 35205912, -0.01053153, -0.01416029, 0.02709288, -0.0251715, -0.008891344, -0.01488893, 0.0270913, -0.02517072
 35405832, -0.01082201, -0.01178994, 0.02708768, -0.0251642, -0.01053153, -0.01416029, 0.02709288, -0.0251715
 35606585, -0.00925353, -0.01344832, 0.02707548, -0.02517975, -0.01082201, -0.01178994, 0.02708768, -0.0251642
 35806505, -0.006858235, -0.01435178, 0.02706143, -0.02519171, -0.00925353, -0.01344832, 0.02707548, -0.02517975
 36006425, -0.009913578, -0.01264076, 0.02706746, -0.02518641, -0.006858235, -0.01435178, 0.02706143, -0.02519171
 36206345, -0.01342929, -0.01165849, 0.02708078, -0.02518566, -0.009913578, -0.01264076, 0.02706746, -0.02518641
 36406265, -0.01091004, -0.01039969, 0.02706087, -0.02518629, -0.01342929, -0.01165849, 0.02708078, -0.02518566
 36606185, -0.008251234, -0.01354092, 0.02704485, -0.02520914, -0.01091004, -0.01039969, 0.02706087, -0.02518629
 36806105, -0.008531857, -0.01451792, 0.02704114, -0.0252206, -0.008251234, -0.01354092, 0.02704485, -0.02520914
 37006025, -0.0106088, -0.01345931, 0.02704504, -0.02521878, -0.008531857, -0.01451792, 0.02704114, -0.0252206
 37205945, -0.01176963, -0.01481984, 0.02704673, -0.02523199, -0.0106088, -0.01345931, 0.02704504, -0.02521878
 37405865, -0.009410394, -0.01528328, 0.02703019, -0.02524132, -0.01176963, -0.01481984, 0.02704673, -0.02523199
 37605785, -0.0105371, -0.0133155, 0.02702983, -0.02523384, -0.009410394, -0.01528328, 0.02703019, -0.02524132
 37806538, -0.01127041, -0.011203, 0.02702809, -0.02522737, -0.0105371, -0.0133155, 0.02702983, -0.02523384
 38006458, -0.01096746, -0.01280061, 0.02702222, -0.02524102, -0.01127041, -0.011203, 0.02702809, -0.02522737
 38206378, -0.01313677, -0.01355968, 0.02702985, -0.02524967, -0.01096746, -0.01280061, 0.02702222, -0.02524102
 38406298, -0.009193847, -0.0129584, 0.02700442, -0.02525268, -0.01313677, -0.01355968, 0.02702985, -0.02524967
 38606218, -0.01226232, -0.01275258, 0.02701506, -0.02525539, -0.009193847, -0.0129584, 0.02700442, -0.02525268
 38806138, -0.01138538, -0.01508999, 0.02700658, -0.02527476, -0.01226232, -0.01275258, 0.02701506, -0.02525539
 39006058, -0.01043754, -0.01393245, 0.02699671, -0.02527268, -0.01138538, -0.01508999, 0.02700658, -0.02527476
 39205978, -0.01095112, -0.01509749, 0.02699528, -0.02528462, -0.01043754, -0.01393245, 0.02699671, -0.02527268
 39405898, -0.008794221, -0.01727481, 0.02698152, -0.02530578, -0.01095112, -0.01509749, 0.02699528, -0.02528462
 39605818, -0.01027604, -0.01568596, 0.02698313, -0.02529847, -0.008794221, -0.01727481, 0.02698152, -0.02530578
 39806571, -0.01250889, -0.014006, 0.02699016, -0.02529119, -0.01027604, -0.01568596, 0.02698313, -0.02529847
 40006491, -0.01218166, -0.01508979, 0.02698459, -0.02530259, -0.01250889, -0.014006, 0.02699016, -0.02529119
 40206411, -0.008092416, -0.01433823, 0.0269605, -0.02530389, -0.01218166, -0.01508979, 0.02698459, -0.02530259
 40406331, -0.01048822, -0.0150066, 0.02696699, -0.02531186, -0.008092416, -0.01433823, 0.0269605, -0.02530389
 40606251, -0.009488229, -0.01596827, 0.0269585, -0.02532317, -0.01048822, -0.0150066, 0.02696699, -0.02531186
 40806171, -0.009196625, -0.01383514, 0.02695238, -0.02531368, -0.009488229, -0.01596827, 0.0269585, -0.02532317
 41006091, -0.01214022, -0.01436396, 0.0269631, -0.02532029, -0.009196625, -0.01383514, 0.02695238, -0.02531368
 41206011, -0.008550256, -0.01544176, 0.0269421, -0.02533286, -0.01214022, -0.01436396, 0.0269631, -0.02532029
 41405931, -0.01201858, -0.01743872, 0.02695564, -0.02535021, -0.008550256, -0.01544176, 0.0269421, -0.02533286
 41605851, -0.008424755, -0.01355277, 0.02693291, -0.02532944, -0.01201858, -0.01743872, 0.02695564, -0.02535021
 41805771, -0.008601416, -0.01361691, 0.02692977, -0.02533389, -0.008424755, -0.01355277, 0.02693291, -0.02532944
 42006524, -0.007612317, -0.01593272, 0.026923, -0.02535321, -0.008601416, -0.01361691, 0.02692977, -0.02533389
 42206444, -0.009753374, -0.01256044, 0.02692675, -0.02533558, -0.007612317, -0.01593272, 0.026923, -0.02535321
 42406364, -0.009933683, -0.01118369, 0.02692324, -0.02533253, -0.009753374, -0.01256044, 0.02692675, -0.02533558
 42606284, -0.007544517, -0.01192011, 0.02690985, -0.02534103, -0.009933683, -0.01118369, 0.02692324, -0.02533253
 42806204, -0.01028055, -0.01268089, 0.02691759, -0.02534843, -0.007544517, -0.01192011, 0.02690985, -0.02534103
 43006124, -0.01081394, -0.01391053, 0.02691676, -0.02535949, -0.01028055, -0.01268089, 0.02691759, -0.02534843
 43206044, -0.01241595, -0.01043429, 0.0269204, -0.02534465, -0.01081394, -0.01391053, 0.02691676, -0.02535949
 43405964, -0.009829569, -0.01346233, 0.02690426, -0.0253652, -0.01241595, -0.01043429, 0.0269204, -0.02534465
 43605884, -0.01365134, -0.01189172, 0.02692063, -0.02535938, -0.009829569, -0.01346233, 0.02690426, -0.0253652
 43805804, -0.0139147, -0.01344106, 0.02691954, -0.0253713, -0.01365134, -0.01189172, 0.02692063, -0.02535938
 44006557, -0.01363083, -0.01531932, 0.02691526, -0.02538654, -0.0139147, -0.01344106, 0.02691954, -0.0253713
 44206477, -0.01063313, -0.01166349, 0.02689375, -0.02536968, -0.01363083, -0.01531932, 0.02691526, -0.02538654
 44406397, -0.01090297, -0.0133296, 0.026892, -0.02538252, -0.01063313, -0.01166349, 0.02689375, -0.02536968
 44606317, -0.01193709, -0.01501471, 0.02689438, -0.02539651, -0.01090297, -0.0133296, 0.026892, -0.02538252
 44806237, -0.01090701, -0.01448057, 0.02688512, -0.02539722, -0.01193709, -0.01501471, 0.02689438, -0.02539651
 45006157, -0.008361111, -0.01224783, 0.02686946, -0.02538865, -0.01090701, -0.01448057, 0.02688512, -0.02539722
 45206077, -0.008740073, -0.01062866, 0.02686699, -0.0253842, -0.008361111, -0.01224783, 0.02686946, -0.02538865
 45405997, -0.006535472, -0.01588152, 0.02685693, -0.02541923, -0.008740073, -0.01062866, 0.02686699, -0.0253842
 45605917, -0.008649145, -0.01519711, 0.02686078, -0.02541766, -0.006535472, -0.01588152, 0.02685693, -0.02541923
 45805837, -0.01096075, -0.01587048, 0.026868, -0.02542532, -0.008649145, -0.01519711, 0.02686078, -0.02541766
 46006590, -0.01337486, -0.0128518, 0.026877, -0.02540934, -0.01096075, -0.01587048, 0.026868, -0.02542532
 46206510, -0.01204634, -0.01162805, 0.02686536, -0.02540692, -0.01337486, -0.0128518, 0.026877, -0.02540934
 46406430, -0.01219579, -0.01187794, 0.02686254, -0.02541208, -0.01204634, -0.01162805, 0.02686536, -0.02540692
 46606350, -0.0144951, -0.01240888, 0.0272913, -0.0258145, -0.01219579, -0.01187794, 0.02686254, -0.02541208
 46806270, -0.0141658, -0.01485658, 0.03102672, -0.02937439, -0.0144951, -0.01240888, 0.0272913, -0.0258145
 47006190, -0.01733072, -0.02011358, 0.04047931, -0.03834163, -0.0141658, -0.01485658, 0.03102672, -0.02937439
 47206110, -0.02343039, -0.03203978, 0.06019804, -0.05704415, -0.01733072, -0.02011358, 0.04047931, -0.03834163
 47406030, -0.03558408, -0.05271263, 0.08861972, -0.08400723, -0.02343039, -0.03203978, 0.06019804, -0.05704415
 47605950, -0.04911773, -0.07538826, 0.1257582, -0.1192465, -0.03558408, -0.05271263, 0.08861972, -0.08400723
 47805870, -0.052577, -0.09155054, 0.1647536, -0.1658199, -0.04911773, -0.07538826, 0.1257582, -0.1192465
 48005790, -0.07345493, -0.1059821, 0.2141549, -0.2154994, -0.052577, -0.09155054, 0.1647536, -0.1658199
 48206543, -0.08463006, -0.1670235, 0.268693, -0.270329, -0.07345493, -0.1059821, 0.2141549, -0.2154994
 48406463, -0.09569377, -0.1978701, 0.3287854, -0.3306111, -0.08463006, -0.1670235, 0.268693, -0.270329
 48606383, 0.09561126, -0.3307775, 0.3925295, -0.3946875, -0.09569377, -0.1978701, 0.3287854, -0.3306111
 48806303, -0.2085827, 0.03169017, 0.4592192, -0.4609753, 0.09561126, -0.3307775, 0.3925295, -0.3946875
 49006223, -0.1459857, -0.1469632, 0.5267749, -0.5285948, -0.2085827, 0.03169017, 0.4592192, -0.4609753
 49206143, 0.1526185, -0.1768814, 0.5911242, -0.5933249, -0.1459857, -0.1469632, 0.5267749, -0.5285948
 49406063, -0.1597554, -0.2777503, 0.6516428, -0.6545265, 0.1526185, -0.1768814, 0.5911242, -0.5933249
 49605983, 0.248207, 0.3578218, 0.7079858, -0.7115605, -0.1597554, -0.2777503, 0.6516428, -0.6545265
 49805903, -0.03761276, -0.1655654, 0.76017, -0.7643946, 0.248207, 0.3578218, 0.7079858, -0.7115605
 50005823, 0.4149217, 0.2040741, 0.8084533, -0.8129883, -0.03761276, -0.1655654, 0.76017, -0.7643946
 50206576, -0.1155417, 0.3926252, 0.8534098, -0.8580341, 0.4149217, 0.2040741, 0.8084533, -0.8129883
 50406496, 0.3549407, 0.4833711, 0.893711, -0.8974943, -0.1155417, 0.3926252, 0.8534098, -0.8580341
 50606416, 0.4228854, 0.03669848, 0.9272364, -0.9295601, 0.3549407, 0.4833711, 0.893711, -0.8974943
 50806336, 0.07046831, 0.3200074, 0.9548265, -0.955882, 0.4228854, 0.03669848, 0.9272364, -0.9295601
 51006256, -0.7174037, 0.4766696, 0.9788895, -0.9768835, 0.07046831, 0.3200074, 0.9548265, -0.955882
 51206176, -0.5369182, -0.4520451, 0.9954619, -0.9925979, -0.7174037, 0.4766696, 0.9788895, -0.9768835
 51406096, 0.1386102, 0.3769546, 1.016309, -0.9997661, -0.5369182, -0.4520451, 0.9954619, -0.9925979
 51606016, -0.09920761, -0.6071674, 1.105243, -0.93114, 0.1386102, 0.3769546, 1.016309, -0.9997661
 51805936, 0.07819641, -0.4775157, 1.278166, -0.700648, -0.09920761, -0.6071674, 1.105243, -0.93114
 52005856, -1.545683, 0.1537812, 1.433616, -0.3213378, 0.07819641, -0.4775157, 1.278166, -0.700648
 52205776, -0.2194925, -1.445774, 1.473064, 0.1327736, -1.545683, 0.1537812, 1.433616, -0.3213378
 52406529, -0.02611212, -0.6921, 1.382358, 0.5547684, -0.2194925, -1.445774, 1.473064, 0.1327736
 52606449, 1.380572, -2.203619, 1.219553, 0.8893237, -0.02611212, -0.6921, 1.382358, 0.5547684
 52806369, 1.856666, -0.4446827, 1.035738, 1.113993, 1.380572, -2.203619, 1.219553, 0.8893237
 53006289, 3.023226, -0.2761913, 0.8436321, 1.283479, 1.856666, -0.4446827, 1.035738, 1.113993
 53206209, 3.184211, 1.043349, 0.6229249, 1.416799, 3.023226, -0.2761913, 0.8436321, 1.283479
 53406129, 2.536555, 0.9767575, 0.4130221, 1.499971, 3.184211, 1.043349, 0.6229249, 1.416799
 53606049, 3.606185, 2.341836, 0.3324036, 1.544001, 2.536555, 0.9767575, 0.4130221, 1.499971
 53805969, 2.837485, 2.130056, 0.3685287, 1.546878, 3.606185, 2.341836, 0.3324036, 1.544001
 54005889, 3.592317, 2.242953, 0.4988261, 1.534565, 2.837485, 2.130056, 0.3685287, 1.546878
 54205809, 3.808836, 2.476999, 0.6384734, 1.508681, 3.592317, 2.242953, 0.4988261, 1.534565
 54406562, 4.28044, 1.062147, 0.7300104, 1.490707, 3.808836, 2.476999, 0.6384734, 1.508681
 54606482, 3.819652, 1.130302, 0.7481418, 1.498853, 4.28044, 1.062147, 0.7300104, 1.490707
 54806402, 5.124953, 2.106887, 0.7289669, 1.542626, 3.819652, 1.130302, 0.7481418, 1.498853
 55006322, 4.181683, 2.417412, 0.6650159, 1.589122, 5.124953, 2.106887, 0.7289669, 1.542626
 55206242, 5.049475, 2.482789, 0.6263954, 1.635879, 4.181683, 2.417412, 0.6650159, 1.589122
 55406162, 4.587453, 3.036496, 0.6080688, 1.665279, 5.049475, 2.482789, 0.6263954, 1.635879
 55606082, 3.759823, 2.850792, 0.6180791, 1.679481, 4.587453, 3.036496, 0.6080688, 1.665279
 55806002, 5.469031, 1.923286, 0.6668526, 1.69601, 3.759823, 2.850792, 0.6180791, 1.679481
 56005922, 5.69904, 2.019137, 0.7095593, 1.714139, 5.469031, 1.923286, 0.6668526, 1.69601
 56205842, 5.709728, 2.641448, 0.7401602, 1.734935, 5.69904, 2.019137, 0.7095593, 1.714139
 56405762, 4.907297, 1.16568, 0.7432227, 1.751112, 5.709728, 2.641448, 0.7401602, 1.734935
 56606515, 5.304897, 2.408991, 0.7628312, 1.774254, 4.907297, 1.16568, 0.7432227, 1.751112
 56806435, 4.519206, 1.828474, 0.7726637, 1.789695, 5.304897, 2.408991, 0.7628312, 1.774254
 57006355, 4.697484, 1.891697, 0.8012657, 1.80342, 4.519206, 1.828474, 0.7726637, 1.789695
 57206275, 4.779661, 1.951639, 0.8393211, 1.815865, 4.697484, 1.891697, 0.8012657, 1.80342
 57406195, 4.890722, 1.746246, 0.8831265, 1.824154, 4.779661, 1.951639, 0.8393211, 1.815865
 57606115, 4.886559, 1.547103, 0.9311412, 1.829607, 4.890722, 1.746246, 0.8831265, 1.824154
 57806035, 5.065595, 1.675408, 0.9859191, 1.831653, 4.886559, 1.547103, 0.9311412, 1.829607
 58005955, 5.196065, 1.413064, 1.043634, 1.827686, 5.065595, 1.675408, 0.9859191, 1.831653
 58205875, 5.149293, 1.286552, 1.103106, 1.815005, 5.196065, 1.413064, 1.043634, 1.827686
 58405795, 5.284091, 1.155583, 1.167888, 1.800862, 5.149293, 1.286552, 1.103106, 1.815005
 58606548, 5.390005, 0.994381, 1.23536, 1.782397, 5.284091, 1.155583, 1.167888, 1.800862
 58806468, 5.373015, 1.101646, 1.269359, 1.772379, 5.390005, 0.994381, 1.23536, 1.782397
 59006388, 5.440003, 0.8670874, 1.339974, 1.751605, 5.373015, 1.101646, 1.269359, 1.772379
 59206308, 5.694901, 0.7827005, 1.409999, 1.735696, 5.440003, 0.8670874, 1.339974, 1.751605
 59406228, 5.647353, 0.4185567, 1.469897, 1.72194, 5.694901, 0.7827005, 1.409999, 1.735696
 59606148, 5.749847, 0.6057811, 1.524938, 1.714376, 5.647353, 0.4185567, 1.469897, 1.72194
 59806068, 5.803946, 0.4939486, 1.575386, 1.712583, 5.749847, 0.6057811, 1.524938, 1.714376
 60005988, 5.794145, 0.2272937, 1.619268, 1.710159, 5.803946, 0.4939486, 1.575386, 1.712583
 60205908, 5.963165, 0.3115052, 1.656828, 1.703088, 5.794145, 0.2272937, 1.619268, 1.710159
 60405828, 6.304697, 0.01579371, 1.688731, 1.694596, 5.963165, 0.3115052, 1.656828, 1.703088
 60606581, 6.295951, -0.1072689, 1.702892, 1.68228, 6.304697, 0.01579371, 1.688731, 1.694596
 60806501, 6.381691, -0.1679686, 1.719898, 1.68209, 6.295951, -0.1072689, 1.702892, 1.68228
 61006421, 6.292439, -0.1913248, 1.729946, 1.686099, 6.381691, -0.1679686, 1.719898, 1.68209
 61206341, 6.22464, -0.1663931, 1.730124, 1.690348, 6.292439, -0.1913248, 1.729946, 1.686099
 61406261, 6.198689, 0.03115061, 1.728121, 1.695056, 6.22464, -0.1663931, 1.730124, 1.690348
 61606181, 6.266193, 0.03251836, 1.728853, 1.69978, 6.198689, 0.03115061, 1.728121, 1.695056
 61806101, 6.428556, 0.09655473, 1.733778, 1.700328, 6.266193, 0.03251836, 1.728853, 1.69978
 62006021, 6.428316, 0.1249224, 1.737605, 1.699961, 6.428556, 0.09655473, 1.733778, 1.700328
 62205941, 6.424046, -0.1157549, 1.731589, 1.694145, 6.428316, 0.1249224, 1.737605, 1.699961
 62405861, 6.389909, -0.07670654, 1.727711, 1.696342, 6.424046, -0.1157549, 1.731589, 1.694145
 62605781, 6.446272, 0.0759337, 1.725228, 1.699435, 6.389909, -0.07670654, 1.727711, 1.696342
 62806534, 6.498686, 0.04074724, 1.729734, 1.706184, 6.446272, 0.0759337, 1.725228, 1.699435
 63006454, 6.482428, 0.1567176, 1.735833, 1.713152, 6.498686, 0.04074724, 1.729734, 1.706184
 63206374, 6.432896, 0.05157633, 1.744317, 1.723831, 6.482428, 0.1567176, 1.735833, 1.713152
 63406294, 6.466255, 0.1126991, 1.745735, 1.726277, 6.432896, 0.05157633, 1.744317, 1.723831
 63606214, 6.4112, 0.09187517, 1.743713, 1.728153, 6.466255, 0.1126991, 1.745735, 1.726277
 63806134, 6.481761, -0.154113, 1.745801, 1.73369, 6.4112, 0.09187517, 1.743713, 1.728153
 64006054, 6.640266, 0.07247213, 1.754677, 1.739615, 6.481761, -0.154113, 1.745801, 1.73369
 64205974, 6.463902, 0.04005979, 1.764435, 1.745122, 6.640266, 0.07247213, 1.754677, 1.739615
 64405894, 6.568736, 0.2350128, 1.772584, 1.745532, 6.463902, 0.04005979, 1.764435, 1.745122
 64605814, 6.72617, 0.2686034, 1.771871, 1.741905, 6.568736, 0.2350128, 1.772584, 1.745532
 64806567, 6.911195, 0.1337514, 1.776625, 1.748022, 6.72617, 0.2686034, 1.771871, 1.741905
 65006487, 6.7808, 0.3634728, 1.778553, 1.753404, 6.911195, 0.1337514, 1.776625, 1.748022
 65206407, 6.764188, 0.1198334, 1.786021, 1.76165, 6.7808, 0.3634728, 1.778553, 1.753404
 65406327, 6.816148, 0.1665265, 1.796307, 1.770629, 6.764188, 0.1198334, 1.786021, 1.76165
 65606247, 6.715851, 0.1820249, 1.799473, 1.773342, 6.816148, 0.1665265, 1.796307, 1.770629
 65806167, 6.80515, 0.08876452, 1.799962, 1.771631, 6.715851, 0.1820249, 1.799473, 1.773342
 66006087, 6.832374, 0.232556, 1.804082, 1.775333, 6.80515, 0.08876452, 1.799962, 1.771631
 66206007, 6.824404, 0.2324603, 1.804479, 1.774186, 6.832374, 0.232556, 1.804082, 1.775333
 66405927, 6.76718, 0.01673269, 1.799845, 1.766081, 6.824404, 0.2324603, 1.804479, 1.774186
 66605847, 6.657271, 0.1545756, 1.801362, 1.765775, 6.76718, 0.01673269, 1.799845, 1.766081
 66805767, 6.82227, 0.1310399, 1.808464, 1.773445, 6.657271, 0.1545756, 1.801362, 1.765775
 67006520, 6.802351, 0.2709231, 1.803152, 1.774946, 6.82227, 0.1310399, 1.808464, 1.773445
 67206440, 6.622687, 0.1260244, 1.808501, 1.785207, 6.802351, 0.2709231, 1.803152, 1.774946
 67406360, 6.573761, 0.1846385, 1.812541, 1.787258, 6.622687, 0.1260244, 1.808501, 1.785207
 67606280, 6.891716, 0.002528039, 1.823592, 1.791085, 6.573761, 0.1846385, 1.812541, 1.787258
 67806200, 6.76767, 0.03419878, 1.82702, 1.793281, 6.891716, 0.002528039, 1.823592, 1.791085
 68006120, 6.814826, 0.004257276, 1.826523, 1.794837, 6.76767, 0.03419878, 1.82702, 1.793281
 68206040, 6.767201, 0.1127124, 1.826331, 1.799381, 6.814826, 0.004257276, 1.826523, 1.794837
 68405960, 6.658563, 0.2949761, 1.82705, 1.804307, 6.767201, 0.1127124, 1.826331, 1.799381
 68605880, 6.677491, 0.4140163, 1.823067, 1.802185, 6.658563, 0.2949761, 1.82705, 1.804307
 68805800, 6.772611, -0.02432298, 1.832869, 1.813827, 6.677491, 0.4140163, 1.823067, 1.802185
 69006553, 6.731803, 0.09057421, 1.839694, 1.820385, 6.772611, -0.02432298, 1.832869, 1.813827
 69206473, 7.089306, 0.1655773, 1.839041, 1.812461, 6.731803, 0.09057421, 1.839694, 1.820385
 69406393, 7.117464, 0.0002403585, 1.84523, 1.810023, 7.089306, 0.1655773, 1.839041, 1.812461
 69606313, 6.901649, 0.2719168, 1.850392, 1.810142, 7.117464, 0.0002403585, 1.84523, 1.810023
 69806233, 6.862151, 0.2003155, 1.855096, 1.813506, 6.901649, 0.2719168, 1.850392, 1.810142
 70006153, 6.768583, -0.03130432, 1.860986, 1.822272, 6.862151, 0.2003155, 1.855096, 1.813506
 70206073, 6.702529, 0.02310405, 1.861603, 1.824498, 6.768583, -0.03130432, 1.860986, 1.822272
 70405993, 6.914898, 0.124595, 1.861185, 1.822908, 6.702529, 0.02310405, 1.861603, 1.824498
 70605913, 6.963832, -0.02908329, 1.866595, 1.827144, 6.914898, 0.124595, 1.861185, 1.822908
 70805833, 6.66645, -0.004246503, 1.866562, 1.833554, 6.963832, -0.02908329, 1.866595, 1.827144
 71006586, 6.803964, 0.1849247, 1.87241, 1.847207, 6.66645, -0.004246503, 1.866562, 1.833554
 71206506, 6.941899, 0.1640034, 1.874533, 1.851214, 6.803964, 0.1849247, 1.87241, 1.847207
 71406426, 7.042003, 0.1510485, 1.878871, 1.853008, 6.941899, 0.1640034, 1.874533, 1.851214
 71606346, 6.894841, 0.1045152, 1.873338, 1.848636, 7.042003, 0.1510485, 1.878871, 1.853008
 71806266, 6.981286, 0.1333573, 1.871769, 1.843173, 6.894841, 0.1045152, 1.873338, 1.848636
 72006186, 7.034606, 0.1894655, 1.878132, 1.843629, 6.981286, 0.1333573, 1.871769, 1.843173
 72206106, 6.965404, -0.01750086, 1.892388, 1.851606, 7.034606, 0.1894655, 1.878132, 1.843629
 72406026, 7.338401, 0.004845858, 1.912683, 1.863995, 6.965404, -0.01750086, 1.892388, 1.851606
 72605946, 7.022689, 0.2252145, 1.916836, 1.868327, 7.338401, 0.004845858, 1.912683, 1.863995
 72805866, 6.87569, 0.1424798, 1.918121, 1.87158, 7.022689, 0.2252145, 1.916836, 1.868327
 73005786, 7.037869, 0.1189654, 1.91952, 1.875922, 6.87569, 0.1424798, 1.918121, 1.87158
 73206539, 7.037396, 0.1780826, 1.921005, 1.881718, 7.037869, 0.1189654, 1.91952, 1.875922
 73406459, 7.004248, 0.1115575, 1.924507, 1.887759, 7.037396, 0.1780826, 1.921005, 1.881718
 73606379, 7.213345, 0.08646113, 1.930331, 1.89368, 7.004248, 0.1115575, 1.924507, 1.887759
 73806299, 7.269231, 0.2325912, 1.937221, 1.89922, 7.213345, 0.08646113, 1.930331, 1.89368
 74006219, 7.272832, 0.1770986, 1.944965, 1.904992, 7.269231, 0.2325912, 1.937221, 1.89922
 74206139, 7.109744, 0.1515461, 1.951213, 1.912033, 7.272832, 0.1770986, 1.944965, 1.904992
 74406059, 6.906178, 0.1324242, 1.907079, 1.870977, 7.109744, 0.1515461, 1.951213, 1.912033
 74605979, 6.420008, -0.06368169, 1.705553, 1.66987, 6.906178, 0.1324242, 1.907079, 1.870977
 74805899, 6.53909, 0.01734579, 1.689154, 1.647807, 6.420008, -0.06368169, 1.705553, 1.66987
 75005819, 6.342439, 0.1581374, 1.686074, 1.642651, 6.53909, 0.01734579, 1.689154, 1.647807
 75206572, 6.265599, 0.1719332, 1.685473, 1.641619, 6.342439, 0.1581374, 1.686074, 1.642651
 75406492, 5.866033, -0.06518177, 1.682217, 1.642449, 6.265599, 0.1719332, 1.685473, 1.641619
 75606412, 5.939279, 0.1472107, 1.682658, 1.643847, 5.866033, -0.06518177, 1.682217, 1.642449
 75806332, 5.98553, 0.1460597, 1.682219, 1.644486, 5.939279, 0.1472107, 1.682658, 1.643847
 76006252, 5.563757, -0.1076871, 1.678659, 1.645179, 5.98553, 0.1460597, 1.682219, 1.644486
 76206172, 5.521184, -0.0006477498, 1.678367, 1.644961, 5.563757, -0.1076871, 1.678659, 1.645179
 76406092, 5.541359, 0.05574659, 1.678641, 1.644316, 5.521184, -0.0006477498, 1.678367, 1.644961
 76606012, 5.557297, 0.1372193, 1.680418, 1.642984, 5.541359, 0.05574659, 1.678641, 1.644316
 76805932, 5.502059, 0.1175665, 1.685029, 1.641237, 5.557297, 0.1372193, 1.680418, 1.642984
 77005852, 5.546996, 0.07985616, 1.689515, 1.643169, 5.502059, 0.1175665, 1.685029, 1.641237
 77205772, 5.339674, -0.1012371, 1.689534, 1.649323, 5.546996, 0.07985616, 1.689515, 1.643169
 77406525, 5.346531, 0.009970417, 1.689904, 1.657196, 5.339674, -0.1012371, 1.689534, 1.649323
 77606445, 5.218399, 0.05198575, 1.68934, 1.663548, 5.346531, 0.009970417, 1.689904, 1.657196
 77806365, 5.276282, 0.09338462, 1.692178, 1.667313, 5.218399, 0.05198575, 1.68934, 1.663548
 78006285, 5.153901, 0.1241566, 1.694356, 1.668608, 5.276282, 0.09338462, 1.692178, 1.667313
 78206205, 5.313426, 0.005893035, 1.698714, 1.668812, 5.153901, 0.1241566, 1.694356, 1.668608
 78406125, 5.319244, 0.0624046, 1.700671, 1.667985, 5.313426, 0.005893035, 1.698714, 1.668812
 78606045, 5.264033, 0.1722528, 1.700607, 1.667379, 5.319244, 0.0624046, 1.700671, 1.667985
 78805965, 5.078455, 0.07932245, 1.697746, 1.667134, 5.264033, 0.1722528, 1.700607, 1.667379
 79005885, 5.225167, 0.008887019, 1.695561, 1.665843, 5.078455, 0.07932245, 1.697746, 1.667134
 79205805, 5.302974, 0.1198372, 1.691162, 1.662308, 5.225167, 0.008887019, 1.695561, 1.665843
 79406558, 5.028746, 0.2140168, 1.682891, 1.656404, 5.302974, 0.1198372, 1.691162, 1.662308
 79606478, 5.200366, 0.222659, 1.676862, 1.64845, 5.028746, 0.2140168, 1.682891, 1.656404
 79806398, 5.146356, 0.09860705, 1.666983, 1.637891, 5.200366, 0.222659, 1.676862, 1.64845
 80006318, 5.185724, -0.05570237, 1.656318, 1.626037, 5.146356, 0.09860705, 1.666983, 1.637891
 80206238, 5.081458, 0.05219833, 1.641971, 1.612327, 5.185724, -0.05570237, 1.656318, 1.626037
 80406158, 5.064754, 0.1325201, 1.625803, 1.596568, 5.081458, 0.05219833, 1.641971, 1.612327
 80606078, 4.894024, 0.03886541, 1.607183, 1.579655, 5.064754, 0.1325201, 1.625803, 1.596568
 80805998, 4.89142, 0.1801105, 1.588745, 1.561285, 4.894024, 0.03886541, 1.607183, 1.579655
 81005918, 4.742432, 0.2275283, 1.569041, 1.542382, 4.89142, 0.1801105, 1.588745, 1.561285
 81205838, 4.771276, 0.1135981, 1.550276, 1.522886, 4.742432, 0.2275283, 1.569041, 1.542382
 81406591, 4.51585, 0.150766, 1.529396, 1.50349, 4.771276, 0.1135981, 1.550276, 1.522886
 81606511, 4.387071, 0.1935301, 1.50978, 1.484506, 4.51585, 0.150766, 1.529396, 1.50349
 81806431, 4.287335, 0.1197719, 1.48642, 1.461243, 4.387071, 0.1935301, 1.50978, 1.484506
 82006351, 4.217323, 0.05342044, 1.468313, 1.443443, 4.287335, 0.1197719, 1.48642, 1.461243
 82206271, 4.038691, 0.1422002, 1.449567, 1.426339, 4.217323, 0.05342044, 1.468313, 1.443443
 82406191, 4.150405, 0.2560442, 1.433957, 1.409998, 4.038691, 0.1422002, 1.449567, 1.426339
 82606111, 4.038671, 0.1129681, 1.417187, 1.393723, 4.150405, 0.2560442, 1.433957, 1.409998
 82806031, 3.910042, 0.006384879, 1.401113, 1.378171, 4.038671, 0.1129681, 1.417187, 1.393723
 83005951, 4.053321, -0.03384994, 1.387113, 1.362837, 3.910042, 0.006384879, 1.401113, 1.378171
 83205871, 3.968297, 0.0397027, 1.372341, 1.348299, 4.053321, -0.03384994, 1.387113, 1.362837
 83405791, 3.85285, 0.1566866, 1.35724, 1.333679, 3.968297, 0.0397027, 1.372341, 1.348299
 83606544, 3.894673, 0.1983097, 1.343223, 1.319065, 3.85285, 0.1566866, 1.35724, 1.333679
 83806464, 3.8547, 0.09320536, 1.329095, 1.305212, 3.894673, 0.1983097, 1.343223, 1.319065
 84006384, 3.699598, 0.1475092, 1.313863, 1.291151, 3.8547, 0.09320536, 1.329095, 1.305212
 84206304, 3.8279, 0.1875061, 1.300668, 1.277141, 3.699598, 0.1475092, 1.313863, 1.291151
 84406224, 3.580801, 0.04974845, 1.285091, 1.263327, 3.8279, 0.1875061, 1.300668, 1.277141
 84606144, 3.624525, 0.06556069, 1.271223, 1.249017, 3.580801, 0.04974845, 1.285091, 1.263327
 84806064, 3.636108, 0.08761416, 1.257066, 1.234624, 3.624525, 0.06556069, 1.271223, 1.249017
 85005984, 3.594364, 0.2164547, 1.242659, 1.22039, 3.636108, 0.08761416, 1.257066, 1.234624
 85205904, 3.571329, 0.1452601, 1.228707, 1.205867, 3.594364, 0.2164547, 1.242659, 1.22039
 85405824, 3.353081, 0.07588023, 1.213198, 1.191864, 3.571329, 0.1452601, 1.228707, 1.205867
 85606577, 3.228633, 0.1231437, 1.197874, 1.177582, 3.353081, 0.07588023, 1.213198, 1.191864
 85806497, 3.28537, 0.05803309, 1.183466, 1.162881, 3.228633, 0.1231437, 1.197874, 1.177582
 86006417, 3.135124, 0.1132201, 1.16809, 1.148375, 3.28537, 0.05803309, 1.183466, 1.162881
 86206337, 3.095555, 0.102757, 1.153567, 1.133932, 3.135124, 0.1132201, 1.16809, 1.148375
 86406257, 3.00924, 0.04457945, 1.138971, 1.119702, 3.095555, 0.102757, 1.153567, 1.133932
 86606177, 3.023811, 0.04484833, 1.124629, 1.105053, 3.00924, 0.04457945, 1.138971, 1.119702
 86806097, 3.044339, 0.1597228, 1.11075, 1.090849, 3.023811, 0.04484833, 1.124629, 1.105053
 87006017, 2.856382, 0.1563831, 1.09483, 1.076161, 3.044339, 0.1597228, 1.11075, 1.090849
 87205937, 2.826475, 0.2189043, 1.080081, 1.062681, 2.856382, 0.1563831, 1.09483, 1.076161
 87405857, 2.825741, 0.1584356, 1.065663, 1.048982, 2.826475, 0.2189043, 1.080081, 1.062681
 87605777, 2.786589, 0.1226178, 1.051541, 1.035012, 2.825741, 0.1584356, 1.065663, 1.048982
 87806530, 2.808495, 0.06964147, 1.037715, 1.020434, 2.786589, 0.1226178, 1.051541, 1.035012
 88006450, 2.676337, 0.1903342, 1.022722, 1.005753, 2.808495, 0.06964147, 1.037715, 1.020434
 88206370, 2.533088, 0.1377774, 1.008029, 0.9916206, 2.676337, 0.1903342, 1.022722, 1.005753
 88406290, 2.532114, 0.1052775, 0.9940934, 0.9777189, 2.533088, 0.1377774, 1.008029, 0.9916206
 88606210, 2.568976, 0.1449337, 0.9799885, 0.963645, 2.532114, 0.1052775, 0.9940934, 0.9777189
 88806130, 2.48215, 0.2228885, 0.9650213, 0.9495731, 2.568976, 0.1449337, 0.9799885, 0.963645
 89006050, 2.471374, 0.1509535, 0.951131, 0.9358512, 2.48215, 0.2228885, 0.9650213, 0.9495731
 89205970, 2.298989, 0.1597324, 0.9356351, 0.9213727, 2.471374, 0.1509535, 0.951131, 0.9358512
 89405890, 2.306375, 0.05208323, 0.9216089, 0.9071955, 2.298989, 0.1597324, 0.9356351, 0.9213727
 89605810, 2.200215, 0.1415656, 0.906673, 0.8930115, 2.306375, 0.05208323, 0.9216089, 0.9071955
 89806563, 2.128828, 0.138598, 0.8922205, 0.8789156, 2.200215, 0.1415656, 0.906673, 0.8930115
 90006483, 2.145994, 0.2028105, 0.8782578, 0.8648946, 2.128828, 0.138598, 0.8922205, 0.8789156
 90206403, -1.193241, 0.9745442, 0.8596358, 0.8523911, 2.145994, 0.2028105, 0.8782578, 0.8648946
 90406323, -0.5780464, 0.03138753, 0.8435575, 0.8367993, -1.193241, 0.9745442, 0.8596358, 0.8523911
 90606243, -1.319783, 1.033873, 0.8311287, 0.8239717, -0.5780464, 0.03138753, 0.8435575, 0.8367993
 90806163, -0.6451204, 0.3586785, 0.8150836, 0.8085377, -1.319783, 1.033873, 0.8311287, 0.8239717
 91006083, -1.841482, -0.299456, 0.8059414, 0.794429, -0.6451204, 0.3586785, 0.8150836, 0.8085377
 91206003, -1.921219, -0.2907268, 0.7923059, 0.7800234, -1.841482, -0.299456, 0.8059414, 0.794429
 91405923, -1.550365, -0.01291897, 0.7759953, 0.7654065, -1.921219, -0.2907268, 0.7923059, 0.7800234
 91605843, -0.6851405, 0.7833337, 0.7586613, 0.7521222, -1.550365, -0.01291897, 0.7759953, 0.7654065
 91805763, -1.700043, 0.1098288, 0.7483171, 0.7370153, -0.6851405, 0.7833337, 0.7586613, 0.7521222
 92006516, -0.6707209, 0.4440993, 0.7298895, 0.7236927, -1.700043, 0.1098288, 0.7483171, 0.7370153
 92206436, -1.175398, 0.9256405, 0.7167266, 0.7107469, -0.6707209, 0.4440993, 0.7298895, 0.7236927
 92406356, -1.698083, 0.3077318, 0.7047451, 0.6950984, -1.175398, 0.9256405, 0.7167266, 0.7107469
 92606276, -1.295358, 0.2860504, 0.688117, 0.6805514, -1.698083, 0.3077318, 0.7047451, 0.6950984
 92806196, -0.8070778, 0.2944191, 0.6719996, 0.6659837, -1.295358, 0.2860504, 0.688117, 0.6805514
 93006116, -1.778506, -0.1527484, 0.662275, 0.6512418, -0.8070778, 0.2944191, 0.6719996, 0.6659837
 93206036, -1.541422, 0.4402155, 0.6464516, 0.6373147, -1.778506, -0.1527484, 0.662275, 0.6512418
 93405956, -1.230968, -0.1761176, 0.6304598, 0.6231201, -1.541422, 0.4402155, 0.6464516, 0.6373147
 93605876, -1.451305, 0.6427916, 0.617083, 0.6096697, -1.230968, -0.1761176, 0.6304598, 0.6231201
 93805796, -1.462741, 0.435528, 0.6025841, 0.5949914, -1.451305, 0.6427916, 0.617083, 0.6096697
 94006549, -0.9351978, -0.006089652, 0.5854244, 0.5803012, -1.462741, 0.435528, 0.6025841, 0.5949914
 94206469, -1.519245, 0.408052, 0.5750394, 0.5667152, -0.9351978, -0.006089652, 0.5854244, 0.5803012
 94406389, -1.240517, 0.1432086, 0.559364, 0.5518687, -1.519245, 0.408052, 0.5750394, 0.5667152
 94606309, -1.500708, -0.02734499, 0.5481175, 0.5385404, -1.240517, 0.1432086, 0.559364, 0.5518687
 94806229, -0.8191864, 0.4497677, 0.5332292, 0.5277417, -1.500708, -0.02734499, 0.5481175, 0.5385404
 95006149, -1.371534, 0.3727729, 0.5265037, 0.518073, -0.8191864, 0.4497677, 0.5332292, 0.5277417
 95206069, -0.7606173, 0.3090024, 0.5154372, 0.5103018, -1.371534, 0.3727729, 0.5265037, 0.518073
 95405989, -0.5378023, -0.02219923, 0.5082615, 0.5038481, -0.7606173, 0.3090024, 0.5154372, 0.5103018
 95605909, -0.5625311, 0.3388202, 0.5033142, 0.499224, -0.5378023, -0.02219923, 0.5082615, 0.5038481
 95805829, -0.607922, 0.04493554, 0.4990278, 0.4945484, -0.5625311, 0.3388202, 0.5033142, 0.499224
 96006582, -1.062816, -0.09009007, 0.4965219, 0.4900854, -0.607922, 0.04493554, 0.4990278, 0.4945484
 96206502, -1.047387, -0.1023881, 0.49229, 0.4859117, -1.062816, -0.09009007, 0.4965219, 0.4900854
 96406422, -0.7067763, 0.5544605, 0.4867907, 0.4827301, -1.047387, -0.1023881, 0.49229, 0.4859117
 96606342, -0.5601708, -0.1701907, 0.4819529, 0.477665, -0.7067763, 0.5544605, 0.4867907, 0.4827301
 96806262, -0.8849175, 0.2907224, 0.4787377, 0.473331, -0.5601708, -0.1701907, 0.4819529, 0.477665
 97006182, -1.083824, 0.1949172, 0.4753474, 0.4687695, -0.8849175, 0.2907224, 0.4787377, 0.473331
 97206102, -0.842911, 0.5225858, 0.469326, 0.4646345, -1.083824, 0.1949172, 0.4753474, 0.4687695
 97406022, -0.6011214, 0.03867261, 0.4632626, 0.4588822, -0.842911, 0.5225858, 0.469326, 0.4646345
 97605942, -0.4147916, 0.4967652, 0.4578575, 0.4546436, -0.6011214, 0.03867261, 0.4632626, 0.4588822
 97805862, -0.6450588, -0.1746036, 0.4535419, 0.4489396, -0.4147916, 0.4967652, 0.4578575, 0.4546436
 98005782, -0.5425161, 0.06403942, 0.4484009, 0.4439445, -0.6450588, -0.1746036, 0.4535419, 0.4489396
 98206535, -0.8061892, -0.006367626, 0.4448053, 0.4392221, -0.5425161, 0.06403942, 0.4484009, 0.4439445
 98406455, -0.2220333, 0.3936585, 0.4377891, 0.4344482, -0.8061892, -0.006367626, 0.4448053, 0.4392221
 98606375, -0.2452466, 0.3627779, 0.4326138, 0.4295449, -0.2220333, 0.3936585, 0.4377891, 0.4344482
 98806295, -0.186, 0.2977387, 0.4279349, 0.4250502, -0.2452466, 0.3627779, 0.4326138, 0.4295449
 99006215, -0.21766, 0.296789, 0.4230855, 0.4201735, -0.186, 0.2977387, 0.4279349, 0.4250502
 99206135, -0.2122816, 0.3337303, 0.4182061, 0.4153836, -0.21766, 0.296789, 0.4230855, 0.4201735
 99406055, -0.1734695, 0.3767455, 0.4130857, 0.4104092, -0.2122816, 0.3337303, 0.4182061, 0.4153836
 99605975, -0.1440479, 0.3648688, 0.4081675, 0.4055211, -0.1734695, 0.3767455, 0.4130857, 0.4104092
 99805895, -0.1587756, 0.2992212, 0.4036191, 0.4008627, -0.1440479, 0.3648688, 0.4081675, 0.4055211
 100005815, -0.148232, 0.3174867, 0.3988353, 0.3961745, -0.1587756, 0.2992212, 0.4036191, 0.4008627
 100206568, -0.09413537, 0.3295856, 0.3937229, 0.3911752, -0.148232, 0.3174867, 0.3988353, 0.3961745
 100406488, -0.1484775, 0.3325379, 0.3914656, 0.3889005, -0.09413537, 0.3295856, 0.3937229, 0.3911752
 100606408, -0.1217141, 0.3350066, 0.3863954, 0.383788, -0.1484775, 0.3325379, 0.3914656, 0.3889005
 100806328, -0.09124812, 0.2875454, 0.3815915, 0.3787097, -0.1217141, 0.3350066, 0.3863954, 0.383788
 101006248, -0.1284991, 0.2542533, 0.377069, 0.3741095, -0.09124812, 0.2875454, 0.3815915, 0.3787097
 101206168, -0.08951371, 0.2754089, 0.3722757, 0.3694118, -0.1284991, 0.2542533, 0.377069, 0.3741095
 101406088, -0.09942613, 0.2954062, 0.3676308, 0.364821, -0.08951371, 0.2754089, 0.3722757, 0.3694118
 101606008, -0.07412695, 0.3257483, 0.3626592, 0.3599491, -0.09942613, 0.2954062, 0.3676308, 0.364821
 101805928, -0.03054763, 0.2878607, 0.3578272, 0.3550701, -0.07412695, 0.3257483, 0.3626592, 0.3599491
 102005848, -0.07204966, 0.2550693, 0.3527195, 0.3499009, -0.03054763, 0.2878607, 0.3578272, 0.3550701
 102205768, -0.03172114, 0.2760837, 0.3478832, 0.3451407, -0.07204966, 0.2550693, 0.3527195, 0.3499009
 102406521, -0.0110726, 0.2634639, 0.3430639, 0.3403347, -0.03172114, 0.2760837, 0.3478832, 0.3451407
 102606441, -0.04712297, 0.2950214, 0.3368606, 0.3342469, -0.0110726, 0.2634639, 0.3430639, 0.3403347
 102806361, -0.04120016, 0.258596, 0.3320849, 0.3295196, -0.04712297, 0.2950214, 0.3368606, 0.3342469
 103006281, -0.05437852, 0.264567, 0.3272731, 0.3249985, -0.04120016, 0.258596, 0.3320849, 0.3295196
 103206201, -0.00600281, 0.2023154, 0.3224459, 0.3203301, -0.05437852, 0.264567, 0.3272731, 0.3249985
 103406121, -0.01709078, 0.2215448, 0.3173944, 0.3155616, -0.00600281, 0.2023154, 0.3224459, 0.3203301
 103606041, -0.01518009, 0.2458688, 0.3125433, 0.3108705, -0.01709078, 0.2215448, 0.3173944, 0.3155616
 103805961, 0.01106028, 0.2114763, 0.307891, 0.3062083, -0.01518009, 0.2458688, 0.3125433, 0.3108705
 104005881, 0.02000654, 0.2232581, 0.3029737, 0.3013683, 0.01106028, 0.2114763, 0.307891, 0.3062083
 104205801, 0.02436591, 0.1998789, 0.2982278, 0.296635, 0.02000654, 0.2232581, 0.3029737, 0.3013683
 104406554, 0.007183407, 0.2012639, 0.2934287, 0.2918966, 0.02436591, 0.1998789, 0.2982278, 0.296635
 104606474, 0.03525485, 0.1643952, 0.2886996, 0.2871576, 0.007183407, 0.2012639, 0.2934287, 0.2918966
 104806394, 0.07579868, 0.195915, 0.2841183, 0.2826608, 0.03525485, 0.1643952, 0.2886996, 0.2871576
 105006314, 0.05997537, 0.2095462, 0.2792245, 0.2778463, 0.07579868, 0.195915, 0.2841183, 0.2826608
 105206234, 0.04673809, 0.2197905, 0.2741548, 0.2727066, 0.05997537, 0.2095462, 0.2792245, 0.2778463
 105406154, 0.04643327, 0.218557, 0.2695776, 0.2679335, 0.04673809, 0.2197905, 0.2741548, 0.2727066
 105606074, 0.08866888, 0.2374392, 0.2651334, 0.26333, 0.04643327, 0.218557, 0.2695776, 0.2679335
 105805994, 0.06164677, 0.2293965, 0.2604818, 0.258705, 0.08866888, 0.2374392, 0.2651334, 0.26333
 106005914, 0.06413756, 0.231057, 0.2550495, 0.2534723, 0.06164677, 0.2293965, 0.2604818, 0.258705
 106205834, 0.06191125, 0.2260139, 0.249955, 0.2485093, 0.06413756, 0.231057, 0.2550495, 0.2534723
 106406587, 0.08990487, 0.2126876, 0.2453854, 0.2438239, 0.06191125, 0.2260139, 0.249955, 0.2485093
 106606507, 0.09320851, 0.1990884, 0.2405827, 0.239011, 0.08990487, 0.2126876, 0.2453854, 0.2438239
 106806427, 0.1083375, 0.1506217, 0.2358001, 0.2343867, 0.09320851, 0.1990884, 0.2405827, 0.239011
 107006347, 0.1050438, 0.1594353, 0.2307542, 0.2295222, 0.1083375, 0.1506217, 0.2358001, 0.2343867
 107206267, 0.09441052, 0.1681638, 0.2259726, 0.2246806, 0.1050438, 0.1594353, 0.2307542, 0.2295222
 107406187, 0.07969962, 0.1429688, 0.2214321, 0.2198899, 0.09441052, 0.1681638, 0.2259726, 0.2246806
 107606107, 0.09157269, 0.147386, 0.2167904, 0.2152044, 0.07969962, 0.1429688, 0.2214321, 0.2198899
 107806027, 0.1059096, 0.151844, 0.2117227, 0.2102853, 0.09157269, 0.147386, 0.2167904, 0.2152044
 108005947, 0.0959322, 0.1549382, 0.2068413, 0.2056775, 0.1059096, 0.151844, 0.2117227, 0.2102853
 108205867, 0.0866527, 0.1681, 0.2018691, 0.2007571, 0.0959322, 0.1549382, 0.2068413, 0.2056775
 108405787, 0.09959094, 0.169754, 0.1971973, 0.1959402, 0.0866527, 0.1681, 0.2018691, 0.2007571
 108606540, 0.09783119, 0.1399661, 0.1923298, 0.1909757, 0.09959094, 0.169754, 0.1971973, 0.1959402
 108806460, 0.113149, 0.1146126, 0.1873817, 0.1860224, 0.09783119, 0.1399661, 0.1923298, 0.1909757
 109006380, 0.1225002, 0.1169133, 0.1828797, 0.1816642, 0.113149, 0.1146126, 0.1873817, 0.1860224
 109206300, 0.1029004, 0.1186983, 0.1777985, 0.1766989, 0.1225002, 0.1169133, 0.1828797, 0.1816642
 109406220, 0.09081493, 0.1444427, 0.1730589, 0.1719045, 0.1029004, 0.1186983, 0.1777985, 0.1766989
 109606140, 0.1069718, 0.129799, 0.1681121, 0.1667927, 0.09081493, 0.1444427, 0.1730589, 0.1719045
 109806060, 0.1063887, 0.1266852, 0.1631458, 0.1619698, 0.1069718, 0.129799, 0.1681121, 0.1667927
 110005980, 0.1070417, 0.1294724, 0.1583273, 0.1573601, 0.1063887, 0.1266852, 0.1631458, 0.1619698
 110205900, 0.1079406, 0.1285157, 0.1533365, 0.1523731, 0.1070417, 0.1294724, 0.1583273, 0.1573601
 110405820, 0.0873297, 0.1305967, 0.1485298, 0.1474918, 0.1079406, 0.1285157, 0.1533365, 0.1523731
 110606573, 0.08324044, 0.1157505, 0.1435553, 0.1425308, 0.0873297, 0.1305967, 0.1485298, 0.1474918
 110806493, 0.08312555, 0.110729, 0.1384864, 0.1376088, 0.08324044, 0.1157505, 0.1435553, 0.1425308
 111006413, 0.08389919, 0.1132044, 0.1337488, 0.1328863, 0.08312555, 0.110729, 0.1384864, 0.1376088
 111206333, 0.08199565, 0.09344003, 0.1291919, 0.1282169, 0.08389919, 0.1132044, 0.1337488, 0.1328863
 111406253, 0.08259714, 0.09595736, 0.1245527, 0.1236529, 0.08199565, 0.09344003, 0.1291919, 0.1282169
 111606173, 0.07759967, 0.1053465, 0.119661, 0.1189147, 0.08259714, 0.09595736, 0.1245527, 0.1236529
 111806093, 0.08028834, 0.09723676, 0.1146275, 0.1138411, 0.07759967, 0.1053465, 0.119661, 0.1189147
 112006013, 0.08707074, 0.09792668, 0.1099625, 0.1091615, 0.08028834, 0.09723676, 0.1146275, 0.1138411
 112205933, 0.09231102, 0.08667262, 0.1054356, 0.1046446, 0.08707074, 0.09792668, 0.1099625, 0.1091615
 112405853, 0.08817824, 0.09273989, 0.1002112, 0.09951893, 0.09231102, 0.08667262, 0.1054356, 0.1046446
 112605773, 0.07381953, 0.09700646, 0.09504694, 0.09444131, 0.08817824, 0.09273989, 0.1002112, 0.09951893
 112806526, 0.07097335, 0.07961681, 0.09018654, 0.08955963, 0.07381953, 0.09700646, 0.09504694, 0.09444131
 113006446, 0.0806554, 0.06997495, 0.08525727, 0.08461177, 0.07097335, 0.07961681, 0.09018654, 0.08955963
 113206366, 0.07231349, 0.07563355, 0.08062467, 0.08005948, 0.0806554, 0.06997495, 0.08525727, 0.08461177
 113406286, 0.07910673, 0.07722076, 0.07573309, 0.07515863, 0.07231349, 0.07563355, 0.08062467, 0.08005948
 113606206, 0.07985494, 0.06569019, 0.07066331, 0.07010713, 0.07910673, 0.07722076, 0.07573309, 0.07515863
 113806126, 0.07289343, 0.07129019, 0.06580956, 0.06536331, 0.07985494, 0.06569019, 0.07066331, 0.07010713
 114006046, 0.06706255, 0.06947958, 0.06074356, 0.06035239, 0.07289343, 0.07129019, 0.06580956, 0.06536331
 114205966, 0.06551146, 0.07057632, 0.05647478, 0.05611926, 0.06706255, 0.06947958, 0.06074356, 0.06035239
 114405886, 0.0691519, 0.06888891, 0.05182035, 0.05145574, 0.06551146, 0.07057632, 0.05647478, 0.05611926
 114605806, 0.06521877, 0.06260417, 0.04689747, 0.04653724, 0.0691519, 0.06888891, 0.05182035, 0.05145574
 114806559, 0.06274126, 0.05545564, 0.04216943, 0.04181657, 0.06521877, 0.06260417, 0.04689747, 0.04653724
 115006479, 0.05840972, 0.05507666, 0.03719016, 0.03690034, 0.06274126, 0.05545564, 0.04216943, 0.04181657
 115206399, 0.03455631, 0.04470636, 0.03257712, 0.03244764, 0.05840972, 0.05507666, 0.03719016, 0.03690034
 115406319, -0.01944328, 0.01538887, 0.02973686, 0.02949677, 0.03455631, 0.04470636, 0.03257712, 0.03244764
 115606239, -0.01130156, 0.01666991, 0.02816512, 0.02799201, -0.01944328, 0.01538887, 0.02973686, 0.02949677
 115806159, -0.00688224, 0.01659931, 0.02729153, 0.02715163, -0.01130156, 0.01666991, 0.02816512, 0.02799201
 116006079, -0.008068169, 0.01561771, 0.02681408, 0.02667889, -0.00688224, 0.01659931, 0.02729153, 0.02715163
 116205999, -0.005783913, 0.01558182, 0.02653711, 0.02642025, -0.008068169, 0.01561771, 0.02681408, 0.02667889
 116405919, -0.007309909, 0.01855519, 0.02638944, 0.02629969, -0.005783913, 0.01558182, 0.02653711, 0.02642025
 116605839, -0.01059602, 0.02050228, 0.02631651, 0.02623807, -0.007309909, 0.01855519, 0.02638944, 0.02629969
 116806592, -0.01247185, 0.02103095, 0.02627703, 0.02620036, -0.01059602, 0.02050228, 0.02631651, 0.02623807
 117006512, -0.01168812, 0.02043207, 0.02624418, 0.0261722, -0.01247185, 0.02103095, 0.02627703, 0.02620036
 117206432, -0.008512509, 0.01648757, 0.02621258, 0.02612811, -0.01168812, 0.02043207, 0.02624418, 0.0261722
 117406352, -0.01099562, 0.02003452, 0.02621331, 0.02615126, -0.008512509, 0.01648757, 0.02621258, 0.02612811
 117606272, -0.01024964, 0.02100302, 0.02620339, 0.02615757, -0.01099562, 0.02003452, 0.02621331, 0.02615126
 117806192, -0.01176239, 0.02029001, 0.02620685, 0.02614994, -0.01024964, 0.02100302, 0.02620339, 0.02615757
 118006112, -0.0106644, 0.01715501, 0.02619864, 0.02612345, -0.01176239, 0.02029001, 0.02620685, 0.02614994
 118206032, -0.009037584, 0.01988235, 0.02618982, 0.02614622, -0.0106644, 0.01715501, 0.02619864, 0.02612345
 118405952, -0.008061903, 0.01803332, 0.02618499, 0.02613072, -0.009037584, 0.01988235, 0.02618982, 0.02614622
 118605872, -0.006057312, 0.01987065, 0.02617816, 0.02614642, -0.008061903, 0.01803332, 0.02618499, 0.02613072
 118805792, -0.008414623, 0.01753641, 0.0261857, 0.02612671, -0.006057312, 0.01987065, 0.02617816, 0.02614642
 119006545, -0.006767107, 0.02028993, 0.02618031, 0.02614985, -0.008414623, 0.01753641, 0.0261857, 0.02612671
 119206465, -0.008310916, 0.01953071, 0.02618599, 0.02614263, -0.006767107, 0.02028993, 0.02618031, 0.02614985
 119406385, -0.01131299, 0.01705446, 0.02619986, 0.02612169, -0.008310916, 0.01953071, 0.02618599, 0.02614263
 119606305, -0.009627668, 0.01984815, 0.02619277, 0.02614417, -0.01131299, 0.01705446, 0.02619986, 0.02612169
 119806225, -0.009529734, 0.01979971, 0.02619324, 0.02614297, -0.009627668, 0.01984815, 0.02619277, 0.02614417
 120006145, -0.01149485, 0.01815282, 0.0262035, 0.02612808, -0.009529734, 0.01979971, 0.02619324, 0.02614297
 120206065, -0.01160508, 0.01783153, 0.02620509, 0.02612461, -0.01149485, 0.01815282, 0.0262035, 0.02612808
 120405985, -0.009680904, 0.01530063, 0.02619684, 0.02610497, -0.01160508, 0.01783153, 0.02620509, 0.02612461
 120605905, -0.009037683, 0.01815879, 0.02619523, 0.02612552, -0.009680904, 0.01530063, 0.02619684, 0.02610497
 120805825, -0.01030082, 0.02051151, 0.02620183, 0.02614498, -0.009037683, 0.01815879, 0.02619523, 0.02612552
 121006578, -0.009626908, 0.0191411, 0.02619972, 0.02613199, -0.01030082, 0.02051151, 0.02620183, 0.02614498
 121206498, -0.008400078, 0.0187911, 0.02619561, 0.02612827, -0.009626908, 0.0191411, 0.02619972, 0.02613199
 121406418, -0.008848109, 0.01992142, 0.0261983, 0.02613726, -0.008400078, 0.0187911, 0.02619561, 0.02612827
 121606338, -0.006741211, 0.01975754, 0.0261917, 0.02613514, -0.008848109, 0.01992142, 0.0261983, 0.02613726
 121806258, -0.008359937, 0.01878885, 0.02619796, 0.02612606, -0.006741211, 0.01975754, 0.0261917, 0.02613514
 122006178, -0.008630252, 0.01948435, 0.02619973, 0.02613137, -0.008359937, 0.01878885, 0.02619796, 0.02612606
 122206098, -0.008313619, 0.0178237, 0.02619913, 0.02611691, -0.008630252, 0.01948435, 0.02619973, 0.02613137
 122406018, -0.007763586, 0.02118955, 0.02619784, 0.02614579, -0.008313619, 0.0178237, 0.02619913, 0.02611691
 122605938, -0.008469979, 0.02281693, 0.02620102, 0.02616131, -0.007763586, 0.02118955, 0.02619784, 0.02614579
 122805858, -0.01243437, 0.01857484, 0.02622013, 0.02612138, -0.008469979, 0.02281693, 0.02620102, 0.02616131
 123005778, -0.009423058, 0.01731919, 0.02620567, 0.02611099, -0.01243437, 0.01857484, 0.02622013, 0.02612138
 123206531, -0.008506001, 0.01888156, 0.02620235, 0.02612338, -0.009423058, 0.01731919, 0.02620567, 0.02611099
 123406451, -0.0111716, 0.01991302, 0.02621457, 0.02613193, -0.008506001, 0.01888156, 0.02620235, 0.02612338
 123606371, -0.01058304, 0.02063831, 0.02621201, 0.02613824, -0.0111716, 0.01991302, 0.02621457, 0.02613193
 123806291, -0.01162946, 0.02146711, 0.02621755, 0.02614576, -0.01058304, 0.02063831, 0.02621201, 0.02613824
 124006211, -0.008989519, 0.02212795, 0.02620552, 0.02615207, -0.01162946, 0.02146711, 0.02621755, 0.02614576
 124206131, -0.007762875, 0.01859512, 0.02620096, 0.0261197, -0.008989519, 0.02212795, 0.02620552, 0.02615207
 124406051, -0.006541987, 0.01606584, 0.02619715, 0.02609988, -0.007762875, 0.01859512, 0.02620096, 0.0261197
 124605971, -0.008571813, 0.01601403, 0.02620427, 0.02609926, -0.006541987, 0.01606584, 0.02619715, 0.02609988
 124805891, -0.008035159, 0.02102846, 0.02620263, 0.02614066, -0.008571813, 0.01601403, 0.02620427, 0.02609926
 125005811, -0.01118922, 0.01963855, 0.02621648, 0.02612768, -0.008035159, 0.02102846, 0.02620263, 0.02614066
