TimeUS,CAN,CAE,CAD,CAe,NAN,NAE,NAD,NAe,m10,m00,Gye
 8425795, 0.01136754, 0.0003521068, -0.05493043, 1.567772, 0.004226382, 0.000874049, -0.07658824, 1.566978, -0.9757831, -0.2187405, 11.72367
 8606556, 0.004411573, 0.001107834, -0.07856987, 1.60108, -0.0001053945, 9.190226E-05, -0.001018357, 0.03363385, -0.9814997, -0.1914634, 28251.94
 8806476, 0.0001526288, 1.658936E-05, -0.003313043, 0.07129171, 8.807564E-05, 8.436442E-05, -0.001067009, 0.03718013, -0.9869645, -0.160938, 43.18072
 9006396, 5.226101E-05, 0.0002111727, -0.00309779, 0.07482506, 0.000116906, 5.071903E-05, -0.001133804, 0.03718013, -0.990826, -0.1351437, 44.76286
 9206316, 0.0005031109, 0.0001864773, -0.003193448, 0.07482506, 0.0003678887, 8.221803E-05, -0.0008983558, 0.03718013, -0.9935443, -0.1134445, 44.76286
 9406236, 0.0005420726, 0.0003032015, -0.003284474, 0.07482506, -3.34362E-05, 0.0005853602, -0.001335766, 0.03718013, -0.9954585, -0.09519684, 44.76286
 9606156, 0.0001312212, 0.0008702832, -0.003551504, 0.07482506, -0.0001152051, 0.0004466574, -0.0010094, 0.03718013, -0.9968082, -0.07983472, 44.76286
 9806076, 5.263516E-05, 0.000377942, -0.003474504, 0.07483085, -0.000172283, 0.0001099787, -0.001350016, 0.03719873, -0.9977587, -0.06691501, 44.76818
 10005996, -0.000103719, 0.0002400374, -0.003611882, 0.07486238, 3.640036E-05, -0.000185404, -0.0009554735, 0.03719873, -0.9984273, -0.05606233, 44.78527
 10205916, 8.293648E-05, -2.691504E-05, -0.003034302, 0.07486238, 0.0002475821, 0.0002614036, -0.0009464041, 0.03719873, -0.9988958, -0.04697917, 44.78527
 10405836, 0.0004009314, 0.0004642816, -0.003147727, 0.07486238, 0.0004971712, 1.743067E-07, -0.001453383, 0.03719873, -0.999225, -0.03936251, 44.78527
 10606589, 0.0007124526, 0.0002679878, -0.003627812, 0.07501738, 4.992104E-05, -0.000181214, -0.001026505, 0.03735372, -0.9994572, -0.03294172, 43.19506
 10806509, 0.0002143867, 8.02404E-05, -0.003433048, 0.07501159, 0.000295942, 0.0001425361, -0.00127683, 0.03718014, -0.9996195, -0.02758481, 44.8735
 11006429, 0.000402274, 0.0004013733, -0.003603744, 0.07482506, -0.000110588, 0.0001023422, -0.001170498, 0.03718014, -0.9997336, -0.02308015, 44.76286
 11206349, 0.0001281962, 0.0001565158, -0.003352269, 0.07482506, 0.0002471704, 0.0001468803, -0.001289152, 0.03718014, -0.9998137, -0.01930189, 44.76286
 11406269, 0.0006466609, 0.0002571244, -0.003499218, 0.07482506, 0.0007056731, -0.0001980052, -0.001373446, 0.03718014, -0.9998698, -0.0161313, 44.76286
 11606189, 0.0008814077, -0.0001023157, -0.003605867, 0.07482506, 0.0002685707, 2.200549E-05, -0.001246639, 0.03718014, -0.9999092, -0.01347729, 44.76286
 11806109, 0.0007648389, 0.0004360591, -0.003483331, 0.07482506, 0.0002325423, 0.0004736943, -0.001172948, 0.03718014, -0.9999366, -0.0112527, 44.76286
 12006029, 0.0006231914, 0.0008420208, -0.003304727, 0.07482506, 8.441085E-05, 0.0001814903, -0.001405026, 0.03718014, -0.9999559, -0.009397893, 44.76286
 12205949, 0.0004669422, 0.0005310419, -0.003733359, 0.07482506, 0.0002268599, 3.172011E-05, -0.0009188384, 0.03718014, -0.9999693, -0.007837268, 44.76286
 12405869, 0.0005707585, 0.0002618201, -0.003047526, 0.07482506, -0.0001682004, 0.000236069, -0.001125913, 0.03718014, -0.9999789, -0.006498989, 44.76286
 12605789, 0.0001451682, 0.0005954994, -0.003379921, 0.07482506, 0.0003876385, 7.538003E-05, -0.0008679469, 0.03718014, -0.9999863, -0.005251634, 44.76286
 12806542, 0.0008105272, 0.0001631804, -0.003020172, 0.07498554, 0.0002294454, -1.45309E-05, -0.001121595, 0.03735372, -0.9999912, -0.004203274, 44.85975
 13006462, 0.0005984776, -1.904184E-05, -0.003290223, 0.07501738, 0.0003140419, -0.0001349918, -0.001639623, 0.03719873, -0.9999945, -0.003337231, 44.87799
 13206382, 0.000625449, 0.0002643021, -0.003655956, 0.07486238, 3.8096E-05, 0.0001331003, -0.001090912, 0.03719873, -0.9999965, -0.002628111, 44.78527
 13406302, 3.576172E-05, 0.0003033827, -0.003271178, 0.07486238, -0.0001554833, 0.0002642378, -0.00119937, 0.03719873, -0.9999979, -0.002042234, 44.78527
 13606222, -3.620965E-05, 0.0007375129, -0.003216675, 0.07486238, -9.250687E-05, 0.0002738802, -0.001055044, 0.03719873, -0.9999988, -0.001544205, 44.78527
 13806142, 0.0002866502, 0.0006540554, -0.003267542, 0.07485683, 0.0005481223, 0.0002013227, -0.001206357, 0.03718014, -0.9999994, -0.001115811, 44.78107
 14006062, 0.0009291699, 0.0004710963, -0.00325474, 0.07482506, 2.546394E-05, 0.0001844161, -0.001150745, 0.03718014, -0.9999998, -0.0007447338, 44.76286
 14205982, 0.0003315967, 0.0002959724, -0.003409654, 0.07482506, 2.93377E-05, -0.0001078892, -0.00127615, 0.03718014, -0.9999999, -0.0004275663, 44.76286
 14405902, 0.0004143098, 0.0001984321, -0.003377521, 0.07482506, -4.842257E-05, 0.0002059671, -0.001191329, 0.03718014, -1, -0.0001628688, 44.76286
 14605822, -4.227817E-05, 0.0003002168, -0.003419831, 0.07482506, 7.952864E-05, -1.534785E-05, -0.001146852, 0.03718014, -1, 5.78304E-05, 44.76286
 14806575, 0.0002899413, 0.0001966047, -0.003301312, 0.07498562, 0.0002453735, -3.79453E-05, -0.001226106, 0.03735372, -1, 0.0002462931, 44.85975
 15006495, 0.0005315607, 7.423062E-05, -0.003490733, 0.07501738, 0.0002984325, -3.197268E-05, -0.001049418, 0.03719873, -0.9999999, 0.0003989383, 44.87799
 15206415, 0.0003147924, 0.0002240375, -0.003445995, 0.07486238, 0.0001085602, 0.0003893249, -0.001273013, 0.03719873, -0.9999999, 0.0005140578, 44.78527
 15406335, 0.0003454662, 0.000799865, -0.003354484, 0.07486238, 0.000333152, -1.129603E-05, -0.0009245176, 0.03719873, -0.9999999, 0.0005969596, 44.78527
 15606255, 0.0004353459, 0.0004031418, -0.002988982, 0.07486238, 0.0002408119, 0.0001085837, -0.0008051654, 0.03719873, -0.9999998, 0.0006543417, 44.78527
 15806175, 0.0005083147, 0.0005019779, -0.002940749, 0.07485683, 0.0002137036, 0.0001671457, -0.001402499, 0.03718014, -0.9999998, 0.0007012144, 44.78107
 16006095, 0.0004759173, 0.0005343875, -0.003274767, 0.07482506, 0.0001123353, 0.0002637647, -0.001076699, 0.03718014, -0.9999998, 0.0007480357, 44.76286
 16206015, 0.0003844604, 0.0005046764, -0.003657165, 0.07482506, 0.0001212451, 5.81687E-05, -0.001575886, 0.03718014, -0.9999996, 0.0007881203, 44.76286
 16405935, 0.0003692169, 0.0004024758, -0.003746707, 0.07482506, 0.0002670288, 1.451311E-05, -0.001301402, 0.03718014, -0.9999996, 0.0008230261, 44.76286
 16605855, 0.0004012336, 0.0002281388, -0.003484115, 0.07482506, -8.266419E-05, 0.000124061, -0.001250935, 0.03718014, -0.9999996, 0.0008574222, 44.76286
 16805775, 0.0002981247, 0.0007869707, -0.003245867, 0.07482506, 0.0002832909, 0.0004537048, -0.0009446537, 0.03718014, -0.9999996, 0.0008904372, 44.76286
 17006528, 0.000661766, 0.0008448508, -0.003079935, 0.07497998, 0.0005163376, 0.0003682423, -0.001423629, 0.03733505, -0.9999996, 0.0009196326, 44.85553
 17206448, 0.0008105673, 0.0006191023, -0.003518992, 0.07497998, 6.107266E-05, -0.0001027306, -0.0008103084, 0.03718014, -0.9999995, 0.0009557221, 44.85553
 17406368, 0.0006698247, 1.082228E-05, -0.003182785, 0.07482506, 0.0004045739, -6.638961E-05, -0.001400893, 0.03718014, -0.9999995, 0.0009927186, 44.76286
 17606288, 0.0008508277, 0.0002412356, -0.003732138, 0.07482506, 0.0006103707, 0.0002420133, -0.001308211, 0.03718014, -0.9999995, 0.001022595, 44.76286
 17806208, 0.0007191722, 0.000659028, -0.003416051, 0.07483039, 0.000113127, 0.0002914048, -0.001087771, 0.03719873, -0.9999995, 0.00104226, 44.76678
 18006128, 0.0002559896, 0.0005315491, -0.003405297, 0.07486238, 0.0001798129, -0.0001556013, -0.001437612, 0.03719873, -0.9999995, 0.001058619, 44.78527
 18206048, 0.0004556708, 0.0002725318, -0.003480032, 0.07486238, 0.0001474939, 0.0003445467, -0.001194018, 0.03719873, -0.9999994, 0.001061074, 44.78527
 18405968, 0.000676787, 0.0009734423, -0.003347478, 0.07486238, 6.093718E-05, 0.0006086955, -0.000921609, 0.03719873, -0.9999994, 0.001041373, 44.78527
 18605888, 0.0004092778, 0.001406714, -0.002959919, 0.07486238, 0.0001955619, 0.0001901165, -0.00138291, 0.03719873, -0.9999995, 0.001004824, 44.78527
 18805808, 0.000592637, 0.0009181022, -0.003505065, 0.07485706, 0.0003465708, 0.0003181109, -0.001252823, 0.03718014, -0.9999995, 0.0009890317, 44.78135
 19006561, 0.0008966654, 0.0006833512, -0.003241016, 0.07497998, 0.0006665385, 9.056448E-05, -0.001212298, 0.03733505, -0.9999995, 0.00100319, 44.85553
 19206481, 0.001051981, 0.0005073251, -0.003385386, 0.07497998, 6.902718E-05, 0.0005595773, -0.0009688482, 0.03718014, -0.9999995, 0.001020901, 44.85553
 19406401, 0.0003800042, 0.0007295155, -0.003281909, 0.07482506, 0.0001836462, 0.0002933034, -0.001303809, 0.03718014, -0.9999995, 0.001033485, 44.76286
 19606321, 0.0004297791, 0.0006982348, -0.003472204, 0.07482506, -0.0001948605, 0.0006199525, -0.001340219, 0.03718014, -0.9999995, 0.00104072, 44.76286
 19806241, 0.0001825838, 0.0008155527, -0.00376965, 0.07483039, 0.000250736, 0.0002260647, -0.001036544, 0.03719873, -0.9999994, 0.001038912, 44.76678
 20006161, 0.0005870929, 0.0004627644, -0.003198085, 0.07486238, -0.0001312332, 0.0004106775, -0.001340061, 0.03719873, -0.9999994, 0.001039607, 44.78527
 20206081, 0.0003109699, 0.001010516, -0.003443941, 0.07486238, 1.044775E-05, 0.0003886699, -0.0008396711, 0.03719873, -0.9999994, 0.001035422, 44.78527
 20406001, 0.0002349677, 0.0009160521, -0.003066175, 0.07486238, 0.0002608317, 0.0002949278, -0.001157495, 0.03719873, -0.9999994, 0.001022655, 44.78527
 20605921, 0.0005885871, 0.0008888828, -0.003187927, 0.07486238, 0.0001197545, 0.0002241218, -0.001147432, 0.03719873, -0.9999995, 0.001008277, 44.78527
 20805841, 0.0003579086, 0.0006235765, -0.003222814, 0.07485729, -0.0002329477, 0.0003565221, -0.001367497, 0.03718014, -0.9999995, 0.001009512, 44.78163
 21005761, 0.0002116846, 0.0006122376, -0.003482174, 0.07482506, 0.0002591765, -5.231615E-05, -0.001048676, 0.03718014, -0.9999995, 0.001025195, 44.76286
 21206514, 0.0007542126, 0.0001703299, -0.003019683, 0.07497998, 0.0004874153, 0.0003142947, -0.001131755, 0.03733505, -0.9999995, 0.001040516, 44.85553
 21406434, 0.001010424, 0.0009614165, -0.00334037, 0.07497998, 0.0005835526, 0.0002944593, -0.0009297584, 0.03718014, -0.9999994, 0.001034908, 44.85553
 21606354, 0.001091442, 0.0007957509, -0.003055856, 0.07482506, 0.0002730738, 0.0002554067, -0.0009953855, 0.03718014, -0.9999994, 0.0010304, 44.76286
 21806274, 0.0006393003, 0.0008982532, -0.003160861, 0.07482506, 0.0004184576, 0.0001344703, -0.001268048, 0.03718014, -0.9999994, 0.001043195, 44.76286
 22006194, 0.0009081842, 0.0004150372, -0.003289777, 0.07482506, 0.0001188373, 0.0001109267, -0.0009940723, 0.03718014, -0.9999994, 0.001064647, 44.76286
 22206114, 0.0006846373, 0.0006393505, -0.003430422, 0.07482506, 0.0003962348, 0.0002952365, -0.001245226, 0.03718014, -0.9999994, 0.001084498, 44.76286
 22406034, 0.0008464982, 0.0006822122, -0.003395627, 0.07482506, 0.0003985669, 0.0006236103, -0.001374392, 0.03718014, -0.9999993, 0.001234958, 44.76286
 22605954, 0.0008969044, 0.001167585, -0.003616513, 0.07482506, 0.0003107573, 0.0004331303, -0.001035013, 0.03718014, -0.999999, 0.001411826, 44.76286
 22805874, 0.001132769, 0.0009406514, -0.003263367, 0.07483016, 0.0006161331, -2.714239E-05, -0.001226807, 0.03719873, -0.9999987, 0.001578321, 44.7665
 23005794, 0.001259226, 0.0008158198, -0.003750171, 0.07486238, 0.0002972364, 0.0002877461, -0.001267468, 0.03719873, -0.9999985, 0.001740003, 44.78527
 23206547, 0.001231001, 0.001136617, -0.003460628, 0.07501738, 0.0005485328, 0.0004268112, -0.001047561, 0.03735372, -0.9999982, 0.001898324, 44.87799
 23406467, 0.001353205, 0.00118778, -0.003133287, 0.07501738, 0.0004140197, 0.0004026853, -0.001265858, 0.03719873, -0.9999979, 0.002051211, 44.87799
 23606387, 0.001211423, 0.001188901, -0.003424929, 0.07486238, 0.0003739243, 0.0002337309, -0.001211801, 0.03719873, -0.9999975, 0.002200506, 44.78527
 23806307, 0.001348806, 0.001165401, -0.003293114, 0.07485729, 0.0005449325, 0.0005789797, -0.0009987805, 0.03718014, -0.9999971, 0.002344612, 44.78163
 24006227, 0.001749014, 0.001765831, -0.003176726, 0.07482506, 0.0007314585, 0.0006929277, -0.001421693, 0.03718014, -0.9999968, 0.002485682, 44.76286
 24206147, 0.001910331, 0.001621041, -0.003454697, 0.07482506, 0.0006289539, 0.0006976875, -0.001102341, 0.03718014, -0.9999964, 0.002622162, 44.76286
 24406067, 0.001941172, 0.001951155, -0.003325575, 0.07482506, 0.0007505413, 0.0005312011, -0.001112853, 0.03718014, -0.9999961, 0.002755101, 44.76286
 24605987, 0.001890208, 0.001879004, -0.003366481, 0.07482506, 0.0006227909, 0.0006891293, -0.001331979, 0.03718014, -0.9999957, 0.002885166, 44.76286
 24805907, 0.00210806, 0.002114644, -0.003491402, 0.07482993, 0.0009597098, 0.001093612, -0.001195607, 0.03719873, -0.9999954, 0.003010515, 44.76622
 25005827, 0.002311019, 0.002825289, -0.003422586, 0.07486238, 0.000487603, 0.000993839, -0.001085533, 0.03719873, -0.9999949, 0.003132134, 44.78527
 25206580, 0.00229338, 0.002682156, -0.003267018, 0.07501738, 0.0009539665, 0.0008324853, -0.001070267, 0.03735372, -0.9999945, 0.003251898, 44.87799
 25406500, 0.002841891, 0.002416638, -0.003098009, 0.07501738, 0.0009967816, 0.0008925173, -0.001035539, 0.03719873, -0.999994, 0.003367764, 44.87799
 25606420, 0.002726467, 0.002699099, -0.00332254, 0.07486238, 0.000835434, 0.001151515, -0.001359099, 0.03719873, -0.9999937, 0.003480702, 44.78527
 25806340, 0.00245925, 0.003151918, -0.003575478, 0.07485752, 0.0006899321, 0.0009993239, -0.001041915, 0.03718014, -0.9999932, 0.003591821, 44.78191
 26006260, 0.002560616, 0.002759136, -0.003344081, 0.07482506, 0.001023843, 0.001027491, -0.001014755, 0.03718014, -0.9999928, 0.003699531, 44.76286
 26206180, 0.002962223, 0.003011181, -0.003262156, 0.07482506, 0.001356252, 0.001003051, -0.001298562, 0.03718014, -0.9999924, 0.003805691, 44.76286
 26406100, 0.003405347, 0.002933331, -0.003414768, 0.07482506, 0.001079948, 0.001544032, -0.0009293748, 0.03718014, -0.999992, 0.003907113, 44.76286
 26606020, 0.003208686, 0.003593907, -0.003147992, 0.07482506, 0.001023283, 0.001140959, -0.0009425778, 0.03718014, -0.9999915, 0.004005509, 44.76286
 26805940, 0.003301403, 0.003178865, -0.003162282, 0.07482506, 0.00130286, 0.001286117, -0.001116092, 0.03718014, -0.9999911, 0.004102323, 44.76286
 27005860, 0.003648689, 0.00331713, -0.003298784, 0.07482506, 0.001198897, 0.001238129, -0.001256579, 0.03718014, -0.9999907, 0.004195607, 44.76286
 27205780, 0.003316596, 0.003376144, -0.003577089, 0.07482506, 0.0009917096, 0.0007429228, -0.001435205, 0.03718014, -0.9999903, 0.004287201, 44.76286
 27406533, 0.003214094, 0.00303135, -0.003601426, 0.07497998, 0.001364323, 0.001161871, -0.001028894, 0.03733505, -0.9999899, 0.004377496, 44.85553
 27606453, 0.003640375, 0.00365066, -0.003077049, 0.07497998, 0.001508218, 0.001782124, -0.000938761, 0.03718014, -0.9999895, 0.004451531, 44.85553
 27806373, 0.003904354, 0.00426848, -0.003100912, 0.07482993, 0.00114629, 0.001358045, -0.001262257, 0.03719873, -0.9999893, 0.004496306, 44.76622
 28006293, 0.003512416, 0.003790343, -0.003458973, 0.07486238, 0.001262052, 0.001324168, -0.00117287, 0.03719873, -0.999989, 0.004540484, 44.78527
 28206213, 0.003707639, 0.003847867, -0.003293725, 0.07486238, 0.001357333, 0.001214295, -0.001236925, 0.03719873, -0.9999889, 0.004582964, 44.78527
 28406133, 0.003840295, 0.003515485, -0.003650244, 0.07486238, 0.001277993, 0.001269234, -0.001019542, 0.03719873, -0.9999887, 0.004625014, 44.78527
 28606053, 0.004021712, 0.003717058, -0.003300325, 0.07486238, 0.001189507, 0.001488252, -0.001224028, 0.03719873, -0.9999884, 0.004665831, 44.78527
 28805973, 0.003687998, 0.004164292, -0.003452282, 0.07485775, 0.001086251, 0.001371127, -0.001282616, 0.03718014, -0.9999882, 0.00470569, 44.78219
 29005893, 0.003786523, 0.004111934, -0.003503424, 0.07482506, 0.001411496, 0.001433749, -0.0009694012, 0.03718014, -0.9999881, 0.004744266, 44.76286
 29205813, 0.003964526, 0.00417268, -0.003150451, 0.07482506, 0.001269278, 0.001168906, -0.001196673, 0.03718014, -0.9999878, 0.004782503, 44.76286
 29406566, 0.003950536, 0.004090013, -0.003479297, 0.07497998, 0.001767588, 0.001303087, -0.001224681, 0.03733505, -0.9999876, 0.004820935, 44.85553
 29606486, 0.0045065, 0.0039969, -0.003316446, 0.07497998, 0.001398316, 0.001628339, -0.0009627459, 0.03718014, -0.9999874, 0.004858292, 44.85553
 29806406, 0.003996258, 0.004493108, -0.003037596, 0.0748297, 0.001654394, 0.001535408, -0.001073501, 0.03719873, -0.9999872, 0.00489459, 44.76594
 30006326, 0.004405144, 0.004284069, -0.003057385, 0.07486238, 0.001522643, 0.001619855, -0.001329098, 0.03719873, -0.999987, 0.004929656, 44.78527
 30206246, 0.004292539, 0.004338574, -0.003614767, 0.07486238, 0.001552017, 0.001738226, -0.001110432, 0.03719873, -0.9999869, 0.00496432, 44.78527
 30406166, 0.004405674, 0.004692636, -0.003327721, 0.07486238, 0.001587222, 0.001454732, -0.001561946, 0.03719873, -0.9999866, 0.004997834, 44.78527
 30606086, 0.004657156, 0.004487249, -0.00377458, 0.07486238, 0.001776609, 0.001612222, -0.001038642, 0.03719873, -0.9999864, 0.005031646, 44.78527
 30806006, 0.004366802, 0.004472852, -0.003144986, 0.07486238, 0.001357292, 0.001759054, -0.0009893237, 0.03719873, -0.9999863, 0.005063492, 44.78527
 31005926, 0.004125135, 0.004401491, -0.003465316, 0.07486238, 0.001552161, 0.001365494, -0.001412889, 0.03719873, -0.9999861, 0.005094615, 44.78527
 31205846, 0.004551229, 0.004367311, -0.003694602, 0.07486238, 0.001614921, 0.001737587, -0.001119876, 0.03719873, -0.9999859, 0.005124961, 44.78527
 31405766, 0.004684448, 0.0049183, -0.003481862, 0.07486238, 0.00178267, 0.001424719, -0.001554394, 0.03719873, -0.9999857, 0.005154498, 44.78527
 31606519, 0.004996323, 0.004453631, -0.003802263, 0.07501738, 0.001572461, 0.001672673, -0.001385322, 0.03735372, -0.9999855, 0.005183392, 44.87799
 31806439, 0.004783501, 0.004650986, -0.003537686, 0.07501738, 0.001691149, 0.001744577, -0.001229628, 0.03719873, -0.9999853, 0.005212686, 44.87799
 32006359, 0.004707009, 0.004997982, -0.00325503, 0.07486238, 0.001761263, 0.001644485, -0.001062498, 0.03719873, -0.9999852, 0.005241571, 44.78527
 32206279, 0.004830976, 0.004692158, -0.003257508, 0.07486238, 0.001616583, 0.001475616, -0.001583144, 0.03719873, -0.999985, 0.005269127, 44.78527
 32406199, 0.00492879, 0.004643495, -0.003982353, 0.07486238, 0.00160974, 0.0020333, -0.001327686, 0.03719873, -0.9999849, 0.005296528, 44.78527
 32606119, 0.004857377, 0.005394419, -0.003627018, 0.07486238, 0.001931155, 0.001815194, -0.0009198, 0.03719873, -0.9999847, 0.00532218, 44.78527
 32806039, 0.005296141, 0.005007105, -0.003170318, 0.07486238, 0.001929573, 0.001762273, -0.001463481, 0.03719873, -0.9999849, 0.005277782, 44.78527
 33005959, 0.005287717, 0.004958045, -0.003415013, 0.07486238, 0.001845207, 0.001580064, -0.0007972936, 0.03719873, -0.9999851, 0.005234092, 44.78527
 33205879, 0.005063602, 0.00491869, -0.002821246, 0.07486238, 0.00183856, 0.001769082, -0.001183674, 0.03719873, -0.9999853, 0.005191574, 44.78527
 33405799, 0.005054161, 0.005252012, -0.002991384, 0.07486238, 0.001780248, 0.002057219, -0.0008620009, 0.03719873, -0.9999856, 0.005149475, 44.78527
 33606552, 0.004898524, 0.005669317, -0.003262918, 0.07501738, 0.001531935, 0.001628786, -0.001281012, 0.03735372, -0.9999857, 0.005109257, 44.87799
 33806472, 0.00484586, 0.005097017, -0.003678094, 0.07501738, 0.001987397, 0.001829422, -0.001376328, 0.03719873, -0.9999859, 0.005070617, 44.87799
 34006392, 0.005247286, 0.005110423, -0.003532662, 0.07486238, 0.001570316, 0.001686848, -0.001066357, 0.03719873, -0.9999862, 0.00503276, 44.78527
 34206312, 0.004972298, 0.00517715, -0.003228451, 0.07486238, 0.001708328, 0.00192283, -0.00121722, 0.03719873, -0.9999863, 0.004996405, 44.78527
 34406232, 0.004832661, 0.005254977, -0.003476705, 0.07486238, 0.001904949, 0.001848355, -0.00124432, 0.03719873, -0.9999864, 0.004960949, 44.78527
 34606152, 0.00517008, 0.00542637, -0.003433374, 0.07486238, 0.001714216, 0.001936728, -0.001528932, 0.03719873, -0.9999865, 0.004926176, 44.78527
 34806072, 0.004854308, 0.005356348, -0.003541694, 0.07486238, 0.001601722, 0.002066075, -0.001251716, 0.03719873, -0.9999868, 0.004891649, 44.78527
 35005992, 0.004837785, 0.005362304, -0.003682242, 0.07486238, 0.001899134, 0.00177844, -0.00152582, 0.03719873, -0.9999869, 0.004859062, 44.78527
 35205912, 0.005143307, 0.005337016, -0.003974258, 0.07486238, 0.001793918, 0.001845874, -0.00147353, 0.03719873, -0.9999871, 0.004827206, 44.78527
 35405832, 0.005401934, 0.005313269, -0.003599822, 0.07486238, 0.001996068, 0.00177988, -0.0008675359, 0.03719873, -0.9999871, 0.004795741, 44.78527
 35606585, 0.005268024, 0.005383687, -0.002895364, 0.07501738, 0.002149032, 0.002110294, -0.0008353845, 0.03735372, -0.9999874, 0.004765944, 44.87799
 35806505, 0.005452667, 0.005541282, -0.003280144, 0.07501738, 0.001947428, 0.002029216, -0.001229627, 0.03719873, -0.9999874, 0.004737791, 44.87799
 36006425, 0.005305833, 0.005515628, -0.003427805, 0.07486238, 0.001795374, 0.001620748, -0.001197804, 0.03719873, -0.9999875, 0.004710636, 44.78527
 36206345, 0.005057014, 0.005178645, -0.003274597, 0.07486238, 0.001649406, 0.001831581, -0.001173537, 0.03719873, -0.9999876, 0.004684031, 44.78527
 36406265, 0.005096412, 0.005419862, -0.003473196, 0.07486238, 0.002058672, 0.001959972, -0.001048181, 0.03719873, -0.9999877, 0.004657799, 44.78527
 36606185, 0.005696879, 0.005405219, -0.003152101, 0.07486238, 0.001935288, 0.002016523, -0.001179061, 0.03719873, -0.9999878, 0.004632664, 44.78527
 36806105, 0.005333437, 0.00552619, -0.003304282, 0.07486238, 0.002178532, 0.00190533, -0.001069582, 0.03719873, -0.999988, 0.004607932, 44.78527
 37006025, 0.00569819, 0.005540949, -0.003323754, 0.07486238, 0.001772767, 0.001970181, -0.001354918, 0.03719873, -0.9999881, 0.004584771, 44.78527
 37205945, 0.005093893, 0.005705282, -0.003584607, 0.07486238, 0.001518371, 0.002274352, -0.0009132509, 0.03719873, -0.9999881, 0.004561496, 44.78527
 37405865, 0.005240791, 0.005760776, -0.003228501, 0.07486238, 0.001828805, 0.001928985, -0.001259458, 0.03719873, -0.9999882, 0.004539152, 44.78527
 37605785, 0.005562043, 0.005559888, -0.003579826, 0.07486238, 0.002013711, 0.001949697, -0.001526637, 0.03719873, -0.9999883, 0.004515577, 44.78527
 37806538, 0.005616437, 0.005729297, -0.003682818, 0.07501738, 0.002007999, 0.001831186, -0.0009965942, 0.03735372, -0.9999887, 0.00443883, 44.87799
 38006458, 0.005520661, 0.005558122, -0.002971388, 0.07501738, 0.001956905, 0.001733344, -0.0007776546, 0.03719873, -0.999989, 0.00434561, 44.87799
 38206378, 0.005622642, 0.005310741, -0.003272062, 0.07486238, 0.001810777, 0.001378837, -0.001768134, 0.03719873, -0.9999895, 0.004255718, 44.78527
 38406298, 0.005270561, 0.005021372, -0.00393424, 0.07486238, 0.00187301, 0.001909674, -0.001337976, 0.03719873, -0.9999899, 0.004167347, 44.78527
 38606218, 0.005481398, 0.005526864, -0.003477343, 0.07486238, 0.002138376, 0.002218993, -0.001072882, 0.03719873, -0.9999902, 0.004080882, 44.78527
 38806138, 0.005636603, 0.005946212, -0.003213355, 0.07486238, 0.002067724, 0.001993507, -0.0007001436, 0.03719873, -0.9999905, 0.003997107, 44.78527
 39006058, 0.005815659, 0.005634934, -0.002780077, 0.07486238, 0.00223711, 0.001861284, -0.001303966, 0.03719873, -0.9999908, 0.003915749, 44.78527
 39205978, 0.005972599, 0.005563149, -0.003538229, 0.07486238, 0.00203471, 0.001872212, -0.001346496, 0.03719873, -0.9999912, 0.003837194, 44.78527
 39405898, 0.005686328, 0.005395003, -0.003611893, 0.07486238, 0.00207556, 0.001976935, -0.001019615, 0.03719873, -0.9999914, 0.003760478, 44.78527
 39605818, 0.005651971, 0.005386281, -0.003110904, 0.07486238, 0.001846835, 0.001666485, -0.001047134, 0.03719873, -0.9999917, 0.003685656, 44.78527
 39806571, 0.005431452, 0.005392849, -0.003215806, 0.07501738, 0.001904547, 0.002078255, -0.00115471, 0.03735372, -0.9999919, 0.003612033, 44.87799
 40006491, 0.00551331, 0.005985688, -0.003223596, 0.07501738, 0.001723151, 0.002245537, -0.001124503, 0.03719873, -0.9999923, 0.003540692, 44.87799
 40206411, 0.005250174, 0.005651474, -0.00319706, 0.07486238, 0.001974113, 0.001801478, -0.0008889289, 0.03719873, -0.9999925, 0.003471629, 44.78527
 40406331, 0.005396611, 0.005445369, -0.003117501, 0.07486238, 0.001907827, 0.00223014, -0.000881318, 0.03719873, -0.9999926, 0.003404831, 44.78527
 40606251, 0.005390641, 0.006047096, -0.003030287, 0.07486238, 0.001947546, 0.002181546, -0.00123199, 0.03719873, -0.9999928, 0.003340154, 44.78527
 40806171, 0.005438085, 0.006010172, -0.003447507, 0.07486238, 0.001631526, 0.002381988, -0.001136512, 0.03719873, -0.9999931, 0.003276701, 44.78527
 41006091, 0.005167216, 0.006238367, -0.003152705, 0.07486238, 0.001906655, 0.002157094, -0.001145461, 0.03719873, -0.9999932, 0.003214435, 44.78527
 41206011, 0.005524925, 0.006013099, -0.003123923, 0.07486238, 0.001872718, 0.001948104, -0.001250146, 0.03719873, -0.9999934, 0.003154818, 44.78527
 41405931, 0.0056383, 0.005619785, -0.003518243, 0.07486238, 0.002036934, 0.001929943, -0.001173674, 0.03719873, -0.9999936, 0.00309538, 44.78527
 41605851, 0.005722166, 0.005876226, -0.003323246, 0.07486238, 0.002246165, 0.002407731, -0.001001313, 0.03719873, -0.9999938, 0.00303768, 44.78527
 41805771, 0.005926963, 0.006392526, -0.003354917, 0.07486238, 0.002173533, 0.002073298, -0.00121433, 0.03719873, -0.9999939, 0.002981717, 44.78527
 42006524, 0.0057629, 0.005853411, -0.00323033, 0.07501738, 0.00218752, 0.002166697, -0.001148803, 0.03735372, -0.999994, 0.002926397, 44.87799
 42206444, 0.006016833, 0.006256111, -0.003085725, 0.07501738, 0.00210631, 0.002019377, -0.001034926, 0.03719873, -0.9999942, 0.002873522, 44.87799
 42406364, 0.005750871, 0.005839155, -0.003204047, 0.07486238, 0.00167255, 0.002048676, -0.001323365, 0.03719873, -0.9999944, 0.002822175, 44.78527
 42606284, 0.005444201, 0.005851952, -0.003455979, 0.07486238, 0.00199154, 0.002081226, -0.001257582, 0.03719873, -0.9999945, 0.002772345, 44.78527
 42806204, 0.005607589, 0.005938114, -0.00347273, 0.07486238, 0.001482436, 0.002194893, -0.001126849, 0.03719873, -0.9999946, 0.002694574, 44.78527
 43006124, 0.004973023, 0.006307377, -0.003440469, 0.07486238, 0.001845041, 0.002555975, -0.001047265, 0.03719873, -0.999995, 0.002582505, 44.78527
 43206044, 0.005547905, 0.00640273, -0.003328218, 0.07486238, 0.001821572, 0.002183409, -0.001110898, 0.03719873, -0.9999952, 0.002474257, 44.78527
 43405964, 0.005545198, 0.006122841, -0.003337828, 0.07486238, 0.00175588, 0.002307557, -0.001142767, 0.03719873, -0.9999956, 0.002369611, 44.78527
 43605884, 0.005435176, 0.0062946, -0.003150749, 0.07486238, 0.001607315, 0.002123654, -0.0009926008, 0.03719873, -0.9999958, 0.002267695, 44.78527
 43805804, 0.005146624, 0.00583781, -0.00305634, 0.07486238, 0.002014445, 0.002020815, -0.001187849, 0.03719873, -0.9999961, 0.002169044, 44.78527
 44006557, 0.005556054, 0.006057549, -0.003309756, 0.07501738, 0.002091679, 0.001986479, -0.001229051, 0.03735372, -0.9999962, 0.00207266, 44.87799
 44206477, 0.005797395, 0.005847746, -0.003437595, 0.07501738, 0.002134552, 0.002103863, -0.0009686968, 0.03719873, -0.9999964, 0.001979789, 44.87799
 44406397, 0.005929573, 0.005650812, -0.003047789, 0.07486238, 0.002301839, 0.001809957, -0.0007556157, 0.03719873, -0.9999967, 0.001890212, 44.78527
 44606317, 0.005930385, 0.005377252, -0.003018196, 0.07486238, 0.00219803, 0.002199237, -0.001527139, 0.03719873, -0.9999968, 0.001802349, 44.78527
 44806237, 0.005743217, 0.005689368, -0.003570104, 0.07486238, 0.001822015, 0.001918135, -0.001142897, 0.03719873, -0.9999969, 0.001717259, 44.78527
 45006157, 0.005204123, 0.005618559, -0.003314437, 0.07486238, 0.001680572, 0.002136318, -0.001309586, 0.03719873, -0.999997, 0.001634435, 44.78527
 45206077, 0.005299447, 0.005718119, -0.003253928, 0.07486238, 0.002149877, 0.00209766, -0.000806649, 0.03719873, -0.9999973, 0.00155381, 44.78527
 45405997, 0.005894709, 0.005870847, -0.00301606, 0.07486238, 0.001997611, 0.002044513, -0.001050881, 0.03719873, -0.9999974, 0.001475378, 44.78527
 45605917, 0.005275979, 0.005934557, -0.003146166, 0.07486238, 0.001740211, 0.002222315, -0.001525148, 0.03719873, -0.9999974, 0.001399156, 44.78527
 45805837, 0.00538902, 0.005884876, -0.003694011, 0.07486238, 0.002226473, 0.001898546, -0.001206984, 0.03719873, -0.9999975, 0.00132432, 44.78527
 46006590, 0.005936929, 0.005630109, -0.003412959, 0.07501738, 0.002001224, 0.002190081, -0.001220971, 0.03735372, -0.9999976, 0.001251193, 44.87799
 46206510, 0.005657025, 0.006068585, -0.003466414, 0.07501738, 0.001877964, 0.001813635, -0.001252001, 0.03719873, -0.9999976, 0.001181008, 44.87799
 46406430, 0.005479118, 0.005543123, -0.03588873, 0.07486238, 0.001949758, 0.002166044, -0.07848866, 0.03719873, -0.9999977, 0.001112866, 44.78527
 46606350, 0.007070521, 0.007210091, -0.730864, 0.07486238, 0.002253238, 0.002363161, -0.2003355, 0.03719873, -0.9999979, 0.001046001, 44.78527
 46806270, 0.006496969, 0.006083066, -1.158146, 0.07486238, 0.00199362, 0.001485377, -0.9180698, 0.03719873, -0.9999995, 0.0009497282, 44.78527
 47006190, 0.002631482, 0.001453401, -2.401124, 0.07486238, -0.0006883127, -0.0007639343, -0.6314586, 0.03719873, -0.9999993, 0.000818888, 44.78527
 47206110, -0.003443954, -0.003503678, -1.447984, 0.07486238, -0.001724468, -0.001944523, -0.373285, 0.03719873, -0.999999, 0.0006837811, 44.78527
 47406030, -0.004261191, -0.0046311, -1.049105, 0.07486238, -0.001312571, -0.001318985, -0.3699152, 0.03719873, -0.999999, 0.0005579213, 44.78527
 47605950, -0.002880921, -0.003940802, -1.021685, 0.07486238, -0.0006434647, -0.001408103, -0.3355703, 0.03719873, -0.9999991, 0.0004247261, 44.78527
 47805870, -0.001507143, -0.002912654, -0.8867861, 0.07486238, -0.000265077, -0.0004229636, -0.2757953, 0.03719873, -0.9999996, 0.0002666289, 44.78527
 48005790, 4.070251E-05, -0.0004138629, -0.7307798, 0.07486238, 0.0004161276, -1.468498E-06, -0.2295036, 0.03719873, -0.9999999, 7.616921E-05, 44.78527
 48206543, 0.001929932, 0.001426704, -0.6134523, 0.07501738, 0.0007548695, 0.001224362, -0.1940299, 0.03735372, -1, 0.0001094363, 44.87799
 48406463, 0.00223684, 0.003529467, -0.5113268, 0.07501738, 0.0009044973, 0.001073462, -0.1588017, 0.03719873, -0.9999998, 0.0006391882, 44.87799
 48606383, 0.003052679, 0.004090667, -0.4195714, 0.07486238, 0.001476214, 0.001650606, -0.1316073, 0.03719873, -0.9999993, 0.001172715, 44.78527
 48806303, 0.004030695, 0.00490435, -0.346866, 0.07486238, 0.001399936, 0.001890819, -0.1074722, 0.03719873, -0.9999994, 0.001105687, 44.78527
 49006223, 0.004678042, 0.004992068, -0.2819806, 0.07486238, 0.001875533, 0.001893363, -0.08655759, 0.03719873, -0.9999999, 0.0004620065, 44.78527
 49206143, 0.005113162, 0.005722255, -0.2279541, 0.07486238, 0.001511924, 0.002150343, -0.07048505, 0.03719873, -0.9999999, -0.0002553304, 44.78527
 49406063, 0.004133441, 0.00611173, -0.1824102, 0.07486238, 0.001390946, 0.00169251, -0.05484614, 0.03719873, -0.9999993, -0.001166621, 44.78527
 49605983, 0.003461746, 0.004835487, -0.1422327, 0.07486238, 0.00065013, 0.001777566, -0.04330699, 0.03719873, -0.9999979, -0.002077539, 44.78527
 49805903, 0.001439405, 0.003754326, -0.1133639, 0.07486238, -0.0001044558, 0.0006528943, -0.03482664, 0.03719873, -0.9999955, -0.002965013, 44.78527
 50005823, -0.0001400274, 0.003121909, -0.09059699, 0.07486238, 0.0002355687, 0.001617928, -0.02718293, 0.03719873, -0.9999932, -0.003695582, 44.78527
 50206576, 0.001166841, 0.004866798, -0.07159661, 0.07501738, 0.0009911456, 0.0021024, -0.02212779, 0.03735372, -0.9999931, -0.003723643, 44.87799
 50406496, 0.003919219, 0.005660959, -0.05669679, 0.07501738, 0.002079562, 0.00235821, -0.01695469, 0.03719873, -0.9999948, -0.003217246, 44.87799
 50606416, 0.005597493, 0.005576307, 0.4289499, 0.07486238, 0.001823636, 0.001403129, 0.3849469, 0.03719873, -0.9999956, -0.002977828, 44.78527
 50806336, 0.004562598, 0.00440386, 1.01338, 0.07486238, 0.001424539, 0.001759783, 0.3147231, 0.03719873, -0.9999945, -0.003319346, 44.78527
 51006256, 0.00448025, 0.004767656, 0.8348675, 0.07486238, 0.001704975, 0.001633625, 0.2619602, 0.03719873, -0.9999905, -0.004358856, 44.78527
 51206176, 0.01492662, 0.01320686, 0.6200854, 0.07486238, 0.01361261, 0.01224586, 0.1795973, 0.03719873, -0.9999223, -0.005430937, 44.78527
 51406096, 0.04281684, 0.03907202, 0.5983537, 0.07486238, 0.01468388, 0.01373497, 0.2651777, 0.03719873, -0.9999012, -0.006106357, 44.78527
 51606016, 0.03496599, 0.032713, 0.8726069, 0.07486238, 0.008714021, 0.007939428, 0.3767573, 0.03719873, -0.9999445, -0.006242751, 44.78527
 51805936, 0.02070233, 0.01931846, 1.154724, 0.07486238, 0.005583786, 0.005495697, 0.4299393, 0.03719873, -0.9999641, -0.006026125, 44.78527
 52005856, 0.01458585, 0.01353491, 1.197433, 0.07486238, 0.00445865, 0.003749852, 0.4040505, 0.03719873, -0.9999735, -0.005880473, 44.78527
 52205776, 0.01110236, 0.009844197, 1.094914, 0.07486238, 0.003291807, 0.003141111, 0.3544413, 0.03719873, -0.9999774, -0.005993035, 44.78527
 52406529, 0.008729101, 0.007638051, 0.9476956, 0.07501738, 0.003245694, 0.002143431, 0.2988618, 0.03735372, -0.9999778, -0.006315075, 44.87799
 52606449, 0.01078821, 0.005390376, 0.7751848, 0.07501738, 0.004620026, 0.001530082, 0.2239522, 0.03719873, -0.9999764, -0.006742296, 44.87799
 52806369, 0.01525015, 0.003895331, 0.5194387, 0.07486238, 0.006057107, 0.00106067, 0.1278447, 0.03719873, -0.9999745, -0.007126332, 44.78527
 53006289, 0.01705787, 0.001931935, 0.3206351, 0.07486238, 0.005626286, 0.0004142971, 0.09232487, 0.03719873, -0.9999722, -0.007452593, 44.78527
 53206209, 0.01532156, 0.0008126029, 0.2422035, 0.07486238, 0.004828056, 0.0002250971, 0.07562502, 0.03719873, -0.9999704, -0.0076875, 44.78527
 53406129, 0.01316182, 0.000280761, 0.2083487, 0.07486238, 0.004180699, -0.0001313333, 0.0700743, 0.03719873, -0.9999688, -0.007894215, 44.78527
 53606049, 0.01022621, 0.000372951, 0.2021026, 0.07486238, 0.002558771, 0.0004069716, 0.07253149, 0.03719873, -0.9999673, -0.008083438, 44.78527
 53805969, 0.005591192, 0.001586713, 0.2121294, 0.07486238, 0.00111489, 0.0007494783, 0.07839216, 0.03719873, -0.9999659, -0.008251222, 44.78527
 54005889, 0.002355963, 0.001938959, 0.2290451, 0.07486238, 0.0008064371, 0.0007586959, 0.08385683, 0.03719873, -0.9999647, -0.008405576, 44.78527
 54205809, 0.00102955, 0.001998893, 0.2460938, 0.07486238, -0.0005989299, 0.0007424721, 0.08994791, 0.03719873, -0.9999636, -0.008521426, 44.78527
 54406562, -0.001638698, 0.002693033, 0.262731, 0.07501738, -0.0004462596, 0.001206116, 0.09595574, 0.03735372, -0.9999629, -0.008594364, 44.87799
 54606482, -0.002357751, 0.003809726, 0.2749634, 0.07501738, -0.001144033, 0.001214141, 0.09802288, 0.03719873, -0.9999623, -0.008636292, 44.87799
 54806402, -0.003736809, 0.004240877, 0.2705928, 0.07486238, -0.001912045, 0.001974715, 0.07949533, 0.03719873, -0.9999621, -0.008648092, 44.78527
 55006322, -0.00529848, 0.004569218, 0.1693131, 0.07486238, -0.001729599, 0.001273775, 0.0314084, 0.03719873, -0.9999619, -0.008709297, 44.78527
 55206242, -0.005234823, 0.003470801, 0.05400198, 0.07486238, -0.00228167, 0.001136051, 0.002304812, 0.03719873, -0.9999608, -0.008837174, 44.78527
 55406162, -0.006229787, 0.003277134, -0.0125757, 0.07486238, -0.002186409, 0.001224965, -0.01333226, 0.03719873, -0.9999596, -0.008969877, 44.78527
 55606082, -0.006611546, 0.003309827, -0.04571556, 0.07486238, -0.002063795, 0.001127203, -0.02020891, 0.03719873, -0.9999571, -0.009239256, 44.78527
 55806002, -0.00546004, 0.003266428, -0.0584725, 0.07486238, -0.00162298, 0.001428559, -0.02046876, 0.03719873, -0.9999546, -0.0094979, 44.78527
 56005922, -0.004596217, 0.00449809, -0.05578991, 0.07486238, -0.001330914, 0.001782934, -0.01820678, 0.03719873, -0.9999515, -0.009779552, 44.78527
 56205842, -0.002762119, 0.005401427, -0.04811666, 0.07486238, -0.0005846517, 0.001679946, -0.01518951, 0.03719873, -0.999947, -0.01023298, 44.78527
 56405762, -0.001103753, 0.005506153, -0.03857324, 0.07486238, -0.0005273673, 0.002592907, -0.01076684, 0.03719873, -0.9999412, -0.01070547, 44.78527
 56606515, -0.001569952, 0.007839651, -0.02865691, 0.07501738, -0.0005267286, 0.003170908, -0.00774007, 0.03735372, -0.9999352, -0.01117886, 44.87799
 56806435, -0.0006337572, 0.007946163, -0.0205222, 0.07501738, 0.0002461337, 0.002165593, -0.006487874, 0.03719873, -0.99993, -0.01169887, 44.87799
 57006355, 0.001021949, 0.006557349, -0.01590477, 0.07486238, 0.0004758021, 0.002637634, -0.00435847, 0.03719873, -0.999924, -0.01215207, 44.78527
 57206275, 0.001776542, 0.007279218, -0.01079157, 0.07486238, 0.001227921, 0.002342412, -0.003426249, 0.03719873, -0.9999191, -0.0125714, 44.78527
 57406195, 0.003087463, 0.006370475, -0.008628489, 0.07486238, 0.0008882258, 0.002326692, -0.002573133, 0.03719873, -0.9999112, -0.01319636, 44.78527
 57606115, 0.003150322, 0.006063214, -0.007334929, 0.07486238, 0.001446885, 0.0018905, -0.002913351, 0.03719873, -0.9999029, -0.01380676, 44.78527
 57806035, 0.004709224, 0.006235697, -0.007614471, 0.07486238, 0.002083648, 0.002455493, -0.002284252, 0.03719873, -0.9998943, -0.01442191, 44.78527
 58005955, 0.005354051, 0.00594406, -0.006602517, 0.07486238, 0.001821184, 0.001659705, -0.002220002, 0.03719873, -0.9998859, -0.01503259, 44.78527
 58205875, 0.00476146, 0.002933309, -0.006702042, 0.07486238, 0.001252009, -0.001978426, -0.002345939, 0.03719873, -0.9998723, -0.01566438, 44.78527
 58405795, 0.003272596, -0.01747652, -0.007013401, 0.07486238, 0.0009943153, -0.01049984, -0.003004934, 0.03719873, -0.9998134, -0.0162902, 44.78527
 58606548, 0.001647651, -0.02952764, -0.006916662, 0.07501738, 4.366232E-05, -0.01146393, -0.002067981, 0.03735372, -0.9997897, -0.01654202, 44.87799
 58806468, -1.600095E-05, -0.03852765, -0.004519365, 0.07501738, -0.0001662593, -0.01519133, -0.001396783, 0.03719873, -0.999746, -0.01630979, 44.87799
 59006388, -0.0002485328, -0.03983348, -0.003636943, 0.07486238, 0.0001375195, -0.01315107, -0.00100105, 0.03719873, -0.9997601, -0.01558208, 44.78527
 59206308, 0.0009332218, -0.04194563, -0.003114654, 0.07486238, 0.0008630762, -0.01560307, -0.001526073, 0.03719873, -0.999743, -0.01459861, 44.78527
 59406228, 0.002075183, -0.04034276, -0.004848695, 0.07486238, 0.0006921477, -0.01302618, -0.002329871, 0.03719873, -0.9997641, -0.01397365, 44.78527
 59606148, 0.001618163, -0.04022762, -0.005708459, 0.07486238, 0.000460152, -0.01461873, -0.001817006, 0.03719873, -0.9997478, -0.01350837, 44.78527
 59806068, 0.001324898, -0.03718746, -0.005487079, 0.07486238, 0.0003746855, -0.01229026, -0.002019578, 0.03719873, -0.9997647, -0.01317234, 44.78527
 60005988, 0.0008981881, -0.03719718, -0.005579014, 0.07486238, 0.0004054397, -0.0129849, -0.002346802, 0.03719873, -0.9997466, -0.01296058, 44.78527
 60205908, 0.001331595, -0.03329528, -0.005950402, 0.07486238, 0.0007042601, -0.01083605, -0.002343667, 0.03719873, -0.9997571, -0.01288164, 44.78527
 60405828, 0.002688289, -0.0337161, -0.006266518, 0.07486238, 0.0006958806, -0.01246341, -0.00155782, 0.03719873, -0.9997393, -0.01237046, 44.78527
 60606581, 0.002669363, -0.03103654, -0.00490956, 0.07501738, 0.001211445, -0.01018702, -0.001355991, 0.03735372, -0.9997584, -0.01131269, 44.87799
 60806501, 0.002866274, -0.03146363, -0.004536587, 0.07501738, 0.0009301023, -0.01142749, -0.001777271, 0.03719873, -0.9997433, -0.01029771, 44.87799
 61006421, 0.002481867, -0.02864041, -0.004714898, 0.07486238, 0.0002138235, -0.009311104, -0.001257823, 0.03719873, -0.9997559, -0.009454329, 44.78527
 61206341, 0.001969241, -0.0293678, -0.004236349, 0.07486238, 0.001097403, -0.01083865, -0.001708854, 0.03719873, -0.9997306, -0.008599368, 44.78527
 61406261, 0.003159514, -0.02741224, -0.004245019, 0.07486238, 0.001225281, -0.009075921, -0.001639175, 0.03719873, -0.9997379, -0.00776857, 44.78527
 61606181, 0.003174969, -0.02849524, -0.004068862, 0.07486238, 0.001262713, -0.01059174, -0.001262803, 0.03719873, -0.9997016, -0.006898958, 44.78527
 61806101, 0.003444847, -0.02746022, -0.00369602, 0.07486238, 0.001226536, -0.008668196, -0.001231639, 0.03719873, -0.9997029, -0.006021488, 44.78527
 62006021, 0.002886042, -0.02834593, -0.003565026, 0.07486238, 0.001080925, -0.01057603, -0.000940576, 0.03719873, -0.9996607, -0.005081194, 44.78527
 62205941, 0.002018597, -0.02796599, -0.003262094, 0.07486238, 0.0001790686, -0.008916299, -0.00117416, 0.03719873, -0.9996602, -0.00415965, 44.78527
 62405861, 0.001082712, -0.0284032, -0.003533076, 0.07486238, 0.0004729052, -0.01123684, -0.001424797, 0.03719873, -0.999606, -0.003221907, 44.78527
 62605781, 0.002245947, -0.02919805, -0.003599686, 0.07486238, 0.001079826, -0.009577841, -0.0009494046, 0.03719873, -0.9995907, -0.00235984, 44.78527
 62806534, 0.003867193, -0.02967779, -0.003229633, 0.07501738, 0.0016261, -0.01044197, -0.001573728, 0.03735372, -0.9995365, -0.001509827, 44.87799
 63006454, 0.004901575, -0.0293431, -0.003720856, 0.07501738, 0.001966579, -0.01038968, -0.001209036, 0.03719873, -0.999503, -0.0007252874, 44.87799
 63206374, 0.005037552, -0.0313611, -0.003141456, 0.07486238, 0.001287203, -0.01120099, -0.0009000478, 0.03719873, -0.9994512, -5.35783E-05, 44.78527
 63406294, 0.003451175, -0.03059896, -0.002923285, 0.07486238, 0.0008348175, -0.01059777, -0.00143415, 0.03719873, -0.999409, 0.0005348947, 44.78527
 63606214, 0.002894672, -0.03189034, -0.002920744, 0.07486238, 0.00124514, -0.01131591, -0.0009399896, 0.03719873, -0.9993433, 0.001064122, 44.78527
 63806134, 0.003413775, -0.03109213, -0.003184009, 0.07486238, 0.001100338, -0.01066904, -0.001274057, 0.03719873, -0.9993042, 0.001393764, 44.78527
 64006054, 0.003591466, -0.03189475, -0.003063642, 0.07486238, 0.001604211, -0.01156712, -0.0008681734, 0.03719873, -0.9992284, 0.001591605, 44.78527
 64205974, 0.004424899, -0.03137443, -0.003020079, 0.07486238, 0.001447554, -0.01073606, -0.001075369, 0.03719873, -0.9991872, 0.001584802, 44.78527
 64405894, 0.00407196, -0.03191558, -0.003141837, 0.07486238, 0.001066941, -0.01159347, -0.000534876, 0.03719873, -0.9991007, 0.001417654, 44.78527
 64605814, 0.002622962, -0.03153645, -0.003237703, 0.07486238, 0.0005567939, -0.01105348, -0.001278186, 0.03719873, -0.9990426, 0.001420084, 44.78527
 64806567, 0.002444331, -0.03273523, -0.00349902, 0.07501738, 0.0009704926, -0.011817, -0.001041239, 0.03735372, -0.9989499, 0.001854181, 44.87799
 65006487, 0.003531165, -0.03169866, -0.003315355, 0.07501738, 0.001295281, -0.01071814, -0.001254917, 0.03719873, -0.9988819, 0.002519348, 44.87799
 65206407, 0.003617842, -0.03188787, -0.003649266, 0.07486238, 0.001553791, -0.01150444, -0.001398165, 0.03719873, -0.9987786, 0.003034124, 44.78527
 65406327, 0.004725499, -0.03146693, -0.00404223, 0.07486238, 0.001840198, -0.01066479, -0.00075374, 0.03719873, -0.9986955, 0.003475417, 44.78527
 65606247, 0.004889912, -0.03205048, -0.003294819, 0.07486238, 0.001669821, -0.01171698, -0.001667725, 0.03719873, -0.9985683, 0.003932945, 44.78527
 65806167, 0.00483083, -0.03228336, -0.00412364, 0.07486238, 0.001978119, -0.01129931, -0.0004934422, 0.03719873, -0.9984652, 0.004458446, 44.78527
 66006087, 0.004971954, -0.03329702, -0.003205297, 0.07486238, 0.001758125, -0.01181546, -0.001560117, 0.03719873, -0.9983274, 0.004922723, 44.78527
 66206007, 0.004843619, -0.03242646, -0.003900668, 0.07486238, 0.001751141, -0.01129997, -0.001335982, 0.03719873, -0.9982191, 0.005216104, 44.78527
 66405927, 0.005229598, -0.03352506, -0.003687405, 0.07486238, 0.002021721, -0.01219319, -0.001215082, 0.03719873, -0.9980528, 0.005532383, 44.78527
 66605847, 0.005206914, -0.03314075, -0.003563717, 0.07486238, 0.001749312, -0.01141143, -0.001189518, 0.03719873, -0.9979299, 0.00587655, 44.78527
 66805767, 0.005119826, -0.03342023, -0.003569967, 0.07486238, 0.001950505, -0.01170809, -0.001342495, 0.03719873, -0.9977627, 0.006311467, 44.78527
 67006520, 0.005389099, -0.03237962, -0.003549996, 0.07501738, 0.002095319, -0.01163039, -0.0009788371, 0.03735372, -0.9976224, 0.006774099, 44.87799
 67206440, 0.005290898, -0.03354762, -0.003377859, 0.07501738, 0.001623862, -0.01171333, -0.0012665, 0.03719873, -0.9974131, 0.007291817, 44.87799
 67406360, 0.005267803, -0.03225513, -0.003779155, 0.07486238, 0.001925523, -0.01145209, -0.001879966, 0.03719873, -0.9972527, 0.00781411, 44.78527
 67606280, 0.005734592, -0.03352967, -0.004398108, 0.07486238, 0.002086463, -0.01205013, -0.0008211545, 0.03719873, -0.9970108, 0.008221602, 44.78527
 67806200, 0.005868868, -0.03296206, -0.003461265, 0.07486238, 0.002012758, -0.01148779, -0.001533625, 0.03719873, -0.9968419, 0.008778846, 44.78527
 68006120, 0.006029841, -0.03355148, -0.004342717, 0.07486238, 0.002234529, -0.0121441, -0.001751726, 0.03719873, -0.9965638, 0.009535113, 44.78527
 68206040, 0.005996225, -0.03294613, -0.004029576, 0.07486238, 0.002479924, -0.01098207, -0.0003485846, 0.03719873, -0.9963695, 0.01016361, 44.78527
 68405960, 0.00663414, -0.03320336, -0.00322733, 0.07486238, 0.002373496, -0.0122123, -0.001298368, 0.03719873, -0.9960446, 0.0107883, 44.78527
 68605880, 0.006502978, -0.03314688, -0.004555046, 0.07486238, 0.002297606, -0.01137135, -0.001542487, 0.03719873, -0.9958405, 0.01120676, 44.78527
 68805800, 0.006492302, -0.03281033, -0.004119273, 0.07486238, 0.002551748, -0.0115252, -0.001152883, 0.03719873, -0.9955584, 0.01142018, 44.78527
 69006553, 0.007052464, -0.030777, -0.005060028, 0.07501738, 0.002592882, -0.01034617, -0.001808349, 0.03735372, -0.9953044, 0.01146769, 44.87799
 69206473, 0.007390185, -0.03092913, -0.005056926, 0.07501738, 0.002749626, -0.01123355, -0.001822189, 0.03719873, -0.994939, 0.01183946, 44.87799
 69406393, 0.007647811, -0.03054047, -0.00604579, 0.07486238, 0.002731853, -0.01045361, -0.002413379, 0.03719873, -0.9946375, 0.01245932, 44.78527
 69606313, 0.0073044, -0.03109103, -0.006599538, 0.07486238, 0.002511822, -0.01129285, -0.002538734, 0.03719873, -0.9942413, 0.01305348, 44.78527
 69806233, 0.007424721, -0.03047768, -0.006784797, 0.07486238, 0.002680308, -0.01025573, -0.002388026, 0.03719873, -0.9939002, 0.01371668, 44.78527
 70006153, 0.00766184, -0.03043896, -0.006183217, 0.07486238, 0.002638414, -0.01095899, -0.001993269, 0.03719873, -0.9934615, 0.01458256, 44.78527
 70206073, 0.007729359, -0.02955545, -0.005410609, 0.07486238, 0.002948254, -0.01013471, -0.002261392, 0.03719873, -0.9930853, 0.01506459, 44.78527
 70405993, 0.008435631, -0.03008981, -0.005690652, 0.07486238, 0.002894697, -0.01083932, -0.002040101, 0.03719873, -0.9925746, 0.01564414, 44.78527
 70605913, 0.008317295, -0.02968062, -0.005254634, 0.07486238, 0.002793337, -0.009876831, -0.002115321, 0.03719873, -0.9921653, 0.01620913, 44.78527
 70805833, 0.008321671, -0.02908912, -0.005283699, 0.07486238, 0.003118465, -0.0104337, -0.002296903, 0.03719873, -0.9916583, 0.01666106, 44.78527
 71006586, 0.009016598, -0.02814669, -0.006409219, 0.07501738, 0.00346358, -0.009490282, -0.001397667, 0.03735372, -0.9911933, 0.01709837, 44.87799
 71206506, 0.009362151, -0.02839305, -0.005303248, 0.07501738, 0.003149324, -0.01039598, -0.002041186, 0.03719873, -0.990593, 0.01773132, 44.87799
 71406426, 0.009319666, -0.02784596, -0.005672499, 0.07486238, 0.00337849, -0.009794072, -0.001975435, 0.03719873, -0.9900504, 0.01840971, 44.78527
 71606346, 0.009949075, -0.02851778, -0.006021245, 0.07486238, 0.003477529, -0.009957373, -0.002307285, 0.03719873, -0.9893901, 0.01921399, 44.78527
 71806266, 0.00974746, -0.02695402, -0.006207276, 0.07486238, 0.003377361, -0.009225, -0.001901589, 0.03719873, -0.9888129, 0.02023447, 44.78527
 72006186, 0.009692014, -0.02763604, -0.005873536, 0.07486238, 0.003299654, -0.01007093, -0.00235005, 0.03719873, -0.9880458, 0.02125257, 44.78527
 72206106, 0.009562631, -0.02687681, -0.005981366, 0.07486238, 0.003408144, -0.00891716, -0.001359276, 0.03719873, -0.9874489, 0.02204421, 44.78527
 72406026, 0.01003698, -0.02618434, -0.005583113, 0.07486238, 0.003729888, -0.009119442, -0.002660897, 0.03719873, -0.9866959, 0.02233472, 44.78527
 72605946, 0.01124254, -0.02477041, -0.007113211, 0.07486238, 0.004095087, -0.008488689, -0.002590768, 0.03719873, -0.9859948, 0.02250602, 44.78527
 72805866, 0.0119243, -0.02561831, -0.007188156, 0.07486238, 0.004344414, -0.009133392, -0.001982142, 0.03719873, -0.9851236, 0.02317675, 44.78527
 73005786, 0.01216998, -0.02432464, -0.006445622, 0.07486238, 0.004332134, -0.007963608, -0.002473921, 0.03719873, -0.9843506, 0.02422894, 44.78527
 73206539, 0.0122033, -0.02460184, -0.006364937, 0.07501738, 0.004520578, -0.009026923, -0.00218804, 0.03735372, -0.983358, 0.02524076, 44.87799
 73406459, 0.01242997, -0.02393859, -0.006579698, 0.07501738, 0.004508534, -0.007892621, -0.00290972, 0.03719873, -0.9825162, 0.02569575, 44.87799
 73606379, 0.01234666, -0.02440642, -0.00797265, 0.07486238, 0.004267174, -0.008839427, -0.003302092, 0.03719873, -0.9815476, 0.02569051, 44.78527
 73806299, 0.01229676, -0.02295643, -0.008124574, 0.07486238, 0.004636454, -0.007208056, -0.002985396, 0.03719873, -0.9806326, 0.02596723, 44.78527
 74006219, 0.01333527, -0.02292382, -0.007414352, 0.07486238, 0.004653433, -0.008866037, -0.002241418, 0.03719873, -0.9794869, 0.0263536, 44.78527
 74206139, 0.01316177, -0.02272796, -0.007507924, 0.07486238, 0.004611644, -0.007315109, -0.003213964, 0.03719873, -0.978526, 0.02688268, 44.78527
 74406059, 0.01300437, -0.02225457, -0.008506739, 0.07486238, 0.004406827, -0.008292701, -0.002748306, 0.03719873, -0.9773216, 0.0274903, 44.78527
 74605979, 0.01353492, -0.02148699, -0.008029278, 0.07486238, 0.005358464, -0.00729388, -0.002949595, 0.03719873, -0.9762534, 0.02804662, 44.78527
 74805899, 0.01488262, -0.02119691, -0.007995199, 0.07486238, 0.004995004, -0.007555625, -0.002883947, 0.03719873, -0.9749991, 0.02848234, 44.78527
 75005819, 0.01420575, -0.01963591, -0.008730294, 0.07486238, 0.005016334, -0.006450704, -0.003394012, 0.03719873, -0.9738382, 0.02876213, 44.78527
 75206572, 0.01496487, -0.01956502, -0.00840143, 0.07501738, 0.005615102, -0.007251401, -0.002103443, 0.03735372, -0.9723879, 0.02904957, 44.87799
 75406492, 0.01581555, -0.01917073, -0.006826314, 0.07501738, 0.00515852, -0.006598145, -0.002710599, 0.03719873, -0.9711384, 0.02935223, 44.87799
 75606412, 0.01521474, -0.01930789, -0.007675599, 0.07486238, 0.005473574, -0.006719026, -0.002570994, 0.03719873, -0.9696705, 0.0297216, 44.78527
 75806332, 0.01579842, -0.01743647, -0.007282729, 0.07486238, 0.005443725, -0.005785732, -0.002081095, 0.03719873, -0.9683231, 0.03008114, 44.78527
 76006252, 0.01618986, -0.01778779, -0.007440012, 0.07486238, 0.006348157, -0.006269383, -0.003363572, 0.03719873, -0.9667556, 0.03024755, 44.78527
 76206172, 0.01794079, -0.01580936, -0.008587181, 0.07486238, 0.00634644, -0.005030933, -0.002036183, 0.03719873, -0.9653441, 0.03038619, 44.78527
 76406092, 0.01779163, -0.01603973, -0.007412353, 0.07486238, 0.00639422, -0.005730276, -0.003017006, 0.03719873, -0.9635981, 0.03046437, 44.78527
 76606012, 0.01793152, -0.01488901, -0.008289374, 0.07486238, 0.006307943, -0.004749438, -0.002007448, 0.03719873, -0.9620203, 0.03053012, 44.78527
 76805932, 0.01813611, -0.01611708, -0.007732312, 0.07486238, 0.006433268, -0.006327867, -0.003364925, 0.03719873, -0.9601231, 0.03071926, 44.78527
 77005852, 0.01883369, -0.01558937, -0.009008465, 0.07486238, 0.006702962, -0.005195706, -0.003554955, 0.03719873, -0.9584681, 0.0309074, 44.78527
 77205772, 0.0190099, -0.01580325, -0.009580389, 0.07486238, 0.006287307, -0.005463026, -0.003384822, 0.03719873, -0.9565167, 0.03105322, 44.78527
 77406525, 0.01867074, -0.01417117, -0.009592063, 0.07501738, 0.006878813, -0.004531185, -0.002942741, 0.03735372, -0.9547244, 0.03112596, 44.87799
 77606445, 0.02046175, -0.01475775, -0.008917291, 0.07501738, 0.007574778, -0.005620667, -0.004213663, 0.03719873, -0.9527591, 0.03106091, 44.87799
 77806365, 0.02093385, -0.01307751, -0.01055873, 0.07486238, 0.00712898, -0.0036175, -0.003346575, 0.03719873, -0.9508967, 0.03090603, 44.78527
 78006285, 0.02037856, -0.01291429, -0.009140813, 0.07486238, 0.007268379, -0.005320875, -0.002922518, 0.03719873, -0.9485978, 0.03087137, 44.78527
 78206205, 0.0214329, -0.01312031, -0.009240677, 0.07486238, 0.007668051, -0.004095875, -0.003605858, 0.03719873, -0.9465732, 0.03082631, 44.78527
 78406125, 0.02165778, -0.01259042, -0.009696282, 0.07486238, 0.007633459, -0.004190481, -0.003743551, 0.03719873, -0.9443896, 0.0305789, 44.78527
 78606045, 0.02198281, -0.0105361, -0.01000992, 0.07486238, 0.007722206, -0.003340399, -0.003171417, 0.03719873, -0.9422694, 0.0302251, 44.78527
 78805965, 0.02246439, -0.01142516, -0.009227141, 0.07486238, 0.008104479, -0.004377058, -0.003289147, 0.03719873, -0.9397538, 0.02986916, 44.78527
 79005885, 0.02306801, -0.01080868, -0.009942428, 0.07486238, 0.008131579, -0.002854805, -0.003547356, 0.03719873, -0.9376521, 0.02949024, 44.78527
 79205805, 0.02319274, -0.009919424, -0.009241052, 0.07486238, 0.00817743, -0.003817789, -0.003323489, 0.03719873, -0.9350807, 0.02909877, 44.78527
 79406558, 0.02398903, -0.009205809, -0.009602846, 0.07501738, 0.008238915, -0.002621993, -0.003495032, 0.03735372, -0.9328113, 0.02870662, 44.87799
 79606478, 0.02447893, -0.008945343, -0.009174309, 0.07501738, 0.009253532, -0.00373331, -0.003884566, 0.03719873, -0.9300186, 0.02830822, 44.87799
 79806398, 0.02596317, -0.008828134, -0.01007483, 0.07486238, 0.008895481, -0.003085688, -0.003427228, 0.03719873, -0.9275938, 0.02788783, 44.78527
 80006318, 0.02592794, -0.009217595, -0.009628691, 0.07486238, 0.009177936, -0.003647019, -0.003934924, 0.03719873, -0.9248224, 0.02749945, 44.78527
 80206238, 0.02621656, -0.008155095, -0.01031639, 0.07486238, 0.009276921, -0.002226102, -0.003291972, 0.03719873, -0.922228, 0.02711631, 44.78527
 80406158, 0.02652056, -0.007781876, -0.009326866, 0.07486238, 0.009237914, -0.003069221, -0.003360394, 0.03719873, -0.919325, 0.02680994, 44.78527
 80606078, 0.02642457, -0.006799013, -0.01005064, 0.07486238, 0.009489598, -0.002155027, -0.003573839, 0.03719873, -0.9166537, 0.02645877, 44.78527
 80805998, 0.0271767, -0.007259475, -0.01004685, 0.07486238, 0.009552237, -0.002729735, -0.003617611, 0.03719873, -0.9136548, 0.02607748, 44.78527
 81005918, 0.02794003, -0.005591833, -0.01056854, 0.07486238, 0.01037765, -0.001503275, -0.004197064, 0.03719873, -0.9108904, 0.02557613, 44.78527
 81205838, 0.02952364, -0.00549151, -0.01053291, 0.07486238, 0.01022239, -0.002135327, -0.003479819, 0.03719873, -0.9077833, 0.02508785, 44.78527
 81406591, 0.02899705, -0.004688485, -0.01050417, 0.07501738, 0.01004697, -0.00135233, -0.003476552, 0.03735372, -0.9048505, 0.02457974, 44.87799
 81606511, 0.02881981, -0.005559903, -0.009814505, 0.07501738, 0.01039866, -0.002368371, -0.003646465, 0.03719873, -0.9014034, 0.02408203, 44.87799
 81806431, 0.02961992, -0.005089922, -0.01106229, 0.07486238, 0.01058386, -0.0009903329, -0.003576698, 0.03719873, -0.8985145, 0.02358973, 44.78527
 82006351, 0.03038315, -0.004528207, -0.01014179, 0.07486238, 0.01064466, -0.00224634, -0.004727599, 0.03719873, -0.8951678, 0.02310759, 44.78527
 82206271, 0.03086046, -0.003537326, -0.01163958, 0.07486238, 0.01106209, -0.0003759245, -0.003212908, 0.03719873, -0.892077, 0.02258373, 44.78527
 82406191, 0.03141623, -0.003073954, -0.009414691, 0.07486238, 0.01127247, -0.001790654, -0.003428916, 0.03719873, -0.8885776, 0.02207937, 44.78527
 82606111, 0.03196336, -0.002360203, -0.009988557, 0.07486238, 0.01125986, -0.0001215305, -0.002950277, 0.03719873, -0.8853487, 0.02155525, 44.78527
 82806031, 0.03253509, -0.002514351, -0.008911676, 0.07486238, 0.01142605, -0.001532391, -0.003528759, 0.03719873, -0.8817563, 0.02114075, 44.78527
 83005951, 0.03301626, -0.002048347, -0.01010631, 0.07486238, 0.0116905, -0.0002621085, -0.003765408, 0.03719873, -0.8784921, 0.02078403, 44.78527
 83205871, 0.0337989, -0.001964973, -0.009675664, 0.07486238, 0.01217032, -0.0010141, -0.003310898, 0.03719873, -0.8747841, 0.02046409, 44.78527
 83405791, 0.03456346, -0.00130084, -0.01001499, 0.07486238, 0.01212711, -0.0004083096, -0.003899118, 0.03719873, -0.8713285, 0.01997002, 44.78527
 83606544, 0.03458435, -0.002030606, -0.01027391, 0.07501738, 0.01217936, -0.0005943935, -0.00324472, 0.03735372, -0.8676057, 0.0194067, 44.87799
 83806464, 0.03526023, -0.0003625747, -0.01032081, 0.07501738, 0.0123854, 4.267594E-05, -0.004439075, 0.03719873, -0.8641751, 0.01875723, 44.87799
 84006384, 0.03601999, 0.003810912, -0.01234618, 0.07486238, 0.01265798, 0.004394296, -0.004788385, 0.03719873, -0.8623465, 0.01808633, 44.78527
 84206304, 0.03669444, 0.02238973, -0.0143757, 0.07486238, 0.01354254, 0.01329827, -0.005814333, 0.03719873, -0.8620661, 0.01736089, 44.78527
 84406224, 0.03944299, 0.04923363, -0.01447492, 0.07486238, 0.01434277, 0.0232881, -0.003955649, 0.03719873, -0.861972, 0.01665357, 44.78527
 84606144, 0.04152817, 0.07373936, -0.01250108, 0.07486238, 0.01507056, 0.03026875, -0.004420581, 0.03719873, -0.8616249, 0.01595238, 44.78527
 84806064, 0.04344766, 0.09204596, -0.01266344, 0.07486238, 0.01562582, 0.03574103, -0.004158231, 0.03719873, -0.8610951, 0.01506227, 44.78527
 85005984, 0.04511047, 0.1076586, -0.0108376, 0.07486238, 0.01603714, 0.04080287, -0.0046529, 0.03719873, -0.8605235, 0.0141619, 44.78527
 85205904, 0.04666093, 0.1201854, -0.0116057, 0.07486238, 0.01643208, 0.04483401, -0.003472281, 0.03719873, -0.8600315, 0.01319896, 44.78527
 85405824, 0.04733101, 0.1310311, -0.009484549, 0.07486238, 0.01712101, 0.04802973, -0.00338841, 0.03719873, -0.8594724, 0.01213717, 44.78527
 85606577, 0.04874488, 0.1400132, -0.008636261, 0.07501738, 0.01750615, 0.05101827, -0.00258803, 0.03735372, -0.8588907, 0.01083424, 44.87799
 85806497, 0.04939356, 0.1474354, -0.00677801, 0.07501738, 0.01749474, 0.05340002, -0.002341937, 0.03719873, -0.8583338, 0.009071343, 44.87799
 86006417, 0.0496831, 0.1537358, -0.005415224, 0.07486238, 0.01765671, 0.05519858, -0.001800365, 0.03719873, -0.8578981, 0.007213, 44.78527
 86206337, 0.04994343, 0.159439, -0.003731708, 0.07486238, 0.01741422, 0.05738149, -0.0006746846, 0.03719873, -0.8574975, 0.005145676, 44.78527
 86406257, 0.0498027, 0.1646219, -0.002430176, 0.07486238, 0.01745893, 0.05904938, -0.000556468, 0.03719873, -0.8572313, 0.002901765, 44.78527
 86606177, 0.04907944, 0.1697698, -9.731565E-05, 0.07486238, 0.01724684, 0.06042089, 0.0002520375, 0.03719873, -0.856898, 0.000258079, 44.78527
 86806097, 0.04822071, 0.1728906, 0.001530074, 0.07486238, 0.01696336, 0.06150999, 0.001054012, 0.03719873, -0.8566405, -0.002600249, 44.78527
 87006017, 0.04867446, 0.176302, 0.003622304, 0.07486238, 0.01730194, 0.06358282, 0.003070148, 0.03719873, -0.8566023, -0.005620644, 44.78527
 87205937, 0.04824992, 0.1801774, 0.006279194, 0.07486238, 0.01687053, 0.06375474, 0.001954659, 0.03719873, -0.8564831, -0.008785659, 44.78527
 87405857, 0.04686664, 0.1814952, 0.006453561, 0.07486238, 0.01591696, 0.06392134, 0.001688509, 0.03719873, -0.8564472, -0.01187392, 44.78527
 87605777, 0.04504403, 0.1827849, 0.006482589, 0.07486238, 0.01564337, 0.06414323, 0.00186489, 0.03719873, -0.8565223, -0.01491611, 44.78527
 87806530, 0.0445416, 0.1842605, 0.007077228, 0.07501738, 0.01559577, 0.06519622, 0.001915522, 0.03735372, -0.8568313, -0.01799212, 44.87799
 88006450, 0.04368223, 0.1862821, 0.007991431, 0.07501738, 0.01498651, 0.06625473, 0.004035544, 0.03719873, -0.857177, -0.0209716, 44.87799
 88206370, 0.04191465, 0.1879523, 0.01034656, 0.07486238, 0.01427888, 0.06615262, 0.003947162, 0.03719873, -0.8575168, -0.02390014, 44.78527
 88406290, 0.04015922, 0.1871648, 0.01059648, 0.07486238, 0.01377714, 0.06596448, 0.003637656, 0.03719873, -0.8578233, -0.02692061, 44.78527
 88606210, 0.03782332, 0.1867662, 0.01042756, 0.07486238, 0.01274288, 0.06469177, 0.003341296, 0.03719873, -0.8581165, -0.0299741, 44.78527
 88806130, 0.0355867, 0.1841085, 0.01009837, 0.07486238, 0.01219924, 0.06485838, 0.004326042, 0.03719873, -0.8585472, -0.03303929, 44.78527
 89006050, 0.03393321, 0.1838813, 0.01107914, 0.07486238, 0.01146126, 0.06461976, 0.003842996, 0.03719873, -0.8591581, -0.036017, 44.78527
