TimeUS,COFN,COFE,CNe,CEe,POFN,POFE,PNe,PEe
 2668932, 0.005489784, 0.007427165, 0.01976968, -0.03121101, 0, 0, 0, 0
 2676429, 0.001625669, 0.01397587, 0.01976097, -0.03123772, 0.005489784, 0.007427165, 0.01976968, -0.03121101
 2776389, -0.01113536, 0.004922895, 0.01980109, -0.03120294, 0.001625669, 0.01397587, 0.01976097, -0.03123772
 2876349, 0.01640009, -0.01771251, 0.01984743, -0.03125523, -0.01113536, 0.004922895, 0.01980109, -0.03120294
 2976309, -0.005679501, 0.02354665, 0.01977203, -0.03130373, 0.01640009, -0.01771251, 0.01984743, -0.03125523
 3076269, 0.02352804, 0.0124566, 0.0198452, -0.03128031, -0.005679501, 0.02354665, 0.01977203, -0.03130373
 3176229, -0.01119155, -0.02222356, 0.01974982, -0.03132383, 0.02352804, 0.0124566, 0.0198452, -0.03128031
 3276189, -0.01621136, 0.005355075, 0.01983358, -0.03120927, -0.01119155, -0.02222356, 0.01974982, -0.03132383
 3376149, 0.01690991, -0.02290477, 0.01985482, -0.03129333, -0.01621136, 0.005355075, 0.01983358, -0.03120927
 3476109, 0.01012851, -0.004833752, 0.01979662, -0.03120159, 0.01690991, -0.02290477, 0.01985482, -0.03129333
 3576069, -0.02260418, 0.007727462, 0.01989387, -0.03122343, 0.01012851, -0.004833752, 0.01979662, -0.03120159
 3676029, -0.01233122, 0.02215449, 0.01981564, -0.03128669, -0.02260418, 0.007727462, 0.01989387, -0.03122343
 3775989, 0.00289995, 0.02516163, 0.01974123, -0.03133344, -0.01233122, 0.02215449, 0.01981564, -0.03128669
 3875949, 0.01839942, -0.001107419, 0.01984288, -0.03121244, 0.00289995, 0.02516163, 0.01974123, -0.03133344
 3975909, -0.006853986, 0.00107448, 0.01978121, -0.03119671, 0.01839942, -0.001107419, 0.01984288, -0.03121244
 4075869, 0.02646762, 0.01865512, 0.01984588, -0.03134362, -0.006853986, 0.00107448, 0.01978121, -0.03119671
 4175829, -0.008815072, 0.02545225, 0.01978863, -0.03131928, 0.02646762, 0.01865512, 0.01984588, -0.03134362
 4275789, -0.0002500719, 0.01409938, 0.02611481, 0.02615947, -0.008815072, 0.02545225, 0.01978863, -0.03131928
 4376582, -0.006287018, 0.003219482, 0.0261236, 0.02611721, -0.0002500719, 0.01409938, 0.02611481, 0.02615947
 4476542, -0.01914964, 0.01175428, 0.02619698, 0.02614601, -0.006287018, 0.003219482, 0.0261236, 0.02611721
 4576502, 0.02134548, 0.003162437, 0.02621683, 0.02611728, -0.01914964, 0.01175428, 0.02619698, 0.02614601
 4681460, 0.007705403, -0.008220772, 0.02612785, 0.02613029, 0.02134548, 0.003162437, 0.02621683, 0.02611728
 4781420, -0.002089744, 0.01035213, 0.0261154, 0.02613927, 0.007705403, -0.008220772, 0.02612785, 0.02613029
 4881380, 0.001236617, -0.02286432, 0.02611466, 0.02623258, -0.002089744, 0.01035213, 0.0261154, 0.02613927
 4981340, 0.01374746, -0.01654265, 0.02615667, 0.02617687, 0.001236617, -0.02286432, 0.02611466, 0.02623258
 5081300, 0.004551833, 0.001429214, 0.02611875, 0.02611597, 0.01374746, -0.01654265, 0.02615667, 0.02617687
 5181260, -0.02394898, -0.01744073, 0.02624264, 0.02618394, 0.004551833, 0.001429214, 0.02611875, 0.02611597
 5281220, -0.007232039, -0.01810095, 0.02612559, 0.02618934, -0.02394898, -0.01744073, 0.02624264, 0.02618394
 5381180, 0.01094744, -0.009600847, 0.02614064, 0.02613661, -0.007232039, -0.01810095, 0.02612559, 0.02618934
 5481140, 0.008694861, -0.0009581316, 0.02613056, 0.02611624, 0.01094744, -0.009600847, 0.02614064, 0.02613661
 5581100, -0.01584361, 0.005840378, 0.02616981, 0.02612385, 0.008694861, -0.0009581316, 0.02613056, 0.02611624
 5681060, -0.01534373, -0.01359523, 0.02616617, 0.02615786, -0.01584361, 0.005840378, 0.02616981, 0.02612385
 5781020, 0.01371799, 0.02110531, 0.02615542, 0.02621644, -0.01534373, -0.01359523, 0.02616617, 0.02615786
 5880980, -0.02592839, -0.005833039, 0.01988378, -0.03125535, 0.01371799, 0.02110531, 0.02615542, 0.02621644
 5980940, 0.00322046, 0.008002897, 0.01976086, -0.03121455, -0.02592839, -0.005833039, 0.01988378, -0.03125535
 6080900, 0.01064265, -0.02373093, 0.01979608, -0.03130536, 0.00322046, 0.008002897, 0.01976086, -0.03121455
 6180860, -0.01268742, 0.008593698, 0.01980742, -0.03121521, 0.01064265, -0.02373093, 0.01979608, -0.03130536
 6280820, -0.009783098, -0.006294867, 0.01977584, -0.03121652, -0.01268742, 0.008593698, 0.01980742, -0.03121521
 6380780, -0.004174779, 0.02048509, 0.01976296, -0.03128137, -0.009783098, -0.006294867, 0.01977584, -0.03121652
 6481573, -0.02123789, -0.0112833, 0.01982594, -0.03126805, -0.004174779, 0.02048509, 0.01976296, -0.03128137
 6581533, 0.002011381, -0.0162264, 0.01976022, -0.03125123, -0.02123789, -0.0112833, 0.01982594, -0.03126805
 6686491, -0.01164057, -0.01292957, 0.01977005, -0.03125165, 0.002011381, -0.0162264, 0.01976022, -0.03125123
 6786451, -0.01232202, 0.005064615, 0.01980317, -0.03120712, -0.01164057, -0.01292957, 0.01977005, -0.03125165
 6886411, 0.0009155369, 0.001992856, 0.01976563, -0.03119843, -0.01232202, 0.005064615, 0.01980317, -0.03120712
 6986371, -0.01710708, -0.005121268, 0.01981541, -0.03122595, 0.0009155369, 0.001992856, 0.01976563, -0.03119843
 7086331, -0.01564829, 0.007209962, 0.01982781, -0.03121394, -0.01710708, -0.005121268, 0.01981541, -0.03122595
 7186291, 0.02639915, 0.0009353692, 0.01990719, -0.03123884, -0.01564829, 0.007209962, 0.01982781, -0.03121394
 7286251, -0.005116712, -0.01073567, 0.01976168, -0.03122664, 0.02639915, 0.0009353692, 0.01990719, -0.03123884
 7386211, -0.001946825, -0.02234134, 0.01974473, -0.03130524, -0.005116712, -0.01073567, 0.01976168, -0.03122664
 7486171, -0.02286087, -0.01081617, 0.01984252, -0.03126903, -0.001946825, -0.02234134, 0.01974473, -0.03130524
 7586131, -0.001260487, 0.02452017, 0.01974973, -0.03132083, -0.02286087, -0.01081617, 0.01984252, -0.03126903
 7686091, 0.01052156, 0.01792164, 0.01975757, -0.03128381, -0.001260487, 0.02452017, 0.01974973, -0.03132083
 7786051, -0.0135913, -0.02319703, 0.01975086, -0.03134261, 0.01052156, 0.01792164, 0.01975757, -0.03128381
 7886011, 0.004775542, 0.01766474, 0.01975242, -0.03126884, -0.0135913, -0.02319703, 0.01975086, -0.03134261
 7985971, 0.003586978, 0.01166395, 0.01976201, -0.03122783, 0.004775542, 0.01766474, 0.01975242, -0.03126884
 8085931, 0.01090384, 0.02075896, 0.0197525, -0.03130914, 0.003586978, 0.01166395, 0.01976201, -0.03122783
 8185891, 0.008412695, -0.01360439, 0.01979092, -0.03122964, 0.01090384, 0.02075896, 0.0197525, -0.03130914
 8285851, -0.01199503, 0.01781373, 0.01981297, -0.03125426, 0.008412695, -0.01360439, 0.01979092, -0.03122964
 8385811, -0.0005235346, 0.02365062, 0.01975194, -0.03131133, -0.01199503, 0.01781373, 0.01981297, -0.03125426
 8485771, -0.008162114, -0.02192177, 0.01974698, -0.03131213, -0.0005235346, 0.02365062, 0.01975194, -0.03131133
 8586564, 0.01849968, 0.01301602, 0.01985006, -0.0312402, -0.008162114, -0.02192177, 0.01974698, -0.03131213
 8686524, -0.01235393, 0.0006538939, 0.01996439, -0.03109962, 0.01849968, 0.01301602, 0.01985006, -0.0312402
 8791482, 0.02561811, 0.01640032, 0.02021804, -0.03108157, -0.01235393, 0.0006538939, 0.01996439, -0.03109962
 8891442, -0.005575168, 0.01822316, 0.02039663, -0.03085787, 0.02561811, 0.01640032, 0.02021804, -0.03108157
 8991402, 0.01675535, -0.002010286, 0.02074559, -0.03060932, -0.005575168, 0.01822316, 0.02039663, -0.03085787
 9091362, 0.00312565, 0.01223759, 0.02098749, -0.0304198, 0.01675535, -0.002010286, 0.02074559, -0.03060932
 9191322, -0.002069062, -0.01202161, 0.02130298, -0.03019762, 0.00312565, 0.01223759, 0.02098749, -0.0304198
 9291282, -0.02616236, -0.009920287, 0.02174135, -0.03000791, -0.002069062, -0.01202161, 0.02130298, -0.03019762
 9391242, -0.007502987, -0.01124697, 0.02191885, -0.02976032, -0.02616236, -0.009920287, 0.02174135, -0.03000791
 9491202, -0.01720549, -0.02061433, 0.02222951, -0.02963584, -0.007502987, -0.01124697, 0.02191885, -0.02976032
 9591162, 0.01408891, -0.01010445, 0.02252194, -0.02933016, -0.01720549, -0.02061433, 0.02222951, -0.02963584
 9691122, -0.02250841, -0.002568235, 0.02283553, -0.02912957, 0.01408891, -0.01010445, 0.02252194, -0.02933016
 9791082, 0.006662631, -0.0153261, 0.02298291, -0.02896605, -0.02250841, -0.002568235, 0.02283553, -0.02912957
 9891042, -0.01708823, 0.004799511, 0.02327395, -0.02874002, 0.006662631, -0.0153261, 0.02298291, -0.02896605
 9991002, 0.001814537, 0.01776388, 0.02342176, -0.02862049, -0.01708823, 0.004799511, 0.02327395, -0.02874002
 10090962, 0.005138474, 0.02450345, 0.02363278, -0.02850999, 0.001814537, 0.01776388, 0.02342176, -0.02862049
 10190922, -0.002928572, -0.02567037, 0.0238383, -0.02834681, 0.005138474, 0.02450345, 0.02363278, -0.02850999
 10290882, -0.01606595, 0.007089876, 0.02411028, -0.02804073, -0.002928572, -0.02567037, 0.0238383, -0.02834681
 10390842, 0.007104306, 0.02119177, 0.02423949, -0.02796927, -0.01606595, 0.007089876, 0.02411028, -0.02804073
 10490802, 0.01826565, 0.004316542, 0.02449389, -0.02771556, 0.007104306, 0.02119177, 0.02423949, -0.02796927
 10590762, -0.005555421, 0.01268871, 0.02460361, -0.02758408, 0.01826565, 0.004316542, 0.02449389, -0.02771556
 10691555, -0.00411364, 0.01807733, 0.02476648, -0.02747042, -0.005555421, 0.01268871, 0.02460361, -0.02758408
 10791515, 0.02335299, 0.001805651, 0.02504548, -0.02726047, -0.00411364, 0.01807733, 0.02476648, -0.02747042
 10896473, 0.01407617, 0.003402473, 0.02512877, -0.0271104, 0.02335299, 0.001805651, 0.02504548, -0.02726047
 10996433, -0.02146042, -0.001490578, 0.02533472, -0.02697319, 0.01407617, 0.003402473, 0.02512877, -0.0271104
 11096393, 0.01859796, -0.008393024, 0.02545149, -0.02685288, -0.02146042, -0.001490578, 0.02533472, -0.02697319
 11196353, -0.02286672, 0.01585623, 0.025626, -0.02676505, 0.01859796, -0.008393024, 0.02545149, -0.02685288
 11296313, -0.01717595, 0.0249235, 0.02570129, -0.02672396, -0.02286672, 0.01585623, 0.025626, -0.02676505
 11396273, -0.006892492, -0.02073511, 0.02576432, -0.02656639, -0.01717595, 0.0249235, 0.02570129, -0.02672396
 11496233, -0.009964412, 0.02568395, 0.02589396, -0.0265025, -0.006892492, -0.02073511, 0.02576432, -0.02656639
 11596193, 0.02375456, 0.003148976, 0.0261089, -0.02624948, -0.009964412, 0.02568395, 0.02589396, -0.0265025
 11696153, -0.003202345, -0.004794724, 0.02609002, -0.02614702, 0.02375456, 0.003148976, 0.0261089, -0.02624948
 11796113, -0.01151021, -0.01754433, 0.02621738, -0.02611103, -0.003202345, -0.004794724, 0.02609002, -0.02614702
 11896073, -0.01930935, 0.02317514, 0.02636557, -0.02606741, -0.01151021, -0.01754433, 0.02621738, -0.02611103
 11996033, 0.01587623, -0.008274588, 0.02642901, -0.02586963, -0.01930935, 0.02317514, 0.02636557, -0.02606741
 12095993, -0.01145192, -0.00362039, 0.02648848, -0.02576859, 0.01587623, -0.008274588, 0.02642901, -0.02586963
 12195953, -0.01430121, 0.008082594, 0.02658623, -0.02569644, -0.01145192, -0.00362039, 0.02648848, -0.02576859
 12295913, 0.009618642, -0.01518941, 0.0266387, -0.02565428, -0.01430121, 0.008082594, 0.02658623, -0.02569644
 12395873, 0.007957568, -0.02386921, 0.02670663, -0.02565457, 0.009618642, -0.01518941, 0.0266387, -0.02565428
 12495833, -0.0159019, 0.01538327, 0.02681615, -0.02550705, 0.007957568, -0.02386921, 0.02670663, -0.02565457
 12595793, 0.002827694, -0.0239951, 0.02683104, -0.02551309, -0.0159019, 0.01538327, 0.02681615, -0.02550705
 12696586, -0.02071613, -0.005867084, 0.02698724, -0.02531993, 0.002827694, -0.0239951, 0.02683104, -0.02551309
 12796546, 0.02033238, -0.01208778, 0.02703834, -0.02528766, -0.02071613, -0.005867084, 0.02698724, -0.02531993
 12896506, -0.02165192, 0.005258663, 0.0271072, -0.02519913, 0.02033238, -0.01208778, 0.02703834, -0.02528766
 13001464, -0.01388567, -0.02317459, 0.02711162, -0.02524873, -0.02165192, 0.005258663, 0.0271072, -0.02519913
 13101424, 0.02659893, -0.01902089, 0.02726107, -0.02516663, -0.01388567, -0.02317459, 0.02711162, -0.02524873
 13201384, 0.009706458, -0.00495655, 0.02717498, -0.02503759, 0.02659893, -0.01902089, 0.02726107, -0.02516663
 13301344, -0.01966043, -0.009143623, 0.02728903, -0.02499592, 0.009706458, -0.00495655, 0.02717498, -0.02503759
 13401304, 0.02088771, -0.0210351, 0.02733376, -0.02504303, -0.01966043, -0.009143623, 0.02728903, -0.02499592
 13501264, 0.0121808, -0.01637134, 0.02731108, -0.02495919, 0.02088771, -0.0210351, 0.02733376, -0.02504303
 13601224, -0.01253791, 0.01796144, 0.02734991, -0.02493158, 0.0121808, -0.01637134, 0.02731108, -0.02495919
 13701184, -0.01309488, -0.006576403, 0.02739097, -0.02482382, -0.01253791, 0.01796144, 0.02734991, -0.02493158
 13801144, 0.00587514, -0.008431322, 0.02739038, -0.02479865, -0.01309488, -0.006576403, 0.02739097, -0.02482382
 13901104, 0.01575706, 0.0120603, 0.02747434, -0.024774, 0.00587514, -0.008431322, 0.02739038, -0.02479865
 14001064, -0.01801088, 0.002616372, 0.02751328, -0.02471589, 0.01575706, 0.0120603, 0.02747434, -0.024774
 14101024, 0.007065745, -0.01134194, 0.02747966, -0.02471702, -0.01801088, 0.002616372, 0.02751328, -0.02471589
 14200984, -0.006211412, -0.007850289, 0.02750451, -0.02467072, 0.007065745, -0.01134194, 0.02747966, -0.02471702
 14300944, -0.001460665, 0.0001479921, 0.02751857, -0.02463167, -0.006211412, -0.007850289, 0.02750451, -0.02467072
 14400904, 0.02090815, 0.01071549, 0.02764437, -0.02462189, -0.001460665, 0.0001479921, 0.02751857, -0.02463167
 14500864, 0.00550645, 0.01897312, 0.02757456, -0.02466158, 0.02090815, 0.01071549, 0.02764437, -0.02462189
 14600824, 0.0005519253, 0.01674761, 0.02758392, -0.02462501, 0.00550645, 0.01897312, 0.02757456, -0.02466158
 14700784, -0.01719264, 0.01540156, 0.02766076, -0.0245989, 0.0005519253, 0.01674761, 0.02758392, -0.02462501
 14801577, -0.0128696, -0.01739437, 0.02766231, -0.02458173, -0.01719264, 0.01540156, 0.02766076, -0.0245989
 14901537, 0.02212063, -0.02208338, 0.02773524, -0.02462108, -0.0128696, -0.01739437, 0.02766231, -0.02458173
 15006495, -0.004371273, -0.02248404, 0.02766095, -0.02459674, 0.02212063, -0.02208338, 0.02773524, -0.02462108
 15106455, 0.02338161, 0.003779482, 0.02778464, -0.02446566, -0.004371273, -0.02248404, 0.02766095, -0.02459674
 15206415, -0.007630256, 0.01249496, 0.02768517, -0.02449519, 0.02338161, 0.003779482, 0.02778464, -0.02446566
 15306375, -0.01381938, 0.001448933, 0.02772578, -0.02444411, -0.007630256, 0.01249496, 0.02768517, -0.02449519
 15406335, -0.002087332, 0.02130254, 0.02770053, -0.02453625, -0.01381938, 0.001448933, 0.02772578, -0.02444411
 15506295, 0.003790622, 0.00123423, 0.02770693, -0.02442291, -0.002087332, 0.02130254, 0.02770053, -0.02453625
 15606255, -0.00656502, -0.01200795, 0.02772626, -0.02444218, 0.003790622, 0.00123423, 0.02770693, -0.02442291
 15706215, 0.00698493, -0.002431266, 0.02773094, -0.02440497, -0.00656502, -0.01200795, 0.02772626, -0.02444218
 15806175, -0.0006313493, 0.01619104, 0.02773151, -0.02445429, 0.00698493, -0.002431266, 0.02773094, -0.02440497
 15906135, -0.01557584, -0.02643838, 0.02780974, -0.02452842, -0.0006313493, 0.01619104, 0.02773151, -0.02445429
 16006095, 0.02456163, -0.006163486, 0.02787094, -0.02438664, -0.01557584, -0.02643838, 0.02780974, -0.02452842
 16106055, 0.005333162, -4.644887E-05, 0.02775164, -0.02437511, 0.02456163, -0.006163486, 0.02787094, -0.02438664
 16206015, 0.008999572, 0.00414986, 0.02776946, -0.02437162, 0.005333162, -4.644887E-05, 0.02775164, -0.02437511
 16305975, -0.01742515, 0.0235798, 0.02781949, -0.02449772, 0.008999572, 0.00414986, 0.02776946, -0.02437162
 16405935, 0.004196009, 0.0249986, 0.02777439, -0.02449685, -0.01742515, 0.0235798, 0.02781949, -0.02449772
 16505895, 0.01030368, 0.01040655, 0.02778896, -0.02437741, 0.004196009, 0.0249986, 0.02777439, -0.02449685
 16605855, -0.0004878412, -0.02237314, 0.02777263, -0.02446484, 0.01030368, 0.01040655, 0.02778896, -0.02437741
 16705815, 0.01692348, -0.01865672, 0.02782878, -0.02443311, -0.0004878412, -0.02237314, 0.02777263, -0.02446484
 16805775, 0.005460132, -0.01225058, 0.02777823, -0.02438132, 0.01692348, -0.01865672, 0.02782878, -0.02443311
 16906568, 0.01239004, -0.011301, 0.02780628, -0.02437375, 0.005460132, -0.01225058, 0.02777823, -0.02438132
 17006528, 0.02272413, -0.00979415, 0.02788611, -0.02436231, 0.01239004, -0.011301, 0.02780628, -0.02437375
 17111486, -0.02153075, -0.02678526, 0.02790706, -0.02447516, 0.02272413, -0.00979415, 0.02788611, -0.02436231
 17211446, -0.02510558, 0.0106253, 0.02791164, -0.02436463, -0.02153075, -0.02678526, 0.02790706, -0.02447516
 17311406, 0.0215627, 0.02293488, 0.02790172, -0.02443561, -0.02510558, 0.0106253, 0.02791164, -0.02436463
 17411366, 0.01968365, 0.01307171, 0.02787165, -0.02436585, 0.0215627, 0.02293488, 0.02790172, -0.02443561
 17511326, -0.003438225, 0.02422522, 0.02778395, -0.02447549, 0.01968365, 0.01307171, 0.02787165, -0.02436585
 17611286, 0.001777201, 0.007463262, 0.02777509, -0.02435573, -0.003438225, 0.02422522, 0.02778395, -0.02447549
 17711246, 0.009680731, 0.00515621, 0.02779436, -0.02434855, 0.001777201, 0.007463262, 0.02777509, -0.02435573
 17811206, 0.01684542, -0.01695782, 0.02782995, -0.02441659, 0.009680731, 0.00515621, 0.02779436, -0.02434855
 17911166, -0.007341241, -0.02292078, 0.02779287, -0.0244607, 0.01684542, -0.01695782, 0.02782995, -0.02441659
 18011126, -0.006518253, -0.003236151, 0.02777581, -0.02435349, -0.007341241, -0.02292078, 0.02779287, -0.0244607
 18111086, 0.006970773, 0.005435648, 0.02777566, -0.02435973, -0.006518253, -0.003236151, 0.02777581, -0.02435349
 18211046, 0.007574557, 0.003435299, 0.02777458, -0.02435879, 0.006970773, 0.005435648, 0.02777566, -0.02435973
 18311006, -0.0206877, -0.0124495, 0.02786313, -0.02438154, 0.007574557, 0.003435299, 0.02777458, -0.02435879
 18410966, 0.01590928, -0.001007072, 0.02781181, -0.0243609, -0.0206877, -0.0124495, 0.02786313, -0.02438154
 18510926, -0.01509118, 0.01066061, 0.02780056, -0.02439477, 0.01590928, -0.001007072, 0.02781181, -0.0243609
 18610886, -0.0187421, -0.02691635, 0.02785194, -0.02451266, -0.01509118, 0.01066061, 0.02780056, -0.02439477
 18710846, -0.01521349, 0.02053688, 0.02779513, -0.02447588, -0.0187421, -0.02691635, 0.02785194, -0.02451266
 18810806, 0.01119995, 0.02174868, 0.02778385, -0.02447554, -0.01521349, 0.02053688, 0.02779513, -0.02447588
 18910766, -0.01846114, 0.02405653, 0.02781157, -0.02452107, 0.01119995, 0.02174868, 0.02778385, -0.02447554
 19011559, -0.01667326, -0.01514979, 0.02780779, -0.02442649, -0.01846114, 0.02405653, 0.02781157, -0.02452107
 19111519, 0.01289116, 0.004273565, 0.02777076, -0.02439092, -0.01667326, -0.01514979, 0.02780779, -0.02442649
 19216477, 0.009068578, -0.01090344, 0.02774551, -0.02442364, 0.01289116, 0.004273565, 0.02777076, -0.02439092
 19316437, -0.006122132, -0.007188359, 0.02773413, -0.02440964, 0.009068578, -0.01090344, 0.02774551, -0.02442364
 19416397, 0.01206536, -0.02210764, 0.02775228, -0.02451993, -0.006122132, -0.007188359, 0.02773413, -0.02440964
 19516357, 0.003388122, 0.007801409, 0.0277193, -0.02442244, 0.01206536, -0.02210764, 0.02775228, -0.02451993
 19616317, 0.01836001, 0.01425005, 0.02779593, -0.02444783, 0.003388122, 0.007801409, 0.0277193, -0.02442244
 19716277, -0.01838617, -0.005508073, 0.02778486, -0.02441914, 0.01836001, 0.01425005, 0.02779593, -0.02444783
 19816237, 0.00232308, -0.009967767, 0.02770382, -0.02444778, -0.01838617, -0.005508073, 0.02778486, -0.02441914
 19916197, 0.005345446, 0.02247255, 0.02771424, -0.02453882, 0.00232308, -0.009967767, 0.02770382, -0.02444778
 20016157, 0.01455626, -0.004524911, 0.0277385, -0.02443911, 0.005345446, 0.02247255, 0.02771424, -0.02453882
 20116117, -0.01510613, 0.01311818, 0.027736, -0.02448226, 0.01455626, -0.004524911, 0.0277385, -0.02443911
 20216077, 0.01423293, -0.009748017, 0.02772601, -0.02446895, -0.01510613, 0.01311818, 0.027736, -0.02448226
 20316037, -0.01968328, -0.01350602, 0.02777427, -0.02447955, 0.01423293, -0.009748017, 0.02772601, -0.02446895
 20415997, 0.01510368, 0.0192458, 0.02773732, -0.02452829, -0.01968328, -0.01350602, 0.02777427, -0.02447955
 20515957, -0.003936434, 0.01347359, 0.0276735, -0.02450423, 0.01510368, 0.0192458, 0.02773732, -0.02452829
 20615917, -0.004620042, 0.01140438, 0.02766909, -0.02449827, -0.003936434, 0.01347359, 0.0276735, -0.02450423
 20715877, 0.007628318, 0.004905381, 0.02767317, -0.02447708, -0.004620042, 0.01140438, 0.02766909, -0.02449827
 20815837, -0.008109379, 0.01982954, 0.02767017, -0.02457067, 0.007628318, 0.004905381, 0.02767317, -0.02447708
 20915797, -0.001399441, -0.01238439, 0.02765204, -0.02451846, -0.008109379, 0.01982954, 0.02767017, -0.02457067
 21016590, 0.01436673, 0.02537693, 0.02770884, -0.0246206, -0.001399441, -0.01238439, 0.02765204, -0.02451846
 21116550, -0.02169385, -0.01578001, 0.02775662, -0.02453544, 0.01436673, 0.02537693, 0.02770884, -0.0246206
 21216510, -0.005859865, 0.002955046, 0.02764182, -0.02450308, -0.02169385, -0.01578001, 0.02775662, -0.02453544
 21321468, 0.01178965, 0.001009517, 0.02766058, -0.02450516, -0.005859865, 0.002955046, 0.02764182, -0.02450308
 21421428, -0.01109255, -0.01267533, 0.02765724, -0.02454333, 0.01178965, 0.001009517, 0.02766058, -0.02450516
 21521388, 0.009324394, 0.002181489, 0.02763869, -0.02451827, -0.01109255, -0.01267533, 0.02765724, -0.02454333
 21621348, -0.0223711, 0.02468588, 0.02772, -0.02466988, 0.009324394, 0.002181489, 0.02763869, -0.02451827
 21721308, -0.02221206, -0.01411535, 0.02772896, -0.02456025, -0.0223711, 0.02468588, 0.02772, -0.02466988
 21821268, -0.003418305, 0.007958097, 0.02760589, -0.0245512, -0.02221206, -0.01411535, 0.02772896, -0.02456025
 21921228, 0.01560856, 0.02527521, 0.02767093, -0.02467083, -0.003418305, 0.007958097, 0.02760589, -0.0245512
 22021188, -0.02634086, 0.01919617, 0.02774028, -0.02463575, 0.01560856, 0.02527521, 0.02767093, -0.02467083
 22121148, 0.004955859, -0.008683826, 0.02759308, -0.02457157, -0.02634086, 0.01919617, 0.02774028, -0.02463575
 22221108, -0.009706933, -0.0263082, 0.02761901, -0.02470611, 0.004955859, -0.008683826, 0.02759308, -0.02457157
 22321068, -0.004242989, 0.01569141, 0.02758285, -0.02462226, -0.009706933, -0.0263082, 0.02761901, -0.02470611
 22421028, 0.02564703, -0.01267626, 0.02771308, -0.02460821, -0.004242989, 0.01569141, 0.02758285, -0.02462226
 22520988, -0.01553613, 0.01768562, 0.02761834, -0.0246516, 0.02564703, -0.01267626, 0.02771308, -0.02460821
 22620948, -0.01325838, 0.0008340513, 0.02760081, -0.02458117, -0.01553613, 0.01768562, 0.02761834, -0.0246516
 22720908, -0.005669583, -0.01107146, 0.02756663, -0.0246143, -0.01325838, 0.0008340513, 0.02760081, -0.02458117
 22820868, 0.01342621, 0.02333289, 0.02760601, -0.02470598, -0.005669583, -0.01107146, 0.02756663, -0.0246143
 22920828, -0.01483664, 0.01723059, 0.02759287, -0.02467127, 0.01342621, 0.02333289, 0.02760601, -0.02470598
 23020788, -0.009719573, -0.006485484, 0.02756388, -0.02461304, -0.01483664, 0.01723059, 0.02759287, -0.02467127
 23121581, 0.01235375, 0.01100087, 0.02757484, -0.02463347, -0.009719573, -0.006485484, 0.02756388, -0.02461304
 23221541, 0.01287147, -0.01357882, 0.02756633, -0.0246612, 0.01235375, 0.01100087, 0.02757484, -0.02463347
 23321501, 0.002882296, 0.008548397, 0.02752944, -0.02463841, 0.01287147, -0.01357882, 0.02756633, -0.0246612
 23426459, 0.005054298, 0.01623113, 0.02753189, -0.02468512, 0.002882296, 0.008548397, 0.02752944, -0.02463841
 23526419, 0.0106573, 0.009803027, 0.02754473, -0.0246519, 0.005054298, 0.01623113, 0.02753189, -0.02468512
 23626379, -0.001991574, -0.0148714, 0.02751492, -0.02468885, 0.0106573, 0.009803027, 0.02754473, -0.0246519
 23726339, 0.008818626, 0.01102679, 0.02752658, -0.0246697, -0.001991574, -0.0148714, 0.02751492, -0.02468885
 23826299, -0.001831975, 0.01970905, 0.02750519, -0.02473929, 0.008818626, 0.01102679, 0.02752658, -0.0246697
 23926259, 0.0245252, -0.01174856, 0.02762473, -0.02468858, -0.001831975, 0.01970905, 0.02750519, -0.02473929
 24026219, -0.02218464, -0.02134071, 0.02761682, -0.02474687, 0.0245252, -0.01174856, 0.02762473, -0.02468858
 24126179, -0.01958569, -0.02283727, 0.02758779, -0.02476916, -0.02218464, -0.02134071, 0.02761682, -0.02474687
 24226139, -0.001990561, 0.02499688, 0.02748788, -0.02481468, -0.01958569, -0.02283727, 0.02758779, -0.02476916
 24326099, -0.009243661, 0.0131365, 0.02749363, -0.02472037, -0.001990561, 0.02499688, 0.02748788, -0.02481468
 24426059, -0.00873873, 0.008621704, 0.02748648, -0.02470283, -0.009243661, 0.0131365, 0.02749363, -0.02472037
 24526019, -0.01497213, 0.005764826, 0.02751387, -0.02469771, -0.00873873, 0.008621704, 0.02748648, -0.02470283
 24625979, -0.01668734, -0.01786875, 0.02753328, -0.02475693, -0.01497213, 0.005764826, 0.02751387, -0.02469771
 24725939, -0.02002498, -0.01757896, 0.02755686, -0.02475733, -0.01668734, -0.01786875, 0.02753328, -0.02475693
 24825899, -0.01614741, 0.0226612, 0.02750689, -0.02482804, -0.02002498, -0.01757896, 0.02755686, -0.02475733
 24925859, 0.0176728, 0.02611348, 0.02753386, -0.02485017, -0.01614741, 0.0226612, 0.02750689, -0.02482804
 25025819, -0.005300632, -0.008003817, 0.02744853, -0.02473109, 0.0176728, 0.02611348, 0.02753386, -0.02485017
 25125779, -0.01076588, 0.007120161, 0.02746062, -0.02473534, -0.005300632, -0.008003817, 0.02744853, -0.02473109
 25226572, 0.02370002, 0.006451443, 0.0275606, -0.02472784, -0.01076588, 0.007120161, 0.02746062, -0.02473534
 25326532, -0.01376198, 0.02487604, 0.02746902, -0.02487795, 0.02370002, 0.006451443, 0.0275606, -0.02472784
 25431490, 0.009432154, -0.01736038, 0.02744187, -0.02480918, -0.01376198, 0.02487604, 0.02746902, -0.02487795
 25531450, 0.00846034, 0.008791838, 0.02743569, -0.0247588, 0.009432154, -0.01736038, 0.02744187, -0.02480918
 25631410, -0.007787927, -0.01891022, 0.02743338, -0.02482517, 0.00846034, 0.008791838, 0.02743569, -0.0247588
 25731370, 0.02114209, -0.008639015, 0.02750448, -0.02477089, -0.007787927, -0.01891022, 0.02743338, -0.02482517
 25831330, 0.01054492, -0.0136032, 0.02742689, -0.02480348, 0.02114209, -0.008639015, 0.02750448, -0.02477089
 25931290, 0.00322192, 0.02302933, 0.02740842, -0.02488166, 0.01054492, -0.0136032, 0.02742689, -0.02480348
 26031250, -0.007662208, -0.01437805, 0.02741153, -0.02481316, 0.00322192, 0.02302933, 0.02740842, -0.02488166
 26131210, 0.01496622, -0.01488293, 0.02743699, -0.02482764, -0.007662208, -0.01437805, 0.02741153, -0.02481316
 26231170, -0.001306687, 0.02189255, 0.0273898, -0.02488807, 0.01496622, -0.01488293, 0.02743699, -0.02482764
 26331130, -0.0111456, -0.01975286, 0.02741673, -0.02486628, -0.001306687, 0.02189255, 0.0273898, -0.02488807
 26431090, -0.01357822, 0.01257617, 0.02741471, -0.0248279, -0.0111456, -0.01975286, 0.02741673, -0.02486628
 26531050, 0.01986841, 0.02578606, 0.02747742, -0.024928, -0.01357822, 0.01257617, 0.02741471, -0.0248279
 26631010, -9.585303E-05, 0.009333417, 0.0273672, -0.0248199, 0.01986841, 0.02578606, 0.02747742, -0.024928
 26730970, -0.001172346, -0.01233325, 0.0273641, -0.02483901, -9.585303E-05, 0.009333417, 0.0273672, -0.0248199
 26830930, -0.01573548, 0.005496623, 0.02741122, -0.02481644, -0.001172346, -0.01233325, 0.0273641, -0.02483901
 26930890, 0.009163301, 0.01619011, 0.02737749, -0.02486978, -0.01573548, 0.005496623, 0.02741122, -0.02481644
 27030850, 0.01913129, -0.01477531, 0.02742669, -0.02487183, 0.009163301, 0.01619011, 0.02737749, -0.02486978
 27130810, 0.006378181, 0.01740175, 0.02735858, -0.02488996, 0.01913129, -0.01477531, 0.02742669, -0.02487183
 27230770, 0.004940614, 0.02055618, 0.02735178, -0.02492183, 0.006378181, 0.01740175, 0.02735858, -0.02488996
 27331563, 0.01296031, -0.006110651, 0.02737182, -0.02484277, 0.004940614, 0.02055618, 0.02735178, -0.02492183
 27431523, -0.01065974, 3.024249E-05, 0.02735669, -0.02483776, 0.01296031, -0.006110651, 0.02737182, -0.02484277
 27536481, 0.02479427, -0.01569171, 0.02745904, -0.02490144, -0.01065974, 3.024249E-05, 0.02735669, -0.02483776
 27636441, 0.01631635, -0.02002418, 0.02737988, -0.02494287, 0.02479427, -0.01569171, 0.02745904, -0.02490144
 27736401, 0.02300354, -0.01404145, 0.02743216, -0.02489931, 0.01631635, -0.02002418, 0.02737988, -0.02494287
 27836361, 0.0153955, -0.002277116, 0.0273663, -0.02485755, 0.02300354, -0.01404145, 0.02743216, -0.02489931
 27936321, -0.01933586, -0.003557008, 0.02739485, -0.02486022, 0.0153955, -0.002277116, 0.0273663, -0.02485755
 28036281, -0.009259783, 0.01187108, 0.02732405, -0.02490033, -0.01933586, -0.003557008, 0.02739485, -0.02486022
 28136241, -0.02315721, 0.02015135, 0.02741647, -0.02496747, -0.009259783, 0.01187108, 0.02732405, -0.02490033
 28236201, -0.0008804807, -0.002833114, 0.02729754, -0.02487802, -0.02315721, 0.02015135, 0.02741647, -0.02496747
 28336161, -0.003093804, 0.009848948, 0.02729575, -0.02490306, -0.0008804807, -0.002833114, 0.02729754, -0.02487802
 28436121, -0.009977549, 0.004007909, 0.02731065, -0.02488885, -0.003093804, 0.009848948, 0.02729575, -0.02490306
 28536081, 0.00859543, -0.002942701, 0.02730109, -0.02489153, -0.009977549, 0.004007909, 0.02731065, -0.02488885
 28636041, 0.01501689, -0.01236445, 0.02732945, -0.02493019, 0.00859543, -0.002942701, 0.02730109, -0.02489153
 28736001, -0.0001985443, 0.01033974, 0.02727805, -0.02492254, 0.01501689, -0.01236445, 0.02732945, -0.02493019
 28835961, 0.009719688, 0.02185441, 0.02730343, -0.02500422, -0.0001985443, 0.01033974, 0.02727805, -0.02492254
 28935921, 0.02554054, -0.009539432, 0.02741117, -0.02492644, 0.009719688, 0.02185441, 0.02730343, -0.02500422
 29035881, 0.0006280451, -0.00566418, 0.02726546, -0.02491876, 0.02554054, -0.009539432, 0.02741117, -0.02492644
 29135841, 0.02002427, -0.01703741, 0.02734746, -0.02498409, 0.0006280451, -0.00566418, 0.02726546, -0.02491876
 29235801, 0.006375736, 0.0199457, 0.02727305, -0.02500599, 0.02002427, -0.01703741, 0.02734746, -0.02498409
 29335761, -0.01360819, 0.004743085, 0.02729397, -0.02492885, 0.006375736, 0.0199457, 0.02727305, -0.02500599
 29436554, 0.00803152, -0.02138646, 0.02726578, -0.0250335, -0.01360819, 0.004743085, 0.02729397, -0.02492885
 29536514, 0.01137859, -0.02241996, 0.02727548, -0.02504879, 0.00803152, -0.02138646, 0.02726578, -0.0250335
 29641472, 0.02484233, -0.0115442, 0.02737601, -0.02496671, 0.01137859, -0.02241996, 0.02727548, -0.02504879
 29741432, 0.001864782, -0.01397459, 0.02724046, -0.02498522, 0.02484233, -0.0115442, 0.02737601, -0.02496671
 29841392, 0.01934134, 0.01990339, 0.02732937, -0.02502242, 0.001864782, -0.01397459, 0.02724046, -0.02498522
 29941352, 0.007857021, 0.006794735, 0.02724588, -0.02495794, 0.01934134, 0.01990339, 0.02732937, -0.02502242
 30041312, 0.01846156, 0.01118755, 0.02730828, -0.024974, 0.007857021, 0.006794735, 0.02724588, -0.02495794
 30141272, 0.01016191, -0.01848866, 0.02724626, -0.02503675, 0.01846156, 0.01118755, 0.02730828, -0.024974
 30241232, -0.008188878, 0.008349537, 0.02723393, -0.02497777, 0.01016191, -0.01848866, 0.02724626, -0.02503675
 30341192, 0.02178095, 0.0218375, 0.02733557, -0.02505813, -0.008188878, 0.008349537, 0.02723393, -0.02497777
 30441152, -0.02339602, -0.02657021, 0.02735316, -0.02510967, 0.02178095, 0.0218375, 0.02733557, -0.02505813
 30541112, 0.0216474, 0.008500537, 0.02731748, -0.02498154, -0.02339602, -0.02657021, 0.02735316, -0.02510967
 30641072, -0.006635573, -0.0206058, 0.02722155, -0.02506913, 0.0216474, 0.008500537, 0.02731748, -0.02498154
 30741032, -0.003638467, -0.02274502, 0.02721101, -0.02509507, -0.006635573, -0.0206058, 0.02722155, -0.02506913
 30840992, 0.02263392, -0.02029509, 0.02730825, -0.02508155, -0.003638467, -0.02274502, 0.02721101, -0.02509507
 30940952, 0.00437868, -0.005593946, 0.02719847, -0.02499612, 0.02263392, -0.02029509, 0.02730825, -0.02508155
 31040912, -0.007385953, 0.004346092, 0.02720247, -0.02499716, 0.00437868, -0.005593946, 0.02719847, -0.02499612
 31140872, 0.01054602, -0.01421045, 0.0272117, -0.02504339, -0.007385953, 0.004346092, 0.02720247, -0.02499716
 31240832, -0.01441219, -0.01616306, 0.02723775, -0.02505161, 0.01054602, -0.01421045, 0.0272117, -0.02504339
 31340792, 0.01630493, -0.01118034, 0.02723901, -0.02503192, -0.01441219, -0.01616306, 0.02723775, -0.02505161
 31441585, 0.01106965, 0.02291279, 0.02721569, -0.02511736, 0.01630493, -0.01118034, 0.02723901, -0.02503192
 31541545, -0.02548714, 0.01443717, 0.02731634, -0.02505725, 0.01106965, 0.02291279, 0.02721569, -0.02511736
 31641505, -0.005184232, -0.01625463, 0.02718249, -0.02506994, -0.02548714, 0.01443717, 0.02731634, -0.02505725
 31746463, -0.01315069, -0.01020942, 0.02721101, -0.02503572, -0.005184232, -0.01625463, 0.02718249, -0.02506994
 31846423, 0.02363028, 0.02173289, 0.027304, -0.02511112, -0.01315069, -0.01020942, 0.02721101, -0.02503572
 31946383, 0.003211666, -0.004032685, 0.02716432, -0.02502763, 0.02363028, 0.02173289, 0.027304, -0.02511112
 32046343, 0.01091147, -0.01703316, 0.02718489, -0.02509499, 0.003211666, -0.004032685, 0.02716432, -0.02502763
 32146303, 0.0181098, 0.002718239, 0.02722974, -0.025029, 0.01091147, -0.01703316, 0.02718489, -0.02509499
 32246263, -0.01789424, -0.01681446, 0.02723166, -0.02508962, 0.0181098, 0.002718239, 0.02722974, -0.025029
 32346223, -0.008841089, -0.0132842, 0.02716995, -0.025075, -0.01789424, -0.01681446, 0.02723166, -0.02508962
 32446183, 0.007602654, 0.0006242937, 0.02715849, -0.02504138, -0.008841089, -0.0132842, 0.02716995, -0.025075
 32546143, 0.001422925, 0.01298949, 0.02714454, -0.02508287, 0.007602654, 0.0006242937, 0.02715849, -0.02504138
 32646103, 0.003167002, 0.01195158, 0.02714311, -0.02508023, 0.001422925, 0.01298949, 0.02714454, -0.02508287
 32746063, -0.01669469, -0.015533, 0.02720483, -0.02509931, 0.003167002, 0.01195158, 0.02714311, -0.02508023
 32846023, 0.0182751, -0.006372183, 0.02720572, -0.0250643, -0.01669469, -0.015533, 0.02720483, -0.02509931
 32945983, 0.01528974, -0.01954785, 0.02718017, -0.02514842, 0.0182751, -0.006372183, 0.02720572, -0.0250643
 33045943, -0.004353912, 0.009947645, 0.02713058, -0.02508559, 0.01528974, -0.01954785, 0.02718017, -0.02514842
 33145903, -0.0118541, -0.006800734, 0.02715618, -0.02507401, -0.004353912, 0.009947645, 0.02713058, -0.02508559
 33245863, -0.004086026, -0.01993348, 0.02712845, -0.02515712, -0.0118541, -0.006800734, 0.02715618, -0.02507401
 33345823, -0.00464596, 0.007598112, 0.02712136, -0.02508653, -0.004086026, -0.01993348, 0.02712845, -0.02515712
 33445783, -0.003886338, -0.01318798, 0.02711937, -0.02511435, -0.00464596, 0.007598112, 0.02712136, -0.02508653
 33546576, 0.0201674, -0.007946875, 0.02719963, -0.02509322, -0.003886338, -0.01318798, 0.02711937, -0.02511435
 33646536, -0.02551398, -0.001412794, 0.02725397, -0.02507711, 0.0201674, -0.007946875, 0.02719963, -0.02509322
 33751494, 0.0144225, -0.01196158, 0.0271496, -0.02511958, -0.02551398, -0.001412794, 0.02725397, -0.02507711
 33851454, 0.01327765, -0.00971821, 0.02713978, -0.02511142, 0.0144225, -0.01196158, 0.0271496, -0.02511958
 33951414, -0.01834388, 0.01874414, 0.02717137, -0.02517472, 0.01327765, -0.00971821, 0.02713978, -0.02511142
 34051374, -0.0127437, 0.0112197, 0.0271307, -0.02512533, -0.01834388, 0.01874414, 0.02717137, -0.02517472
 34151334, 0.0119228, 0.01445601, 0.02712913, -0.02514171, -0.0127437, 0.0112197, 0.0271307, -0.02512533
 34251294, -0.00235097, -0.01507307, 0.02709344, -0.02515253, 0.0119228, 0.01445601, 0.02712913, -0.02514171
 34351254, -0.02416578, -0.02166203, 0.0272301, -0.0251965, -0.00235097, -0.01507307, 0.02709344, -0.02515253
 34451214, 0.01752682, -0.002012782, 0.02715211, -0.02510756, -0.02416578, -0.02166203, 0.0272301, -0.0251965
 34551174, 0.002792109, 0.006551498, 0.02708335, -0.02512088, 0.01752682, -0.002012782, 0.02715211, -0.02510756
 34651134, 0.0009158739, -0.01624732, 0.02708023, -0.02517424, 0.002792109, 0.006551498, 0.02708335, -0.02512088
 34751094, 0.00967952, 0.0193604, 0.02710245, -0.02519784, 0.0009158739, -0.01624732, 0.02708023, -0.02517424
 34851054, 0.02248489, -0.009081545, 0.02718296, -0.02513891, 0.00967952, 0.0193604, 0.02710245, -0.02519784
 34951014, -0.006252524, -0.02543231, 0.02708644, -0.02526563, 0.02248489, -0.009081545, 0.02718296, -0.02513891
 35050974, 0.0163644, 0.008904818, 0.02712976, -0.02514009, -0.006252524, -0.02543231, 0.02708644, -0.02526563
 35150934, -0.009356583, 0.006367549, 0.02708293, -0.02513942, 0.0163644, 0.008904818, 0.02712976, -0.02514009
 35250894, -0.02215661, 0.01405737, 0.02716769, -0.02517885, -0.009356583, 0.006367549, 0.02708293, -0.02513942
 35350854, 0.02507447, 0.006766105, 0.027202, -0.02513852, -0.02215661, 0.01405737, 0.02716769, -0.02517885
 35450814, -0.02208078, -0.009973561, 0.02716899, -0.02515378, 0.02507447, 0.006766105, 0.027202, -0.02513852
 35550774, 0.01698706, 0.005906201, 0.02711933, -0.02514583, -0.02208078, -0.009973561, 0.02716899, -0.02515378
 35651567, 0.01256502, -0.01957522, 0.02708498, -0.02523352, 0.01698706, 0.005906201, 0.02711933, -0.02514583
 35751527, 0.02474936, 0.003113133, 0.027186, -0.02514362, 0.01256502, -0.01957522, 0.02708498, -0.02523352
 35856485, 0.01427684, -0.007333678, 0.02708931, -0.0251628, 0.02474936, 0.003113133, 0.027186, -0.02514362
 35956445, -0.02542785, 0.01763076, 0.02718246, -0.0252256, 0.01427684, -0.007333678, 0.02708931, -0.0251628
 36056405, -0.009594928, -0.01390735, 0.02706377, -0.02519676, -0.02542785, 0.01763076, 0.02718246, -0.0252256
 36156365, -0.008400392, 0.02469187, 0.02705445, -0.02529857, -0.009594928, -0.01390735, 0.02706377, -0.02519676
 36256325, -0.01759709, 0.0216472, 0.02710154, -0.02527091, -0.008400392, 0.02469187, 0.02705445, -0.02529857
 36356285, 0.01901089, 0.002914738, 0.02711344, -0.02516303, -0.01759709, 0.0216472, 0.02710154, -0.02527091
 36456245, 0.02439355, 0.01930656, 0.02717246, -0.02523878, 0.01901089, 0.002914738, 0.02711344, -0.02516303
 36556205, -0.006932061, -0.01935179, 0.02704228, -0.02525172, 0.02439355, 0.01930656, 0.02717246, -0.02523878
 36656165, 0.01554783, 0.00493408, 0.02707937, -0.02517547, -0.006932061, -0.01935179, 0.02704228, -0.02525172
 36756125, 0.01976168, -0.0003359584, 0.02710859, -0.02517308, 0.01554783, 0.00493408, 0.02707937, -0.02517547
 36856085, 0.003927574, 0.01292034, 0.02702425, -0.02521514, 0.01976168, -0.0003359584, 0.02710859, -0.02517308
 36956045, -0.02089993, -0.009576158, 0.02711779, -0.02519533, 0.003927574, 0.01292034, 0.02702425, -0.02521514
 37056005, -0.02071193, -0.02461579, 0.02712241, -0.02530815, -0.02089993, -0.009576158, 0.02711779, -0.02519533
 37155965, 0.02100104, 0.01444911, 0.02711632, -0.02522518, -0.02071193, -0.02461579, 0.02712241, -0.02530815
 37255925, 0.003632369, -0.0146559, 0.02701263, -0.02523821, 0.02100104, 0.01444911, 0.02711632, -0.02522518
 37355885, -0.005161358, -0.02182264, 0.02701778, -0.02529659, 0.003632369, -0.0146559, 0.02701263, -0.02523821
 37455845, 0.02116342, 0.01498614, 0.02711073, -0.02523646, -0.005161358, -0.02182264, 0.02701778, -0.02529659
 37555805, -0.01435781, 0.008866629, 0.02704636, -0.02521529, 0.02116342, 0.01498614, 0.02711073, -0.02523646
 37655765, -0.02357689, 0.0195455, 0.02711968, -0.02528856, -0.01435781, 0.008866629, 0.02704636, -0.02521529
 37756558, 0.02498963, 0.007234323, 0.02713962, -0.02520639, -0.02357689, 0.0195455, 0.02711968, -0.02528856
 37856518, -0.02536033, 0.00729411, 0.02713605, -0.02521479, 0.02498963, 0.007234323, 0.02713962, -0.02520639
 37961476, -0.002984856, -0.001964237, 0.02699397, -0.02520808, -0.02536033, 0.00729411, 0.02713605, -0.02521479
 38061436, -0.01486364, 0.0249086, 0.02703843, -0.02535305, -0.002984856, -0.001964237, 0.02699397, -0.02520808
 38161396, -0.01842295, -0.0208435, 0.02707222, -0.02530131, -0.01486364, 0.0249086, 0.02703843, -0.02535305
 38261356, 0.0209429, 0.002459395, 0.0270838, -0.02521234, -0.01842295, -0.0208435, 0.02707222, -0.02530131
 38361316, 0.01583491, 0.02443141, 0.02704896, -0.02534328, 0.0209429, 0.002459395, 0.0270838, -0.02521234
 38461276, -0.02243594, 0.01763313, 0.02708951, -0.02529219, 0.01583491, 0.02443141, 0.02704896, -0.02534328
 38561236, -0.01550709, -0.02575704, 0.02704268, -0.025363, -0.02243594, 0.01763313, 0.02708951, -0.02529219
 38661196, 0.0004147924, -0.001731024, 0.02697556, -0.02522555, -0.01550709, -0.02575704, 0.02704268, -0.025363
 38761156, 0.002335355, 0.003214664, 0.02697464, -0.02522946, 0.0004147924, -0.001731024, 0.02697556, -0.02522555
 38861116, 0.01459188, 0.001803172, 0.02701908, -0.02522855, 0.002335355, 0.003214664, 0.02697464, -0.02522946
 38961076, -0.01310288, -0.009094629, 0.02700955, -0.02524765, 0.01459188, 0.001803172, 0.02701908, -0.02522855
 39061036, -0.01080335, 0.005407133, 0.02699203, -0.02524116, -0.01310288, -0.009094629, 0.02700955, -0.02524765
 39160996, 0.01669645, -0.01788308, 0.02702493, -0.02531116, -0.01080335, 0.005407133, 0.02699203, -0.02524116
 39260956, -0.005688256, -0.02275591, 0.02697509, -0.02535307, 0.01669645, -0.01788308, 0.02702493, -0.02531116
 39360916, 0.01599306, -0.01413691, 0.02701538, -0.02528818, -0.005688256, -0.02275591, 0.02697509, -0.02535307
 39460876, -0.01262537, -0.005885234, 0.02699453, -0.02524967, 0.01599306, -0.01413691, 0.02701538, -0.02528818
 39560836, 0.002711576, -0.01120708, 0.02695744, -0.02527507, -0.01262537, -0.005885234, 0.02699453, -0.02524967
 39660796, -0.00452107, 0.0233557, 0.02696034, -0.02537239, 0.002711576, -0.01120708, 0.02695744, -0.02527507
 39761589, -0.02401924, -0.01779296, 0.02708871, -0.02531141, -0.00452107, 0.0233557, 0.02696034, -0.02537239
 39861549, -0.002861606, 0.0002029923, 0.02695087, -0.02525309, -0.02401924, -0.01779296, 0.02708871, -0.02531141
 39961509, 0.001948063, -0.005575028, 0.02694793, -0.02526243, -0.002861606, 0.0002029923, 0.02695087, -0.02525309
 40066467, 0.02459498, -0.009136911, 0.02707773, -0.02527556, 0.001948063, -0.005575028, 0.02694793, -0.02526243
 40166427, 0.01035417, 0.002882848, 0.02696718, -0.02526063, 0.02459498, -0.009136911, 0.02707773, -0.02527556
 40266387, 0.00245004, -0.01530595, 0.02694309, -0.02531528, 0.01035417, 0.002882848, 0.02696718, -0.02526063
 40366347, -0.009209787, -0.007871428, 0.02695895, -0.02527668, 0.00245004, -0.01530595, 0.02694309, -0.02531528
 40466307, 0.003824014, -0.003165307, 0.02693956, -0.02526897, -0.009209787, -0.007871428, 0.02695895, -0.02527668
 40566267, 0.02009804, -0.02311551, 0.02702237, -0.02539258, 0.003824014, -0.003165307, 0.02693956, -0.02526897
 40666227, 0.0238433, 0.003249287, 0.02706076, -0.02526833, 0.02009804, -0.02311551, 0.02702237, -0.02539258
 40766187, -0.01962213, 0.01331682, 0.02701426, -0.02531416, 0.0238433, 0.003249287, 0.02706076, -0.02526833
 40866147, -0.01449419, -0.01009866, 0.0269781, -0.02529464, -0.01962213, 0.01331682, 0.02701426, -0.02531416
 40966107, 0.009673093, -0.0129209, 0.02694664, -0.0253162, -0.01449419, -0.01009866, 0.0269781, -0.02529464
 41066067, 0.01952831, 0.00948417, 0.02701282, -0.02529456, 0.009673093, -0.0129209, 0.02694664, -0.0253162
 41166027, 0.002274402, -0.0233393, 0.02692655, -0.02540455, 0.01952831, 0.00948417, 0.02701282, -0.02529456
 41265987, -0.02503123, -0.01471946, 0.02706707, -0.02532291, 0.002274402, -0.0233393, 0.02692655, -0.02540455
 41365947, 0.002353595, -0.0193921, 0.02692152, -0.02537095, -0.02503123, -0.01471946, 0.02706707, -0.02532291
 41465907, 0.01236239, 0.001455222, 0.02695068, -0.02528739, 0.002353595, -0.0193921, 0.02692152, -0.02537095
 41565867, 0.01699504, 0.01556042, 0.0269842, -0.02533891, 0.01236239, 0.001455222, 0.02695068, -0.02528739
 41665827, -0.01350566, 0.01014586, 0.02695199, -0.02531626, 0.01699504, 0.01556042, 0.0269842, -0.02533891
 41765787, 0.02598976, -0.02344775, 0.02705728, -0.02542178, -0.01350566, 0.01014586, 0.02695199, -0.02531626
 41866580, 0.002987165, -0.002586184, 0.02691037, -0.02529795, 0.02598976, -0.02344775, 0.02705728, -0.02542178
 41966540, 0.01658132, -0.009929778, 0.02696673, -0.02532102, 0.002987165, -0.002586184, 0.02691037, -0.02529795
 42066500, 0.01180237, 0.01812568, 0.02694114, -0.02537007, 0.01658132, -0.009929778, 0.02696673, -0.02532102
 42171458, -0.01288009, 0.005532194, 0.02693914, -0.02530932, 0.01180237, 0.01812568, 0.02694114, -0.02537007
 42271418, 0.004527682, 0.00781145, 0.02690619, -0.02531768, -0.01288009, 0.005532194, 0.02693914, -0.02530932
 42371378, 0.01674307, 0.02068225, 0.02696922, -0.02539584, 0.004527682, 0.00781145, 0.02690619, -0.02531768
 42471338, 0.02171277, -0.01902732, 0.02699956, -0.0253926, 0.01674307, 0.02068225, 0.02696922, -0.02539584
 42571298, 0.00818078, 0.02241278, 0.02691585, -0.02542034, 0.02171277, -0.01902732, 0.02699956, -0.0253926
 42671258, 0.007887343, 0.005166745, 0.02690765, -0.02531783, 0.00818078, 0.02241278, 0.02691585, -0.02542034
 42771218, -0.009185899, -0.01197894, 0.02691242, -0.02534498, 0.007887343, 0.005166745, 0.02690765, -0.02531783
 42871178, 0.01970032, -0.01623486, 0.02697378, -0.02537793, -0.009185899, -0.01197894, 0.02691242, -0.02534498
 42971138, -0.01249979, 0.02051994, 0.02692184, -0.02541584, 0.01970032, -0.01623486, 0.02697378, -0.02537793
 43071098, 0.00334246, 0.01030977, 0.02688893, -0.02534432, -0.01249979, 0.02051994, 0.02692184, -0.02541584
 43171058, -0.01646147, 0.0156837, 0.02694249, -0.02537998, 0.00334246, 0.01030977, 0.02688893, -0.02534432
 43271018, 0.02426307, -0.01939501, 0.02700987, -0.02541197, -0.01646147, 0.0156837, 0.02694249, -0.02537998
 43370978, 0.00309445, 0.005779867, 0.02688222, -0.02533416, 0.02426307, -0.01939501, 0.02700987, -0.02541197
 43470938, -0.0202191, -0.002972548, 0.0269702, -0.02532751, 0.00309445, 0.005779867, 0.02688222, -0.02533416
 43570898, -0.02492761, 0.02061261, 0.02701125, -0.02542932, -0.0202191, -0.002972548, 0.0269702, -0.02532751
 43670858, -0.02110502, -0.01969759, 0.02698191, -0.0254113, -0.02492761, 0.02061261, 0.02701125, -0.02542932
 43770818, -0.003609792, 0.002070419, 0.02687532, -0.02533553, -0.02110502, -0.01969759, 0.02698191, -0.0254113
 43870778, -0.01876093, -0.01982855, 0.02695723, -0.0254171, -0.003609792, 0.002070419, 0.02687532, -0.02533553
 43971571, -0.02018587, -0.007676871, 0.02696304, -0.02534643, -0.01876093, -0.01982855, 0.02695723, -0.0254171
 44071531, 0.0007318477, 0.02211554, 0.0268713, -0.02544903, -0.02018587, -0.007676871, 0.02696304, -0.02534643
 44176489, 0.01718, 0.0119954, 0.02693567, -0.02536918, 0.0007318477, 0.02211554, 0.0268713, -0.02544903
 44276449, -0.02417272, -0.02083483, 0.02700429, -0.02543027, 0.01718, 0.0119954, 0.02693567, -0.02536918
 44376409, 0.004470283, 0.01200904, 0.02686842, -0.02537687, -0.02417272, -0.02083483, 0.02700429, -0.02543027
 44476369, -0.007576179, -0.0255871, 0.02688016, -0.02549097, 0.004470283, 0.01200904, 0.02686842, -0.02537687
 44576329, -0.01416544, -0.006758702, 0.02690517, -0.02535693, -0.007576179, -0.0255871, 0.02688016, -0.02549097
 44676289, 0.01429964, 0.003156553, 0.02690335, -0.02535147, -0.01416544, -0.006758702, 0.02690517, -0.02535693
 44776249, -0.004255761, -0.009961929, 0.0268603, -0.02537461, 0.01429964, 0.003156553, 0.02690335, -0.02535147
 44876209, 0.02381649, 0.003703304, 0.02698155, -0.02535326, -0.004255761, -0.009961929, 0.0268603, -0.02537461
 44976169, 0.01338913, 0.02292713, 0.02689903, -0.0254694, 0.02381649, 0.003703304, 0.02698155, -0.02535326
 45076129, -0.006937208, 0.01140447, 0.02686037, -0.02538862, 0.01338913, 0.02292713, 0.02689903, -0.0254694
 45176089, 0.02155231, 0.009727838, 0.02695528, -0.02537614, -0.006937208, 0.01140447, 0.02686037, -0.02538862
 45276049, 0.02417965, -0.02453698, 0.02697379, -0.02550141, 0.02155231, 0.009727838, 0.02695528, -0.02537614
 45376009, 0.01598801, -0.01775278, 0.02690032, -0.02543708, 0.02417965, -0.02453698, 0.02697379, -0.02550141
 45475969, 0.0004002065, 0.01021544, 0.02684344, -0.02538947, 0.01598801, -0.01775278, 0.02690032, -0.02543708
 45575929, 0.01382042, -0.01697461, 0.02688272, -0.02543452, 0.0004002065, 0.01021544, 0.02684344, -0.02538947
 45675889, -0.004474825, -0.01308982, 0.02684539, -0.02540748, 0.01382042, -0.01697461, 0.02688272, -0.02543452
 45775849, -0.0115123, -0.00530382, 0.02686795, -0.02537651, -0.004474825, -0.01308982, 0.02684539, -0.02540748
 45875809, -0.002437129, 0.01547593, 0.02683789, -0.02542788, -0.0115123, -0.00530382, 0.02686795, -0.02537651
 45975769, -0.02475271, -0.0003921596, 0.02697108, -0.02537176, -0.002437129, 0.01547593, 0.02683789, -0.02542788
 46076562, 0.02411866, 0.02269577, 0.02697225, -0.02548229, -0.02475271, -0.0003921596, 0.02697108, -0.02537176
 46176522, -0.01972424, 0.005476419, 0.02691635, -0.025385, 0.02411866, 0.02269577, 0.02697225, -0.02548229
 46281480, 0.01440932, 0.00235591, 0.02687536, -0.02538079, -0.01972424, 0.005476419, 0.02691635, -0.025385
 46381440, -0.01706928, 0.01583696, 0.02689021, -0.02544112, 0.01440932, 0.00235591, 0.02687536, -0.02538079
 46481400, -0.02515324, -0.01995813, 0.02697493, -0.02546425, -0.01706928, 0.01583696, 0.02689021, -0.02544112
 46581360, -0.01132287, 0.02329209, 0.0272709, -0.02590399, -0.02515324, -0.01995813, 0.02697493, -0.02546425
 46681320, 0.007510252, -0.01347639, 0.02871175, -0.02720392, -0.01132287, 0.02329209, 0.0272709, -0.02590399
 46781280, -0.02125295, 0.001408671, 0.03106285, -0.02934137, 0.007510252, -0.01347639, 0.02871175, -0.02720392
 46881240, -0.01923116, 0.005548628, 0.03473314, -0.03285126, -0.02125295, 0.001408671, 0.03106285, -0.02934137
 46981200, 0.02825356, -0.003539231, 0.04051781, -0.03831001, -0.01923116, 0.005548628, 0.03473314, -0.03285126
 47081160, 0.01061173, 0.003369382, 0.04909534, -0.04649809, 0.02825356, -0.003539231, 0.04051781, -0.03831001
 47181120, -0.04018244, -0.02236873, 0.06023712, -0.05702338, 0.01061173, 0.003369382, 0.04909534, -0.04649809
 47281080, 0.02977415, -0.06221165, 0.07316437, -0.0694067, -0.04018244, -0.02236873, 0.06023712, -0.05702338
 47381040, 0.01444801, -0.011887, 0.08859576, -0.08395889, 0.02977415, -0.06221165, 0.07316437, -0.0694067
 47481000, -0.01170004, -0.02321039, 0.1062633, -0.1007231, 0.01444801, -0.011887, 0.08859576, -0.08395889
 47580960, 0.01017313, -0.1241909, 0.1257308, -0.1193663, -0.01170004, -0.02321039, 0.1062633, -0.1007231
 47680920, 0.06707908, -0.04670871, 0.1469125, -0.1392702, 0.01017313, -0.1241909, 0.1257308, -0.1193663
 47780880, 0.1648358, 0.08604607, 0.1649547, -0.1658129, 0.06707908, -0.04670871, 0.1469125, -0.1392702
 47880840, -0.138061, 0.1387135, 0.1888214, -0.1899898, 0.1648358, 0.08604607, 0.1649547, -0.1658129
 47980800, 0.2061326, -0.2068011, 0.2143837, -0.2156916, -0.138061, 0.1387135, 0.1888214, -0.1899898
 48080760, -0.04913699, -0.1019899, 0.2406231, -0.2420978, 0.2061326, -0.2068011, 0.2143837, -0.2156916
 48181553, 0.238759, -0.0947858, 0.2689334, -0.270238, -0.04913699, -0.1019899, 0.2406231, -0.2420978
 48281513, 0.25433, -0.005378074, 0.2986074, -0.2999627, 0.238759, -0.0947858, 0.2689334, -0.270238
 48386471, 0.09798677, -0.323626, 0.3287875, -0.3308643, 0.25433, -0.005378074, 0.2986074, -0.2999627
 48486431, 0.1265719, -0.05168684, 0.3606055, -0.3623365, 0.09798677, -0.323626, 0.3287875, -0.3308643
 48586391, -0.1966638, 0.06955256, 0.3926254, -0.3943505, 0.1265719, -0.05168684, 0.3606055, -0.3623365
 48686351, 0.03104716, -0.3785546, 0.4254492, -0.4277517, -0.1966638, 0.06955256, 0.3926254, -0.3943505
 48786311, -0.1803894, -0.1454518, 0.4591886, -0.461031, 0.03104716, -0.3785546, 0.4254492, -0.4277517
 48886271, 0.2288489, 0.1297097, 0.4934237, -0.4951584, -0.1803894, -0.1454518, 0.4591886, -0.461031
 48986231, 0.2105773, -0.1764247, 0.5268304, -0.5286172, 0.2288489, 0.1297097, 0.4934237, -0.4951584
 49086191, -0.5044304, 0.2150939, 0.5600517, -0.5615118, 0.2105773, -0.1764247, 0.5268304, -0.5286172
 49186151, -0.199709, -0.301985, 0.5911585, -0.593453, -0.5044304, 0.2150939, 0.5600517, -0.5615118
 49286111, 0.1386313, -0.2857646, 0.6221645, -0.6247587, -0.199709, -0.301985, 0.5911585, -0.593453
 49386071, 0.2724532, 0.393794, 0.6517357, -0.6546772, 0.1386313, -0.2857646, 0.6221645, -0.6247587
 49486031, -0.06229255, 0.06283717, 0.6804318, -0.6835375, 0.2724532, 0.393794, 0.6517357, -0.6546772
 49585991, -0.02822629, -0.1977391, 0.7078792, -0.7114021, -0.06229255, 0.06283717, 0.6804318, -0.6835375
 49685951, -0.6261991, 0.05480419, 0.7349814, -0.7381235, -0.02822629, -0.1977391, 0.7078792, -0.7114021
 49785911, 0.4433331, 0.1811381, 0.7604905, -0.7644051, -0.6261991, 0.05480419, 0.7349814, -0.7381235
 49885871, 0.3114909, 0.09908034, 0.7848079, -0.7892073, 0.4433331, 0.1811381, 0.7604905, -0.7644051
 49985831, -0.1652669, 0.4349391, 0.8082297, -0.8132146, 0.3114909, 0.09908034, 0.7848079, -0.7892073
 50085791, 0.1599685, -0.5748596, 0.8311904, -0.8362988, -0.1652669, 0.4349391, 0.8082297, -0.8132146
 50186584, 0.3223419, 0.5200826, 0.8535488, -0.8581983, 0.1599685, -0.5748596, 0.8311904, -0.8362988
 50286544, 0.5230503, 0.1681313, 0.8745576, -0.8782372, 0.3223419, 0.5200826, 0.8535488, -0.8581983
 50386504, 0.4044804, 0.06599741, 0.8937794, -0.8971449, 0.5230503, 0.1681313, 0.8745576, -0.8782372
 50491462, 0.7142275, -0.5123756, 0.91149, -0.9142658, 0.4044804, 0.06599741, 0.8937794, -0.8971449
 50591422, 0.2154023, 0.2715978, 0.9265491, -0.9294447, 0.7142275, -0.5123756, 0.91149, -0.9142658
 50691382, -0.8725165, 0.6556686, 0.9415985, -0.9439217, 0.2154023, 0.2715978, 0.9265491, -0.9294447
 50791342, -0.79876, 0.5560819, 0.9548409, -0.9565001, -0.8725165, 0.6556686, 0.9415985, -0.9439217
 50891302, 0.459853, 0.3365234, 0.9667861, -0.9677302, -0.79876, 0.5560819, 0.9548409, -0.9565001
 50991262, -0.6984596, -0.6774621, 0.9773526, -0.9782222, 0.459853, 0.3365234, 0.9667861, -0.9677302
 51091222, 0.6774262, 0.8330792, 0.9857082, -0.9874333, -0.6984596, -0.6774621, 0.9773526, -0.9782222
 51191182, 0.09338902, 0.4001858, 0.9929906, -0.9945782, 0.6774262, 0.8330792, 0.9857082, -0.9874333
 51291142, 0.4809936, -0.4640301, 1.00041, -1.0007, 0.09338902, 0.4001858, 0.9929906, -0.9945782
 51391102, -0.1446764, -0.7524762, 1.013878, -1.00156, 0.4809936, -0.4640301, 1.00041, -1.0007
 51491062, -1.109238, -0.9172903, 1.047807, -0.9824629, -0.1446764, -0.7524762, 1.013878, -1.00156
 51591022, 0.04002873, -0.9320207, 1.10584, -0.9281029, -1.109238, -0.9172903, 1.047807, -0.9824629
 51690982, 0.08560155, -0.07616258, 1.188031, -0.8308128, 0.04002873, -0.9320207, 1.10584, -0.9281029
 51790942, -1.383241, 0.3650827, 1.282252, -0.6911529, 0.08560155, -0.07616258, 1.188031, -0.8308128
 51890902, -1.176846, -0.2598239, 1.36713, -0.5134834, -1.383241, 0.3650827, 1.282252, -0.6911529
 51990862, -0.2690719, -1.768094, 1.433294, -0.3077031, -1.176846, -0.2598239, 1.36713, -0.5134834
 52090822, -0.3915621, -1.09467, 1.466053, -0.08036476, -0.2690719, -1.768094, 1.433294, -0.3077031
 52190782, 0.3418422, -0.4902404, 1.464326, 0.1488659, -0.3915621, -1.09467, 1.466053, -0.08036476
 52291575, 0.8916511, -1.469215, 1.43115, 0.3700323, 0.3418422, -0.4902404, 1.464326, 0.1488659
 52391535, 1.391024, -2.195587, 1.372355, 0.5705765, 0.8916511, -1.469215, 1.43115, 0.3700323
 52496493, 1.98444, -2.317675, 1.290177, 0.7525389, 1.391024, -2.195587, 1.372355, 0.5705765
 52596453, 2.045699, -0.06654574, 1.197551, 0.8949129, 1.98444, -2.317675, 1.290177, 0.7525389
 52696413, 3.129459, 0.4911388, 1.111325, 1.017863, 2.045699, -0.06654574, 1.197551, 0.8949129
 52796373, 3.056415, 0.03145736, 1.015682, 1.120952, 3.129459, 0.4911388, 1.111325, 1.017863
 52896333, 3.350057, 1.466935, 0.9264345, 1.208018, 3.056415, 0.03145736, 1.015682, 1.120952
 52996293, 3.350545, 1.56824, 0.8493249, 1.269573, 3.350057, 1.466935, 0.9264345, 1.208018
 53096253, 2.402887, 0.691543, 0.7912626, 1.303596, 3.350545, 1.56824, 0.8493249, 1.269573
 53196213, 2.457056, 0.8679269, 0.7727817, 1.319348, 2.402887, 0.691543, 0.7912626, 1.303596
 53296173, 2.433312, 2.446615, 0.7853873, 1.32179, 2.457056, 0.8679269, 0.7727817, 1.319348
 53396133, 4.362855, 1.088938, 0.8343763, 1.305818, 2.433312, 2.446615, 0.7853873, 1.32179
 53496093, 3.987586, 2.050594, 0.8868024, 1.281083, 4.362855, 1.088938, 0.8343763, 1.305818
 53596053, 3.640386, 0.4770573, 0.9453791, 1.24147, 3.987586, 2.050594, 0.8868024, 1.281083
 53696013, 4.712083, 0.7414239, 1.018059, 1.200082, 3.640386, 0.4770573, 0.9453791, 1.24147
 53795973, 4.465446, -0.1191203, 1.072798, 1.159349, 4.712083, 0.7414239, 1.018059, 1.200082
 53895933, 5.313451, -0.4107414, 1.128206, 1.126096, 4.465446, -0.1191203, 1.072798, 1.159349
 53995893, 4.857301, 0.2530777, 1.157887, 1.104964, 5.313451, -0.4107414, 1.128206, 1.126096
 54095853, 4.293008, 0.1093253, 1.174321, 1.099112, 4.857301, 0.2530777, 1.157887, 1.104964
 54195813, 4.748714, -0.970441, 1.188027, 1.108891, 4.293008, 0.1093253, 1.174321, 1.099112
 54295773, 5.790336, 0.6388851, 1.196793, 1.130365, 4.748714, -0.970441, 1.188027, 1.108891
 54396566, 4.286281, -0.2001242, 1.169902, 1.158489, 5.790336, 0.6388851, 1.196793, 1.130365
 54496526, 5.602791, 0.9152173, 1.161165, 1.189997, 4.286281, -0.2001242, 1.169902, 1.158489
 54601484, 6.287636, 0.815845, 1.145127, 1.223577, 5.602791, 0.9152173, 1.161165, 1.189997
 54701444, 5.053949, 0.207506, 1.111132, 1.252388, 6.287636, 0.815845, 1.145127, 1.223577
 54801404, 5.414479, 1.593215, 1.098353, 1.278587, 5.053949, 0.207506, 1.111132, 1.252388
 54901364, 5.147186, 0.5690566, 1.084647, 1.29586, 5.414479, 1.593215, 1.098353, 1.278587
 55001324, 6.370132, 1.094198, 1.095891, 1.31199, 5.147186, 0.5690566, 1.084647, 1.29586
 55101284, 7.199967, 1.008958, 1.111358, 1.321952, 6.370132, 1.094198, 1.095891, 1.31199
 55201244, 6.366731, 1.610695, 1.113783, 1.325429, 7.199967, 1.008958, 1.111358, 1.321952
 55301204, 6.885785, 0.1935666, 1.133781, 1.323644, 6.366731, 1.610695, 1.113783, 1.325429
 55401164, 5.469221, 1.480105, 1.138582, 1.321084, 6.885785, 0.1935666, 1.133781, 1.323644
 55501124, 6.739068, 1.506564, 1.171429, 1.319352, 5.469221, 1.480105, 1.138582, 1.321084
 55601084, 7.116444, -0.1125234, 1.191569, 1.314414, 6.739068, 1.506564, 1.171429, 1.319352
 55701044, 5.971114, -0.899863, 1.191437, 1.310752, 7.116444, -0.1125234, 1.191569, 1.314414
 55801004, 7.382827, -0.2470819, 1.219658, 1.311605, 5.971114, -0.899863, 1.191437, 1.310752
 55900964, 8.022857, 0.4978909, 1.238646, 1.317926, 7.382827, -0.2470819, 1.219658, 1.311605
 56000924, 8.063688, 0.6003453, 1.246132, 1.326578, 8.022857, 0.4978909, 1.238646, 1.317926
 56100884, 6.185243, 1.197501, 1.228666, 1.336541, 8.063688, 0.6003453, 1.246132, 1.326578
 56200844, 6.623998, -0.4761171, 1.234279, 1.347156, 6.185243, 1.197501, 1.228666, 1.336541
 56300804, 7.512696, -0.07462028, 1.245711, 1.357481, 6.623998, -0.4761171, 1.234279, 1.347156
 56400764, 7.826838, 0.7559992, 1.249963, 1.365334, 7.512696, -0.07462028, 1.245711, 1.357481
 56501557, 6.209034, 0.8954167, 1.231417, 1.370315, 7.826838, 0.7559992, 1.249963, 1.365334
 56601517, 6.748233, 0.6455899, 1.2409, 1.377556, 6.209034, 0.8954167, 1.231417, 1.370315
 56706475, 7.692025, -0.7171959, 1.257189, 1.386648, 6.748233, 0.6455899, 1.2409, 1.377556
 56806435, 7.417751, 0.4847302, 1.260718, 1.388508, 7.692025, -0.7171959, 1.257189, 1.386648
 56906395, 7.92248, 0.04965112, 1.272817, 1.391579, 7.417751, 0.4847302, 1.260718, 1.388508
 57006355, 8.671527, 0.4701251, 1.291835, 1.396549, 7.92248, 0.04965112, 1.272817, 1.391579
 57106315, 7.122284, 0.6133113, 1.281702, 1.401974, 8.671527, 0.4701251, 1.291835, 1.396549
 57206275, 8.894622, 1.148699, 1.314459, 1.412296, 7.122284, 0.6133113, 1.281702, 1.401974
 57306235, 8.246306, -0.8052779, 1.310952, 1.421247, 8.894622, 1.148699, 1.314459, 1.412296
 57406195, 7.479807, 0.006694347, 1.309556, 1.430398, 8.246306, -0.8052779, 1.310952, 1.421247
 57506155, 8.525512, 0.1455666, 1.330151, 1.444455, 7.479807, 0.006694347, 1.309556, 1.430398
 57606115, 6.843716, -0.9573782, 1.317464, 1.459582, 8.525512, 0.1455666, 1.330151, 1.444455
 57706075, 8.895321, 1.637069, 1.351914, 1.474422, 6.843716, -0.9573782, 1.317464, 1.459582
 57806035, 8.854708, 1.208366, 1.35906, 1.48688, 8.895321, 1.637069, 1.351914, 1.474422
 57905995, 7.997134, -0.6473904, 1.354913, 1.499488, 8.854708, 1.208366, 1.35906, 1.48688
 58005955, 8.071818, -0.4608278, 1.362944, 1.508723, 7.997134, -0.6473904, 1.354913, 1.499488
 58105915, 6.991256, -0.4340943, 1.35765, 1.515886, 8.071818, -0.4608278, 1.362944, 1.508723
 58205875, 8.186379, 1.210798, 1.378812, 1.523711, 6.991256, -0.4340943, 1.35765, 1.515886
