TimeUS,COFN,COFE,CNe,CEe,POFN,POFE,PNe,PEe
 1920898, 0.03954163, 0.0236364, 0.09728408, 0.04849193, 0, 0, 0, 0
 1940890, -0.06015116, 0.01034272, 0.0973365, 0.04844565, 0.03954163, 0.0236364, 0.09728408, 0.04849193
 2040850, -0.0466357, 0.05738559, 0.09735626, 0.04847008, -0.06015116, 0.01034272, 0.0973365, 0.04844565
 2140810, 0.0693895, 0.05694862, 0.09735733, 0.04856318, -0.0466357, 0.05738559, 0.09735626, 0.04847008
 2240770, 0.02455873, 0.02850538, 0.09728568, 0.04846266, 0.0693895, 0.05694862, 0.09735733, 0.04856318
 2340730, -0.01388769, 0.01671005, 0.09728968, 0.04841987, 0.02455873, 0.02850538, 0.09728568, 0.04846266
 2440690, -0.0007730946, -0.0295585, 0.09729813, 0.04841769, -0.01388769, 0.01671005, 0.09728968, 0.04841987
 2540650, -0.06298292, 0.03242078, 0.09740889, 0.04834762, -0.0007730946, -0.0295585, 0.09729813, 0.04841769
 2640610, 0.03975889, -0.01237896, 0.09734762, 0.04834986, -0.06298292, 0.03242078, 0.09740889, 0.04834762
 2740570, 0.05591579, 0.02258874, 0.09737596, 0.04836298, 0.03975889, -0.01237896, 0.09734762, 0.04834986
 2840530, -0.04535958, -0.01094157, 0.09736561, 0.04832997, 0.05591579, 0.02258874, 0.09737596, 0.04836298
 2940490, 0.04126953, 0.0430842, 0.09737013, 0.04837189, -0.04535958, -0.01094157, 0.09736561, 0.04832997
 3040450, 0.0114157, -0.06232406, 0.09738462, 0.0483595, 0.04126953, 0.0430842, 0.09737013, 0.04837189
 3140410, 0.04402137, -0.02086678, 0.0973987, 0.0482705, 0.0114157, -0.06232406, 0.09738462, 0.0483595
 3240370, 0.01468283, -0.06398147, 0.09740126, 0.04833684, 0.04402137, -0.02086678, 0.0973987, 0.0482705
 3340330, 0.0407072, -0.001881741, 0.09739147, 0.04825874, 0.01468283, -0.06398147, 0.09740126, 0.04833684
 3440290, -0.06596764, 0.008326983, 0.09745565, 0.04823121, 0.0407072, -0.001881741, 0.09739147, 0.04825874
 3540250, 0.03580651, -0.02839672, 0.09740717, 0.04824289, -0.06596764, 0.008326983, 0.09745565, 0.04823121
 3640210, -0.04361824, 0.02494833, 0.09742211, 0.04822885, 0.03580651, -0.02839672, 0.09740717, 0.04824289
 3740170, 0.04987118, 0.05193241, 0.09742263, 0.04832607, -0.04361824, 0.02494833, 0.09742211, 0.04822885
 3840963, 0.06246472, 0.03381601, 0.09744398, 0.04827788, 0.04987118, 0.05193241, 0.09742263, 0.04832607
 3940923, 0.07634085, 0.05262671, 0.09748279, 0.04833075, 0.06246472, 0.03381601, 0.09744398, 0.04827788
 4040883, 0.05179339, 0.02598514, 0.09742476, 0.04825429, 0.07634085, 0.05262671, 0.09748279, 0.04833075
 4140843, -0.05210128, 0.06452478, 0.09749932, 0.04823382, 0.05179339, 0.02598514, 0.09742476, 0.04825429
 4240803, -0.03877478, 0.06994446, 0.09747653, 0.04826207, -0.05210128, 0.06452478, 0.09749932, 0.04823382
 4340763, 0.04948512, 0.02873357, 0.09742427, 0.0482522, -0.03877478, 0.06994446, 0.09747653, 0.04826207
 4440723, -0.03973648, 0.03899751, 0.09743994, 0.04821411, 0.04948512, 0.02873357, 0.09742427, 0.0482522
 4540683, 0.02227764, -0.02403282, 0.09740134, 0.0482171, -0.03973648, 0.03899751, 0.09743994, 0.04821411
 4640643, 0.08124856, 0.02952707, 0.09750402, 0.04824636, 0.02227764, -0.02403282, 0.09740134, 0.0482171
 4740603, 0.01047713, -0.04690319, 0.09740904, 0.04824728, 0.08124856, 0.02952707, 0.09750402, 0.04824636
 4840563, 0.0339134, -0.02952351, 0.09742352, 0.04820739, 0.01047713, -0.04690319, 0.09740904, 0.04824728
 4940523, -0.03830919, 0.07454967, 0.09748846, 0.04826121, 0.0339134, -0.02952351, 0.09742352, 0.04820739
 5040483, -0.01644444, -0.03043321, 0.09739324, 0.04823804, -0.03830919, 0.07454967, 0.09748846, 0.04826121
 5140443, -0.009602817, 0.0445398, 0.09740739, 0.048242, -0.01644444, -0.03043321, 0.09739324, 0.04823804
 5240403, 0.04172175, -0.05194729, 0.09746295, 0.04821713, -0.009602817, 0.0445398, 0.09740739, 0.048242
 5340363, 0.06223864, 0.00497886, 0.097461, 0.04820107, 0.04172175, -0.05194729, 0.09746295, 0.04821713
 5440323, 0.03855089, -0.06400883, 0.09747318, 0.0482388, 0.06223864, 0.00497886, 0.097461, 0.04820107
 5540283, -0.03125719, 0.02846594, 0.09742012, 0.04820558, 0.03855089, -0.06400883, 0.09747318, 0.0482388
 5640243, -0.02621726, 0.005652735, 0.09740156, 0.04820356, -0.03125719, 0.02846594, 0.09742012, 0.04820558
 5740203, 0.022492, 0.009633901, 0.09739608, 0.04821018, -0.02621726, 0.005652735, 0.09740156, 0.04820356
 5840163, -0.05454539, 0.01977127, 0.09746162, 0.04818011, 0.022492, 0.009633901, 0.09739608, 0.04821018
 5940956, 0.03884806, -0.03864961, 0.09744574, 0.04819877, -0.05454539, 0.01977127, 0.09746162, 0.04818011
 6040916, 0.02091915, -0.01022931, 0.09740041, 0.04819932, 0.03884806, -0.03864961, 0.09744574, 0.04819877
 6140876, 0.01599568, 0.02641968, 0.09739661, 0.04822222, 0.02091915, -0.01022931, 0.09740041, 0.04819932
 6240836, 0.02261427, 0.01572479, 0.09739866, 0.04821087, 0.01599568, 0.02641968, 0.09739661, 0.04822222
 6340796, -0.05329059, 0.05753476, 0.0975043, 0.04819683, 0.02261427, 0.01572479, 0.09739866, 0.04821087
 6440756, -0.02606918, -0.03781867, 0.09740802, 0.04824195, -0.05329059, 0.05753476, 0.0975043, 0.04819683
 6540716, -0.04209223, 0.03161923, 0.0974475, 0.04818667, -0.02606918, -0.03781867, 0.09740802, 0.04824195
 6640676, 0.03330881, 0.06391171, 0.09743135, 0.04830888, -0.04209223, 0.03161923, 0.0974475, 0.04818667
 6740636, -0.01182086, -0.07022172, 0.0974309, 0.04830519, 0.03330881, 0.06391171, 0.09743135, 0.04830888
 6840596, -0.07909179, -0.02802662, 0.09750742, 0.04822349, -0.01182086, -0.07022172, 0.0974309, 0.04830519
 6940556, -0.01872794, 0.02206923, 0.09740742, 0.04819607, -0.07909179, -0.02802662, 0.09750742, 0.04822349
 7040516, -0.07039333, -0.05083001, 0.09748572, 0.04828575, -0.01872794, 0.02206923, 0.09740742, 0.04819607
 7140476, 0.01652784, 0.04460325, 0.09740995, 0.04824369, -0.07039333, -0.05083001, 0.09748572, 0.04828575
 7240436, -0.05379092, -0.007703066, 0.09744954, 0.04818925, 0.01652784, 0.04460325, 0.09740995, 0.04824369
 7340396, 0.06820735, 0.05757042, 0.09748368, 0.04830565, -0.05379092, -0.007703066, 0.09744954, 0.04818925
 7440356, 0.06965271, 0.01607579, 0.09748521, 0.04819693, 0.06820735, 0.05757042, 0.09748368, 0.04830565
 7540316, -0.03489351, -0.05983734, 0.09743159, 0.04829373, 0.06965271, 0.01607579, 0.09748521, 0.04819693
 7640276, -0.03978672, 0.05930138, 0.09747749, 0.04821218, -0.03489351, -0.05983734, 0.09743159, 0.04829373
 7740236, -0.07551123, 0.008955814, 0.09751597, 0.04815957, -0.03978672, 0.05930138, 0.09747749, 0.04821218
 7840196, 3.176928E-05, -0.04935532, 0.09741388, 0.04824218, -0.07551123, 0.008955814, 0.09751597, 0.04815957
 7940156, -0.01807427, 0.04507902, 0.09742378, 0.04821932, 3.176928E-05, -0.04935532, 0.09741388, 0.04824218
 8040949, 0.003025366, 0.0204889, 0.09739479, 0.0482065, -0.01807427, 0.04507902, 0.09742378, 0.04821932
 8140909, 0.03769813, 0.002086398, 0.09741971, 0.04819301, 0.003025366, 0.0204889, 0.09739479, 0.0482065
 8240869, 0.03712897, 0.003965658, 0.09741831, 0.04819469, 0.03769813, 0.002086398, 0.09741971, 0.04819301
 8340829, -0.05627161, -0.05932753, 0.09745823, 0.04830974, 0.03712897, 0.003965658, 0.09741831, 0.04819469
 8440789, 0.05345029, -0.02227978, 0.09746525, 0.04817228, -0.05627161, -0.05932753, 0.09745823, 0.04830974
 8540749, 0.001941545, 0.06306195, 0.09742667, 0.04827344, 0.05345029, -0.02227978, 0.09746525, 0.04817228
 8640709, 0.003543037, -0.04803053, 0.09741509, 0.04823542, 0.001941545, 0.06306195, 0.09742667, 0.04827344
 8740669, -0.04130318, 0.05801275, 0.09747953, 0.04820703, 0.003543037, -0.04803053, 0.09741509, 0.04823542
 8840629, -0.05007657, -0.0003964575, 0.09744534, 0.04818126, -0.04130318, 0.05801275, 0.09747953, 0.04820703
 8940589, -0.04850523, 0.03336865, 0.09746745, 0.04817202, -0.05007657, -0.0003964575, 0.09744534, 0.04818126
 9040549, 0.02624585, -0.03455228, 0.09742884, 0.04819148, -0.04850523, 0.03336865, 0.09746745, 0.04817202
 9140509, -0.01134006, -0.04156853, 0.09741081, 0.04822694, 0.02624585, -0.03455228, 0.09742884, 0.04819148
 9240469, -0.02278749, -0.004849879, 0.09740739, 0.04818524, -0.01134006, -0.04156853, 0.09741081, 0.04822694
 9340429, 0.04234484, -0.09239623, 0.09754531, 0.04826852, -0.02278749, -0.004849879, 0.09740739, 0.04818524
 9440389, -0.02644728, 0.009150544, 0.09741529, 0.0481782, 0.04234484, -0.09239623, 0.09754531, 0.04826852
 9540349, -0.08941477, -0.03352976, 0.09754545, 0.04822347, -0.02644728, 0.009150544, 0.09741529, 0.0481782
 9640309, 0.01732413, 0.07418074, 0.0974419, 0.04831006, -0.08941477, -0.03352976, 0.09754545, 0.04822347
 9740269, 0.02358089, -0.05228766, 0.09744456, 0.04821178, 0.01732413, 0.07418074, 0.0974419, 0.04831006
 9840229, -0.03261517, 0.02782891, 0.09743438, 0.04817864, 0.02358089, -0.05228766, 0.09744456, 0.04821178
 9940189, 0.04817346, -0.02265761, 0.09745923, 0.04816524, -0.03261517, 0.02782891, 0.09743438, 0.04817864
 10040149, 0.03485405, -0.02889221, 0.09743881, 0.04817749, 0.04817346, -0.02265761, 0.09745923, 0.04816524
 10140942, 0.05841638, -0.01278195, 0.09747599, 0.0481588, 0.03485405, -0.02889221, 0.09743881, 0.04817749
 10240902, 0.06459924, 0.01909476, 0.0974763, 0.04819378, 0.05841638, -0.01278195, 0.09747599, 0.0481588
 10340862, -0.004130198, 0.07980905, 0.09745879, 0.04829754, 0.06459924, 0.01909476, 0.0974763, 0.04819378
 10440822, -0.0005899295, 0.04057133, 0.09741373, 0.04821331, -0.004130198, 0.07980905, 0.09745879, 0.04829754
 10540782, -0.04551199, 0.03125011, 0.09746253, 0.04816649, -0.0005899295, 0.04057133, 0.09741373, 0.04821331
 10640742, 0.006009545, 0.01059545, 0.09739984, 0.04818589, -0.04551199, 0.03125011, 0.09746253, 0.04816649
 10740702, 0.07657542, 0.03774521, 0.09750561, 0.04823633, 0.006009545, 0.01059545, 0.09739984, 0.04818589
 10840662, 0.03249033, -0.07677894, 0.09749392, 0.04824746, 0.07657542, 0.03774521, 0.09750561, 0.04823633
 10940622, 0.02809043, -0.06932156, 0.09747329, 0.04823898, 0.03249033, -0.07677894, 0.09749392, 0.04824746
 11040582, -0.005170672, 0.01475827, 0.09739962, 0.04818988, 0.02809043, -0.06932156, 0.09747329, 0.04823898
 11140542, 0.02742452, -0.006350845, 0.09741341, 0.04818232, -0.005170672, 0.01475827, 0.09739962, 0.04818988
 11240502, -0.0363911, 0.04918033, 0.09746038, 0.04819656, 0.02742452, -0.006350845, 0.09741341, 0.04818232
 11340462, -0.06554186, -0.01511761, 0.09747709, 0.0481917, -0.0363911, 0.04918033, 0.09746038, 0.04819656
 11440422, -0.04026156, -0.02966502, 0.0974263, 0.04821947, -0.06554186, -0.01511761, 0.09747709, 0.0481917
 11540382, -0.02718763, -0.02687947, 0.09741097, 0.04821203, -0.04026156, -0.02966502, 0.0974263, 0.04821947
 11640342, -0.02622543, -0.01744643, 0.09740858, 0.04819948, -0.02718763, -0.02687947, 0.09741097, 0.04821203
 11740302, 0.06040991, -0.001555288, 0.09747152, 0.04817065, -0.02622543, -0.01744643, 0.09740858, 0.04819948
 11840262, 0.008019947, 0.0186676, 0.09739929, 0.04819676, 0.06040991, -0.001555288, 0.09747152, 0.04817065
 11940222, 0.006381917, 0.03274353, 0.0974052, 0.04821078, 0.008019947, 0.0186676, 0.09739929, 0.04819676
 12040182, 0.03776342, -0.03384798, 0.09744765, 0.04817893, 0.006381917, 0.03274353, 0.0974052, 0.04821078
 12140975, -0.007157471, 0.02177584, 0.09740373, 0.04819199, 0.03776342, -0.03384798, 0.09744765, 0.04817893
 12240935, 0.04109458, 0.0063359, 0.09742966, 0.04818413, -0.007157471, 0.02177584, 0.09740373, 0.04819199
 12340895, 0.07101662, 0.03884717, 0.09748922, 0.04824222, 0.04109458, 0.0063359, 0.09742966, 0.04818413
 12440855, -0.0246932, 0.04180344, 0.09743363, 0.04819936, 0.07101662, 0.03884717, 0.09748922, 0.04824222
 12540815, 0.06611815, 0.02938798, 0.09747621, 0.04821978, -0.0246932, 0.04180344, 0.09743363, 0.04819936
 12640775, -0.01866643, 0.01556673, 0.09740748, 0.04818684, 0.06611815, 0.02938798, 0.09747621, 0.04821978
 12740735, -0.03961759, -0.05753253, 0.09743652, 0.0482868, -0.01866643, 0.01556673, 0.09740748, 0.04818684
 12840695, -0.07099721, -0.02108961, 0.09748839, 0.04820443, -0.03961759, -0.05753253, 0.09743652, 0.0482868
 12940655, -0.01161921, 0.008801519, 0.0973983, 0.04819139, -0.07099721, -0.02108961, 0.09748839, 0.04820443
 13040615, -0.0001577511, -0.063959, 0.09743011, 0.04827058, -0.01161921, 0.008801519, 0.0973983, 0.04819139
 13140575, 0.0843077, 0.02479725, 0.09752624, 0.04821065, -0.0001577511, -0.063959, 0.09743011, 0.04827058
 13240535, 0.006065285, 0.07389905, 0.09743914, 0.04830433, 0.0843077, 0.02479725, 0.09752624, 0.04821065
 13340495, -0.01483594, -0.007040865, 0.09739807, 0.04819399, 0.006065285, 0.07389905, 0.09743914, 0.04830433
 13440455, -0.01602776, -0.01865866, 0.09740034, 0.04820179, -0.01483594, -0.007040865, 0.09739807, 0.04819399
 13540415, 0.03403001, -0.03361683, 0.09743899, 0.04818596, -0.01602776, -0.01865866, 0.09740034, 0.04820179
 13640375, -0.04786285, -0.05737276, 0.09744737, 0.04829087, 0.03403001, -0.03361683, 0.09743899, 0.04818596
 13740335, -0.06633944, 0.01796848, 0.09749892, 0.0481549, -0.04786285, -0.05737276, 0.09744737, 0.04829087
 13840295, -0.04907598, 0.06753384, 0.0975145, 0.04820655, -0.06633944, 0.01796848, 0.09749892, 0.0481549
 13940255, -0.006164731, -0.02592652, 0.0974004, 0.04820555, -0.04907598, 0.06753384, 0.0975145, 0.04820655
 14040215, -0.0105014, -0.01004681, 0.09739725, 0.04819346, -0.006164731, -0.02592652, 0.0974004, 0.04820555
 14140175, 0.006267603, -0.01306556, 0.09739825, 0.04819139, -0.0105014, -0.01004681, 0.09739725, 0.04819346
 14240968, -0.04471406, -0.004031061, 0.09743509, 0.04818376, 0.006267603, -0.01306556, 0.09739825, 0.04819139
 14340928, -0.04842081, 0.0826943, 0.09754049, 0.04823587, -0.04471406, -0.004031061, 0.09743509, 0.04818376
 14440888, -0.05511289, 0.02714618, 0.09747909, 0.04815993, -0.04842081, 0.0826943, 0.09754049, 0.04823587
 14540848, 0.04130852, 0.02334298, 0.09742951, 0.04820375, -0.05511289, 0.02714618, 0.09747909, 0.04815993
 14640808, -0.05386423, -0.06031089, 0.09746228, 0.0482961, 0.04130852, 0.02334298, 0.09742951, 0.04820375
 14740768, 0.03191762, 0.06644784, 0.09744109, 0.04829806, -0.05386423, -0.06031089, 0.09746228, 0.0482961
 14840728, 0.04307428, -0.09257258, 0.09754933, 0.04826389, 0.03191762, 0.06644784, 0.09744109, 0.04829806
 14940688, -0.004374625, 0.07427716, 0.09745198, 0.04827985, 0.04307428, -0.09257258, 0.09754933, 0.04826389
 15040648, 0.08739755, 0.04997918, 0.09753946, 0.04827318, -0.004374625, 0.07427716, 0.09745198, 0.04827985
 15140608, -0.04094107, 0.02363756, 0.09744706, 0.04816768, 0.08739755, 0.04997918, 0.09753946, 0.04827318
 15240568, -0.02471269, -0.001127196, 0.09741153, 0.04817945, -0.04094107, 0.02363756, 0.09744706, 0.04816768
 15340528, 0.05702408, 0.00869439, 0.09746232, 0.04817726, -0.02471269, -0.001127196, 0.09741153, 0.04817945
 15440488, -0.06422028, 0.006718556, 0.09748824, 0.04815599, 0.05702408, 0.00869439, 0.09746232, 0.04817726
 15540448, -0.04120501, 0.01106187, 0.09743933, 0.04816796, -0.06422028, 0.006718556, 0.09748824, 0.04815599
 15640408, -0.03671926, 0.07952303, 0.09750898, 0.04824367, -0.04120501, 0.01106187, 0.09743933, 0.04816796
 15740368, 0.01495104, 0.01253576, 0.09740327, 0.04818757, -0.03671926, 0.07952303, 0.09750898, 0.04824367
 15840328, -0.01660527, -0.05039381, 0.09741979, 0.04824428, 0.01495104, 0.01253576, 0.09740327, 0.04818757
 15940288, -0.01972011, -0.03451812, 0.09741134, 0.04821565, -0.01660527, -0.05039381, 0.09741979, 0.04824428
 16040248, 0.02007055, -0.07351395, 0.09746809, 0.04825734, -0.01972011, -0.03451812, 0.09741134, 0.04821565
 16140208, -0.03956147, 0.07140595, 0.09750088, 0.04822277, 0.02007055, -0.07351395, 0.09746809, 0.04825734
 16240168, -0.06412221, -0.04034257, 0.0974741, 0.04824271, -0.03956147, 0.07140595, 0.09750088, 0.04822277
 16340961, -0.03689005, -0.04954146, 0.09743154, 0.0482575, -0.06412221, -0.04034257, 0.0974741, 0.04824271
 16440921, -0.03533805, 0.09013468, 0.09752375, 0.0482767, -0.03689005, -0.04954146, 0.09743154, 0.0482575
 16540881, 0.009824188, 0.03326771, 0.09740608, 0.04821233, -0.03533805, 0.09013468, 0.09752375, 0.0482767
 16640841, 0.05110769, -0.0419549, 0.09748468, 0.04817073, 0.009824188, 0.03326771, 0.09740608, 0.04821233
 16740801, -0.05883677, -0.04799162, 0.09746248, 0.04826711, 0.05110769, -0.0419549, 0.09748468, 0.04817073
 16840761, -0.02782074, 0.008499421, 0.0974144, 0.0481823, -0.05883677, -0.04799162, 0.09746248, 0.04826711
 16940721, 0.03090364, -0.004231186, 0.09741689, 0.04818195, -0.02782074, 0.008499421, 0.0974144, 0.0481823
 17040681, -0.02747001, 0.07708227, 0.09748335, 0.04825939, 0.03090364, -0.004231186, 0.09741689, 0.04818195
 17140641, 0.0128838, -0.03177249, 0.09741239, 0.04819857, -0.02747001, 0.07708227, 0.09748335, 0.04825939
 17240601, -0.02992231, -0.04303681, 0.09742023, 0.04824089, 0.0128838, -0.03177249, 0.09741239, 0.04819857
 17340561, -0.01058384, 0.02753326, 0.09740902, 0.04819405, -0.02992231, -0.04303681, 0.09742023, 0.04824089
 17440521, -0.006258504, -0.007519184, 0.0973989, 0.04818583, -0.01058384, 0.02753326, 0.09740902, 0.04819405
 17540481, -0.0560555, 0.0270424, 0.09748253, 0.04815656, -0.006258504, -0.007519184, 0.0973989, 0.04818583
 17640441, 0.063588, -0.01608607, 0.09749247, 0.04815235, -0.0560555, 0.0270424, 0.09748253, 0.04815656
 17740401, -0.01597475, -0.01023412, 0.09740286, 0.04818762, 0.063588, -0.01608607, 0.09749247, 0.04815235
 17840361, -0.03346531, 0.05404403, 0.09746286, 0.04820257, -0.01597475, -0.01023412, 0.09740286, 0.04818762
 17940321, 0.05398738, -0.06985969, 0.09753415, 0.04819734, -0.03346531, 0.05404403, 0.09746286, 0.04820257
 18040281, -0.04578888, 0.02966772, 0.0974602, 0.04816859, 0.05398738, -0.06985969, 0.09753415, 0.04819734
 18140241, -0.05458399, -0.02724267, 0.09745189, 0.04821298, -0.04578888, 0.02966772, 0.0974602, 0.04816859
 18240201, -0.07556283, -0.0467682, 0.09750277, 0.04826456, -0.05458399, -0.02724267, 0.09745189, 0.04821298
 18340161, -0.01247657, -0.03007693, 0.09740569, 0.04820783, -0.07556283, -0.0467682, 0.09750277, 0.04826456
 18440954, 0.08125889, 0.04052597, 0.09751903, 0.04824456, -0.01247657, -0.03007693, 0.09740569, 0.04820783
 18540914, -0.03042075, 0.05493542, 0.0974593, 0.04820618, 0.08125889, 0.04052597, 0.09751903, 0.04824456
 18640874, 0.06282295, 0.05602501, 0.09747685, 0.04828689, -0.03042075, 0.05493542, 0.0974593, 0.04820618
 18740834, 0.02179881, -0.03379644, 0.09742578, 0.04818784, 0.06282295, 0.05602501, 0.09747685, 0.04828689
 18840794, -0.03788212, 0.04756542, 0.09746488, 0.04818581, 0.02179881, -0.03379644, 0.09742578, 0.04818784
 18940754, -0.004152641, 0.06496673, 0.09743964, 0.04825678, -0.03788212, 0.04756542, 0.09746488, 0.04818581
 19040714, 0.009329047, 0.01560011, 0.09740181, 0.04818867, -0.004152641, 0.06496673, 0.09743964, 0.04825678
 19140674, 0.004978975, -0.058172, 0.09743234, 0.04824088, 0.009329047, 0.01560011, 0.09740181, 0.04818867
 19240634, 0.03161545, -0.07780677, 0.09749525, 0.04824859, 0.004978975, -0.058172, 0.09743234, 0.04824088
 19340594, 0.01181183, -0.05860441, 0.0974387, 0.04823416, 0.03161545, -0.07780677, 0.09749525, 0.04824859
 19440554, 0.0777507, 0.02790029, 0.09739204, 0.04844813, 0.01181183, -0.05860441, 0.0974387, 0.04823416
 19540514, 0.05057649, -0.00792749, 0.09719519, 0.04868808, 0.0777507, 0.02790029, 0.09739204, 0.04844813
 19640474, -0.02166084, 0.03301463, 0.09695947, 0.04911727, 0.05057649, -0.00792749, 0.09719519, 0.04868808
 19740434, 0.05923494, 0.02466232, 0.09673355, 0.04965273, -0.02166084, 0.03301463, 0.09695947, 0.04911727
 19840394, -0.003364877, -0.03779807, 0.09636129, 0.05027647, 0.05923494, 0.02466232, 0.09673355, 0.04965273
 19940354, 0.02008294, 0.06441102, 0.09601963, 0.05103485, -0.003364877, -0.03779807, 0.09636129, 0.05027647
 20040314, -0.03921508, -0.05700655, 0.09563202, 0.05176567, 0.02008294, 0.06441102, 0.09601963, 0.05103485
 20140274, -0.007909494, 0.04884936, 0.09519625, 0.05248326, -0.03921508, -0.05700655, 0.09563202, 0.05176567
 20240234, 0.05194513, 0.02015572, 0.09478931, 0.05323672, -0.007909494, 0.04884936, 0.09519625, 0.05248326
 20340194, -0.01731801, -0.0005016504, 0.09430074, 0.05400488, 0.05194513, 0.02015572, 0.09478931, 0.05323672
 20440154, 0.05574935, 0.06209111, 0.09391431, 0.05489109, -0.01731801, -0.0005016504, 0.09430074, 0.05400488
 20540947, 0.0724346, 0.01865124, 0.09351084, 0.0555317, 0.05574935, 0.06209111, 0.09391431, 0.05489109
 20640907, -0.008296575, 0.04735774, 0.09299108, 0.05629379, 0.0724346, 0.01865124, 0.09351084, 0.0555317
 20740867, 0.04378352, -0.08349871, 0.09266057, 0.05704226, -0.008296575, 0.04735774, 0.09299108, 0.05629379
 20840827, 0.3392576, -0.03013397, 0.09467684, 0.0570816, 0.04378352, -0.08349871, 0.09266057, 0.05704226
 20940787, 0.6096421, -0.1951955, 0.1004538, 0.05638482, 0.3392576, -0.03013397, 0.09467684, 0.0570816
 21040747, 0.9880076, -0.1925492, 0.1116005, 0.05448952, 0.6096421, -0.1951955, 0.1004538, 0.05638482
 21140707, 1.500774, -0.3398145, 0.1330129, 0.05064544, 0.9880076, -0.1925492, 0.1116005, 0.05448952
 21240667, 2.150964, -0.3890012, 0.1637474, 0.04519358, 1.500774, -0.3398145, 0.1330129, 0.05064544
 21340627, 2.997439, -0.5406543, 0.2085822, 0.03728654, 2.150964, -0.3890012, 0.1637474, 0.04519358
 21440587, 3.69387, -0.7344641, 0.2478293, 0.0309182, 2.997439, -0.5406543, 0.2085822, 0.03728654
 21540547, 4.728564, -0.8932981, 0.3063252, 0.0214858, 3.69387, -0.7344641, 0.2478293, 0.0309182
 21640507, 5.66816, -1.038286, 0.3602557, 0.01356522, 4.728564, -0.8932981, 0.3063252, 0.0214858
 21740467, 6.758317, -1.192339, 0.4232379, 0.004933588, 5.66816, -1.038286, 0.3602557, 0.01356522
 21840427, 7.812425, -1.304122, 0.484078, -0.002537951, 6.758317, -1.192339, 0.4232379, 0.004933588
 21940387, 8.731793, -1.390921, 0.537141, -0.007461093, 7.812425, -1.304122, 0.484078, -0.002537951
 22040347, 9.64618, -1.455459, 0.5897729, -0.01151939, 8.731793, -1.390921, 0.537141, -0.007461093
 22140307, 10.60921, -1.571574, 0.6456953, -0.01472534, 9.64618, -1.455459, 0.5897729, -0.01151939
 22240267, 11.3204, -1.573451, 0.6861016, -0.01513401, 10.60921, -1.571574, 0.6456953, -0.01472534
 22340227, 12.17006, -1.480511, 0.7329611, -0.01491217, 11.3204, -1.573451, 0.6861016, -0.01513401
 22440187, 12.9949, -1.62958, 0.7779151, -0.01342461, 12.17006, -1.480511, 0.7329611, -0.01491217
 22540147, 13.68738, -1.525459, 0.8147129, -0.0110434, 12.9949, -1.62958, 0.7779151, -0.01342461
 22640940, 14.20067, -1.508607, 0.8425065, -0.007865205, 13.68738, -1.525459, 0.8147129, -0.0110434
 22740900, 15.10294, -1.529066, 0.8911632, -0.006113194, 14.20067, -1.508607, 0.8425065, -0.007865205
 22840860, 15.88633, -1.497086, 0.9253847, -0.001215465, 15.10294, -1.529066, 0.8911632, -0.006113194
 22940820, 16.29302, -1.439129, 0.9301077, 0.008204184, 15.88633, -1.497086, 0.9253847, -0.001215465
 23040780, 16.56492, -1.386429, 0.9219962, 0.02148773, 16.29302, -1.439129, 0.9301077, 0.008204184
 23140740, 16.99494, -1.283731, 0.9216658, 0.03628579, 16.56492, -1.386429, 0.9219962, 0.02148773
 23240700, 17.68478, -1.176445, 0.9368037, 0.05461169, 16.99494, -1.283731, 0.9216658, 0.03628579
 23340660, 18.27348, -1.22042, 0.9528943, 0.07103354, 17.68478, -1.176445, 0.9368037, 0.05461169
 23440620, 18.92369, -1.35798, 0.9759811, 0.0880406, 18.27348, -1.22042, 0.9528943, 0.07103354
 23540580, 19.85267, -1.463204, 1.013859, 0.1073666, 18.92369, -1.35798, 0.9759811, 0.0880406
 23640540, 20.69929, -1.485489, 1.048019, 0.1250345, 19.85267, -1.463204, 1.013859, 0.1073666
 23740500, 21.52833, -1.327312, 1.080854, 0.1437325, 20.69929, -1.485489, 1.048019, 0.1250345
 23840460, 21.97094, -1.316209, 1.097391, 0.1643348, 21.52833, -1.327312, 1.080854, 0.1437325
 23940420, 22.58463, -1.488199, 1.124073, 0.1859554, 21.97094, -1.316209, 1.097391, 0.1643348
 24040380, 23.05195, -1.436395, 1.14528, 0.2070685, 22.58463, -1.488199, 1.124073, 0.1859554
 24140340, 23.60747, -1.914663, 1.173586, 0.2284653, 23.05195, -1.436395, 1.14528, 0.2070685
 24240300, 24.5192, -2.099993, 1.216474, 0.2542473, 23.60747, -1.914663, 1.173586, 0.2284653
 24340260, 24.484, -1.927416, 1.217891, 0.2865791, 24.5192, -2.099993, 1.216474, 0.2542473
 24440220, 25.32769, -1.318125, 1.259627, 0.3148008, 24.484, -1.927416, 1.217891, 0.2865791
 24540180, 25.86263, -1.798699, 1.295444, 0.3396891, 25.32769, -1.318125, 1.259627, 0.3148008
 24640973, 25.74408, -2.126493, 1.303718, 0.3690138, 25.86263, -1.798699, 1.295444, 0.3396891
 24740933, 25.82509, -1.946304, 1.319468, 0.3961678, 25.74408, -2.126493, 1.303718, 0.3690138
 24840893, 26.66972, -1.929047, 1.368682, 0.4221435, 25.82509, -1.946304, 1.319468, 0.3961678
 24940853, 26.30476, -2.384679, 1.368573, 0.4582205, 26.66972, -1.929047, 1.368682, 0.4221435
 25040813, 26.503, -2.148655, 1.391535, 0.4932138, 26.30476, -2.384679, 1.368573, 0.4582205
 25140773, 27.44526, -1.946846, 1.445817, 0.5244809, 26.503, -2.148655, 1.391535, 0.4932138
 25240733, 27.05017, -1.659742, 1.447328, 0.5592604, 27.44526, -1.946846, 1.445817, 0.5244809
 25340693, 27.66588, -2.829031, 1.494683, 0.5894972, 27.05017, -1.659742, 1.447328, 0.5592604
 25440653, 27.79909, -2.211707, 1.518904, 0.6215503, 27.66588, -2.829031, 1.494683, 0.5894972
 25540613, 27.52193, -2.156925, 1.531225, 0.6585658, 27.79909, -2.211707, 1.518904, 0.6215503
 25640573, 28.52907, -2.026147, 1.594607, 0.6933356, 27.52193, -2.156925, 1.531225, 0.6585658
 25740533, 28.55876, -1.76044, 1.622386, 0.7317694, 28.52907, -2.026147, 1.594607, 0.6933356
 25840493, 27.91177, -2.943892, 1.631326, 0.7717683, 28.55876, -1.76044, 1.622386, 0.7317694
 25940453, 28.17353, -3.089807, 1.672105, 0.8065588, 27.91177, -2.943892, 1.631326, 0.7717683
 26040413, 29.18851, -2.344183, 1.736289, 0.8404683, 28.17353, -3.089807, 1.672105, 0.8065588
 26140373, 28.28297, -2.81036, 1.735662, 0.8802429, 29.18851, -2.344183, 1.736289, 0.8404683
 26240333, 29.12247, -2.208633, 1.792563, 0.915208, 28.28297, -2.81036, 1.735662, 0.8802429
 26340293, 29.42529, -2.644385, 1.832886, 0.9536501, 29.12247, -2.208633, 1.792563, 0.915208
 26440253, 27.54953, -2.595404, 1.797269, 0.9978783, 29.42529, -2.644385, 1.832886, 0.9536501
 26540213, 29.3594, -1.446398, 1.886489, 1.029606, 27.54953, -2.595404, 1.797269, 0.9978783
 26640173, 28.64535, -3.24955, 1.897125, 1.067128, 29.3594, -1.446398, 1.886489, 1.029606
 26740966, 29.51137, -2.583797, 1.955556, 1.097471, 28.64535, -3.24955, 1.897125, 1.067128
 26840926, 28.01068, -2.530241, 1.9364, 1.136114, 29.51137, -2.583797, 1.955556, 1.097471
 26940886, 28.44852, -1.097246, 1.976159, 1.171199, 28.01068, -2.530241, 1.9364, 1.136114
 27040846, 28.54867, -1.000572, 2.009218, 1.203333, 28.44852, -1.097246, 1.976159, 1.171199
 27140806, 27.80657, -2.184922, 2.019993, 1.233233, 28.54867, -1.000572, 2.009218, 1.203333
 27240766, 27.82652, -3.243452, 2.053457, 1.264488, 27.80657, -2.184922, 2.019993, 1.233233
 27340726, 30.36179, -2.975406, 2.165344, 1.281944, 27.82652, -3.243452, 2.053457, 1.264488
 27440686, 28.83494, -1.286632, 2.142659, 1.316341, 30.36179, -2.975406, 2.165344, 1.281944
 27540646, 28.98895, -3.568293, 2.186427, 1.340003, 28.83494, -1.286632, 2.142659, 1.316341
 27640606, 30.54019, -2.402625, 2.263978, 1.359339, 28.98895, -3.568293, 2.186427, 1.340003
 27740566, 30.26307, -1.729143, 2.284406, 1.386884, 30.54019, -2.402625, 2.263978, 1.359339
 27840526, 29.0177, -1.303828, 2.279158, 1.414935, 30.26307, -1.729143, 2.284406, 1.386884
 27940486, 29.95806, -1.999057, 2.341619, 1.4366, 29.0177, -1.303828, 2.279158, 1.414935
 28040446, 27.44582, -4.295104, 2.308663, 1.46771, 29.95806, -1.999057, 2.341619, 1.4366
 28140406, 29.2326, -1.643138, 2.385233, 1.488063, 27.44582, -4.295104, 2.308663, 1.46771
 28240366, 29.68474, -2.444275, 2.43356, 1.508653, 29.2326, -1.643138, 2.385233, 1.488063
 28340326, 28.76001, -1.882945, 2.438283, 1.535256, 29.68474, -2.444275, 2.43356, 1.508653
 28440286, 30.40188, -3.2936, 2.521451, 1.549497, 28.76001, -1.882945, 2.438283, 1.535256
 28540246, 29.88761, -2.007117, 2.519683, 1.579703, 30.40188, -3.2936, 2.521451, 1.549497
 28640206, 29.74124, -2.287628, 2.519754, 1.615792, 29.88761, -2.007117, 2.519683, 1.579703
 28740166, 28.27219, -0.5111775, 2.491685, 1.664522, 29.74124, -2.287628, 2.519754, 1.615792
 28840959, 27.06656, -0.3263848, 2.511174, 1.721022, 28.27219, -0.5111775, 2.491685, 1.664522
 28940919, 28.93402, -1.54628, 2.63199, 1.761547, 27.06656, -0.3263848, 2.511174, 1.721022
 29040879, 29.57665, -4.413327, 2.715742, 1.803385, 28.93402, -1.54628, 2.63199, 1.761547
 29140839, 28.52906, -4.165878, 2.728236, 1.850406, 29.57665, -4.413327, 2.715742, 1.803385
 29240799, 27.33302, -5.23334, 2.705272, 1.88017, 28.52906, -4.165878, 2.728236, 1.850406
 29340759, 27.92495, -4.038107, 2.689387, 1.893266, 27.33302, -5.23334, 2.705272, 1.88017
 29440719, 26.97615, -4.864991, 2.631581, 1.907406, 27.92495, -4.038107, 2.689387, 1.893266
 29540679, 27.26327, -4.42091, 2.601626, 1.913034, 26.97615, -4.864991, 2.631581, 1.907406
 29640639, 27.9719, -3.131634, 2.587732, 1.915463, 27.26327, -4.42091, 2.601626, 1.913034
 29740599, 27.32024, -0.569468, 2.546175, 1.923118, 27.9719, -3.131634, 2.587732, 1.915463
 29840559, 27.62915, -3.339226, 2.539467, 1.941048, 27.32024, -0.569468, 2.546175, 1.923118
 29940519, 28.72364, -2.143627, 2.551864, 1.958311, 27.62915, -3.339226, 2.539467, 1.941048
 30040479, 29.53638, -1.267555, 2.563849, 1.973929, 28.72364, -2.143627, 2.551864, 1.958311
 30140439, 28.75607, -1.141582, 2.535006, 1.992137, 29.53638, -1.267555, 2.563849, 1.973929
 30240399, 29.42885, -0.2300569, 2.543732, 2.011812, 28.75607, -1.141582, 2.535006, 1.992137
 30340359, 27.51108, 0.3005867, 2.479882, 2.035118, 29.42885, -0.2300569, 2.543732, 2.011812
 30440319, 26.57291, -0.6572306, 2.442339, 2.058585, 27.51108, 0.3005867, 2.479882, 2.035118
 30540279, 27.74317, 0.2045518, 2.460595, 2.080822, 26.57291, -0.6572306, 2.442339, 2.058585
 30640239, 27.21616, 1.617077, 2.432913, 2.103432, 27.74317, 0.2045518, 2.460595, 2.080822
 30740199, 24.6635, -1.490412, 2.356883, 2.117459, 27.21616, 1.617077, 2.432913, 2.103432
 30840159, 27.41069, 1.185707, 2.420843, 2.126986, 24.6635, -1.490412, 2.356883, 2.117459
 30940952, 25.54245, -0.6955659, 2.365316, 2.130624, 27.41069, 1.185707, 2.420843, 2.126986
 31040912, 25.23898, 1.508525, 2.355965, 2.131252, 25.54245, -0.6955659, 2.365316, 2.130624
 31140872, 25.16579, 1.831602, 2.352253, 2.133404, 25.23898, 1.508525, 2.355965, 2.131252
 31240832, 27.03323, 1.291202, 2.398956, 2.136535, 25.16579, 1.831602, 2.352253, 2.133404
 31340792, 23.60234, 1.801695, 2.307436, 2.134378, 27.03323, 1.291202, 2.398956, 2.136535
 31440752, 27.11105, -1.000925, 2.392172, 2.139076, 23.60234, 1.801695, 2.307436, 2.134378
 31540712, 26.30701, 2.330968, 2.36879, 2.137512, 27.11105, -1.000925, 2.392172, 2.139076
 31640672, 26.80727, -0.4523406, 2.374428, 2.136389, 26.30701, 2.330968, 2.36879, 2.137512
 31740632, 24.28, 0.1189876, 2.302755, 2.130591, 26.80727, -0.4523406, 2.374428, 2.136389
 31840592, 24.93433, -0.688285, 2.309094, 2.132232, 24.28, 0.1189876, 2.302755, 2.130591
 31940552, 23.16702, 2.114743, 2.259005, 2.126683, 24.93433, -0.688285, 2.309094, 2.132232
 32040512, 22.96876, 0.6324614, 2.243116, 2.122834, 23.16702, 2.114743, 2.259005, 2.126683
 32140472, 25.10464, -0.6180997, 2.288111, 2.121725, 22.96876, 0.6324614, 2.243116, 2.122834
 32240432, 24.2212, 1.435338, 2.256411, 2.117472, 25.10464, -0.6180997, 2.288111, 2.121725
 32340392, 23.66215, 0.672653, 2.231676, 2.112873, 24.2212, 1.435338, 2.256411, 2.117472
 32440352, 25.5558, 2.845019, 2.272822, 2.113867, 23.66215, 0.672653, 2.231676, 2.112873
 32540312, 25.90291, 2.786684, 2.27076, 2.111564, 25.5558, 2.845019, 2.272822, 2.113867
 32640272, 23.04993, 1.599743, 2.184223, 2.102621, 25.90291, 2.786684, 2.27076, 2.111564
 32740232, 24.13173, 2.26927, 2.20089, 2.099971, 23.04993, 1.599743, 2.184223, 2.102621
 32840192, 26.8598, 1.165294, 2.26035, 2.100115, 24.13173, 2.26927, 2.20089, 2.099971
 32940152, 24.82556, 2.871504, 2.196991, 2.091329, 26.8598, 1.165294, 2.26035, 2.100115
 33040945, 26.19476, -0.123264, 2.217476, 2.088883, 24.82556, 2.871504, 2.196991, 2.091329
 33140905, 26.33183, 0.9054931, 2.210547, 2.083263, 26.19476, -0.123264, 2.217476, 2.088883
 33240865, 27.10468, 0.579206, 2.219677, 2.080664, 26.33183, 0.9054931, 2.210547, 2.083263
 33340825, 26.2969, 0.6716436, 2.186142, 2.073015, 27.10468, 0.579206, 2.219677, 2.080664
 33440785, 26.59784, -0.08971107, 2.181671, 2.069404, 26.2969, 0.6716436, 2.186142, 2.073015
 33540745, 26.16226, 3.050687, 2.164383, 2.061617, 26.59784, -0.08971107, 2.181671, 2.069404
 33640705, 25.34415, 0.1526741, 2.123624, 2.054658, 26.16226, 3.050687, 2.164383, 2.061617
 33740665, 24.85455, 1.682997, 2.104634, 2.042322, 25.34415, 0.1526741, 2.123624, 2.054658
 33840625, 25.98462, 0.9707102, 2.122639, 2.038807, 24.85455, 1.682997, 2.104634, 2.042322
 33940585, 27.06624, 0.8331101, 2.141191, 2.035499, 25.98462, 0.9707102, 2.122639, 2.038807
 34040545, 27.42373, 2.343475, 2.14589, 2.026785, 27.06624, 0.8331101, 2.141191, 2.035499
 34140505, 27.14202, 0.7234808, 2.126389, 2.017128, 27.42373, 2.343475, 2.14589, 2.026785
 34240465, 24.73695, 2.149837, 2.05202, 2.001534, 27.14202, 0.7234808, 2.126389, 2.017128
 34340425, 24.67036, 1.538233, 2.039301, 1.993589, 24.73695, 2.149837, 2.05202, 2.001534
 34440385, 26.44137, 1.796085, 2.079085, 1.990725, 24.67036, 1.538233, 2.039301, 1.993589
 34540345, 27.64268, 2.085841, 2.107953, 1.982311, 26.44137, 1.796085, 2.079085, 1.990725
 34640305, 25.19388, 1.85704, 2.028715, 1.964962, 27.64268, 2.085841, 2.107953, 1.982311
 34740265, 27.49703, 3.695597, 2.091597, 1.96322, 25.19388, 1.85704, 2.028715, 1.964962
 34840225, 27.33298, 0.6035436, 2.068974, 1.954533, 27.49703, 3.695597, 2.091597, 1.96322
 34940185, 26.54136, 3.061053, 2.043681, 1.942013, 27.33298, 0.6035436, 2.068974, 1.954533
 35040145, 25.21704, 0.8801928, 1.995081, 1.924654, 26.54136, 3.061053, 2.043681, 1.942013
 35140938, 27.06709, 3.61196, 2.052069, 1.917747, 25.21704, 0.8801928, 1.995081, 1.924654
 35240898, 27.27184, 1.318016, 2.044389, 1.907119, 27.06709, 3.61196, 2.052069, 1.917747
 35340858, 24.97027, 1.502256, 1.968738, 1.891695, 27.27184, 1.318016, 2.044389, 1.907119
 35440818, 26.48717, 3.379004, 2.010296, 1.887955, 24.97027, 1.502256, 1.968738, 1.891695
 35540778, 24.74197, 2.013159, 1.947539, 1.872497, 26.48717, 3.379004, 2.010296, 1.887955
 35640738, 25.63484, 1.403183, 1.965554, 1.864967, 24.74197, 2.013159, 1.947539, 1.872497
 35740698, 27.26304, 1.511335, 2.010667, 1.85671, 25.63484, 1.403183, 1.965554, 1.864967
 35840658, 25.75585, 1.084294, 1.958637, 1.840905, 27.26304, 1.511335, 2.010667, 1.85671
 35940618, 27.88283, 2.68179, 2.023767, 1.834371, 25.75585, 1.084294, 1.958637, 1.840905
 36040578, 27.95871, 0.9062303, 2.01464, 1.82605, 27.88283, 2.68179, 2.023767, 1.834371
 36140538, 28.23731, 1.870108, 2.022178, 1.812286, 27.95871, 0.9062303, 2.01464, 1.82605
 36240498, 27.40582, 0.6269629, 1.987459, 1.79946, 28.23731, 1.870108, 2.022178, 1.812286
 36340458, 26.17232, 2.97705, 1.949888, 1.783952, 27.40582, 0.6269629, 1.987459, 1.79946
 36440418, 26.60536, 1.565041, 1.953823, 1.774594, 26.17232, 2.97705, 1.949888, 1.783952
 36540378, 27.02823, 1.004917, 1.95877, 1.767915, 26.60536, 1.565041, 1.953823, 1.774594
 36640338, 26.23853, 3.634987, 1.935711, 1.755924, 27.02823, 1.004917, 1.95877, 1.767915
 36740298, 25.48491, 1.6845, 1.903585, 1.74008, 26.23853, 3.634987, 1.935711, 1.755924
 36840258, 26.14659, 2.964075, 1.921806, 1.731951, 25.48491, 1.6845, 1.903585, 1.74008
 36940218, 27.03566, 3.067803, 1.944368, 1.72362, 26.14659, 2.964075, 1.921806, 1.731951
 37040178, 26.89861, 1.583188, 1.932373, 1.711042, 27.03566, 3.067803, 1.944368, 1.72362
 37140971, 26.8807, 2.823208, 1.931881, 1.700208, 26.89861, 1.583188, 1.932373, 1.711042
 37240931, 26.58235, 2.386433, 1.918296, 1.687766, 26.8807, 2.823208, 1.931881, 1.700208
 37340891, 26.05204, 2.486943, 1.899226, 1.676236, 26.58235, 2.386433, 1.918296, 1.687766
 37440851, 28.51104, 1.366515, 1.973693, 1.673601, 26.05204, 2.486943, 1.899226, 1.676236
 37540811, 27.31511, 0.7773458, 1.927365, 1.663742, 28.51104, 1.366515, 1.973693, 1.673601
 37640771, 26.01888, 3.154802, 1.885602, 1.654861, 27.31511, 0.7773458, 1.927365, 1.663742
 37740731, 28.08916, 2.270596, 1.948331, 1.651499, 26.01888, 3.154802, 1.885602, 1.654861
 37840691, 28.77178, 2.30183, 1.968262, 1.644942, 28.08916, 2.270596, 1.948331, 1.651499
 37940651, 28.65356, 3.319066, 1.964274, 1.637129, 28.77178, 2.30183, 1.968262, 1.644942
 38040611, 27.24568, 1.711626, 1.910085, 1.623366, 28.65356, 3.319066, 1.964274, 1.637129
 38140571, 28.68756, 0.7981865, 1.953348, 1.621511, 27.24568, 1.711626, 1.910085, 1.623366
 38240531, 27.09734, 0.4482576, 1.895949, 1.610189, 28.68756, 0.7981865, 1.953348, 1.621511
 38340491, 28.57618, 1.731845, 1.944323, 1.607173, 27.09734, 0.4482576, 1.895949, 1.610189
 38440451, 28.11542, 0.8649004, 1.921026, 1.601633, 28.57618, 1.731845, 1.944323, 1.607173
 38540411, 28.3975, 2.778003, 1.933078, 1.594097, 28.11542, 0.8649004, 1.921026, 1.601633
 38640371, 27.32658, 2.312652, 1.893432, 1.58269, 28.3975, 2.778003, 1.933078, 1.594097
 38740331, 27.40607, 0.5564675, 1.888, 1.578785, 27.32658, 2.312652, 1.893432, 1.58269
 38840291, 26.74394, 2.177851, 1.866197, 1.570707, 27.40607, 0.5564675, 1.888, 1.578785
 38940251, 28.70158, 1.352345, 1.93042, 1.568518, 26.74394, 2.177851, 1.866197, 1.570707
 39040211, 27.6521, 2.341548, 1.893791, 1.561108, 28.70158, 1.352345, 1.93042, 1.568518
 39140171, 28.04074, 1.956247, 1.902662, 1.558165, 27.6521, 2.341548, 1.893791, 1.561108
 39240964, 27.63824, 2.63361, 1.88642, 1.554039, 28.04074, 1.956247, 1.902662, 1.558165
 39340924, 27.86233, 2.14987, 1.891273, 1.5478, 27.63824, 2.63361, 1.88642, 1.554039
 39440884, 27.86174, 1.391669, 1.887179, 1.543356, 27.86233, 2.14987, 1.891273, 1.5478
 39540844, 28.98247, 0.7532263, 1.921189, 1.543838, 27.86174, 1.391669, 1.887179, 1.543356
 39640804, 26.95579, 1.657326, 1.84927, 1.534352, 28.98247, 0.7532263, 1.921189, 1.543838
 39740764, 26.90576, 0.7027471, 1.844474, 1.529798, 26.95579, 1.657326, 1.84927, 1.534352
 39840724, 27.72328, 1.624415, 1.872308, 1.527206, 26.90576, 0.7027471, 1.844474, 1.529798
 39940684, 27.98138, 3.081986, 1.881414, 1.525936, 27.72328, 1.624415, 1.872308, 1.527206
 40040644, 26.52608, 1.094634, 1.825274, 1.51553, 27.98138, 3.081986, 1.881414, 1.525936
 40140604, 28.8825, 0.7820051, 1.905763, 1.51699, 26.52608, 1.094634, 1.825274, 1.51553
 40240564, 27.82834, 1.200823, 1.86644, 1.51149, 28.8825, 0.7820051, 1.905763, 1.51699
 40340524, 26.6311, 1.134959, 1.822611, 1.504998, 27.82834, 1.200823, 1.86644, 1.51149
 40440484, 26.80444, 0.4000046, 1.825421, 1.502767, 26.6311, 1.134959, 1.822611, 1.504998
 40540444, 28.71158, 1.852062, 1.894713, 1.50273, 26.80444, 0.4000046, 1.825421, 1.502767
 40640404, 27.62277, 0.7922833, 1.85251, 1.497197, 28.71158, 1.852062, 1.894713, 1.50273
 40740364, 26.8868, 2.475647, 1.82933, 1.49691, 27.62277, 0.7922833, 1.85251, 1.497197
 40840324, 26.89081, 1.769741, 1.828444, 1.497752, 26.8868, 2.475647, 1.82933, 1.49691
 40940284, 27.0303, 1.398818, 1.834144, 1.49982, 26.89081, 1.769741, 1.828444, 1.497752
 41040244, 28.85375, 1.019638, 1.898877, 1.50796, 27.0303, 1.398818, 1.834144, 1.49982
 41140204, 28.25086, 2.933962, 1.884015, 1.508893, 28.85375, 1.019638, 1.898877, 1.50796
 41240164, 27.97183, 0.8072783, 1.870743, 1.510707, 28.25086, 2.933962, 1.884015, 1.508893
 41340957, 27.58959, 2.582881, 1.862912, 1.511862, 27.97183, 0.8072783, 1.870743, 1.510707
 41440917, 29.21489, 1.055242, 1.916324, 1.520958, 27.58959, 2.582881, 1.862912, 1.511862
 41540877, 29.20915, 1.42651, 1.918138, 1.524045, 29.21489, 1.055242, 1.916324, 1.520958
 41640837, 28.27242, 1.936376, 1.888116, 1.523669, 29.20915, 1.42651, 1.918138, 1.524045
 41740797, 28.16188, 1.223468, 1.88475, 1.526597, 28.27242, 1.936376, 1.888116, 1.523669
 41840757, 27.34183, 1.626291, 1.858559, 1.527412, 28.16188, 1.223468, 1.88475, 1.526597
 41940717, 28.42501, 1.802487, 1.897976, 1.534024, 27.34183, 1.626291, 1.858559, 1.527412
 42040677, 29.01083, 2.100254, 1.921948, 1.53917, 28.42501, 1.802487, 1.897976, 1.534024
 42140637, 27.57493, 1.385978, 1.871316, 1.540641, 29.01083, 2.100254, 1.921948, 1.53917
 42240597, 28.96231, 2.728717, 1.925479, 1.548787, 27.57493, 1.385978, 1.871316, 1.540641
 42340557, 28.64266, 2.307528, 1.915036, 1.552806, 28.96231, 2.728717, 1.925479, 1.548787
 42440517, 27.89435, 3.24616, 1.893701, 1.555613, 28.64266, 2.307528, 1.915036, 1.552806
 42540477, 27.25466, 1.889786, 1.871261, 1.554753, 27.89435, 3.24616, 1.893701, 1.555613
 42640437, 27.09957, 2.502006, 1.868306, 1.559753, 27.25466, 1.889786, 1.871261, 1.554753
 42740397, 26.76991, 2.711957, 1.859363, 1.563966, 27.09957, 2.502006, 1.868306, 1.559753
 42840357, 27.43891, 2.852033, 1.885322, 1.56945, 26.76991, 2.711957, 1.859363, 1.563966
 42940317, 27.42358, 1.18921, 1.882147, 1.574486, 27.43891, 2.852033, 1.885322, 1.56945
 43040277, 27.30105, 1.589498, 1.881642, 1.57761, 27.42358, 1.18921, 1.882147, 1.574486
 43140237, 28.66141, 1.242712, 1.931191, 1.584827, 27.30105, 1.589498, 1.881642, 1.57761
 43240197, 28.20745, 3.174734, 1.923351, 1.588534, 28.66141, 1.242712, 1.931191, 1.584827
 43340157, 28.39053, 1.731038, 1.928439, 1.592614, 28.20745, 3.174734, 1.923351, 1.588534
 43440950, 28.88669, 0.8463578, 1.946631, 1.599196, 28.39053, 1.731038, 1.928439, 1.592614
 43540910, 27.96101, 2.044027, 1.919748, 1.601367, 28.88669, 0.8463578, 1.946631, 1.599196
 43640870, 29.67484, 1.298838, 1.979231, 1.61244, 27.96101, 2.044027, 1.919748, 1.601367
 43740830, 27.38881, 2.172105, 1.906334, 1.610816, 29.67484, 1.298838, 1.979231, 1.61244
 43840790, 27.08432, 1.505678, 1.897527, 1.613983, 27.38881, 2.172105, 1.906334, 1.610816
 43940750, 28.87606, 2.062485, 1.962409, 1.623676, 27.08432, 1.505678, 1.897527, 1.613983
 44040710, 26.87496, 2.568233, 1.900548, 1.621297, 28.87606, 2.062485, 1.962409, 1.623676
 44140670, 29.00745, 1.456029, 1.972495, 1.63234, 26.87496, 2.568233, 1.900548, 1.621297
 44240630, 27.33636, 3.076248, 1.919003, 1.639092, 29.00745, 1.456029, 1.972495, 1.63234
 44340590, 29.42838, 3.064433, 1.993837, 1.649893, 27.33636, 3.076248, 1.919003, 1.639092
 44440550, 29.40866, 2.995944, 1.994709, 1.65685, 29.42838, 3.064433, 1.993837, 1.649893
 44540510, 29.57865, 2.258088, 2.002385, 1.66235, 29.40866, 2.995944, 1.994709, 1.65685
 44640470, 27.92668, 1.579018, 1.949236, 1.66273, 29.57865, 2.258088, 2.002385, 1.66235
 44740430, 26.85169, 3.273145, 1.921184, 1.66749, 27.92668, 1.579018, 1.949236, 1.66273
 44840390, 27.78185, 1.138676, 1.949131, 1.675201, 26.85169, 3.273145, 1.921184, 1.66749
 44940350, 28.47465, 1.87265, 1.976851, 1.683465, 27.78185, 1.138676, 1.949131, 1.675201
 45040310, 27.20724, 3.235062, 1.941304, 1.686984, 28.47465, 1.87265, 1.976851, 1.683465
 45140270, 27.11581, 0.8338013, 1.937317, 1.690904, 27.20724, 3.235062, 1.941304, 1.686984
 45240230, 27.33335, 1.666108, 1.950766, 1.69632, 27.11581, 0.8338013, 1.937317, 1.690904
 45340190, 29.66184, 2.005955, 2.033396, 1.707788, 27.33335, 1.666108, 1.950766, 1.69632
 45440150, 29.86517, 1.929456, 2.042865, 1.715199, 29.66184, 2.005955, 2.033396, 1.707788
 45540943, 28.22442, 1.924459, 1.990057, 1.7188, 29.86517, 1.929456, 2.042865, 1.715199
 45640903, 29.29606, 3.487261, 2.035496, 1.727632, 28.22442, 1.924459, 1.990057, 1.7188
 45740863, 26.88764, 1.067557, 1.954037, 1.726632, 29.29606, 3.487261, 2.035496, 1.727632
 45840823, 28.64279, 2.771096, 2.020066, 1.736693, 26.88764, 1.067557, 1.954037, 1.726632
 45940783, 26.98639, 1.851994, 1.967679, 1.738459, 28.64279, 2.771096, 2.020066, 1.736693
 46040743, 27.36454, 2.839577, 1.988646, 1.744141, 26.98639, 1.851994, 1.967679, 1.738459
 46140703, 28.94949, 3.414789, 2.046957, 1.754928, 27.36454, 2.839577, 1.988646, 1.744141
 46240663, 29.00979, 1.512469, 2.049409, 1.75956, 28.94949, 3.414789, 2.046957, 1.754928
 46340623, 28.58015, 1.808938, 2.040547, 1.7643, 29.00979, 1.512469, 2.049409, 1.75956
 46440583, 28.307, 2.432408, 2.038349, 1.768725, 28.58015, 1.808938, 2.040547, 1.7643
 46540543, 27.97141, 2.555871, 2.034064, 1.771791, 28.307, 2.432408, 2.038349, 1.768725
 46640503, 28.38086, 0.6439553, 2.048628, 1.777, 27.97141, 2.555871, 2.034064, 1.771791
 46740463, 27.9551, 0.8795336, 2.040577, 1.780092, 28.38086, 0.6439553, 2.048628, 1.777
 46840423, 26.69945, 2.386077, 2.009122, 1.782384, 27.9551, 0.8795336, 2.040577, 1.780092
 46940383, 27.20327, 2.858153, 2.031689, 1.789752, 26.69945, 2.386077, 2.009122, 1.782384
 47040343, 28.63516, 2.118373, 2.07945, 1.799654, 27.20327, 2.858153, 2.031689, 1.789752
 47140303, 29.0701, 2.821415, 2.101267, 1.804957, 28.63516, 2.118373, 2.07945, 1.799654
 47240263, 28.25464, 1.816513, 2.074968, 1.811243, 29.0701, 2.821415, 2.101267, 1.804957
 47340223, 27.44388, 1.526539, 2.053179, 1.815089, 28.25464, 1.816513, 2.074968, 1.811243
 47440183, 28.30131, 1.249566, 2.086719, 1.820102, 27.44388, 1.526539, 2.053179, 1.815089
 47540976, 28.42802, 1.361586, 2.096236, 1.825166, 28.30131, 1.249566, 2.086719, 1.820102
 47640936, 29.94673, 2.641084, 2.151919, 1.835384, 28.42802, 1.361586, 2.096236, 1.825166
 47740896, 28.08965, 2.512976, 2.093455, 1.837477, 29.94673, 2.641084, 2.151919, 1.835384
 47840856, 27.1255, 0.2307165, 2.060424, 1.838456, 28.08965, 2.512976, 2.093455, 1.837477
 47940816, 28.44541, 0.9631529, 2.104691, 1.843526, 27.1255, 0.2307165, 2.060424, 1.838456
 48040776, 29.42986, 1.327966, 2.138485, 1.846109, 28.44541, 0.9631529, 2.104691, 1.843526
 48140736, 30.06166, 0.4238812, 2.159441, 1.849643, 29.42986, 1.327966, 2.138485, 1.846109
 48240696, 27.06802, 2.156362, 2.068066, 1.843703, 30.06166, 0.4238812, 2.159441, 1.849643
 48340656, 28.3618, 0.1756101, 2.104901, 1.848519, 27.06802, 2.156362, 2.068066, 1.843703
 48440616, 29.82322, 0.2789366, 2.156132, 1.849514, 28.3618, 0.1756101, 2.104901, 1.848519
 48540576, 30.14757, 1.956989, 2.172961, 1.847627, 29.82322, 0.2789366, 2.156132, 1.849514
 48640536, 29.60408, 3.050204, 2.159536, 1.847538, 30.14757, 1.956989, 2.172961, 1.847627
 48740496, 29.66086, 1.798476, 2.160243, 1.847519, 29.60408, 3.050204, 2.159536, 1.847538
 48840456, 29.38175, 2.379296, 2.152494, 1.848361, 29.66086, 1.798476, 2.160243, 1.847519
 48940416, 28.05874, 2.87634, 2.111913, 1.848753, 29.38175, 2.379296, 2.152494, 1.848361
 49040376, 28.38054, 1.12272, 2.121598, 1.847301, 28.05874, 2.87634, 2.111913, 1.848753
 49140336, 28.85907, 2.283971, 2.140854, 1.848415, 28.38054, 1.12272, 2.121598, 1.847301
 49240296, 29.79238, 3.251177, 2.173424, 1.85312, 28.85907, 2.283971, 2.140854, 1.848415
 49340256, 28.75581, 1.897603, 2.138059, 1.849643, 29.79238, 3.251177, 2.173424, 1.85312
 49440216, 27.6127, 1.537281, 2.103726, 1.847168, 28.75581, 1.897603, 2.138059, 1.849643
 49540176, 29.44232, 3.081682, 2.166663, 1.851973, 27.6127, 1.537281, 2.103726, 1.847168
 49640969, 27.61365, 1.784014, 2.105947, 1.848516, 29.44232, 3.081682, 2.166663, 1.851973
 49740929, 29.68236, 2.948433, 2.175263, 1.85548, 27.61365, 1.784014, 2.105947, 1.848516
 49840889, 27.77779, 2.574817, 2.116278, 1.850469, 29.68236, 2.948433, 2.175263, 1.85548
 49940849, 28.56675, 1.991471, 2.142261, 1.85241, 27.77779, 2.574817, 2.116278, 1.850469
 50040809, 28.77154, 3.171822, 2.15096, 1.856237, 28.56675, 1.991471, 2.142261, 1.85241
 50140769, 26.97602, 3.158056, 2.096127, 1.855044, 28.77154, 3.171822, 2.15096, 1.856237
 50240729, 28.67469, 2.419179, 2.149293, 1.856953, 26.97602, 3.158056, 2.096127, 1.855044
 50340689, 27.08965, 1.994708, 2.098237, 1.856428, 28.67469, 2.419179, 2.149293, 1.856953
 50440649, 30.31137, 1.066647, 2.199881, 1.864444, 27.08965, 1.994708, 2.098237, 1.856428
 50540609, 30.09547, 3.286124, 2.197735, 1.866366, 30.31137, 1.066647, 2.199881, 1.864444
 50640569, 27.88346, 2.88778, 2.127001, 1.861696, 30.09547, 3.286124, 2.197735, 1.866366
 50740529, 29.53198, 0.01555216, 2.178037, 1.863485, 27.88346, 2.88778, 2.127001, 1.861696
 50840489, 27.6832, 1.555156, 2.1236, 1.858902, 29.53198, 0.01555216, 2.178037, 1.863485
 50940449, 28.17158, 0.4209002, 2.137474, 1.860719, 27.6832, 1.555156, 2.1236, 1.858902
 51040409, 28.51671, 0.3643347, 2.14803, 1.864744, 28.17158, 0.4209002, 2.137474, 1.860719
 51140369, 27.29813, 1.644375, 2.112812, 1.863144, 28.51671, 0.3643347, 2.14803, 1.864744
 51240329, 27.12532, 3.039261, 2.110805, 1.864527, 27.29813, 1.644375, 2.112812, 1.863144
 51340289, 30.44583, 1.671656, 2.215863, 1.864066, 27.12532, 3.039261, 2.110805, 1.864527
 51440249, 28.32758, -0.1506613, 2.144262, 1.860421, 30.44583, 1.671656, 2.215863, 1.864066
 51540209, 29.75076, 1.598979, 2.192459, 1.858194, 28.32758, -0.1506613, 2.144262, 1.860421
 51640169, 30.05616, 0.7366202, 2.199545, 1.856741, 29.75076, 1.598979, 2.192459, 1.858194
 51740962, 28.84049, 1.910613, 2.159237, 1.853586, 30.05616, 0.7366202, 2.199545, 1.856741
 51840922, 28.95936, 2.987369, 2.164061, 1.852568, 28.84049, 1.910613, 2.159237, 1.853586
 51940882, 30.35752, 3.085835, 2.208512, 1.852257, 28.95936, 2.987369, 2.164061, 1.852568
 52040842, 28.16626, -0.09724677, 2.13098, 1.846453, 30.35752, 3.085835, 2.208512, 1.852257
 52140802, 29.84039, 2.539007, 2.187731, 1.846658, 28.16626, -0.09724677, 2.13098, 1.846453
 52240762, 28.95286, 0.4814044, 2.151869, 1.844959, 29.84039, 2.539007, 2.187731, 1.846658
 52340722, 28.54937, 2.079633, 2.142962, 1.839174, 28.95286, 0.4814044, 2.151869, 1.844959
 52440682, 30.04205, 1.92592, 2.192706, 1.836568, 28.54937, 2.079633, 2.142962, 1.839174
 52540642, 28.42154, 1.637409, 2.138659, 1.831805, 30.04205, 1.92592, 2.192706, 1.836568
 52640602, 27.84956, 1.774504, 2.118782, 1.829922, 28.42154, 1.637409, 2.138659, 1.831805
 52740562, 29.58148, 2.226471, 2.172106, 1.832711, 27.84956, 1.774504, 2.118782, 1.829922
 52840522, 29.06942, 0.9018202, 2.151362, 1.82962, 29.58148, 2.226471, 2.172106, 1.832711
 52940482, 28.39081, 0.9031714, 2.127987, 1.826436, 29.06942, 0.9018202, 2.151362, 1.82962
 53040442, 28.34137, 0.8626748, 2.124015, 1.824834, 28.39081, 0.9031714, 2.127987, 1.826436
 53140402, 27.69959, 0.1451632, 2.102416, 1.820585, 28.34137, 0.8626748, 2.124015, 1.824834
 53240362, 30.40806, 1.191283, 2.190029, 1.82112, 27.69959, 0.1451632, 2.102416, 1.820585
 53340322, 27.63789, 1.297347, 2.097301, 1.816083, 30.40806, 1.191283, 2.190029, 1.82112
 53440282, 29.28951, 0.05959702, 2.146568, 1.819021, 27.63789, 1.297347, 2.097301, 1.816083
 53540242, 29.36474, 0.4038209, 2.14812, 1.816009, 29.28951, 0.05959702, 2.146568, 1.819021
 53640202, 29.41165, 2.527431, 2.156235, 1.809278, 29.36474, 0.4038209, 2.14812, 1.816009
 53740162, 30.51562, 0.2729634, 2.187447, 1.810158, 29.41165, 2.527431, 2.156235, 1.809278
 53840955, 28.6256, 2.949447, 2.12852, 1.805011, 30.51562, 0.2729634, 2.187447, 1.810158
 53940915, 29.84948, 1.595188, 2.166184, 1.800989, 28.6256, 2.949447, 2.12852, 1.805011
 54040875, 30.29245, 1.116591, 2.179917, 1.798463, 29.84948, 1.595188, 2.166184, 1.800989
 54140835, 30.18065, 2.854035, 2.176863, 1.798458, 30.29245, 1.116591, 2.179917, 1.798463
 54240795, 27.77761, 2.320776, 2.096793, 1.790792, 30.18065, 2.854035, 2.176863, 1.798458
 54340755, 27.23954, 2.81715, 2.078098, 1.789255, 27.77761, 2.320776, 2.096793, 1.790792
 54440715, 27.90363, 1.367384, 2.094745, 1.786477, 27.23954, 2.81715, 2.078098, 1.789255
 54540675, 28.27718, 2.506505, 2.104491, 1.787476, 27.90363, 1.367384, 2.094745, 1.786477
 54640635, 28.92871, 0.7394037, 2.123052, 1.784984, 28.27718, 2.506505, 2.104491, 1.787476
 54740595, 27.74193, 1.520426, 2.089213, 1.78089, 28.92871, 0.7394037, 2.123052, 1.784984
 54840555, 28.88992, 0.9068751, 2.127908, 1.782565, 27.74193, 1.520426, 2.089213, 1.78089
 54940515, 27.92721, 1.770098, 2.099117, 1.784617, 28.88992, 0.9068751, 2.127908, 1.782565
 55040475, 28.07558, 1.749956, 2.106386, 1.786975, 27.92721, 1.770098, 2.099117, 1.784617
 55140435, 29.6812, -0.2246621, 2.157015, 1.794617, 28.07558, 1.749956, 2.106386, 1.786975
 55240395, 29.40621, 1.813783, 2.153638, 1.795031, 29.6812, -0.2246621, 2.157015, 1.794617
 55340355, 28.33693, 2.054921, 2.122759, 1.79505, 29.40621, 1.813783, 2.153638, 1.795031
 55440315, 27.73977, -0.007375002, 2.101347, 1.799419, 28.33693, 2.054921, 2.122759, 1.79505
 55540275, 30.42447, 0.1292787, 2.18863, 1.809699, 27.73977, -0.007375002, 2.101347, 1.799419
 55640235, 29.77525, 0.8579031, 2.170626, 1.810709, 30.42447, 0.1292787, 2.18863, 1.809699
 55740195, 29.2257, 2.461468, 2.156839, 1.813553, 29.77525, 0.8579031, 2.170626, 1.810709
 55840155, 28.36975, -0.01001346, 2.129842, 1.812758, 29.2257, 2.461468, 2.156839, 1.813553
 55940948, 29.52896, 3.047921, 2.174958, 1.818111, 28.36975, -0.01001346, 2.129842, 1.812758
 56040908, 28.50205, -0.1241635, 2.138871, 1.820362, 29.52896, 3.047921, 2.174958, 1.818111
 56140868, 28.63414, 2.488968, 2.15098, 1.821649, 28.50205, -0.1241635, 2.138871, 1.820362
 56240828, 27.91393, 2.653731, 2.130233, 1.82478, 28.63414, 2.488968, 2.15098, 1.821649
 56340788, 28.38384, 1.901441, 2.146833, 1.827122, 27.91393, 2.653731, 2.130233, 1.82478
 56440748, 27.19031, 0.6019505, 2.109837, 1.82853, 28.38384, 1.901441, 2.146833, 1.827122
 56540708, 27.76023, 0.07777524, 2.125896, 1.836741, 27.19031, 0.6019505, 2.109837, 1.82853
 56640668, 27.48408, 1.100974, 2.120349, 1.839276, 27.76023, 0.07777524, 2.125896, 1.836741
 56740628, 29.66004, 1.975242, 2.194648, 1.84455, 27.48408, 1.100974, 2.120349, 1.839276
 56840588, 27.92897, 2.151565, 2.14378, 1.843481, 29.66004, 1.975242, 2.194648, 1.84455
 56940548, 29.14497, 2.159533, 2.183385, 1.849597, 27.92897, 2.151565, 2.14378, 1.843481
 57040508, 29.43909, 1.018676, 2.192139, 1.854158, 29.14497, 2.159533, 2.183385, 1.849597
 57140468, 27.35784, 2.508664, 2.130834, 1.855875, 29.43909, 1.018676, 2.192139, 1.854158
 57240428, 27.17324, 1.549031, 2.128643, 1.856166, 27.35784, 2.508664, 2.130834, 1.855875
 57340388, 30.05434, 2.310587, 2.225738, 1.86201, 27.17324, 1.549031, 2.128643, 1.856166
 57440348, 29.29326, 3.109559, 2.204632, 1.867192, 30.05434, 2.310587, 2.225738, 1.86201
 57540308, 29.87381, -0.1243538, 2.220977, 1.871472, 29.29326, 3.109559, 2.204632, 1.867192
 57640268, 27.495, 2.779402, 2.150765, 1.874231, 29.87381, -0.1243538, 2.220977, 1.871472
 57740228, 28.47811, 1.583825, 2.1826, 1.876953, 27.495, 2.779402, 2.150765, 1.874231
 57840188, 27.95286, 1.217887, 2.168623, 1.878591, 28.47811, 1.583825, 2.1826, 1.876953
 57940148, 29.65856, 0.2648858, 2.222468, 1.88598, 27.95286, 1.217887, 2.168623, 1.878591
 58040941, 27.9223, 0.7941104, 2.172487, 1.884527, 29.65856, 0.2648858, 2.222468, 1.88598
 58140901, 29.69633, 0.04321587, 2.228385, 1.892098, 27.9223, 0.7941104, 2.172487, 1.884527
 58240861, 29.16773, 0.2907768, 2.213402, 1.895259, 29.69633, 0.04321587, 2.228385, 1.892098
 58340821, 27.70391, 0.6624895, 2.172158, 1.89508, 29.16773, 0.2907768, 2.213402, 1.895259
 58440781, 27.54825, 1.32294, 2.172235, 1.89634, 27.70391, 0.6624895, 2.172158, 1.89508
 58540741, 29.4336, 2.254539, 2.235438, 1.901589, 27.54825, 1.32294, 2.172235, 1.89634
 58640701, 28.72358, 1.768004, 2.212237, 1.907191, 29.4336, 2.254539, 2.235438, 1.901589
 58740661, 28.26602, 2.840424, 2.201022, 1.914025, 28.72358, 1.768004, 2.212237, 1.907191
 58840621, 30.28654, 3.085357, 2.267012, 1.922501, 28.26602, 2.840424, 2.201022, 1.914025
 58940581, 28.53963, 1.895184, 2.212408, 1.922343, 30.28654, 3.085357, 2.267012, 1.922501
 59040541, 29.43272, 1.709217, 2.243856, 1.926627, 28.53963, 1.895184, 2.212408, 1.922343
 59140501, 27.80281, 0.03560305, 2.193948, 1.928841, 29.43272, 1.709217, 2.243856, 1.926627
 59240461, 29.65493, 1.461212, 2.256544, 1.932885, 27.80281, 0.03560305, 2.193948, 1.928841
 59340421, 28.02992, 2.81807, 2.210772, 1.934609, 29.65493, 1.461212, 2.256544, 1.932885
 59440381, 30.14211, 1.65023, 2.278649, 1.937155, 28.02992, 2.81807, 2.210772, 1.934609
 59540341, 28.0939, 1.113922, 2.214467, 1.939485, 30.14211, 1.65023, 2.278649, 1.937155
 59640301, 28.26588, 3.057974, 2.224581, 1.945174, 28.0939, 1.113922, 2.214467, 1.939485
 59740261, 28.77633, 2.331141, 2.241908, 1.947051, 28.26588, 3.057974, 2.224581, 1.945174
 59840221, 29.36632, 0.2371836, 2.261547, 1.949136, 28.77633, 2.331141, 2.241908, 1.947051
 59940181, 29.88702, 1.70957, 2.285223, 1.949041, 29.36632, 0.2371836, 2.261547, 1.949136
 60040974, 28.54306, -0.4845644, 2.244034, 1.950866, 29.88702, 1.70957, 2.285223, 1.949041
 60140934, 29.94272, 2.1692, 2.290364, 1.958535, 28.54306, -0.4845644, 2.244034, 1.950866
 60240894, 29.60512, -0.3304269, 2.278826, 1.962773, 29.94272, 2.1692, 2.290364, 1.958535
 60340854, 30.40198, 3.232741, 2.312695, 1.966662, 29.60512, -0.3304269, 2.278826, 1.962773
 60440814, 28.52401, 2.232278, 2.256054, 1.966073, 30.40198, 3.232741, 2.312695, 1.966662
 60540774, 29.55172, -0.4195671, 2.28797, 1.970467, 28.52401, 2.232278, 2.256054, 1.966073
 60640734, 30.19418, 2.367592, 2.316126, 1.971842, 29.55172, -0.4195671, 2.28797, 1.970467
 60740694, 27.40765, 2.156934, 2.233858, 1.970252, 30.19418, 2.367592, 2.316126, 1.971842
 60840654, 29.98415, 0.5215648, 2.311732, 1.977486, 27.40765, 2.156934, 2.233858, 1.970252
 60940614, 30.48193, -0.09681022, 2.326957, 1.984775, 29.98415, 0.5215648, 2.311732, 1.977486
 61040574, 27.36718, 2.996034, 2.240521, 1.982728, 30.48193, -0.09681022, 2.326957, 1.984775
 61140534, 29.4985, 1.588962, 2.306851, 1.984899, 27.36718, 2.996034, 2.240521, 1.982728
 61240494, 30.55993, 1.74003, 2.343628, 1.988018, 29.4985, 1.588962, 2.306851, 1.984899
 61340454, 28.46581, 2.289334, 2.283539, 1.988415, 30.55993, 1.74003, 2.343628, 1.988018
 61440414, 29.00842, 0.2721805, 2.301735, 1.990742, 28.46581, 2.289334, 2.283539, 1.988415
 61540374, 28.05406, 1.577541, 2.287454, 1.98021, 29.00842, 0.2721805, 2.301735, 1.990742
 61640334, 28.22044, 0.6001559, 2.318121, 1.961681, 28.05406, 1.577541, 2.287454, 1.98021
 61740294, 28.39267, 1.047505, 2.354624, 1.977493, 28.22044, 0.6001559, 2.318121, 1.961681
 61840254, 28.09743, 0.4598746, 2.390627, 2.045152, 28.39267, 1.047505, 2.354624, 1.977493
 61940214, 30.75377, -0.7144234, 2.529206, 2.164858, 28.09743, 0.4598746, 2.390627, 2.045152
 62040174, 29.66306, -0.7543284, 2.649019, 2.33727, 30.75377, -0.7144234, 2.529206, 2.164858
 62140967, 28.33662, 1.008691, 2.907723, 2.585761, 29.66306, -0.7543284, 2.649019, 2.33727
 62240927, 31.47568, -1.060237, 3.523027, 3.029608, 28.33662, 1.008691, 2.907723, 2.585761
 62340887, 28.29621, -3.646277, 4.071055, 3.326395, 31.47568, -1.060237, 3.523027, 3.029608
 62440847, 25.22533, -5.963816, 4.44011, 3.32915, 28.29621, -3.646277, 4.071055, 3.326395
 62540807, 24.18605, -0.6182153, 4.624297, 3.089932, 25.22533, -5.963816, 4.44011, 3.32915
 62640767, 27.51444, -7.990407, 4.669803, 2.667577, 24.18605, -0.6182153, 4.624297, 3.089932
 62740727, 23.37069, -10.49914, 4.606532, 2.24318, 27.51444, -7.990407, 4.669803, 2.667577
 62840687, 25.31883, -6.284048, 4.541973, 1.851121, 23.37069, -10.49914, 4.606532, 2.24318
 62940647, 27.40314, -9.441476, 4.507953, 1.506732, 25.31883, -6.284048, 4.541973, 1.851121
 63040607, 20.35581, -13.72025, 4.433486, 1.243794, 27.40314, -9.441476, 4.507953, 1.506732
 63140567, 22.75214, -15.14582, 4.426424, 0.9901214, 20.35581, -13.72025, 4.433486, 1.243794
 63240527, 21.52254, -14.14342, 4.390285, 0.7989578, 22.75214, -15.14582, 4.426424, 0.9901214
 63340487, 22.13931, -14.85225, 4.377167, 0.6157744, 21.52254, -14.14342, 4.390285, 0.7989578
 63440447, 19.89763, -12.1694, 4.323711, 0.4755827, 22.13931, -14.85225, 4.377167, 0.6157744
 63540407, 21.84698, -15.85015, 4.316433, 0.295912, 19.89763, -12.1694, 4.323711, 0.4755827
 63640367, 23.30675, -16.11296, 4.293015, 0.1445317, 21.84698, -15.85015, 4.316433, 0.295912
 63740327, 18.43692, -16.12604, 4.218205, 0.02977729, 23.30675, -16.11296, 4.293015, 0.1445317
 63840287, 21.55877, -16.75528, 4.205858, -0.110172, 18.43692, -16.12604, 4.218205, 0.02977729
 63940247, 19.78238, -18.51311, 4.16257, -0.2402322, 21.55877, -16.75528, 4.205858, -0.110172
 64040207, 13.92622, -17.80667, 4.078093, -0.3238777, 19.78238, -18.51311, 4.16257, -0.2402322
 64140167, 16.55084, -16.72023, 4.037068, -0.4510313, 13.92622, -17.80667, 4.078093, -0.3238777
 64240960, 17.383, -20.08861, 4.016857, -0.6031567, 16.55084, -16.72023, 4.037068, -0.4510313
