TimeUS,CAN,CAE,CAD,CAe,NAN,NAE,NAD,NAe,m10,m00,Gye
 8425795, 0.01136754, 0.0003521068, -0.05493043, 1.567772, 0.00214025, -8.148794E-05, -0.07671443, 1.566978, -0.9757831, -0.2187405, 11.72367
 8606556, 0.002325439, 0.0001522965, -0.07869605, 1.60108, -0.0001053945, 9.190226E-05, -0.001018357, 0.03363385, -0.9814997, -0.1914634, 28227.99
 8806476, 0.0001526288, 1.658939E-05, -0.003313043, 0.07129171, 8.807565E-05, 8.436442E-05, -0.001067009, 0.03718013, -0.9869645, -0.160938, 43.18072
 9006396, 5.226103E-05, 0.0002111727, -0.00309779, 0.07482506, 0.000116906, 5.071903E-05, -0.001133804, 0.03718013, -0.990826, -0.1351437, 44.76286
 9206316, 0.0005031109, 0.0001864772, -0.003193448, 0.07482506, 0.0003678887, 8.2218E-05, -0.0008983558, 0.03718013, -0.9935443, -0.1134446, 44.76286
 9406236, 0.0005420728, 0.0003032014, -0.003284474, 0.07482506, -3.343616E-05, 0.0005853602, -0.001335766, 0.03718013, -0.9954585, -0.09519687, 44.76286
 9606156, 0.0001312213, 0.0008702832, -0.003551504, 0.07482506, -0.0001152051, 0.0004466574, -0.0010094, 0.03718013, -0.9968081, -0.07983479, 44.76286
 9806076, 5.263524E-05, 0.000377942, -0.003474504, 0.07483085, -0.0001722829, 0.0001099787, -0.001350016, 0.03719873, -0.9977587, -0.06691508, 44.76818
 10005996, -0.0001037189, 0.0002400373, -0.003611882, 0.07486238, 3.640034E-05, -0.000185404, -0.0009554735, 0.03719873, -0.9984273, -0.0560624, 44.78527
 10205916, 8.293641E-05, -2.691506E-05, -0.003034302, 0.07486238, 0.0002475821, 0.0002614036, -0.0009464041, 0.03719873, -0.9988958, -0.04697924, 44.78527
 10405836, 0.0004009313, 0.0004642816, -0.003147727, 0.07486238, 0.0004971712, 1.742695E-07, -0.001453383, 0.03719873, -0.999225, -0.03936258, 44.78527
 10606589, 0.0007124525, 0.0002679877, -0.003627812, 0.07501738, 4.992101E-05, -0.000181214, -0.001026505, 0.03735372, -0.9994572, -0.0329418, 43.19506
 10806509, 0.0002143866, 8.024039E-05, -0.003433048, 0.07501159, 0.0002959419, 0.0001425361, -0.00127683, 0.03718014, -0.9996195, -0.02758489, 44.8735
 11006429, 0.000402274, 0.0004013733, -0.003603744, 0.07482506, -0.000110588, 0.0001023422, -0.001170498, 0.03718014, -0.9997336, -0.02308024, 44.76286
 11206349, 0.0001281963, 0.0001565158, -0.003352269, 0.07482506, 0.0002471704, 0.0001468803, -0.001289152, 0.03718014, -0.9998137, -0.01930197, 44.76286
 11406269, 0.0006466609, 0.0002571243, -0.003499218, 0.07482506, 0.0007056731, -0.0001980052, -0.001373446, 0.03718014, -0.9998698, -0.01613139, 44.76286
 11606189, 0.0008814077, -0.0001023157, -0.003605867, 0.07482506, 0.0002685707, 2.200547E-05, -0.001246641, 0.03718014, -0.9999092, -0.01347738, 44.76286
 11806109, 0.0007648391, 0.0004360591, -0.003483331, 0.07482506, 0.0002325424, 0.0004736943, -0.001172951, 0.03718014, -0.9999366, -0.01125279, 44.76286
 12006029, 0.0006231914, 0.0008420207, -0.00330473, 0.07482506, 8.441087E-05, 0.0001814903, -0.001405026, 0.03718014, -0.9999559, -0.009397981, 44.76286
 12205949, 0.0004669423, 0.0005310419, -0.003733362, 0.07482506, 0.0002268599, 3.172009E-05, -0.0009188384, 0.03718014, -0.9999693, -0.007837355, 44.76286
 12405869, 0.0005707584, 0.00026182, -0.003047529, 0.07482506, -0.0001682003, 0.000236069, -0.001125913, 0.03718014, -0.9999789, -0.006499079, 44.76286
 12605789, 0.0001451683, 0.0005954994, -0.003379921, 0.07482506, 0.0003876385, 7.538E-05, -0.0008679469, 0.03718014, -0.9999863, -0.005251723, 44.76286
 12806542, 0.0008105272, 0.0001631803, -0.003020172, 0.07498554, 0.0002294454, -1.453093E-05, -0.001121595, 0.03735372, -0.9999912, -0.004203362, 44.85975
 13006462, 0.0005984776, -1.904193E-05, -0.003290223, 0.07501738, 0.0003140419, -0.0001349918, -0.001639623, 0.03719873, -0.9999945, -0.003337318, 44.87799
 13206382, 0.000625449, 0.000264302, -0.003655956, 0.07486238, 3.809598E-05, 0.0001331003, -0.001090912, 0.03719873, -0.9999965, -0.002628197, 44.78527
 13406302, 3.576167E-05, 0.0003033827, -0.003271178, 0.07486238, -0.0001554833, 0.0002642378, -0.00119937, 0.03719873, -0.9999979, -0.002042319, 44.78527
 13606222, -3.620963E-05, 0.0007375128, -0.003216675, 0.07486238, -9.250687E-05, 0.0002738802, -0.001055044, 0.03719873, -0.9999988, -0.001544292, 44.78527
 13806142, 0.0002866502, 0.0006540554, -0.003267542, 0.07485683, 0.0005481223, 0.0002013227, -0.001206357, 0.03718014, -0.9999994, -0.001115899, 44.78107
 14006062, 0.0009291701, 0.0004710962, -0.00325474, 0.07482506, 2.546396E-05, 0.0001844161, -0.001150745, 0.03718014, -0.9999998, -0.0007448239, 44.76286
 14205982, 0.0003315968, 0.0002959724, -0.003409654, 0.07482506, 2.933769E-05, -0.0001078892, -0.00127615, 0.03718014, -0.9999999, -0.0004276571, 44.76286
 14405902, 0.0004143098, 0.0001984321, -0.003377521, 0.07482506, -4.842255E-05, 0.000205967, -0.001191329, 0.03718014, -1, -0.000162959, 44.76286
 14605822, -4.227813E-05, 0.0003002167, -0.003419831, 0.07482506, 7.952865E-05, -1.534786E-05, -0.001146852, 0.03718014, -1, 5.774075E-05, 44.76286
 14806575, 0.0002899414, 0.0001966047, -0.003301312, 0.07498562, 0.0002453736, -3.794531E-05, -0.001226106, 0.03735372, -1, 0.0002462029, 44.85975
 15006495, 0.0005315608, 7.423061E-05, -0.003490733, 0.07501738, 0.0002984325, -3.197269E-05, -0.001049418, 0.03719873, -0.9999999, 0.0003988513, 44.87799
 15206415, 0.0003147924, 0.0002240375, -0.003445995, 0.07486238, 0.0001085602, 0.0003893249, -0.001273013, 0.03719873, -0.9999999, 0.0005139707, 44.78527
 15406335, 0.0003454663, 0.000799865, -0.003354484, 0.07486238, 0.000333152, -1.129607E-05, -0.0009245176, 0.03719873, -0.9999999, 0.0005968719, 44.78527
 15606255, 0.0004353459, 0.0004031418, -0.002988982, 0.07486238, 0.0002408119, 0.0001085836, -0.0008051654, 0.03719873, -0.9999998, 0.0006542532, 44.78527
 15806175, 0.0005083146, 0.0005019779, -0.002940749, 0.07485683, 0.0002137036, 0.0001671457, -0.001402499, 0.03718014, -0.9999998, 0.0007011264, 44.78107
 16006095, 0.0004759173, 0.0005343875, -0.003274767, 0.07482506, 0.0001123353, 0.0002637647, -0.001076699, 0.03718014, -0.9999998, 0.0007479471, 44.76286
 16206015, 0.0003844604, 0.0005046764, -0.003657165, 0.07482506, 0.0001212451, 5.81687E-05, -0.001575886, 0.03718014, -0.9999996, 0.0007880292, 44.76286
 16405935, 0.0003692169, 0.0004024758, -0.003746707, 0.07482506, 0.0002670289, 1.45131E-05, -0.001301402, 0.03718014, -0.9999996, 0.0008229357, 44.76286
 16605855, 0.0004012337, 0.0002281388, -0.003484115, 0.07482506, -8.266417E-05, 0.000124061, -0.001250935, 0.03718014, -0.9999996, 0.0008573325, 44.76286
 16805775, 0.0002981247, 0.0007869707, -0.003245867, 0.07482506, 0.0002832909, 0.0004537048, -0.0009446537, 0.03718014, -0.9999996, 0.0008903495, 44.76286
 17006528, 0.000661766, 0.0008448507, -0.003079935, 0.07497998, 0.0005163376, 0.0003682422, -0.001423629, 0.03733505, -0.9999996, 0.0009195436, 44.85553
 17206448, 0.0008105674, 0.0006191021, -0.003518992, 0.07497998, 6.107269E-05, -0.0001027306, -0.0008103084, 0.03718014, -0.9999995, 0.0009556332, 44.85553
 17406368, 0.0006698247, 1.082214E-05, -0.003182785, 0.07482506, 0.0004045739, -6.638966E-05, -0.001400893, 0.03718014, -0.9999995, 0.0009926322, 44.76286
 17606288, 0.0008508277, 0.0002412355, -0.003732138, 0.07482506, 0.0006103707, 0.0002420132, -0.001308211, 0.03718014, -0.9999995, 0.00102251, 44.76286
 17806208, 0.0007191725, 0.000659028, -0.003416051, 0.07483039, 0.000113127, 0.0002914048, -0.001087771, 0.03719873, -0.9999995, 0.001042175, 44.76678
 18006128, 0.0002559898, 0.0005315491, -0.003405297, 0.07486238, 0.0001798129, -0.0001556013, -0.001437612, 0.03719873, -0.9999995, 0.001058535, 44.78527
 18206048, 0.0004556709, 0.0002725318, -0.003480032, 0.07486238, 0.000147494, 0.0003445468, -0.001194018, 0.03719873, -0.9999994, 0.00106099, 44.78527
 18405968, 0.0006767873, 0.0009734423, -0.003347478, 0.07486238, 6.093727E-05, 0.0006086956, -0.000921609, 0.03719873, -0.9999994, 0.00104129, 44.78527
 18605888, 0.000409278, 0.001406714, -0.002959919, 0.07486238, 0.000195562, 0.0001901164, -0.00138291, 0.03719873, -0.9999995, 0.001004742, 44.78527
 18805808, 0.0005926372, 0.0009181021, -0.003505065, 0.07485706, 0.0003465708, 0.0003181109, -0.001252823, 0.03718014, -0.9999995, 0.0009889487, 44.78135
 19006561, 0.0008966654, 0.000683351, -0.003241016, 0.07497998, 0.0006665385, 9.056439E-05, -0.001212298, 0.03733505, -0.9999995, 0.001003108, 44.85553
 19206481, 0.001051981, 0.0005073251, -0.003385386, 0.07497998, 6.902724E-05, 0.0005595773, -0.0009688482, 0.03718014, -0.9999995, 0.001020817, 44.85553
 19406401, 0.0003800043, 0.0007295155, -0.003281909, 0.07482506, 0.0001836462, 0.0002933033, -0.001303809, 0.03718014, -0.9999995, 0.0010334, 44.76286
 19606321, 0.0004297792, 0.0006982348, -0.003472204, 0.07482506, -0.0001948605, 0.0006199525, -0.001340219, 0.03718014, -0.9999995, 0.001040635, 44.76286
 19806241, 0.0001825838, 0.0008155527, -0.00376965, 0.07483039, 0.000250736, 0.0002260647, -0.001036544, 0.03719873, -0.9999994, 0.001038826, 44.76678
 20006161, 0.0005870929, 0.0004627644, -0.003198085, 0.07486238, -0.0001312332, 0.0004106775, -0.001340061, 0.03719873, -0.9999994, 0.001039519, 44.78527
 20206081, 0.0003109698, 0.001010516, -0.003443941, 0.07486238, 1.044778E-05, 0.0003886699, -0.0008396711, 0.03719873, -0.9999994, 0.001035334, 44.78527
 20406001, 0.0002349678, 0.0009160521, -0.003066175, 0.07486238, 0.0002608317, 0.0002949278, -0.001157495, 0.03719873, -0.9999994, 0.001022566, 44.78527
 20605921, 0.0005885873, 0.0008888828, -0.003187925, 0.07486238, 0.0001197546, 0.0002241219, -0.001147432, 0.03719873, -0.9999995, 0.001008189, 44.78527
 20805841, 0.0003579087, 0.0006235765, -0.003222814, 0.07485729, -0.0002329477, 0.0003565222, -0.001367497, 0.03718014, -0.9999995, 0.001009426, 44.78163
 21005761, 0.0002116845, 0.0006122376, -0.003482174, 0.07482506, 0.0002591765, -5.231618E-05, -0.001048676, 0.03718014, -0.9999995, 0.00102511, 44.76286
 21206514, 0.0007542126, 0.0001703298, -0.003019683, 0.07497998, 0.0004874153, 0.0003142946, -0.001131755, 0.03733505, -0.9999995, 0.001040431, 44.85553
 21406434, 0.001010424, 0.0009614163, -0.003340373, 0.07497998, 0.0005835527, 0.0002944592, -0.0009297584, 0.03718014, -0.9999994, 0.001034823, 44.85553
 21606354, 0.001091442, 0.0007957506, -0.003055856, 0.07482506, 0.0002730738, 0.0002554067, -0.0009953855, 0.03718014, -0.9999994, 0.001030316, 44.76286
 21806274, 0.0006393003, 0.0008982531, -0.003160861, 0.07482506, 0.0004184576, 0.0001344703, -0.001268048, 0.03718014, -0.9999994, 0.001043113, 44.76286
 22006194, 0.0009081842, 0.0004150371, -0.003289777, 0.07482506, 0.0001188373, 0.0001109267, -0.0009940723, 0.03718014, -0.9999994, 0.001064567, 44.76286
 22206114, 0.0006846374, 0.0006393504, -0.003430417, 0.07482506, 0.0003962349, 0.0002952365, -0.001245226, 0.03718014, -0.9999994, 0.001084416, 44.76286
 22406034, 0.0008464984, 0.0006822122, -0.003395627, 0.07482506, 0.000398567, 0.0006236103, -0.001374392, 0.03718014, -0.9999993, 0.001234876, 44.76286
 22605954, 0.0008969046, 0.001167585, -0.003616513, 0.07482506, 0.0003107574, 0.0004331303, -0.001035013, 0.03718014, -0.999999, 0.001411744, 44.76286
 22805874, 0.00113277, 0.0009406514, -0.003263367, 0.07483016, 0.0006161331, -2.714242E-05, -0.001226807, 0.03719873, -0.9999987, 0.001578239, 44.7665
 23005794, 0.001259226, 0.0008158197, -0.003750171, 0.07486238, 0.0002972364, 0.0002877461, -0.001267468, 0.03719873, -0.9999985, 0.001739922, 44.78527
 23206547, 0.001231001, 0.001136617, -0.003460628, 0.07501738, 0.0005485329, 0.0004268111, -0.001047561, 0.03735372, -0.9999982, 0.001898242, 44.87799
 23406467, 0.001353205, 0.00118778, -0.003133287, 0.07501738, 0.0004140198, 0.0004026853, -0.001265858, 0.03719873, -0.9999979, 0.002051129, 44.87799
 23606387, 0.001211423, 0.001188901, -0.003424931, 0.07486238, 0.0003739243, 0.0002337308, -0.001211801, 0.03719873, -0.9999975, 0.002200424, 44.78527
 23806307, 0.001348806, 0.001165401, -0.003293114, 0.07485729, 0.0005449326, 0.0005789797, -0.0009987805, 0.03718014, -0.9999971, 0.00234453, 44.78163
 24006227, 0.001749014, 0.00176583, -0.003176724, 0.07482506, 0.0007314585, 0.0006929276, -0.001421694, 0.03718014, -0.9999968, 0.0024856, 44.76286
 24206147, 0.001910332, 0.00162104, -0.0034547, 0.07482506, 0.000628954, 0.0006976874, -0.001102341, 0.03718014, -0.9999964, 0.00262208, 44.76286
 24406067, 0.001941173, 0.001951155, -0.003325575, 0.07482506, 0.0007505413, 0.000531201, -0.001112853, 0.03718014, -0.9999961, 0.002755019, 44.76286
 24605987, 0.001890208, 0.001879004, -0.003366481, 0.07482506, 0.0006227911, 0.0006891292, -0.00133198, 0.03718014, -0.9999957, 0.002885084, 44.76286
 24805907, 0.00210806, 0.002114644, -0.003491405, 0.07482993, 0.00095971, 0.001093612, -0.001195607, 0.03719873, -0.9999954, 0.003010433, 44.76622
 25005827, 0.002311019, 0.002825289, -0.003422588, 0.07486238, 0.000487603, 0.0009938388, -0.001085533, 0.03719873, -0.9999949, 0.003132051, 44.78527
 25206580, 0.00229338, 0.002682155, -0.003267018, 0.07501738, 0.0009539665, 0.0008324851, -0.001070267, 0.03735372, -0.9999945, 0.003251815, 44.87799
 25406500, 0.002841892, 0.002416638, -0.003098007, 0.07501738, 0.0009967816, 0.0008925172, -0.001035539, 0.03719873, -0.999994, 0.003367682, 44.87799
 25606420, 0.002726467, 0.002699098, -0.003322542, 0.07486238, 0.0008354341, 0.001151515, -0.001359096, 0.03719873, -0.9999937, 0.00348062, 44.78527
 25806340, 0.00245925, 0.003151918, -0.003575476, 0.07485752, 0.0006899321, 0.0009993237, -0.001041915, 0.03718014, -0.9999932, 0.003591739, 44.78191
 26006260, 0.002560616, 0.002759136, -0.003344081, 0.07482506, 0.001023843, 0.001027491, -0.001014755, 0.03718014, -0.9999928, 0.003699449, 44.76286
 26206180, 0.002962223, 0.00301118, -0.003262154, 0.07482506, 0.001356252, 0.001003051, -0.001298562, 0.03718014, -0.9999924, 0.003805609, 44.76286
 26406100, 0.003405347, 0.002933331, -0.003414768, 0.07482506, 0.001079948, 0.001544031, -0.0009293748, 0.03718014, -0.999992, 0.003907031, 44.76286
 26606020, 0.003208686, 0.003593907, -0.003147992, 0.07482506, 0.001023283, 0.001140958, -0.0009425778, 0.03718014, -0.9999915, 0.004005427, 44.76286
 26805940, 0.003301403, 0.003178864, -0.00316228, 0.07482506, 0.00130286, 0.001286117, -0.001116092, 0.03718014, -0.9999911, 0.004102241, 44.76286
 27005860, 0.003648689, 0.003317129, -0.003298784, 0.07482506, 0.001198897, 0.001238128, -0.001256579, 0.03718014, -0.9999907, 0.004195524, 44.76286
 27205780, 0.003316596, 0.003376144, -0.003577087, 0.07482506, 0.0009917096, 0.0007429227, -0.001435207, 0.03718014, -0.9999903, 0.004287119, 44.76286
 27406533, 0.003214094, 0.003031349, -0.003601428, 0.07497998, 0.001364323, 0.001161871, -0.001028894, 0.03733505, -0.9999899, 0.004377414, 44.85553
 27606453, 0.003640375, 0.00365066, -0.003077052, 0.07497998, 0.001508218, 0.001782124, -0.000938761, 0.03718014, -0.9999895, 0.004451449, 44.85553
 27806373, 0.003904354, 0.00426848, -0.003100917, 0.07482993, 0.00114629, 0.001358045, -0.001262257, 0.03719873, -0.9999893, 0.004496224, 44.76622
 28006293, 0.003512416, 0.003790342, -0.00345896, 0.07486238, 0.001262052, 0.001324168, -0.001172957, 0.03719873, -0.999989, 0.004540402, 44.78527
 28206213, 0.00370764, 0.003847867, -0.003293814, 0.07486238, 0.001357333, 0.001214295, -0.001236925, 0.03719873, -0.9999889, 0.004582881, 44.78527
 28406133, 0.003840295, 0.003515485, -0.003650244, 0.07486238, 0.001277993, 0.001269234, -0.001019542, 0.03719873, -0.9999887, 0.004624933, 44.78527
 28606053, 0.004021712, 0.003717057, -0.003300327, 0.07486238, 0.001189507, 0.001488251, -0.001224028, 0.03719873, -0.9999884, 0.004665749, 44.78527
 28805973, 0.003687998, 0.004164292, -0.003452282, 0.07485775, 0.001086251, 0.001371127, -0.001282616, 0.03718014, -0.9999882, 0.004705607, 44.78219
 29005893, 0.003786523, 0.004111934, -0.003503426, 0.07482506, 0.001411496, 0.001433748, -0.0009694012, 0.03718014, -0.9999881, 0.004744184, 44.76286
 29205813, 0.003964526, 0.00417268, -0.003150454, 0.07482506, 0.001269278, 0.001168906, -0.001196673, 0.03718014, -0.9999878, 0.004782421, 44.76286
 29406566, 0.003950536, 0.004090013, -0.003479297, 0.07497998, 0.001767588, 0.001303087, -0.001224681, 0.03733505, -0.9999876, 0.004820853, 44.85553
 29606486, 0.0045065, 0.0039969, -0.003316448, 0.07497998, 0.001398316, 0.001628339, -0.0009627459, 0.03718014, -0.9999875, 0.00485821, 44.85553
 29806406, 0.003996258, 0.004493108, -0.003037589, 0.0748297, 0.001654394, 0.001535408, -0.001073501, 0.03719873, -0.9999872, 0.004894508, 44.76594
 30006326, 0.004405144, 0.004284069, -0.003057382, 0.07486238, 0.001522643, 0.001619855, -0.001329099, 0.03719873, -0.999987, 0.004929573, 44.78527
 30206246, 0.004292539, 0.004338573, -0.003614763, 0.07486238, 0.001552017, 0.001738226, -0.001110432, 0.03719873, -0.9999868, 0.004964238, 44.78527
 30406166, 0.004405674, 0.004692636, -0.003327725, 0.07486238, 0.001587222, 0.001454732, -0.001561946, 0.03719873, -0.9999866, 0.004997752, 44.78527
 30606086, 0.004657156, 0.004487249, -0.003774582, 0.07486238, 0.001776609, 0.001612222, -0.001038642, 0.03719873, -0.9999864, 0.005031563, 44.78527
 30806006, 0.004366802, 0.004472852, -0.003144989, 0.07486238, 0.001357292, 0.001759054, -0.0009893237, 0.03719873, -0.9999863, 0.005063409, 44.78527
 31005926, 0.004125135, 0.004401491, -0.003465316, 0.07486238, 0.001552161, 0.001365494, -0.001412889, 0.03719873, -0.9999861, 0.005094532, 44.78527
 31205846, 0.004551229, 0.004367311, -0.003694602, 0.07486238, 0.001614921, 0.001737587, -0.001119876, 0.03719873, -0.9999859, 0.005124879, 44.78527
 31405766, 0.004684448, 0.0049183, -0.003481864, 0.07486238, 0.00178267, 0.001424719, -0.001554398, 0.03719873, -0.9999857, 0.005154415, 44.78527
 31606519, 0.004996324, 0.004453631, -0.003802278, 0.07501738, 0.001572462, 0.001672673, -0.001385235, 0.03735372, -0.9999855, 0.005183309, 44.87799
 31806439, 0.004783502, 0.004650986, -0.003537596, 0.07501738, 0.001691149, 0.001744577, -0.001229628, 0.03719873, -0.9999853, 0.005212603, 44.87799
 32006359, 0.004707009, 0.004997982, -0.00325503, 0.07486238, 0.001761263, 0.001644485, -0.001062498, 0.03719873, -0.9999852, 0.005241489, 44.78527
 32206279, 0.004830976, 0.004692158, -0.003257508, 0.07486238, 0.001616583, 0.001475616, -0.001583149, 0.03719873, -0.999985, 0.005269045, 44.78527
 32406199, 0.00492879, 0.004643495, -0.003982359, 0.07486238, 0.00160974, 0.0020333, -0.001327686, 0.03719873, -0.9999849, 0.005296445, 44.78527
 32606119, 0.004857378, 0.005394419, -0.003627018, 0.07486238, 0.001931155, 0.001815194, -0.0009198, 0.03719873, -0.9999847, 0.005322096, 44.78527
 32806039, 0.005296142, 0.005007105, -0.003170318, 0.07486238, 0.001929573, 0.001762273, -0.001463481, 0.03719873, -0.9999849, 0.005277697, 44.78527
 33005959, 0.005287717, 0.004958045, -0.00341501, 0.07486238, 0.001845207, 0.001580064, -0.0007972936, 0.03719873, -0.9999851, 0.005234006, 44.78527
 33205879, 0.005063602, 0.00491869, -0.002821246, 0.07486238, 0.00183856, 0.001769082, -0.001183674, 0.03719873, -0.9999853, 0.005191488, 44.78527
 33405799, 0.005054162, 0.005252012, -0.002991384, 0.07486238, 0.001780248, 0.002057219, -0.0008620009, 0.03719873, -0.9999856, 0.005149389, 44.78527
 33606552, 0.004898524, 0.005669317, -0.003262918, 0.07501738, 0.001531936, 0.001628786, -0.001281012, 0.03735372, -0.9999857, 0.005109171, 44.87799
 33806472, 0.004845862, 0.005097017, -0.003678082, 0.07501738, 0.001987397, 0.001829422, -0.001376328, 0.03719873, -0.9999859, 0.005070532, 44.87799
 34006392, 0.005247287, 0.005110423, -0.003532663, 0.07486238, 0.001570316, 0.001686848, -0.001066357, 0.03719873, -0.9999862, 0.005032675, 44.78527
 34206312, 0.004972299, 0.00517715, -0.003228449, 0.07486238, 0.001708328, 0.00192283, -0.00121722, 0.03719873, -0.9999863, 0.004996319, 44.78527
 34406232, 0.004832663, 0.005254977, -0.003476714, 0.07486238, 0.001904949, 0.001848355, -0.00124432, 0.03719873, -0.9999864, 0.004960863, 44.78527
 34606152, 0.00517008, 0.00542637, -0.003433374, 0.07486238, 0.001714217, 0.001936728, -0.001528932, 0.03719873, -0.9999865, 0.00492609, 44.78527
 34806072, 0.004854308, 0.005356348, -0.003541687, 0.07486238, 0.001601722, 0.002066075, -0.001251715, 0.03719873, -0.9999868, 0.004891564, 44.78527
 35005992, 0.004837785, 0.005362305, -0.003682246, 0.07486238, 0.001899135, 0.00177844, -0.00152582, 0.03719873, -0.9999869, 0.004858976, 44.78527
 35205912, 0.005143307, 0.005337016, -0.003974258, 0.07486238, 0.001793918, 0.001845874, -0.00147353, 0.03719873, -0.999987, 0.00482712, 44.78527
 35405832, 0.005401935, 0.005313269, -0.003599825, 0.07486238, 0.001996069, 0.00177988, -0.0008675359, 0.03719873, -0.9999871, 0.004795655, 44.78527
 35606585, 0.005268024, 0.005383687, -0.002895364, 0.07501738, 0.002149032, 0.002110294, -0.0008353845, 0.03735372, -0.9999874, 0.004765858, 44.87799
 35806505, 0.005452667, 0.005541282, -0.003280144, 0.07501738, 0.001947428, 0.002029216, -0.001229627, 0.03719873, -0.9999874, 0.004737705, 44.87799
 36006425, 0.005305834, 0.005515628, -0.003427805, 0.07486238, 0.001795375, 0.001620748, -0.001197804, 0.03719873, -0.9999875, 0.004710549, 44.78527
 36206345, 0.005057015, 0.005178645, -0.003274597, 0.07486238, 0.001649407, 0.001831581, -0.001173537, 0.03719873, -0.9999876, 0.004683944, 44.78527
 36406265, 0.005096413, 0.005419862, -0.003473194, 0.07486238, 0.002058672, 0.001959972, -0.001048181, 0.03719873, -0.9999877, 0.004657712, 44.78527
 36606185, 0.005696879, 0.005405219, -0.003152096, 0.07486238, 0.001935289, 0.002016523, -0.001179061, 0.03719873, -0.9999878, 0.004632576, 44.78527
 36806105, 0.005333437, 0.00552619, -0.003304282, 0.07486238, 0.002178532, 0.00190533, -0.001069582, 0.03719873, -0.999988, 0.004607844, 44.78527
 37006025, 0.005698191, 0.005540949, -0.003323754, 0.07486238, 0.001772767, 0.001970181, -0.001354918, 0.03719873, -0.9999881, 0.004584684, 44.78527
 37205945, 0.005093893, 0.005705282, -0.003584607, 0.07486238, 0.001518371, 0.002274352, -0.0009132509, 0.03719873, -0.9999881, 0.004561408, 44.78527
 37405865, 0.005240791, 0.005760777, -0.003228501, 0.07486238, 0.001828805, 0.001928985, -0.001259458, 0.03719873, -0.9999882, 0.004539065, 44.78527
 37605785, 0.005562044, 0.005559888, -0.003579822, 0.07486238, 0.002013711, 0.001949698, -0.001526641, 0.03719873, -0.9999883, 0.00451549, 44.78527
 37806538, 0.005616437, 0.005729298, -0.003682823, 0.07501738, 0.002007999, 0.001831186, -0.0009965942, 0.03735372, -0.9999887, 0.004438743, 44.87799
 38006458, 0.005520661, 0.005558122, -0.002971386, 0.07501738, 0.001956905, 0.001733344, -0.0007776546, 0.03719873, -0.999989, 0.004345523, 44.87799
 38206378, 0.005622642, 0.005310741, -0.00327206, 0.07486238, 0.001810777, 0.001378837, -0.001768134, 0.03719873, -0.9999895, 0.004255631, 44.78527
 38406298, 0.005270561, 0.005021372, -0.00393424, 0.07486238, 0.00187301, 0.001909674, -0.001337976, 0.03719873, -0.9999899, 0.00416726, 44.78527
 38606218, 0.005481398, 0.005526865, -0.00347734, 0.07486238, 0.002138376, 0.002218993, -0.00107288, 0.03719873, -0.9999902, 0.004080795, 44.78527
 38806138, 0.005636603, 0.005946212, -0.003213352, 0.07486238, 0.002067724, 0.001993507, -0.0007000566, 0.03719873, -0.9999905, 0.00399702, 44.78527
 39006058, 0.005815659, 0.005634934, -0.002779993, 0.07486238, 0.00223711, 0.001861284, -0.001303966, 0.03719873, -0.9999908, 0.003915661, 44.78527
 39205978, 0.005972599, 0.005563149, -0.003538231, 0.07486238, 0.00203471, 0.001872212, -0.001346496, 0.03719873, -0.9999912, 0.003837107, 44.78527
 39405898, 0.005686329, 0.005395003, -0.003611893, 0.07486238, 0.002075561, 0.001976935, -0.001019615, 0.03719873, -0.9999914, 0.003760391, 44.78527
 39605818, 0.005651972, 0.005386281, -0.003110902, 0.07486238, 0.001846835, 0.001666485, -0.001047134, 0.03719873, -0.9999917, 0.003685569, 44.78527
 39806571, 0.005431452, 0.005392849, -0.003215808, 0.07501738, 0.001904547, 0.002078255, -0.00115471, 0.03735372, -0.9999919, 0.003611946, 44.87799
 40006491, 0.00551331, 0.005985688, -0.003223594, 0.07501738, 0.001723151, 0.002245537, -0.001124506, 0.03719873, -0.9999923, 0.003540606, 44.87799
 40206411, 0.005250175, 0.005651474, -0.003197062, 0.07486238, 0.001974113, 0.001801478, -0.0008889289, 0.03719873, -0.9999925, 0.003471543, 44.78527
 40406331, 0.005396612, 0.005445369, -0.003117498, 0.07486238, 0.001907827, 0.00223014, -0.000881318, 0.03719873, -0.9999926, 0.003404745, 44.78527
 40606251, 0.005390641, 0.006047096, -0.003030287, 0.07486238, 0.001947546, 0.002181546, -0.00123199, 0.03719873, -0.9999928, 0.003340068, 44.78527
 40806171, 0.005438085, 0.006010172, -0.003447507, 0.07486238, 0.001631526, 0.002381988, -0.00113651, 0.03719873, -0.9999931, 0.003276616, 44.78527
 41006091, 0.005167217, 0.006238367, -0.003152698, 0.07486238, 0.001906655, 0.002157094, -0.001145461, 0.03719873, -0.9999932, 0.003214351, 44.78527
 41206011, 0.005524925, 0.0060131, -0.003123923, 0.07486238, 0.001872718, 0.001948104, -0.001250146, 0.03719873, -0.9999934, 0.003154733, 44.78527
 41405931, 0.0056383, 0.005619785, -0.003518243, 0.07486238, 0.002036934, 0.001929943, -0.001173674, 0.03719873, -0.9999936, 0.003095295, 44.78527
 41605851, 0.005722167, 0.005876226, -0.003323246, 0.07486238, 0.002246165, 0.002407731, -0.001001313, 0.03719873, -0.9999938, 0.003037595, 44.78527
 41805771, 0.005926964, 0.006392526, -0.00335492, 0.07486238, 0.002173533, 0.002073298, -0.00121433, 0.03719873, -0.9999939, 0.002981633, 44.78527
 42006524, 0.005762902, 0.005853411, -0.003230344, 0.07501738, 0.00218752, 0.002166697, -0.001148803, 0.03735372, -0.9999942, 0.002926313, 44.87799
 42206444, 0.006016833, 0.006256111, -0.003085724, 0.07501738, 0.00210631, 0.002019377, -0.001034926, 0.03719873, -0.9999942, 0.002873438, 44.87799
 42406364, 0.005750872, 0.005839155, -0.003204047, 0.07486238, 0.001672551, 0.002048676, -0.001323365, 0.03719873, -0.9999944, 0.002822091, 44.78527
 42606284, 0.005444202, 0.005851952, -0.003455979, 0.07486238, 0.001991541, 0.002081226, -0.001257582, 0.03719873, -0.9999945, 0.00277226, 44.78527
 42806204, 0.00560759, 0.005938114, -0.00347273, 0.07486238, 0.001482436, 0.002194893, -0.001126849, 0.03719873, -0.9999946, 0.002694489, 44.78527
 43006124, 0.004973025, 0.006307377, -0.003440469, 0.07486238, 0.001845042, 0.002555975, -0.001047265, 0.03719873, -0.999995, 0.00258242, 44.78527
 43206044, 0.005547905, 0.00640273, -0.003328218, 0.07486238, 0.001821572, 0.002183409, -0.001110898, 0.03719873, -0.9999952, 0.002474172, 44.78527
 43405964, 0.005545198, 0.006122841, -0.003337828, 0.07486238, 0.00175588, 0.002307557, -0.001142767, 0.03719873, -0.9999956, 0.002369525, 44.78527
 43605884, 0.005435176, 0.0062946, -0.003150747, 0.07486238, 0.001607315, 0.002123653, -0.0009926008, 0.03719873, -0.9999958, 0.00226761, 44.78527
 43805804, 0.005146625, 0.00583781, -0.003056342, 0.07486238, 0.002014445, 0.002020815, -0.001187849, 0.03719873, -0.9999961, 0.002168958, 44.78527
 44006557, 0.005556055, 0.006057549, -0.003309756, 0.07501738, 0.002091679, 0.001986479, -0.001229051, 0.03735372, -0.9999962, 0.002072575, 44.87799
 44206477, 0.005797395, 0.005847746, -0.003437595, 0.07501738, 0.002134552, 0.002103863, -0.0009686968, 0.03719873, -0.9999964, 0.001979703, 44.87799
 44406397, 0.005929574, 0.005650811, -0.003047789, 0.07486238, 0.00230184, 0.001809957, -0.0007556157, 0.03719873, -0.9999967, 0.001890126, 44.78527
 44606317, 0.005930386, 0.005377252, -0.003018196, 0.07486238, 0.00219803, 0.002199237, -0.001527139, 0.03719873, -0.9999968, 0.001802263, 44.78527
 44806237, 0.005743218, 0.005689367, -0.003570104, 0.07486238, 0.001822016, 0.001918135, -0.001142897, 0.03719873, -0.9999969, 0.001717173, 44.78527
 45006157, 0.005204124, 0.005618558, -0.003314437, 0.07486238, 0.001680572, 0.002136318, -0.001309586, 0.03719873, -0.999997, 0.00163435, 44.78527
 45206077, 0.005299447, 0.005718119, -0.003253928, 0.07486238, 0.002149878, 0.00209766, -0.000806649, 0.03719873, -0.9999973, 0.001553725, 44.78527
 45405997, 0.005894709, 0.005870846, -0.00301606, 0.07486238, 0.001997611, 0.002044513, -0.001050881, 0.03719873, -0.9999974, 0.001475292, 44.78527
 45605917, 0.005275979, 0.005934556, -0.003146164, 0.07486238, 0.001740211, 0.002222315, -0.001525148, 0.03719873, -0.9999974, 0.001399071, 44.78527
 45805837, 0.005389022, 0.005884876, -0.003694024, 0.07486238, 0.002226473, 0.001898546, -0.0012069, 0.03719873, -0.9999975, 0.001324235, 44.78527
 46006590, 0.005936929, 0.005630109, -0.003412875, 0.07501738, 0.002001224, 0.002190081, -0.001220971, 0.03735372, -0.9999976, 0.001251108, 44.87799
 46206510, 0.005657054, 0.006068598, -0.003466411, 0.07501738, 0.001877916, 0.00181361, -0.001252001, 0.03719873, -0.9999976, 0.001180956, 44.87799
 46406430, 0.005470993, 0.005535636, -0.0317725, 0.07486238, 0.001923328, 0.002141702, -0.06509347, 0.03719873, -0.9999977, 0.001112811, 44.78527
 46606350, 0.007045684, 0.007187179, -0.7182353, 0.07486238, 0.002269613, 0.002378204, -0.2085894, 0.03719873, -0.9999979, 0.001045944, 44.78527
 46806270, 0.006529465, 0.006145856, -1.148192, 0.07486238, 0.002018967, 0.001625516, -0.9137572, 0.03719873, -0.9999995, 0.0009797383, 44.78527
 47006190, 0.002814046, 0.001357345, -2.404801, 0.07486238, -0.0005757711, -0.00103015, -0.6373079, 0.03719873, -0.9999992, 0.0009178465, 44.78527
 47206110, -0.002941443, -0.004302866, -1.458974, 0.07486238, -0.001395701, -0.002297978, -0.3741156, 0.03719873, -0.9999986, 0.0008484571, 44.78527
 47406030, -0.003608073, -0.005590203, -1.049923, 0.07486238, -0.001225339, -0.001630841, -0.3699296, 0.03719873, -0.9999986, 0.0007710759, 44.78527
 47605950, -0.002649256, -0.004754164, -1.022586, 0.07486238, -0.0005706733, -0.001666879, -0.3362955, 0.03719873, -0.9999987, 0.0006917386, 44.78527
 47805870, -0.001108035, -0.004002966, -0.8888808, 0.07486238, -7.863626E-06, -0.0009989381, -0.2764866, 0.03719873, -0.999999, 0.0006027376, 44.78527
 48005790, 0.0007355447, -0.002357413, -0.7325213, 0.07486238, 0.0006412306, -0.0008516017, -0.2300134, 0.03719873, -0.9999993, 0.000475599, 44.78527
 48206543, 0.002782933, -0.001252745, -0.6136514, 0.07501738, 0.001237032, 0.0001391404, -0.193688, 0.03735372, -0.9999994, 0.0003456529, 44.87799
 48406463, 0.00399036, 0.000601521, -0.5113326, 0.07501738, 0.001643186, 0.0001272316, -0.1594556, 0.03719873, -0.9999998, 0.0002108922, 44.87799
 48606383, 0.004554479, 0.001584892, -0.4205825, 0.07486238, 0.001679915, 0.0009051884, -0.1310613, 0.03719873, -1, 8.868571E-05, 44.78527
 48806303, 0.003682958, 0.003246075, 0.2455431, 0.07486238, 0.0008095027, 0.00158859, 0.3889637, 0.03719873, -1, 6.493411E-05, 44.78527
 49006223, 0.002764768, 0.004639413, 1.030272, 0.07486238, 0.001090232, 0.001899128, 0.3240291, 0.03719873, -0.9999999, -3.752079E-05, 44.78527
 49206143, 0.002814514, 0.005373977, 0.8664274, 0.07486238, 0.0008043939, 0.001795126, 0.276512, 0.03719873, -0.9999998, -0.0006433094, 44.78527
 49406063, 0.002663464, 0.005111814, 0.7430276, 0.07486238, 0.001111122, 0.001372101, 0.2383704, 0.03719873, -0.9999994, -0.001167966, 44.78527
 49605983, 0.002965096, 0.0041017, 0.6408148, 0.07486238, 0.0007456195, 0.001638234, 0.205943, 0.03719873, -0.9999986, -0.001666811, 44.78527
 49805903, 0.002314125, 0.00356046, 0.5553788, 0.07486238, 0.000532348, 0.0006555569, 0.1793275, 0.03719873, -0.9999974, -0.002159253, 44.78527
 50005823, 0.001912241, 0.002763371, 0.4846649, 0.07486238, 0.0009449967, 0.001283232, 0.1570674, 0.03719873, -0.9999964, -0.002623888, 44.78527
 50206576, 0.002229919, 0.003850025, 0.426533, 0.07501738, 0.0007827352, 0.001792163, 0.1390598, 0.03735372, -0.9999952, -0.003083661, 44.87799
 50406496, 0.001966095, 0.004890615, 0.3763733, 0.07501738, 0.0007170491, 0.002117449, 0.1230324, 0.03719873, -0.9999938, -0.003517702, 44.87799
 50606416, 0.002231511, 0.005250284, 0.3348202, 0.07486238, 0.001189766, 0.001427411, 0.1095318, 0.03719873, -0.9999938, -0.003505532, 44.78527
 50806336, 0.003660016, 0.004472195, 0.2977129, 0.07486238, 0.001529406, 0.001839598, 0.09707179, 0.03719873, -0.9999955, -0.002983717, 44.78527
 51006256, 0.004861515, 0.005102488, 0.2656812, 0.07486238, 0.001863715, 0.001789536, 0.08798634, 0.03719873, -0.9999967, -0.002544038, 44.78527
 51206176, 0.004344758, 0.006567797, 0.4225758, 0.07486238, -0.0007265097, 0.004041723, 0.2466993, 0.03719873, -0.9999911, -0.002983911, 44.78527
 51406096, -0.008556383, 0.01640345, 0.7582323, 0.07486238, -0.003642225, 0.008190027, 0.2922318, 0.03719873, -0.9999572, -0.004781051, 44.78527
 51606016, -0.003548044, 0.02596435, 0.8209832, 0.07486238, -0.0002621604, 0.01022079, 0.279854, 0.03719873, -0.9999231, -0.006462243, 44.78527
 51805936, -0.01655374, 0.02899511, 0.7518033, 0.07486238, -0.01665061, 0.009064025, 0.2384978, 0.03719873, -0.9999498, -0.006449489, 44.78527
 52005856, -0.07409319, 0.01831723, 0.6204991, 0.07486238, -0.04116251, 0.002605932, 0.186424, 0.03719873, -0.9999876, -0.004901205, 44.78527
 52205776, -0.1434197, 0.00299119, 0.4720133, 0.07486238, -0.06459332, -0.001237318, 0.1325308, 0.03719873, -0.9999893, -0.00302703, 44.78527
 52406529, -0.2062171, -0.00810357, 0.3256842, 0.07501738, -0.08462474, -0.00445556, 0.08604834, 0.03735372, -0.9999815, -0.001389603, 44.87799
 52606449, -0.259461, -0.013125, 0.2060209, 0.07501738, -0.1018372, -0.006274259, 0.04960946, 0.03719873, -0.9999627, 0.0005757918, 44.87799
 52806369, -0.3031042, -0.02911363, 0.1149052, 0.07486238, -0.1162345, -0.01805832, 0.02660965, 0.03719873, -0.9997696, 0.004820865, 44.78527
 53006289, -0.3546662, -0.07058036, 0.05359482, 0.07486238, -0.1390024, -0.03355812, 0.008636889, 0.03719873, -0.9993562, 0.01067791, 44.78527
 53206209, -0.4195458, -0.1028581, 0.009439905, 0.07486238, -0.1601359, -0.03996455, -0.002727697, 0.03719873, -0.9990516, 0.01682523, 44.78527
 53406129, -0.4680821, -0.1209407, -0.01761508, 0.07486238, -0.1688521, -0.0463246, -0.008529952, 0.03719873, -0.9986616, 0.02400856, 44.78527
 53606049, -0.4741694, -0.1355293, -0.02900988, 0.07486238, -0.1642076, -0.04911893, -0.01233021, 0.03719873, -0.9983134, 0.03182227, 44.78527
 53805969, -0.4640467, -0.1375657, -0.03545142, 0.07486238, -0.1609127, -0.04689547, -0.01308924, 0.03719873, -0.9980609, 0.0410753, 44.78527
 54005889, -0.4422888, -0.1298847, -0.03741709, 0.07486238, -0.1446045, -0.04532114, -0.01276353, 0.03719873, -0.9974571, 0.05384944, 44.78527
 54205809, -0.3831092, -0.1357092, -0.03428377, 0.07486238, -0.1180578, -0.05050697, -0.01158783, 0.03719873, -0.9961954, 0.07070079, 44.78527
 54406562, -0.3016606, -0.1433498, -0.03291157, 0.07501738, -0.09018383, -0.05219664, -0.01029177, 0.03735372, -0.994373, 0.09097836, 44.87799
 54606482, -0.2445839, -0.1617061, -0.02919433, 0.07501738, -0.07797831, -0.06591675, -0.01046809, 0.03719873, -0.9909398, 0.1166144, 44.87799
 54806402, -0.1962105, -0.203412, -0.02571968, 0.07486238, -0.05607276, -0.07987757, -0.008381775, 0.03719873, -0.9862445, 0.144294, 44.78527
 55006322, -0.1382973, -0.2392288, -0.02381275, 0.07486238, -0.03514551, -0.08985016, -0.007571912, 0.03719873, -0.9808632, 0.1719498, 44.78527
 55206242, -0.06899419, -0.2627561, -0.02213127, 0.07486238, -0.008834071, -0.09758107, -0.009050795, 0.03719873, -0.9742481, 0.2006237, 44.78527
 55406162, -0.002579373, -0.2873057, -0.0240913, 0.07486238, 0.01207574, -0.1053584, -0.007553039, 0.03719873, -0.9663106, 0.2306597, 44.78527
 55606082, 0.05717065, -0.3017229, -0.02150279, 0.07486238, 0.02969449, -0.1077276, -0.006657819, 0.03719873, -0.9575031, 0.2617695, 44.78527
 55806002, 0.0891766, -0.3095176, -0.02343784, 0.07486238, 0.03705859, -0.1087249, -0.01078092, 0.03719873, -0.9474304, 0.294822, 44.78527
 56005922, 0.1310957, -0.2978946, -0.0279966, 0.07486238, 0.06074924, -0.09756003, -0.008563752, 0.03719873, -0.9363694, 0.3289047, 44.78527
 56205842, 0.1912824, -0.2613785, -0.02111523, 0.07486238, 0.07535093, -0.08296933, -0.005709234, 0.03719873, -0.9242764, 0.3636872, 44.78527
 56405762, 0.2181543, -0.2168741, -0.01766845, 0.07486238, 0.07633109, -0.06540943, -0.005139743, 0.03719873, -0.9110521, 0.399304, 44.78527
 56606515, 0.2117619, -0.167876, -0.01537494, 0.07501738, 0.07388359, -0.05038972, -0.004918331, 0.03735372, -0.894918, 0.4368291, 44.87799
 56806435, 0.2192128, -0.1378111, -0.01346761, 0.07501738, 0.08091557, -0.04625228, -0.003843869, 0.03719873, -0.8751541, 0.4754076, 44.87799
 57006355, 0.2290834, -0.1317542, -0.0129873, 0.07486238, 0.08272827, -0.04870833, -0.003728098, 0.03719873, -0.8531187, 0.5130856, 44.78527
 57206275, 0.2528352, -0.151252, -0.0118782, 0.07486238, 0.09920197, -0.0594075, -0.003238114, 0.03719873, -0.8282359, 0.5494633, 44.78527
 57406195, 0.2950359, -0.1748894, -0.01035752, 0.07486238, 0.1107073, -0.06281819, -0.002706418, 0.03719873, -0.8041551, 0.582402, 44.78527
 57606115, 0.3272217, -0.1738561, -0.006407546, 0.07486238, 0.1219863, -0.05821911, -0.002819279, 0.03719873, -0.7798517, 0.6137955, 44.78527
 57806035, 0.357927, -0.1566947, -0.002023904, 0.07486238, 0.1327083, -0.05042461, 0.003039942, 0.03719873, -0.7529418, 0.6457099, 44.78527
 58005955, 0.3874845, -0.1402579, 0.008974152, 0.07486238, 0.1400406, -0.04761034, 0.002376247, 0.03719873, -0.7231829, 0.6782107, 44.78527
 58205875, 0.3944826, -0.1281732, 0.01188004, 0.07486238, 0.1357906, -0.04159091, 0.00441832, 0.03719873, -0.692459, 0.7103789, 44.78527
 58405795, 0.3807212, -0.1104235, 0.01391178, 0.07486238, 0.1326582, -0.03567337, 0.004141225, 0.03719873, -0.6588097, 0.7421563, 44.78527
 58606548, 0.3828295, -0.09946802, 0.0109206, 0.07501738, 0.1378357, -0.03272732, 0.001692462, 0.03735372, -0.6228052, 0.7723384, 44.87799
 58806468, 0.3935694, -0.08102439, 0.01084401, 0.07501738, 0.1391044, -0.02248718, 0.004659643, 0.03719873, -0.5881113, 0.7994015, 44.87799
 59006388, 0.3954521, -0.05414221, 0.01240401, 0.07486238, 0.1396444, -0.01513188, 0.004171254, 0.03719873, -0.5527439, 0.8242983, 44.78527
 59206308, 0.401446, -0.04357886, 0.007974565, 0.07486238, 0.1437444, -0.01404414, 0.002042642, 0.03719873, -0.5156103, 0.8474482, 44.78527
 59406228, 0.4117045, -0.03246059, 0.003913764, 0.07486238, 0.1467129, -0.005856815, 0.002226294, 0.03719873, -0.478196, 0.8689675, 44.78527
 59606148, 0.4204963, -0.006112586, 0.004448834, 0.07486238, 0.1499518, 0.004160828, 0.002081104, 0.03719873, -0.4394717, 0.8890682, 44.78527
 59806068, 0.4278271, 0.0220226, 0.004803261, 0.07486238, 0.1508593, 0.01341187, 0.001208213, 0.03719873, -0.3996857, 0.9077831, 44.78527
 60005988, 0.4251367, 0.05078624, -0.0004146851, 0.07486238, 0.1480654, 0.02571712, -0.003034222, 0.03719873, -0.3586528, 0.9252698, 44.78527
 60205908, 0.420402, 0.08790353, -0.006221908, 0.07486238, 0.1480352, 0.03658808, -0.002330335, 0.03719873, -0.3152399, 0.9409474, 44.78527
 60405828, 0.417263, 0.1037017, -0.006154407, 0.07486238, 0.1418729, 0.03763132, -0.0039826, 0.03719873, -0.2721942, 0.9549815, 44.78527
 60606581, 0.3833803, 0.1208105, -0.009217002, 0.07501738, 0.1264794, 0.04914268, -0.0007444327, 0.03735372, -0.2295896, 0.9674836, 44.87799
 60806501, 0.357353, 0.1419759, -0.004715428, 0.07501738, 0.1273992, 0.04953794, -0.0001852439, 0.03719873, -0.182949, 0.9768314, 44.87799
 61006421, 0.3712552, 0.1333321, -0.004577689, 0.07486238, 0.1342184, 0.04530773, -0.002454606, 0.03719873, -0.1369116, 0.9834776, 44.78527
 61206341, 0.3807788, 0.1377877, -0.009384084, 0.07486238, 0.1342159, 0.05322867, -0.004139042, 0.03719873, -0.09390241, 0.9882745, 44.78527
 61406261, 0.3832594, 0.1608157, -0.007941543, 0.07486238, 0.136164, 0.06425542, -0.002358217, 0.03719873, -0.05104447, 0.9909204, 44.78527
 61606181, 0.3853653, 0.2024518, -0.00491413, 0.07486238, 0.1334681, 0.07924712, -0.002380544, 0.03719873, -0.00883237, 0.9922104, 44.78527
 61806101, 0.3686919, 0.2261871, -0.004163924, 0.07486238, 0.1241265, 0.08030658, 0.0007506633, 0.03719873, 0.03471639, 0.9921002, 44.78527
 62006021, 0.3469042, 0.2303543, -0.0007028959, 0.07486238, 0.1169653, 0.08258922, -0.001999417, 0.03719873, 0.08030711, 0.990014, 44.78527
 62205941, 0.3192888, 0.2365844, -0.005756939, 0.07486238, 0.1065758, 0.08550403, -0.002351192, 0.03719873, 0.1268326, 0.9856887, 44.78527
 62405861, 0.3028027, 0.2530612, -0.007424487, 0.07486238, 0.1065014, 0.09427258, -0.003555923, 0.03719873, 0.1738137, 0.9781894, 44.78527
 62605781, 0.2964978, 0.2761882, -0.01049929, 0.07486238, 0.100696, 0.100629, -0.003947312, 0.03719873, 0.2179193, 0.969409, 44.78527
 62806534, 0.2781977, 0.2892914, -0.005256021, 0.07501738, 0.09329148, 0.1019399, -0.0005889979, 0.03735372, 0.2609189, 0.9590443, 44.87799
 63006454, 0.2614855, 0.2857252, -0.004448607, 0.07501738, 0.09109487, 0.1005145, -0.00130912, 0.03719873, 0.3039989, 0.9460799, 44.87799
 63206374, 0.2602589, 0.2910584, -0.008952475, 0.07486238, 0.08996968, 0.1035843, -0.006324183, 0.03719873, 0.3458932, 0.9315108, 44.78527
 63406294, 0.2390928, 0.2920036, -0.01271515, 0.07486238, 0.07503883, 0.1012327, -0.003427612, 0.03719873, 0.3855141, 0.9169898, 44.78527
 63606214, 0.1996037, 0.2903141, -0.01173664, 0.07486238, 0.0636137, 0.1057508, -0.006236849, 0.03719873, 0.4262092, 0.899273, 44.78527
 63806134, 0.1736365, 0.3147835, -0.0148535, 0.07486238, 0.05764356, 0.1171292, -0.003656531, 0.03719873, 0.4673019, 0.8783492, 44.78527
 64006054, 0.1613149, 0.3363742, -0.01083712, 0.07486238, 0.05603885, 0.121354, -0.004480349, 0.03719873, 0.5077482, 0.8551448, 44.78527
 64205974, 0.1588484, 0.3509882, -0.01562376, 0.07486238, 0.05455392, 0.1251286, -0.004764887, 0.03719873, 0.5468077, 0.8303795, 44.78527
 64405894, 0.1455877, 0.3515802, -0.01693255, 0.07486238, 0.04384086, 0.1227324, -0.006815235, 0.03719873, 0.5836561, 0.8057769, 44.78527
 64605814, 0.1060511, 0.352416, -0.01676612, 0.07486238, 0.02961752, 0.1262727, -0.005631585, 0.03719873, 0.6200429, 0.7786344, 44.78527
 64806567, 0.07941175, 0.3644137, -0.01415415, 0.07501738, 0.02608279, 0.1304461, -0.005921993, 0.03735372, 0.6563525, 0.7479549, 44.87799
 65006487, 0.06912991, 0.371453, -0.01721782, 0.07501738, 0.02318441, 0.1310419, -0.00732186, 0.03719873, 0.6912758, 0.7154462, 44.87799
 65206407, 0.06711511, 0.3730925, -0.02101718, 0.07486238, 0.02435507, 0.1315411, -0.008158447, 0.03719873, 0.7246193, 0.6810571, 44.78527
 65406327, 0.06873504, 0.3718949, -0.02081382, 0.07486238, 0.02229931, 0.1306315, -0.006839701, 0.03719873, 0.75561, 0.6462579, 44.78527
 65606247, 0.05236531, 0.3739737, -0.0168204, 0.07486238, 0.01062766, 0.1323184, -0.002874522, 0.03719873, 0.7842588, 0.61163, 44.78527
 65806167, 0.01523194, 0.3737799, -0.007543734, 0.07486238, -0.001710339, 0.1311594, -0.003826818, 0.03719873, 0.8115292, 0.5755337, 44.78527
 66006087, -0.0131622, 0.3740993, -0.005342014, 0.07486238, -0.01018143, 0.1330982, -0.001453234, 0.03719873, 0.8377493, 0.5364481, 44.78527
 66206007, -0.04588941, 0.3818101, -0.003804175, 0.07486238, -0.02733877, 0.136004, -0.001013365, 0.03719873, 0.8625365, 0.4961568, 44.78527
 66405927, -0.09922832, 0.385502, -0.001812887, 0.07486238, -0.04556542, 0.1347325, 0.0001048575, 0.03719873, 0.8858712, 0.4541225, 44.78527
 66605847, -0.1367288, 0.3749292, -0.0002673462, 0.07486238, -0.05056735, 0.1254832, 2.168708E-07, 0.03719873, 0.9076997, 0.4100759, 44.78527
 66805767, -0.1451063, 0.3418667, -0.001622464, 0.07486238, -0.05409847, 0.1153628, -0.0006252672, 0.03719873, 0.9277552, 0.3634618, 44.78527
 67006520, -0.1665871, 0.3348377, -0.002321021, 0.07501738, -0.06314231, 0.121085, -0.002353454, 0.03735372, 0.9451051, 0.314257, 44.87799
 67206440, -0.1736906, 0.3411732, -0.008101546, 0.07501738, -0.05946766, 0.1191412, -0.004875279, 0.03719873, 0.9594899, 0.2657976, 44.87799
 67406360, -0.1752312, 0.3374712, -0.01150837, 0.07486238, -0.06396039, 0.1173468, -0.003838075, 0.03719873, 0.9712161, 0.2187517, 44.78527
 67606280, -0.1830419, 0.3254771, -0.01423589, 0.07486238, -0.06594569, 0.1106438, -0.006349973, 0.03719873, 0.9807128, 0.1722426, 44.78527
 67806200, -0.1952736, 0.3098602, -0.01398055, 0.07486238, -0.07332057, 0.1067479, -0.003795058, 0.03719873, 0.9879444, 0.1246102, 44.78527
 68006120, -0.2179494, 0.2963059, -0.01193206, 0.07486238, -0.08173843, 0.1004484, -0.006152076, 0.03719873, 0.9930485, 0.07631007, 44.78527
 68206040, -0.2394515, 0.2771316, -0.01723814, 0.07486238, -0.08837046, 0.09290679, -0.006456677, 0.03719873, 0.9958653, 0.02674634, 44.78527
 68405960, -0.2556516, 0.2555025, -0.01835572, 0.07486238, -0.09406498, 0.08475488, -0.006808712, 0.03719873, 0.9962475, -0.02367027, 44.78527
 68605880, -0.2798256, 0.2301817, -0.01827052, 0.07486238, -0.1020023, 0.07661124, -0.006430128, 0.03719873, 0.9939287, -0.07467099, 44.78527
 68805800, -0.2807512, 0.2139688, -0.01895828, 0.07486238, -0.09481794, 0.07349123, -0.006805262, 0.03719873, 0.9886547, -0.12627, 44.78527
 69006553, -0.2709449, 0.2052366, -0.02100836, 0.07501738, -0.09960195, 0.07125095, -0.008413585, 0.03735372, 0.9804145, -0.1777886, 44.87799
 69206473, -0.2994263, 0.202887, -0.02315664, 0.07501738, -0.1125605, 0.07057746, -0.008965266, 0.03719873, 0.9697222, -0.2270668, 44.87799
 69406393, -0.3230056, 0.1907314, -0.02704689, 0.07486238, -0.1154776, 0.0616261, -0.009649381, 0.03719873, 0.9577738, -0.2738602, 44.78527
 69606313, -0.3295185, 0.1665331, -0.02666767, 0.07486238, -0.1165856, 0.054001, -0.009376924, 0.03719873, 0.9431483, -0.3210486, 44.78527
 69806233, -0.3309024, 0.1458564, -0.02663325, 0.07486238, -0.1151218, 0.04824369, -0.009798097, 0.03719873, 0.9255674, -0.3687268, 44.78527
 70006153, -0.3215674, 0.1359305, -0.02877547, 0.07486238, -0.1114968, 0.04602728, -0.01219846, 0.03719873, 0.9051085, -0.4163435, 44.78527
 70206073, -0.3218858, 0.1204905, -0.03432325, 0.07486238, -0.1170772, 0.03722962, -0.01176027, 0.03719873, 0.882419, -0.4625049, 44.78527
 70405993, -0.3408772, 0.09736092, -0.03085359, 0.07486238, -0.1224068, 0.02837178, -0.009978592, 0.03719873, 0.8579931, -0.5065862, 44.78527
 70605913, -0.3441288, 0.06337439, -0.02696843, 0.07486238, -0.1191863, 0.0116318, -0.01044759, 0.03719873, 0.8329681, -0.5482307, 44.78527
 70805833, -0.33665, 0.01352078, -0.02689609, 0.07486238, -0.1158128, -0.00364232, -0.008708202, 0.03719873, 0.8049676, -0.5895672, 44.78527
 71006586, -0.3207261, -0.01351208, -0.02515054, 0.07501738, -0.1101321, -0.005835587, -0.007880419, 0.03735372, 0.7727469, -0.631252, 44.87799
 71206506, -0.3119209, -0.01883521, -0.02562514, 0.07501738, -0.1097002, -0.01113233, -0.0111745, 0.03719873, 0.739127, -0.6705021, 44.87799
 71406426, -0.3129302, -0.05371976, -0.02716578, 0.07486238, -0.1128766, -0.02769445, -0.006924612, 0.03719873, 0.7041315, -0.7074058, 44.78527
 71606346, -0.3314889, -0.07608238, -0.02169695, 0.07486238, -0.1228555, -0.02507601, -0.00816656, 0.03719873, 0.6650217, -0.7431232, 44.78527
 71806266, -0.3595741, -0.07178575, -0.02652078, 0.07486238, -0.1317866, -0.0267112, -0.01088997, 0.03719873, 0.6259261, -0.7754363, 44.78527
 72006186, -0.3795589, -0.08205387, -0.03056642, 0.07486238, -0.1352292, -0.03095691, -0.01037255, 0.03719873, 0.5861645, -0.8053341, 44.78527
 72206106, -0.3821488, -0.08693951, -0.03105383, 0.07486238, -0.1319097, -0.03128006, -0.01069588, 0.03719873, 0.5452451, -0.8334377, 44.78527
 72406026, -0.3657044, -0.09643646, -0.03212193, 0.07486238, -0.1249873, -0.03727064, -0.01072965, 0.03719873, 0.5024039, -0.8601101, 44.78527
 72605946, -0.3545326, -0.1061631, -0.03550275, 0.07486238, -0.1226841, -0.04029631, -0.01572395, 0.03719873, 0.4577474, -0.8847497, 44.78527
 72805866, -0.3366379, -0.1347271, -0.04217225, 0.07486238, -0.1115182, -0.05822675, -0.01333452, 0.03719873, 0.4145296, -0.906804, 44.78527
 73005786, -0.3067355, -0.179635, -0.03561475, 0.07486238, -0.1040512, -0.07200298, -0.01141548, 0.03719873, 0.3686844, -0.9268138, 44.78527
 73206539, -0.2955635, -0.2197335, -0.02939938, 0.07501738, -0.1024812, -0.08217967, -0.008301273, 0.03735372, 0.3204321, -0.9445767, 44.87799
 73406459, -0.2831507, -0.2234949, -0.02607777, 0.07501738, -0.09666221, -0.07568193, -0.01006966, 0.03719873, 0.2711006, -0.9597545, 44.87799
 73606379, -0.2757348, -0.2223741, -0.03003685, 0.07486238, -0.09668601, -0.08316157, -0.01104823, 0.03719873, 0.2217349, -0.9722141, 44.78527
 73806299, -0.2694501, -0.2446828, -0.03367475, 0.07486238, -0.0914527, -0.09101366, -0.01200231, 0.03719873, 0.1735652, -0.9820284, 44.78527
 74006219, -0.2567846, -0.2657987, -0.03245441, 0.07486238, -0.08901849, -0.0981223, -0.01298821, 0.03719873, 0.1249822, -0.989319, 44.78527
 74206139, -0.2478257, -0.2926686, -0.03299662, 0.07486238, -0.08346564, -0.1095405, -0.01197145, 0.03719873, 0.07642923, -0.9943407, 44.78527
 74406059, -0.2284748, -0.3163601, -0.0294829, 0.07486238, -0.07785041, -0.1137519, -0.008474755, 0.03719873, 0.02634923, -0.9968644, 44.78527
 74605979, -0.2232828, -0.3271447, -0.02624752, 0.07486238, -0.07891173, -0.1171382, -0.00973068, 0.03719873, -0.02536752, -0.9964967, 44.78527
 74805899, -0.215303, -0.3340634, -0.0322041, 0.07486238, -0.06905664, -0.1180135, -0.01291762, 0.03719873, -0.07507127, -0.9943768, 44.78527
 75005819, -0.1792309, -0.334514, -0.03273117, 0.07486238, -0.0551612, -0.1173522, -0.00893217, 0.03719873, -0.1243639, -0.989884, 44.78527
 75206572, -0.15246, -0.3349762, -0.03185516, 0.07501738, -0.05177099, -0.1199668, -0.01294819, 0.03735372, -0.1746657, -0.9821494, 44.87799
 75406492, -0.1420847, -0.349285, -0.03387661, 0.07501738, -0.04639167, -0.1278573, -0.01026101, 0.03719873, -0.2230373, -0.9722552, 44.87799
 75606412, -0.1198241, -0.3720203, -0.02626415, 0.07486238, -0.03637814, -0.1344506, -0.007051594, 0.03719873, -0.2697853, -0.9604473, 44.78527
 75806332, -0.0991683, -0.3817707, -0.02522181, 0.07486238, -0.03266187, -0.1359372, -0.009955186, 0.03719873, -0.3165853, -0.9458999, 44.78527
 76006252, -0.08960813, -0.3971081, -0.02621331, 0.07486238, -0.03203858, -0.1452518, -0.009797633, 0.03719873, -0.3636552, -0.9280999, 44.78527
 76206172, -0.0994551, -0.416236, -0.02730898, 0.07486238, -0.03834203, -0.1481051, -0.01008579, 0.03719873, -0.4096785, -0.9077332, 44.78527
 76406092, -0.1054261, -0.415499, -0.03111881, 0.07486238, -0.03339192, -0.1381862, -0.01169583, 0.03719873, -0.4526699, -0.8875019, 44.78527
 76606012, -0.08328728, -0.36676, -0.03145877, 0.07486238, -0.02387469, -0.1202594, -0.01171137, 0.03719873, -0.4948676, -0.8654914, 44.78527
 76805932, -0.06327581, -0.351843, -0.03463044, 0.07486238, -0.01970675, -0.1304784, -0.01191988, 0.03719873, -0.53714, -0.8393577, 44.78527
 77005852, -0.05152292, -0.3788576, -0.03063668, 0.07486238, -0.01643502, -0.1359773, -0.009631429, 0.03719873, -0.5761625, -0.8125497, 44.78527
 77205772, -0.04455631, -0.3852083, -0.0299282, 0.07486238, -0.01422831, -0.1347309, -0.01213728, 0.03719873, -0.612711, -0.7850474, 44.78527
 77406525, -0.03328076, -0.3827789, -0.03584947, 0.07501738, -0.005831828, -0.1328576, -0.01343314, 0.03735372, -0.6474758, -0.7570933, 44.87799
 77606445, 0.001761228, -0.3684035, -0.03578429, 0.07501738, 0.01213454, -0.1247096, -0.01315553, 0.03719873, -0.6808981, -0.7286257, 44.87799
 77806365, 0.05671458, -0.3471148, -0.03256892, 0.07486238, 0.02761158, -0.1183458, -0.01077636, 0.03719873, -0.7146577, -0.6962702, 44.78527
 78006285, 0.07274127, -0.332062, -0.028773, 0.07486238, 0.02170906, -0.1127682, -0.009460545, 0.03719873, -0.7480798, -0.6600165, 44.78527
 78206205, 0.06046369, -0.3089154, -0.03026437, 0.07486238, 0.02401517, -0.1042058, -0.01375099, 0.03719873, -0.7785717, -0.6242541, 44.78527
 78406125, 0.08682347, -0.2986083, -0.03519787, 0.07486238, 0.03950367, -0.1071385, -0.009489634, 0.03719873, -0.8066359, -0.5877578, 44.78527
 78606045, 0.1172258, -0.3116651, -0.02546489, 0.07486238, 0.0448763, -0.1149966, -0.009273832, 0.03719873, -0.832697, -0.5494388, 44.78527
 78805965, 0.1368332, -0.3385932, -0.0263471, 0.07486238, 0.05179742, -0.1232772, -0.008382425, 0.03719873, -0.8564422, -0.5107575, 44.78527
 79005885, 0.1473618, -0.3472283, -0.02613328, 0.07486238, 0.05260813, -0.1197659, -0.0102019, 0.03719873, -0.8785293, -0.4716525, 44.78527
 79205805, 0.1534099, -0.339421, -0.02935064, 0.07486238, 0.05783491, -0.1216147, -0.01021665, 0.03719873, -0.8994882, -0.4296069, 44.78527
 79406558, 0.1754705, -0.359126, -0.02557848, 0.07501738, 0.0652268, -0.1328703, -0.007169215, 0.03735372, -0.9185009, -0.3848491, 44.87799
 79606478, 0.1821416, -0.3831293, -0.02166561, 0.07501738, 0.06320982, -0.1372098, -0.007676364, 0.03719873, -0.935106, -0.3401127, 44.87799
 79806398, 0.1864622, -0.3887592, -0.02331288, 0.07486238, 0.07292639, -0.1350139, -0.009013385, 0.03719873, -0.9498178, -0.2971038, 44.78527
 80006318, 0.2290527, -0.3746702, -0.02427734, 0.07486238, 0.0896288, -0.1292301, -0.00638351, 0.03719873, -0.9626405, -0.2531608, 44.78527
 80206238, 0.2572834, -0.368542, -0.01615677, 0.07486238, 0.091218, -0.1286342, -0.005895132, 0.03719873, -0.9731987, -0.2072123, 44.78527
 80406158, 0.2571906, -0.3556962, -0.02014752, 0.07486238, 0.08731385, -0.1204447, -0.008597332, 0.03719873, -0.9819929, -0.1611949, 44.78527
 80606078, 0.2375326, -0.3359202, -0.02721591, 0.07486238, 0.07977833, -0.1140373, -0.01014485, 0.03719873, -0.9886066, -0.1148714, 44.78527
 80805998, 0.233084, -0.3118944, -0.02809756, 0.07486238, 0.08712804, -0.1033148, -0.009166157, 0.03719873, -0.9933291, -0.07007539, 44.78527
 81005918, 0.2625274, -0.2846902, -0.02575981, 0.07486238, 0.1026564, -0.09656616, -0.008568134, 0.03719873, -0.995604, -0.02553718, 44.78527
 81205838, 0.30708, -0.2718021, -0.02366329, 0.07486238, 0.1120258, -0.09318758, -0.007498208, 0.03719873, -0.9956762, 0.01841139, 44.78527
 81406591, 0.3099489, -0.2565452, -0.02091062, 0.07501738, 0.1058534, -0.08588091, -0.008195389, 0.03735372, -0.9941855, 0.06214188, 44.87799
 81606511, 0.3029459, -0.2330084, -0.02327746, 0.07501738, 0.1082959, -0.07561192, -0.007672093, 0.03719873, -0.9908153, 0.1063446, 44.87799
 81806431, 0.3093446, -0.2044238, -0.01968029, 0.07486238, 0.110921, -0.06790393, -0.005844262, 0.03719873, -0.9850749, 0.1513955, 44.78527
 82006351, 0.3210278, -0.1961683, -0.01753339, 0.07486238, 0.1161113, -0.0713848, -0.006893849, 0.03719873, -0.9761802, 0.1975707, 44.78527
 82206271, 0.3360526, -0.2058035, -0.02018929, 0.07486238, 0.1213227, -0.07279599, -0.0064877, 0.03719873, -0.9656884, 0.2415882, 44.78527
 82406191, 0.3473474, -0.2020383, -0.02052665, 0.07486238, 0.1239405, -0.06721558, -0.008252748, 0.03719873, -0.9544834, 0.2829951, 44.78527
 82606111, 0.3550379, -0.1776891, -0.02090997, 0.07486238, 0.1268477, -0.05582073, -0.007227036, 0.03719873, -0.9419177, 0.3235224, 44.78527
 82806031, 0.3670126, -0.1486155, -0.01937681, 0.07486238, 0.1350533, -0.04613172, -0.005153725, 0.03719873, -0.9268152, 0.3648723, 44.78527
 83005951, 0.4002477, -0.1186597, -0.01346238, 0.07486238, 0.147783, -0.03720275, -0.005246878, 0.03719873, -0.9089739, 0.4067982, 44.78527
 83205871, 0.4230278, -0.1055997, -0.0160585, 0.07486238, 0.1499513, -0.03671175, -0.006550375, 0.03719873, -0.8885325, 0.4487586, 44.78527
 83405791, 0.4258597, -0.09882249, -0.01229468, 0.07486238, 0.1483727, -0.03246401, -0.003013724, 0.03719873, -0.8666183, 0.4895923, 44.78527
 83606544, 0.4155579, -0.08859726, -0.01259936, 0.07501738, 0.143071, -0.02744826, -0.006106858, 0.03735372, -0.8435104, 0.5289358, 44.87799
 83806464, 0.4012111, -0.06661475, -0.01685624, 0.07501738, 0.1369866, -0.01859587, -0.005323566, 0.03719873, -0.8194255, 0.5662975, 44.87799
 84006384, 0.3826627, -0.04799797, -0.01297337, 0.07486238, 0.1349567, -0.01332996, -0.004096592, 0.03719873, -0.7931793, 0.6025432, 44.78527
 84206304, 0.4015391, -0.02484169, -0.007539782, 0.07486238, 0.1494058, -0.002269698, 0.0004640462, 0.03719873, -0.7653087, 0.636941, 44.78527
 84406224, 0.4242298, 0.0009019724, 0.00396505, 0.07486238, 0.1478599, 0.005137518, 0.001682605, 0.03719873, -0.7377301, 0.6689919, 44.78527
 84606144, 0.4139137, 0.02975442, 0.007291416, 0.07486238, 0.1422037, 0.01861323, 0.003878271, 0.03719873, -0.7090721, 0.7002313, 44.78527
 84806064, 0.3975537, 0.06189184, 0.01360877, 0.07486238, 0.1364368, 0.0244371, 0.005133455, 0.03719873, -0.6767719, 0.7317811, 44.78527
 85005984, 0.3832568, 0.06806388, 0.01118688, 0.07486238, 0.1334125, 0.02392033, 0.002489811, 0.03719873, -0.6412835, 0.7627819, 44.78527
 85205904, 0.3835963, 0.07152438, 0.003325347, 0.07486238, 0.1362787, 0.02633651, -0.0003285584, 0.03719873, -0.6045945, 0.7917872, 44.78527
 85405824, 0.3846923, 0.07492904, 0.0001953249, 0.07486238, 0.1343731, 0.02670204, -0.0003135535, 0.03719873, -0.5678607, 0.8182634, 44.78527
 85606577, 0.3835885, 0.07651072, 0.0005737015, 0.07501738, 0.136526, 0.02571816, 0.000311989, 0.03735372, -0.5301889, 0.8424438, 44.87799
 85806497, 0.3912133, 0.06632247, -0.00223758, 0.07501738, 0.1390103, 0.02110538, -0.001944982, 0.03719873, -0.4924973, 0.864116, 44.87799
 86006417, 0.3942733, 0.06247592, -0.008263114, 0.07486238, 0.1387407, 0.02379105, -0.002810872, 0.03719873, -0.4556062, 0.8837819, 44.78527
 86206337, 0.3949406, 0.06849937, -0.01074255, 0.07486238, 0.1395908, 0.02706586, -0.003790232, 0.03719873, -0.417724, 0.9019209, 44.78527
 86406257, 0.3981349, 0.09386955, -0.01423844, 0.07486238, 0.1410975, 0.04398667, -0.00679669, 0.03719873, -0.3795828, 0.9187163, 44.78527
 86606177, 0.4000076, 0.1473933, -0.01450215, 0.07486238, 0.1382119, 0.06135408, -0.002958043, 0.03719873, -0.3403117, 0.9343606, 44.78527
 86806097, 0.3795933, 0.1753824, -0.009945498, 0.07486238, 0.1273093, 0.06198613, -0.004523201, 0.03719873, -0.2987445, 0.9489587, 44.78527
 87006017, 0.3553399, 0.1786696, -0.01654518, 0.07486238, 0.1220082, 0.06461602, -0.007440906, 0.03719873, -0.2543153, 0.9619491, 44.78527
 87205937, 0.3406766, 0.1884838, -0.0194435, 0.07486238, 0.115427, 0.07176597, -0.006359641, 0.03719873, -0.2101115, 0.9729646, 44.78527
 87405857, 0.3161484, 0.2177391, -0.0160144, 0.07486238, 0.1057599, 0.08043003, -0.003840631, 0.03719873, -0.1669517, 0.9817384, 44.78527
 87605777, 0.2972617, 0.218901, -0.01186801, 0.07486238, 0.1020472, 0.07214476, -0.006865372, 0.03719873, -0.1231531, 0.9881659, 44.78527
 87806530, 0.2826711, 0.2077768, -0.01822308, 0.07501738, 0.09771266, 0.07598166, -0.006928532, 0.03735372, -0.07978844, 0.9925806, 44.87799
 88006450, 0.2822432, 0.2251744, -0.01590589, 0.07501738, 0.09950607, 0.08568896, -0.004654242, 0.03719873, -0.03700757, 0.9947784, 44.87799
 88206370, 0.2698599, 0.2591189, -0.0110551, 0.07486238, 0.08822191, 0.09804151, -0.003448306, 0.03719873, 0.00347366, 0.9960427, 44.78527
 88406290, 0.2404378, 0.2840376, -0.00633371, 0.07486238, 0.07854103, 0.1022848, -0.001037694, 0.03719873, 0.04568658, 0.9954005, 44.78527
 88606210, 0.2122791, 0.2908298, -0.003646253, 0.07486238, 0.06858969, 0.102059, -0.002122299, 0.03719873, 0.0895936, 0.9929451, 44.78527
 88806130, 0.1824038, 0.2886423, -0.006596145, 0.07486238, 0.0585479, 0.1021642, -0.002897732, 0.03719873, 0.1348741, 0.988224, 44.78527
 89006050, 0.1629023, 0.2971389, -0.007724966, 0.07486238, 0.05708808, 0.1088199, -0.002567775, 0.03719873, 0.1816111, 0.9804571, 44.78527
 89205970, 0.1653208, 0.3190203, -0.00788121, 0.07486238, 0.05783529, 0.1188009, -0.0035691, 0.03719873, 0.2267948, 0.9706594, 44.78527
 89405890, 0.1540868, 0.3502677, -0.009562039, 0.07486238, 0.05034668, 0.1277185, -0.001265303, 0.03719873, 0.2698433, 0.9595744, 44.78527
 89605810, 0.1442681, 0.3578659, -0.006025092, 0.07486238, 0.04968151, 0.1230391, -0.002405916, 0.03719873, 0.3127988, 0.9463589, 44.78527
 89806563, 0.1325822, 0.3509207, -0.007016413, 0.07501738, 0.04311173, 0.1260919, -0.002329114, 0.03735372, 0.3557752, 0.9310447, 44.87799
 90006483, 0.1249818, 0.3692756, -0.01331691, 0.07501738, 0.04588536, 0.1366617, -0.006468079, 0.03719873, 0.3997343, 0.9121199, 44.87799
 90206403, 0.1310218, 0.39764, -0.01862334, 0.07486238, 0.04633668, 0.1441096, -0.006464537, 0.03719873, 0.442075, 0.8915985, 44.78527
 90406323, 0.1299, 0.4091993, -0.01517723, 0.07486238, 0.04534852, 0.1429592, -0.005527916, 0.03719873, 0.4831808, 0.8696402, 44.78527
 90606243, 0.1250637, 0.4015386, -0.01683923, 0.07486238, 0.04110242, 0.1396336, -0.005002369, 0.03719873, 0.5232938, 0.8460631, 44.78527
