TimeUS,CAN,CAE,CAD,CAe,NAN,NAE,NAD,NAe,m10,m00,Gye
 8425795, 0.01136754, 0.0003521068, -0.05493043, 1.567772, 0.002113248, -0.002368913, -0.07791271, 1.566978, -0.9757831, -0.2187405, 11.72367
 8606556, 0.002298437, -0.002135129, -0.07989433, 1.60108, -0.0001053945, 9.190226E-05, -0.001018357, 0.03363385, -0.9814997, -0.1914634, 28371.7
 8806476, 0.0001526288, 1.658936E-05, -0.003313043, 0.07129171, 8.807564E-05, 8.436442E-05, -0.001067009, 0.03718013, -0.9869645, -0.160938, 43.18072
 9006396, 5.226101E-05, 0.0002111727, -0.00309779, 0.07482506, 0.000116906, 5.071903E-05, -0.001133804, 0.03718013, -0.990826, -0.1351437, 44.76286
 9206316, 0.0005031109, 0.0001864773, -0.003193448, 0.07482506, 0.0003678887, 8.221803E-05, -0.0008983558, 0.03718013, -0.9935443, -0.1134445, 44.76286
 9406236, 0.0005420726, 0.0003032015, -0.003284474, 0.07482506, -3.34362E-05, 0.0005853602, -0.001335766, 0.03718013, -0.9954585, -0.09519684, 44.76286
 9606156, 0.0001312212, 0.0008702832, -0.003551504, 0.07482506, -0.0001152051, 0.0004466574, -0.0010094, 0.03718013, -0.9968082, -0.07983472, 44.76286
 9806076, 5.263516E-05, 0.000377942, -0.003474504, 0.07483085, -0.000172283, 0.0001099787, -0.001350016, 0.03719873, -0.9977587, -0.06691501, 44.76818
 10005996, -0.000103719, 0.0002400374, -0.003611882, 0.07486238, 3.640036E-05, -0.000185404, -0.0009554735, 0.03719873, -0.9984273, -0.05606233, 44.78527
 10205916, 8.293648E-05, -2.691504E-05, -0.003034302, 0.07486238, 0.0002475821, 0.0002614036, -0.0009464041, 0.03719873, -0.9988958, -0.04697917, 44.78527
 10405836, 0.0004009314, 0.0004642816, -0.003147727, 0.07486238, 0.0004971712, 1.743067E-07, -0.001453383, 0.03719873, -0.999225, -0.03936251, 44.78527
 10606589, 0.0007124526, 0.0002679878, -0.003627812, 0.07501738, 4.992104E-05, -0.000181214, -0.001026505, 0.03735372, -0.9994572, -0.03294172, 43.19506
 10806509, 0.0002143867, 8.02404E-05, -0.003433048, 0.07501159, 0.000295942, 0.0001425361, -0.00127683, 0.03718014, -0.9996195, -0.02758481, 44.8735
 11006429, 0.000402274, 0.0004013733, -0.003603744, 0.07482506, -0.000110588, 0.0001023422, -0.001170498, 0.03718014, -0.9997336, -0.02308015, 44.76286
 11206349, 0.0001281962, 0.0001565158, -0.003352269, 0.07482506, 0.0002471704, 0.0001468803, -0.001289152, 0.03718014, -0.9998137, -0.01930189, 44.76286
 11406269, 0.0006466609, 0.0002571244, -0.003499218, 0.07482506, 0.0007056731, -0.0001980052, -0.001373446, 0.03718014, -0.9998698, -0.0161313, 44.76286
 11606189, 0.0008814077, -0.0001023157, -0.003605867, 0.07482506, 0.0002685707, 2.200549E-05, -0.001246639, 0.03718014, -0.9999092, -0.01347729, 44.76286
 11806109, 0.0007648389, 0.0004360591, -0.003483331, 0.07482506, 0.0002325423, 0.0004736943, -0.001172948, 0.03718014, -0.9999366, -0.0112527, 44.76286
 12006029, 0.0006231914, 0.0008420208, -0.003304727, 0.07482506, 8.441085E-05, 0.0001814903, -0.001405026, 0.03718014, -0.9999559, -0.009397893, 44.76286
 12205949, 0.0004669422, 0.0005310419, -0.003733359, 0.07482506, 0.0002268599, 3.172011E-05, -0.0009188384, 0.03718014, -0.9999693, -0.007837268, 44.76286
 12405869, 0.0005707585, 0.0002618201, -0.003047526, 0.07482506, -0.0001682004, 0.000236069, -0.001125913, 0.03718014, -0.9999789, -0.006498989, 44.76286
 12605789, 0.0001451682, 0.0005954994, -0.003379921, 0.07482506, 0.0003876385, 7.538003E-05, -0.0008679469, 0.03718014, -0.9999863, -0.005251634, 44.76286
 12806542, 0.0008105272, 0.0001631804, -0.003020172, 0.07498554, 0.0002294454, -1.45309E-05, -0.001121595, 0.03735372, -0.9999912, -0.004203274, 44.85975
 13006462, 0.0005984776, -1.904184E-05, -0.003290223, 0.07501738, 0.0003140419, -0.0001349918, -0.001639623, 0.03719873, -0.9999945, -0.003337231, 44.87799
 13206382, 0.000625449, 0.0002643021, -0.003655956, 0.07486238, 3.8096E-05, 0.0001331003, -0.001090912, 0.03719873, -0.9999965, -0.002628111, 44.78527
 13406302, 3.576172E-05, 0.0003033827, -0.003271178, 0.07486238, -0.0001554833, 0.0002642378, -0.00119937, 0.03719873, -0.9999979, -0.002042234, 44.78527
 13606222, -3.620965E-05, 0.0007375129, -0.003216675, 0.07486238, -9.250687E-05, 0.0002738802, -0.001055044, 0.03719873, -0.9999988, -0.001544205, 44.78527
 13806142, 0.0002866502, 0.0006540554, -0.003267542, 0.07485683, 0.0005481223, 0.0002013227, -0.001206357, 0.03718014, -0.9999994, -0.001115811, 44.78107
 14006062, 0.0009291699, 0.0004710963, -0.00325474, 0.07482506, 2.546394E-05, 0.0001844161, -0.001150745, 0.03718014, -0.9999998, -0.0007447338, 44.76286
 14205982, 0.0003315967, 0.0002959724, -0.003409654, 0.07482506, 2.93377E-05, -0.0001078892, -0.00127615, 0.03718014, -0.9999999, -0.0004275663, 44.76286
 14405902, 0.0004143098, 0.0001984321, -0.003377521, 0.07482506, -4.842257E-05, 0.0002059671, -0.001191329, 0.03718014, -1, -0.0001628688, 44.76286
 14605822, -4.227817E-05, 0.0003002168, -0.003419831, 0.07482506, 7.952864E-05, -1.534785E-05, -0.001146852, 0.03718014, -1, 5.78304E-05, 44.76286
 14806575, 0.0002899413, 0.0001966047, -0.003301312, 0.07498562, 0.0002453735, -3.79453E-05, -0.001226106, 0.03735372, -1, 0.0002462931, 44.85975
 15006495, 0.0005315607, 7.423062E-05, -0.003490733, 0.07501738, 0.0002984325, -3.197268E-05, -0.001049418, 0.03719873, -0.9999999, 0.0003989383, 44.87799
 15206415, 0.0003147924, 0.0002240375, -0.003445995, 0.07486238, 0.0001085602, 0.0003893249, -0.001273013, 0.03719873, -0.9999999, 0.0005140578, 44.78527
 15406335, 0.0003454662, 0.000799865, -0.003354484, 0.07486238, 0.000333152, -1.129603E-05, -0.0009245176, 0.03719873, -0.9999999, 0.0005969596, 44.78527
 15606255, 0.0004353459, 0.0004031418, -0.002988982, 0.07486238, 0.0002408119, 0.0001085837, -0.0008051654, 0.03719873, -0.9999998, 0.0006543417, 44.78527
 15806175, 0.0005083147, 0.0005019779, -0.002940749, 0.07485683, 0.0002137036, 0.0001671457, -0.001402499, 0.03718014, -0.9999998, 0.0007012144, 44.78107
 16006095, 0.0004759173, 0.0005343875, -0.003274767, 0.07482506, 0.0001123353, 0.0002637647, -0.001076699, 0.03718014, -0.9999998, 0.0007480357, 44.76286
 16206015, 0.0003844604, 0.0005046764, -0.003657165, 0.07482506, 0.0001212451, 5.81687E-05, -0.001575886, 0.03718014, -0.9999996, 0.0007881203, 44.76286
 16405935, 0.0003692169, 0.0004024758, -0.003746707, 0.07482506, 0.0002670288, 1.451311E-05, -0.001301402, 0.03718014, -0.9999996, 0.0008230261, 44.76286
 16605855, 0.0004012336, 0.0002281388, -0.003484115, 0.07482506, -8.266419E-05, 0.000124061, -0.001250935, 0.03718014, -0.9999996, 0.0008574222, 44.76286
 16805775, 0.0002981247, 0.0007869707, -0.003245867, 0.07482506, 0.0002832909, 0.0004537048, -0.0009446537, 0.03718014, -0.9999996, 0.0008904372, 44.76286
 17006528, 0.000661766, 0.0008448508, -0.003079935, 0.07497998, 0.0005163376, 0.0003682423, -0.001423629, 0.03733505, -0.9999996, 0.0009196326, 44.85553
 17206448, 0.0008105673, 0.0006191023, -0.003518992, 0.07497998, 6.107266E-05, -0.0001027306, -0.0008103084, 0.03718014, -0.9999995, 0.0009557221, 44.85553
 17406368, 0.0006698247, 1.082228E-05, -0.003182785, 0.07482506, 0.0004045739, -6.638961E-05, -0.001400893, 0.03718014, -0.9999995, 0.0009927186, 44.76286
 17606288, 0.0008508277, 0.0002412356, -0.003732138, 0.07482506, 0.0006103707, 0.0002420133, -0.001308211, 0.03718014, -0.9999995, 0.001022595, 44.76286
 17806208, 0.0007191722, 0.000659028, -0.003416051, 0.07483039, 0.000113127, 0.0002914048, -0.001087771, 0.03719873, -0.9999995, 0.00104226, 44.76678
 18006128, 0.0002559896, 0.0005315491, -0.003405297, 0.07486238, 0.0001798129, -0.0001556013, -0.001437612, 0.03719873, -0.9999995, 0.001058619, 44.78527
 18206048, 0.0004556708, 0.0002725318, -0.003480032, 0.07486238, 0.0001474939, 0.0003445467, -0.001194018, 0.03719873, -0.9999994, 0.001061074, 44.78527
 18405968, 0.000676787, 0.0009734423, -0.003347478, 0.07486238, 6.093718E-05, 0.0006086955, -0.000921609, 0.03719873, -0.9999994, 0.001041373, 44.78527
 18605888, 0.0004092778, 0.001406714, -0.002959919, 0.07486238, 0.0001955619, 0.0001901165, -0.00138291, 0.03719873, -0.9999995, 0.001004824, 44.78527
 18805808, 0.000592637, 0.0009181022, -0.003505065, 0.07485706, 0.0003465708, 0.0003181109, -0.001252823, 0.03718014, -0.9999995, 0.0009890317, 44.78135
 19006561, 0.0008966654, 0.0006833512, -0.003241016, 0.07497998, 0.0006665385, 9.056448E-05, -0.001212298, 0.03733505, -0.9999995, 0.00100319, 44.85553
 19206481, 0.001051981, 0.0005073251, -0.003385386, 0.07497998, 6.902718E-05, 0.0005595773, -0.0009688482, 0.03718014, -0.9999995, 0.001020901, 44.85553
 19406401, 0.0003800042, 0.0007295155, -0.003281909, 0.07482506, 0.0001836462, 0.0002933034, -0.001303809, 0.03718014, -0.9999995, 0.001033485, 44.76286
 19606321, 0.0004297791, 0.0006982348, -0.003472204, 0.07482506, -0.0001948605, 0.0006199525, -0.001340219, 0.03718014, -0.9999995, 0.00104072, 44.76286
 19806241, 0.0001825838, 0.0008155527, -0.00376965, 0.07483039, 0.000250736, 0.0002260647, -0.001036544, 0.03719873, -0.9999994, 0.001038912, 44.76678
 20006161, 0.0005870929, 0.0004627644, -0.003198085, 0.07486238, -0.0001312332, 0.0004106775, -0.001340061, 0.03719873, -0.9999994, 0.001039607, 44.78527
 20206081, 0.0003109699, 0.001010516, -0.003443941, 0.07486238, 1.044775E-05, 0.0003886699, -0.0008396711, 0.03719873, -0.9999994, 0.001035422, 44.78527
 20406001, 0.0002349677, 0.0009160521, -0.003066175, 0.07486238, 0.0002608317, 0.0002949278, -0.001157495, 0.03719873, -0.9999994, 0.001022655, 44.78527
 20605921, 0.0005885871, 0.0008888828, -0.003187927, 0.07486238, 0.0001197545, 0.0002241218, -0.001147432, 0.03719873, -0.9999995, 0.001008277, 44.78527
 20805841, 0.0003579086, 0.0006235765, -0.003222814, 0.07485729, -0.0002329477, 0.0003565221, -0.001367497, 0.03718014, -0.9999995, 0.001009512, 44.78163
 21005761, 0.0002116846, 0.0006122376, -0.003482174, 0.07482506, 0.0002591765, -5.231615E-05, -0.001048676, 0.03718014, -0.9999995, 0.001025195, 44.76286
 21206514, 0.0007542126, 0.0001703299, -0.003019683, 0.07497998, 0.0004874153, 0.0003142947, -0.001131755, 0.03733505, -0.9999995, 0.001040516, 44.85553
 21406434, 0.001010424, 0.0009614165, -0.00334037, 0.07497998, 0.0005835526, 0.0002944593, -0.0009297584, 0.03718014, -0.9999994, 0.001034908, 44.85553
 21606354, 0.001091442, 0.0007957509, -0.003055856, 0.07482506, 0.0002730738, 0.0002554067, -0.0009953855, 0.03718014, -0.9999994, 0.0010304, 44.76286
 21806274, 0.0006393003, 0.0008982532, -0.003160861, 0.07482506, 0.0004184576, 0.0001344703, -0.001268048, 0.03718014, -0.9999994, 0.001043195, 44.76286
 22006194, 0.0009081842, 0.0004150372, -0.003289777, 0.07482506, 0.0001188373, 0.0001109267, -0.0009940723, 0.03718014, -0.9999994, 0.001064647, 44.76286
 22206114, 0.0006846373, 0.0006393505, -0.003430422, 0.07482506, 0.0003962348, 0.0002952365, -0.001245226, 0.03718014, -0.9999994, 0.001084498, 44.76286
 22406034, 0.0008464982, 0.0006822122, -0.003395627, 0.07482506, 0.0003985669, 0.0006236103, -0.001374392, 0.03718014, -0.9999993, 0.001234958, 44.76286
 22605954, 0.0008969044, 0.001167585, -0.003616513, 0.07482506, 0.0003107573, 0.0004331303, -0.001035013, 0.03718014, -0.999999, 0.001411826, 44.76286
 22805874, 0.001132769, 0.0009406514, -0.003263367, 0.07483016, 0.0006161331, -2.714239E-05, -0.001226807, 0.03719873, -0.9999987, 0.001578321, 44.7665
 23005794, 0.001259226, 0.0008158198, -0.003750171, 0.07486238, 0.0002972364, 0.0002877461, -0.001267468, 0.03719873, -0.9999985, 0.001740003, 44.78527
 23206547, 0.001231001, 0.001136617, -0.003460628, 0.07501738, 0.0005485328, 0.0004268112, -0.001047561, 0.03735372, -0.9999982, 0.001898324, 44.87799
 23406467, 0.001353205, 0.00118778, -0.003133287, 0.07501738, 0.0004140197, 0.0004026853, -0.001265858, 0.03719873, -0.9999979, 0.002051211, 44.87799
 23606387, 0.001211423, 0.001188901, -0.003424929, 0.07486238, 0.0003739243, 0.0002337309, -0.001211801, 0.03719873, -0.9999975, 0.002200506, 44.78527
 23806307, 0.001348806, 0.001165401, -0.003293114, 0.07485729, 0.0005449325, 0.0005789797, -0.0009987805, 0.03718014, -0.9999971, 0.002344612, 44.78163
 24006227, 0.001749014, 0.001765831, -0.003176726, 0.07482506, 0.0007314585, 0.0006929277, -0.001421693, 0.03718014, -0.9999968, 0.002485682, 44.76286
 24206147, 0.001910331, 0.001621041, -0.003454697, 0.07482506, 0.0006289539, 0.0006976875, -0.001102341, 0.03718014, -0.9999964, 0.002622162, 44.76286
 24406067, 0.001941172, 0.001951155, -0.003325575, 0.07482506, 0.0007505413, 0.0005312011, -0.001112853, 0.03718014, -0.9999961, 0.002755101, 44.76286
 24605987, 0.001890208, 0.001879004, -0.003366481, 0.07482506, 0.0006227909, 0.0006891293, -0.001331979, 0.03718014, -0.9999957, 0.002885166, 44.76286
 24805907, 0.00210806, 0.002114644, -0.003491402, 0.07482993, 0.0009597098, 0.001093612, -0.001195607, 0.03719873, -0.9999954, 0.003010515, 44.76622
 25005827, 0.002311019, 0.002825289, -0.003422586, 0.07486238, 0.000487603, 0.000993839, -0.001085533, 0.03719873, -0.9999949, 0.003132134, 44.78527
 25206580, 0.00229338, 0.002682156, -0.003267018, 0.07501738, 0.0009539665, 0.0008324853, -0.001070267, 0.03735372, -0.9999945, 0.003251898, 44.87799
 25406500, 0.002841891, 0.002416638, -0.003098009, 0.07501738, 0.0009967816, 0.0008925173, -0.001035539, 0.03719873, -0.999994, 0.003367764, 44.87799
 25606420, 0.002726467, 0.002699099, -0.00332254, 0.07486238, 0.000835434, 0.001151515, -0.001359099, 0.03719873, -0.9999937, 0.003480702, 44.78527
 25806340, 0.00245925, 0.003151918, -0.003575478, 0.07485752, 0.0006899321, 0.0009993239, -0.001041915, 0.03718014, -0.9999932, 0.003591821, 44.78191
 26006260, 0.002560616, 0.002759136, -0.003344081, 0.07482506, 0.001023843, 0.001027491, -0.001014755, 0.03718014, -0.9999928, 0.003699531, 44.76286
 26206180, 0.002962223, 0.003011181, -0.003262156, 0.07482506, 0.001356252, 0.001003051, -0.001298562, 0.03718014, -0.9999924, 0.003805691, 44.76286
 26406100, 0.003405347, 0.002933331, -0.003414768, 0.07482506, 0.001079948, 0.001544032, -0.0009293748, 0.03718014, -0.999992, 0.003907113, 44.76286
 26606020, 0.003208686, 0.003593907, -0.003147992, 0.07482506, 0.001023283, 0.001140959, -0.0009425778, 0.03718014, -0.9999915, 0.004005509, 44.76286
 26805940, 0.003301403, 0.003178865, -0.003162282, 0.07482506, 0.00130286, 0.001286117, -0.001116092, 0.03718014, -0.9999911, 0.004102323, 44.76286
 27005860, 0.003648689, 0.00331713, -0.003298784, 0.07482506, 0.001198897, 0.001238129, -0.001256579, 0.03718014, -0.9999907, 0.004195607, 44.76286
 27205780, 0.003316596, 0.003376144, -0.003577089, 0.07482506, 0.0009917096, 0.0007429228, -0.001435205, 0.03718014, -0.9999903, 0.004287201, 44.76286
 27406533, 0.003214094, 0.00303135, -0.003601426, 0.07497998, 0.001364323, 0.001161871, -0.001028894, 0.03733505, -0.9999899, 0.004377496, 44.85553
 27606453, 0.003640375, 0.00365066, -0.003077049, 0.07497998, 0.001508218, 0.001782124, -0.000938761, 0.03718014, -0.9999895, 0.004451531, 44.85553
 27806373, 0.003904354, 0.00426848, -0.003100912, 0.07482993, 0.00114629, 0.001358045, -0.001262257, 0.03719873, -0.9999893, 0.004496306, 44.76622
 28006293, 0.003512416, 0.003790343, -0.003458973, 0.07486238, 0.001262052, 0.001324168, -0.00117287, 0.03719873, -0.999989, 0.004540484, 44.78527
 28206213, 0.003707639, 0.003847867, -0.003293725, 0.07486238, 0.001357333, 0.001214295, -0.001236925, 0.03719873, -0.9999889, 0.004582964, 44.78527
 28406133, 0.003840295, 0.003515485, -0.003650244, 0.07486238, 0.001277993, 0.001269234, -0.001019542, 0.03719873, -0.9999887, 0.004625014, 44.78527
 28606053, 0.004021712, 0.003717058, -0.003300325, 0.07486238, 0.001189507, 0.001488252, -0.001224028, 0.03719873, -0.9999884, 0.004665831, 44.78527
 28805973, 0.003687998, 0.004164292, -0.003452282, 0.07485775, 0.001086251, 0.001371127, -0.001282616, 0.03718014, -0.9999882, 0.00470569, 44.78219
 29005893, 0.003786523, 0.004111934, -0.003503424, 0.07482506, 0.001411496, 0.001433749, -0.0009694012, 0.03718014, -0.9999881, 0.004744266, 44.76286
 29205813, 0.003964526, 0.00417268, -0.003150451, 0.07482506, 0.001269278, 0.001168906, -0.001196673, 0.03718014, -0.9999878, 0.004782503, 44.76286
 29406566, 0.003950536, 0.004090013, -0.003479297, 0.07497998, 0.001767588, 0.001303087, -0.001224681, 0.03733505, -0.9999876, 0.004820935, 44.85553
 29606486, 0.0045065, 0.0039969, -0.003316446, 0.07497998, 0.001398316, 0.001628339, -0.0009627459, 0.03718014, -0.9999874, 0.004858292, 44.85553
 29806406, 0.003996258, 0.004493108, -0.003037596, 0.0748297, 0.001654394, 0.001535408, -0.001073501, 0.03719873, -0.9999872, 0.00489459, 44.76594
 30006326, 0.004405144, 0.004284069, -0.003057385, 0.07486238, 0.001522643, 0.001619855, -0.001329098, 0.03719873, -0.999987, 0.004929656, 44.78527
 30206246, 0.004292539, 0.004338574, -0.003614767, 0.07486238, 0.001552017, 0.001738226, -0.001110432, 0.03719873, -0.9999869, 0.00496432, 44.78527
 30406166, 0.004405674, 0.004692636, -0.003327721, 0.07486238, 0.001587222, 0.001454732, -0.001561946, 0.03719873, -0.9999866, 0.004997834, 44.78527
 30606086, 0.004657156, 0.004487249, -0.00377458, 0.07486238, 0.001776609, 0.001612222, -0.001038642, 0.03719873, -0.9999864, 0.005031646, 44.78527
 30806006, 0.004366802, 0.004472852, -0.003144986, 0.07486238, 0.001357292, 0.001759054, -0.0009893237, 0.03719873, -0.9999863, 0.005063492, 44.78527
 31005926, 0.004125135, 0.004401491, -0.003465316, 0.07486238, 0.001552161, 0.001365494, -0.001412889, 0.03719873, -0.9999861, 0.005094615, 44.78527
 31205846, 0.004551229, 0.004367311, -0.003694602, 0.07486238, 0.001614921, 0.001737587, -0.001119876, 0.03719873, -0.9999859, 0.005124961, 44.78527
 31405766, 0.004684448, 0.0049183, -0.003481862, 0.07486238, 0.00178267, 0.001424719, -0.001554394, 0.03719873, -0.9999857, 0.005154498, 44.78527
 31606519, 0.004996323, 0.004453631, -0.003802263, 0.07501738, 0.001572461, 0.001672673, -0.001385322, 0.03735372, -0.9999855, 0.005183392, 44.87799
 31806439, 0.004783501, 0.004650986, -0.003537686, 0.07501738, 0.001691149, 0.001744577, -0.001229628, 0.03719873, -0.9999853, 0.005212686, 44.87799
 32006359, 0.004707009, 0.004997982, -0.00325503, 0.07486238, 0.001761263, 0.001644485, -0.001062498, 0.03719873, -0.9999852, 0.005241571, 44.78527
 32206279, 0.004830976, 0.004692158, -0.003257508, 0.07486238, 0.001616583, 0.001475616, -0.001583144, 0.03719873, -0.999985, 0.005269127, 44.78527
 32406199, 0.00492879, 0.004643495, -0.003982353, 0.07486238, 0.00160974, 0.0020333, -0.001327686, 0.03719873, -0.9999849, 0.005296528, 44.78527
 32606119, 0.004857377, 0.005394419, -0.003627018, 0.07486238, 0.001931155, 0.001815194, -0.0009198, 0.03719873, -0.9999847, 0.00532218, 44.78527
 32806039, 0.005296141, 0.005007105, -0.003170318, 0.07486238, 0.001929573, 0.001762273, -0.001463481, 0.03719873, -0.9999849, 0.005277782, 44.78527
 33005959, 0.005287717, 0.004958045, -0.003415013, 0.07486238, 0.001845207, 0.001580064, -0.0007972936, 0.03719873, -0.9999851, 0.005234092, 44.78527
 33205879, 0.005063602, 0.00491869, -0.002821246, 0.07486238, 0.00183856, 0.001769082, -0.001183674, 0.03719873, -0.9999853, 0.005191574, 44.78527
 33405799, 0.005054161, 0.005252012, -0.002991384, 0.07486238, 0.001780248, 0.002057219, -0.0008620009, 0.03719873, -0.9999856, 0.005149475, 44.78527
 33606552, 0.004898524, 0.005669317, -0.003262918, 0.07501738, 0.001531935, 0.001628786, -0.001281012, 0.03735372, -0.9999857, 0.005109257, 44.87799
 33806472, 0.00484586, 0.005097017, -0.003678094, 0.07501738, 0.001987397, 0.001829422, -0.001376328, 0.03719873, -0.9999859, 0.005070617, 44.87799
 34006392, 0.005247286, 0.005110423, -0.003532662, 0.07486238, 0.001570316, 0.001686848, -0.001066357, 0.03719873, -0.9999862, 0.00503276, 44.78527
 34206312, 0.004972298, 0.00517715, -0.003228451, 0.07486238, 0.001708328, 0.00192283, -0.00121722, 0.03719873, -0.9999863, 0.004996405, 44.78527
 34406232, 0.004832661, 0.005254977, -0.003476705, 0.07486238, 0.001904949, 0.001848355, -0.00124432, 0.03719873, -0.9999864, 0.004960949, 44.78527
 34606152, 0.00517008, 0.00542637, -0.003433374, 0.07486238, 0.001714216, 0.001936728, -0.001528932, 0.03719873, -0.9999865, 0.004926176, 44.78527
 34806072, 0.004854308, 0.005356348, -0.003541694, 0.07486238, 0.001601722, 0.002066075, -0.001251716, 0.03719873, -0.9999868, 0.004891649, 44.78527
 35005992, 0.004837785, 0.005362304, -0.003682242, 0.07486238, 0.001899134, 0.00177844, -0.00152582, 0.03719873, -0.9999869, 0.004859062, 44.78527
 35205912, 0.005143307, 0.005337016, -0.003974258, 0.07486238, 0.001793918, 0.001845874, -0.00147353, 0.03719873, -0.9999871, 0.004827206, 44.78527
 35405832, 0.005401934, 0.005313269, -0.003599822, 0.07486238, 0.001996068, 0.00177988, -0.0008675359, 0.03719873, -0.9999871, 0.004795741, 44.78527
 35606585, 0.005268024, 0.005383687, -0.002895364, 0.07501738, 0.002149032, 0.002110294, -0.0008353845, 0.03735372, -0.9999874, 0.004765944, 44.87799
 35806505, 0.005452667, 0.005541282, -0.003280144, 0.07501738, 0.001947428, 0.002029216, -0.001229627, 0.03719873, -0.9999874, 0.004737791, 44.87799
 36006425, 0.005305833, 0.005515628, -0.003427805, 0.07486238, 0.001795374, 0.001620748, -0.001197804, 0.03719873, -0.9999875, 0.004710636, 44.78527
 36206345, 0.005057014, 0.005178645, -0.003274597, 0.07486238, 0.001649406, 0.001831581, -0.001173537, 0.03719873, -0.9999876, 0.004684031, 44.78527
 36406265, 0.005096412, 0.005419862, -0.003473196, 0.07486238, 0.002058672, 0.001959972, -0.001048181, 0.03719873, -0.9999877, 0.004657799, 44.78527
 36606185, 0.005696879, 0.005405219, -0.003152101, 0.07486238, 0.001935288, 0.002016523, -0.001179061, 0.03719873, -0.9999878, 0.004632664, 44.78527
 36806105, 0.005333437, 0.00552619, -0.003304282, 0.07486238, 0.002178532, 0.00190533, -0.001069582, 0.03719873, -0.999988, 0.004607932, 44.78527
 37006025, 0.00569819, 0.005540949, -0.003323754, 0.07486238, 0.001772767, 0.001970181, -0.001354918, 0.03719873, -0.9999881, 0.004584771, 44.78527
 37205945, 0.005093893, 0.005705282, -0.003584607, 0.07486238, 0.001518371, 0.002274352, -0.0009132509, 0.03719873, -0.9999881, 0.004561496, 44.78527
 37405865, 0.005240791, 0.005760776, -0.003228501, 0.07486238, 0.001828805, 0.001928985, -0.001259458, 0.03719873, -0.9999882, 0.004539152, 44.78527
 37605785, 0.005562043, 0.005559888, -0.003579826, 0.07486238, 0.002013711, 0.001949697, -0.001526637, 0.03719873, -0.9999883, 0.004515577, 44.78527
 37806538, 0.005616437, 0.005729297, -0.003682818, 0.07501738, 0.002007999, 0.001831186, -0.0009965942, 0.03735372, -0.9999887, 0.00443883, 44.87799
 38006458, 0.005520661, 0.005558122, -0.002971388, 0.07501738, 0.001956905, 0.001733344, -0.0007776546, 0.03719873, -0.999989, 0.00434561, 44.87799
 38206378, 0.005622642, 0.005310741, -0.003272062, 0.07486238, 0.001810777, 0.001378837, -0.001768134, 0.03719873, -0.9999895, 0.004255718, 44.78527
 38406298, 0.005270561, 0.005021372, -0.00393424, 0.07486238, 0.00187301, 0.001909674, -0.001337976, 0.03719873, -0.9999899, 0.004167347, 44.78527
 38606218, 0.005481398, 0.005526864, -0.003477343, 0.07486238, 0.002138376, 0.002218993, -0.001072882, 0.03719873, -0.9999902, 0.004080882, 44.78527
 38806138, 0.005636603, 0.005946212, -0.003213355, 0.07486238, 0.002067724, 0.001993507, -0.0007001436, 0.03719873, -0.9999905, 0.003997107, 44.78527
 39006058, 0.005815659, 0.005634934, -0.002780077, 0.07486238, 0.00223711, 0.001861284, -0.001303966, 0.03719873, -0.9999908, 0.003915749, 44.78527
 39205978, 0.005972599, 0.005563149, -0.003538229, 0.07486238, 0.00203471, 0.001872212, -0.001346496, 0.03719873, -0.9999912, 0.003837194, 44.78527
 39405898, 0.005686328, 0.005395003, -0.003611893, 0.07486238, 0.00207556, 0.001976935, -0.001019615, 0.03719873, -0.9999914, 0.003760478, 44.78527
 39605818, 0.005651971, 0.005386281, -0.003110904, 0.07486238, 0.001846835, 0.001666485, -0.001047134, 0.03719873, -0.9999917, 0.003685656, 44.78527
 39806571, 0.005431452, 0.005392849, -0.003215806, 0.07501738, 0.001904547, 0.002078255, -0.00115471, 0.03735372, -0.9999919, 0.003612033, 44.87799
 40006491, 0.00551331, 0.005985688, -0.003223596, 0.07501738, 0.001723151, 0.002245537, -0.001124503, 0.03719873, -0.9999923, 0.003540692, 44.87799
 40206411, 0.005250174, 0.005651474, -0.00319706, 0.07486238, 0.001974113, 0.001801478, -0.0008889289, 0.03719873, -0.9999925, 0.003471629, 44.78527
 40406331, 0.005396611, 0.005445369, -0.003117501, 0.07486238, 0.001907827, 0.00223014, -0.000881318, 0.03719873, -0.9999926, 0.003404831, 44.78527
 40606251, 0.005390641, 0.006047096, -0.003030287, 0.07486238, 0.001947546, 0.002181546, -0.00123199, 0.03719873, -0.9999928, 0.003340154, 44.78527
 40806171, 0.005438085, 0.006010172, -0.003447507, 0.07486238, 0.001631526, 0.002381988, -0.001136512, 0.03719873, -0.9999931, 0.003276701, 44.78527
 41006091, 0.005167216, 0.006238367, -0.003152705, 0.07486238, 0.001906655, 0.002157094, -0.001145461, 0.03719873, -0.9999932, 0.003214435, 44.78527
 41206011, 0.005524925, 0.006013099, -0.003123923, 0.07486238, 0.001872718, 0.001948104, -0.001250146, 0.03719873, -0.9999934, 0.003154818, 44.78527
 41405931, 0.0056383, 0.005619785, -0.003518243, 0.07486238, 0.002036934, 0.001929943, -0.001173674, 0.03719873, -0.9999936, 0.00309538, 44.78527
 41605851, 0.005722166, 0.005876226, -0.003323246, 0.07486238, 0.002246165, 0.002407731, -0.001001313, 0.03719873, -0.9999938, 0.00303768, 44.78527
 41805771, 0.005926963, 0.006392526, -0.003354917, 0.07486238, 0.002173533, 0.002073298, -0.00121433, 0.03719873, -0.9999939, 0.002981717, 44.78527
 42006524, 0.0057629, 0.005853411, -0.00323033, 0.07501738, 0.00218752, 0.002166697, -0.001148803, 0.03735372, -0.999994, 0.002926397, 44.87799
 42206444, 0.006016833, 0.006256111, -0.003085725, 0.07501738, 0.00210631, 0.002019377, -0.001034926, 0.03719873, -0.9999942, 0.002873522, 44.87799
 42406364, 0.005750871, 0.005839155, -0.003204047, 0.07486238, 0.00167255, 0.002048676, -0.001323365, 0.03719873, -0.9999944, 0.002822175, 44.78527
 42606284, 0.005444201, 0.005851952, -0.003455979, 0.07486238, 0.00199154, 0.002081226, -0.001257582, 0.03719873, -0.9999945, 0.002772345, 44.78527
 42806204, 0.005607589, 0.005938114, -0.00347273, 0.07486238, 0.001482436, 0.002194893, -0.001126849, 0.03719873, -0.9999946, 0.002694574, 44.78527
 43006124, 0.004973023, 0.006307377, -0.003440469, 0.07486238, 0.001845041, 0.002555975, -0.001047265, 0.03719873, -0.999995, 0.002582505, 44.78527
 43206044, 0.005547905, 0.00640273, -0.003328218, 0.07486238, 0.001821572, 0.002183409, -0.001110898, 0.03719873, -0.9999952, 0.002474257, 44.78527
 43405964, 0.005545198, 0.006122841, -0.003337828, 0.07486238, 0.00175588, 0.002307557, -0.001142767, 0.03719873, -0.9999956, 0.002369611, 44.78527
 43605884, 0.005435176, 0.0062946, -0.003150749, 0.07486238, 0.001607315, 0.002123654, -0.0009926008, 0.03719873, -0.9999958, 0.002267695, 44.78527
 43805804, 0.005146624, 0.00583781, -0.00305634, 0.07486238, 0.002014445, 0.002020815, -0.001187849, 0.03719873, -0.9999961, 0.002169044, 44.78527
 44006557, 0.005556054, 0.006057549, -0.003309756, 0.07501738, 0.002091679, 0.001986479, -0.001229051, 0.03735372, -0.9999962, 0.00207266, 44.87799
 44206477, 0.005797395, 0.005847746, -0.003437595, 0.07501738, 0.002134552, 0.002103863, -0.0009686968, 0.03719873, -0.9999964, 0.001979789, 44.87799
 44406397, 0.005929573, 0.005650812, -0.003047789, 0.07486238, 0.002301839, 0.001809957, -0.0007556157, 0.03719873, -0.9999967, 0.001890212, 44.78527
 44606317, 0.005930385, 0.005377252, -0.003018196, 0.07486238, 0.00219803, 0.002199237, -0.001527139, 0.03719873, -0.9999968, 0.001802349, 44.78527
 44806237, 0.005743217, 0.005689368, -0.003570104, 0.07486238, 0.001822015, 0.001918135, -0.001142897, 0.03719873, -0.9999969, 0.001717259, 44.78527
 45006157, 0.005204123, 0.005618559, -0.003314437, 0.07486238, 0.001680572, 0.002136318, -0.001309586, 0.03719873, -0.999997, 0.001634435, 44.78527
 45206077, 0.005299447, 0.005718119, -0.003253928, 0.07486238, 0.002149877, 0.00209766, -0.000806649, 0.03719873, -0.9999973, 0.00155381, 44.78527
 45405997, 0.005894709, 0.005870847, -0.00301606, 0.07486238, 0.001997611, 0.002044513, -0.001050881, 0.03719873, -0.9999974, 0.001475378, 44.78527
 45605917, 0.005275979, 0.005934557, -0.003146166, 0.07486238, 0.001740211, 0.002222315, -0.001525148, 0.03719873, -0.9999974, 0.001399156, 44.78527
 45805837, 0.00538902, 0.005884876, -0.003694011, 0.07486238, 0.002226473, 0.001898546, -0.001206984, 0.03719873, -0.9999975, 0.00132432, 44.78527
 46006590, 0.005936932, 0.005630109, -0.003412959, 0.07501738, 0.002001224, 0.002190081, -0.001220971, 0.03735372, -0.9999976, 0.001251193, 44.87799
 46206510, 0.005657061, 0.006068646, -0.003466414, 0.07501738, 0.001878009, 0.00181368, -0.001252001, 0.03719873, -0.9999976, 0.001180987, 44.87799
 46406430, 0.005488104, 0.005551428, -0.04040481, 0.07486238, 0.001977654, 0.002191714, -0.09259812, 0.03719873, -0.9999977, 0.001112845, 44.78527
 46606350, 0.007095456, 0.007233086, -0.7434698, 0.07486238, 0.002237068, 0.002348316, -0.1921645, 0.03719873, -0.9999979, 0.001045983, 44.78527
 46806270, 0.006240942, 0.00619478, -1.168501, 0.07486238, 0.001694754, 0.001712244, -0.921978, 0.03719873, -0.9999995, 0.0009039285, 44.78527
 47006190, 0.001696058, 0.001902732, -2.396859, 0.07486238, -0.0009503588, -0.0008531062, -0.6256521, 0.03719873, -0.9999994, 0.000709246, 44.78527
 47206110, -0.003724093, -0.003847739, -1.437169, 0.07486238, -0.001570064, -0.00212637, -0.3725111, 0.03719873, -0.999999, 0.0005138433, 44.78527
 47406030, -0.003938489, -0.005121061, -1.048303, 0.07486238, -0.001240104, -0.001478006, -0.3698772, 0.03719873, -0.999999, 0.00031263, 44.78527
 47605950, -0.002596656, -0.004421453, -1.020674, 0.07486238, -0.0004285699, -0.001673337, -0.3348107, 0.03719873, -0.9999989, 0.0001178026, 44.78527
 47805870, -0.000616973, -0.004185703, -0.8854264, 0.07486238, 7.556575E-05, -0.001098342, -0.276122, 0.03719873, -0.9999992, 2.237972E-06, 44.78527
 48005790, 0.0006763185, -0.002358793, -0.7314784, 0.07486238, 0.0004139139, -0.0005586006, -0.2295947, 0.03719873, -0.9999995, 0.0004211744, 44.78527
 48206543, 0.001722604, 0.0003287848, -0.6116679, 0.07501738, 0.0006372544, 0.00114923, -0.1927506, 0.03735372, -0.9999992, 0.001222671, 44.87799
 48406463, 0.002028532, 0.003968749, -0.5100017, 0.07501738, 0.0008685385, 0.001547414, -0.1593052, 0.03719873, -0.9999986, 0.001630963, 44.87799
 48606383, 0.002830492, 0.005256944, -0.4201697, 0.07486238, 0.001332732, 0.001919717, -0.1308005, 0.03719873, -0.9999989, 0.001320593, 44.78527
 48806303, 0.003197932, 0.00531513, 0.1583965, 0.07486238, 0.0008027136, 0.001769108, 0.40035, 0.03719873, -0.9999998, 0.0004282584, 44.78527
 49006223, 0.002775682, 0.004671379, 1.059922, 0.07486238, 0.001087276, 0.001702565, 0.332766, 0.03719873, -0.9999998, -0.0005517005, 44.78527
 49206143, 0.002791769, 0.004422018, 0.8889888, 0.07486238, 0.0007377165, 0.001244365, 0.283553, 0.03719873, -0.9999994, -0.001167414, 44.78527
 49406063, 0.002284136, 0.003408002, 0.7599264, 0.07486238, 0.0008963459, 0.0007395591, 0.2430872, 0.03719873, -0.9999986, -0.001654641, 44.78527
 49605983, 0.002281397, 0.002454092, 0.6533436, 0.07486238, 0.0004645583, 0.001255185, 0.2098339, 0.03719873, -0.9999976, -0.002122149, 44.78527
 49805903, 0.001471198, 0.00309595, 0.5657059, 0.07486238, 0.0002477347, 0.0008373708, 0.1825762, 0.03719873, -0.9999967, -0.002581577, 44.78527
 50005823, 0.001474088, 0.003767446, 0.4932312, 0.07486238, 0.0009952642, 0.001866765, 0.1597646, 0.03719873, -0.9999955, -0.003032632, 44.78527
 50206576, 0.003460344, 0.005368607, 1.030813, 0.07501738, 0.002384231, 0.002687412, 0.6197473, 0.03735372, -0.9999909, -0.003273516, 44.87799
 50406496, 0.01586179, 0.01270378, 1.539009, 0.07501738, 0.01245695, 0.00852479, 0.4249652, 0.03719873, -0.999936, -0.003284993, 44.87799
 50606416, 0.0573119, 0.03405318, 1.052523, 0.07486238, 0.0335261, 0.01776835, 0.2923266, 0.03719873, -0.9997566, -0.003084054, 44.78527
 50806336, 0.120299, 0.06209065, 0.7380502, 0.07486238, 0.05638692, 0.02826517, 0.2133845, 0.03719873, -0.9994722, -0.002720922, 44.78527
 51006256, 0.1835424, 0.09002616, 0.5493279, 0.07486238, 0.07738721, 0.0371018, 0.1625012, 0.03719873, -0.9991245, -0.002287808, 44.78527
 51206176, 0.2419242, 0.1142634, 0.4067829, 0.07486238, 0.09694393, 0.04498427, 0.1130596, 0.03719873, -0.9987569, -0.001843581, 44.78527
 51406096, 0.2948662, 0.1358495, 0.268894, 0.07486238, 0.114226, 0.0521428, 0.06667496, 0.03719873, -0.9984205, 0.006442897, 44.78527
 51606016, 0.3410776, 0.1546025, 0.144677, 0.07486238, 0.1288844, 0.05764114, 0.02718385, 0.03719873, -0.9944749, 0.09263565, 44.78527
 51805936, 0.3790972, 0.1687167, 0.04213996, 0.07486238, 0.1403046, 0.06192066, -0.003986087, 0.03719873, -0.9550579, 0.295822, 44.78527
 52005856, 0.4078651, 0.1767109, -0.03769681, 0.07486238, 0.1485713, 0.06243798, -0.0272941, 0.03719873, -0.8326164, 0.5528454, 44.78527
 52205776, 0.4286726, 0.1781718, -0.09823575, 0.07486238, 0.15436, 0.06343445, -0.04513768, 0.03719873, -0.6205537, 0.7785882, 44.78527
 52406529, 0.4455805, 0.1833323, -0.1443556, 0.07501738, 0.15962, 0.06636109, -0.05909473, 0.03735372, -0.3681151, 0.9179925, 44.87799
 52606449, 0.4578823, 0.1920551, -0.1800428, 0.07501738, 0.164352, 0.06945907, -0.07017128, 0.03719873, -0.138629, 0.971528, 44.87799
 52806369, 0.4690505, 0.198577, -0.207408, 0.07486238, 0.1649368, 0.06948718, -0.07696232, 0.03719873, 0.04856161, 0.9735596, 44.78527
 53006289, 0.4579985, 0.1908857, -0.2231033, 0.07486238, 0.1536451, 0.06257017, -0.07978613, 0.03719873, 0.2089341, 0.948573, 44.78527
 53206209, 0.4149339, 0.1647114, -0.2239937, 0.07486238, 0.132356, 0.04954586, -0.07612708, 0.03719873, 0.362442, 0.901143, 44.78527
 53406129, 0.3477847, 0.1246116, -0.2086267, 0.07486238, 0.1067463, 0.035592, -0.06873274, 0.03719873, 0.4809533, 0.8463885, 44.78527
 53606049, 0.2774566, 0.09205808, -0.1865692, 0.07486238, 0.08338505, 0.02719435, -0.06062766, 0.03719873, 0.5243774, 0.8219499, 44.78527
 53805969, 0.2122319, 0.06747481, -0.16342, 0.07486238, 0.06090178, 0.01873348, -0.05249782, 0.03719873, 0.4992952, 0.8383114, 44.78527
 54005889, 0.1485621, 0.04753798, -0.1405764, 0.07486238, 0.03841246, 0.01437871, -0.04510958, 0.03719873, 0.4333985, 0.8747964, 44.78527
 54205809, 0.08772793, 0.03881962, -0.1191598, 0.07486238, 0.01935607, 0.0121716, -0.03746893, 0.03719873, 0.3621442, 0.9072516, 44.78527
 54406562, 0.03649182, 0.02941788, -0.09954248, 0.07501738, 0.002497839, 0.005730375, -0.03134029, 0.03735372, 0.3179761, 0.924859, 44.87799
 54606482, -0.009685171, -0.001635228, -0.08067404, 0.07501738, -0.01199316, -0.009920844, -0.02403005, 0.03719873, 0.3141789, 0.9274692, 44.87799
 54806402, -0.05000631, -0.04349306, -0.06118384, 0.07486238, -0.0265694, -0.02362099, -0.01717401, 0.03719873, 0.3410901, 0.9191409, 44.78527
 55006322, -0.08863088, -0.07736971, -0.04228146, 0.07486238, -0.03906384, -0.03379009, -0.0109462, 0.03719873, 0.3781048, 0.9059187, 44.78527
 55206242, -0.1261437, -0.1111233, -0.02518308, 0.07486238, -0.05278943, -0.0469554, -0.004821235, 0.03719873, 0.4067476, 0.8954251, 44.78527
 55406162, -0.1605729, -0.1391165, -0.07237311, 0.07486238, -0.06807262, -0.05277682, -0.02090722, 0.03719873, 0.4176688, 0.892782, 44.78527
 55606082, -0.2119661, -0.1515061, -0.01982774, 0.07486238, -0.08212987, -0.05279813, 0.01132678, 0.03719873, 0.4105135, 0.8971038, 44.78527
 55806002, -0.2321889, -0.1444214, 0.04537899, 0.07486238, -0.07947476, -0.0470589, 0.02157363, 0.03719873, 0.3939496, 0.9033712, 44.78527
 56005922, -0.2162527, -0.1291183, 0.0644042, 0.07486238, -0.07121065, -0.04363639, 0.02313616, 0.03719873, 0.3789802, 0.908273, 44.78527
 56205842, -0.194497, -0.1258672, 0.06833682, 0.07486238, -0.06406714, -0.04679198, 0.02477381, 0.03719873, 0.3716787, 0.910276, 44.78527
 56405762, -0.1765013, -0.1436303, 0.07048609, 0.07486238, -0.05908384, -0.05657959, 0.02535317, 0.03719873, 0.3714462, 0.9099078, 44.78527
 56606515, -0.1627334, -0.1687512, 0.07296635, 0.07501738, -0.05487845, -0.0632094, 0.02731361, 0.03735372, 0.3731593, 0.9086733, 44.87799
 56806435, -0.14918, -0.1828734, 0.07824299, 0.07501738, -0.04956629, -0.06667254, 0.0285233, 0.03719873, 0.3713171, 0.9088043, 44.87799
 57006355, -0.137864, -0.1954786, 0.0848456, 0.07486238, -0.04621543, -0.07187336, 0.0317601, 0.03719873, 0.3628975, 0.9115663, 44.78527
 57206275, -0.1248666, -0.2073437, 0.09507682, 0.07486238, -0.04060786, -0.07420047, 0.03538564, 0.03719873, 0.3477793, 0.9162902, 44.78527
 57406195, -0.1112427, -0.2144385, 0.1074024, 0.07486238, -0.03695099, -0.07866772, 0.04076517, 0.03719873, 0.3279113, 0.9226538, 44.78527
 57606115, -0.09992214, -0.2331036, 0.1217546, 0.07486238, -0.03219508, -0.0872164, 0.04543678, 0.03719873, 0.3062735, 0.9291033, 44.78527
 57806035, -0.08736552, -0.2552189, 0.1363397, 0.07486238, -0.02853025, -0.0934172, 0.05168886, 0.03719873, 0.2844963, 0.9347547, 44.78527
 58005955, -0.07460824, -0.2713377, 0.1528617, 0.07486238, -0.02319148, -0.09955492, 0.05709568, 0.03719873, 0.2621375, 0.9398414, 44.78527
 58205875, -0.06345947, -0.294262, 0.168329, 0.07486238, -0.02079571, -0.1096533, 0.06325429, 0.03719873, 0.2384294, 0.9449533, 44.78527
 58405795, -0.05151349, -0.3163657, 0.1826152, 0.07486238, -0.01320803, -0.1127063, 0.06568783, 0.03719873, 0.2123956, 0.9483351, 44.78527
 58606548, -0.02842757, -0.3175741, 0.1864499, 0.07501738, -0.006029826, -0.1093875, 0.06489835, 0.03735372, 0.1827933, 0.9514078, 44.87799
 58806468, -0.005254176, -0.3004457, 0.1794001, 0.07501738, 0.006966166, -0.09944419, 0.05999557, 0.03719873, 0.1513079, 0.951374, 44.87799
 59006388, 0.04260886, -0.2671422, 0.1630041, 0.07486238, 0.0275314, -0.08519994, 0.0528074, 0.03719873, 0.1201236, 0.947991, 44.78527
 59206308, 0.1017078, -0.2253018, 0.1405507, 0.07486238, 0.0482836, -0.06974505, 0.04470097, 0.03719873, 0.09158646, 0.9424423, 44.78527
 59406228, 0.1584392, -0.1822339, 0.1171622, 0.07486238, 0.06716546, -0.05505259, 0.0356386, 0.03719873, 0.06715553, 0.9353043, 44.78527
 59606148, 0.2093994, -0.140647, 0.09344725, 0.07486238, 0.08376745, -0.04072181, 0.02855469, 0.03719873, 0.04699161, 0.9270412, 44.78527
 59806068, 0.2558685, -0.1018378, 0.07240384, 0.07486238, 0.1002643, -0.02949969, 0.02091239, 0.03719873, 0.030633, 0.9175396, 44.78527
 60005988, 0.2952808, -0.07754563, 0.05029247, 0.07486238, 0.1076962, -0.02368045, 0.01260856, 0.03719873, 0.0177683, 0.9099076, 44.78527
 60205908, 0.2997066, -0.05986377, 0.02792376, 0.07486238, 0.1005482, -0.01652688, 0.006048065, 0.03719873, 0.008072997, 0.9061361, 44.78527
 60405828, 0.2774674, -0.03654701, 0.01193326, 0.07486238, 0.09310381, -0.007350588, 0.001145379, 0.03719873, 0.0008002184, 0.9022366, 44.78527
 60606581, 0.2550643, -0.008352321, -0.002049797, 0.07501738, 0.08470688, 0.004228273, -0.003580023, 0.03735372, -0.005067879, 0.8987225, 44.87799
 60806501, 0.2241544, 0.02620761, -0.01658181, 0.07501738, 0.06890459, 0.01756614, -0.009126615, 0.03719873, -0.01025614, 0.8979383, 44.87799
 61006421, 0.1735521, 0.06440746, -0.02972781, 0.07486238, 0.0486658, 0.02963933, -0.01160474, 0.03719873, -0.01498696, 0.8985649, 44.78527
 61206341, 0.1172229, 0.09397251, -0.03500489, 0.07486238, 0.02965632, 0.03734903, -0.01265507, 0.03719873, -0.01858265, 0.8992683, 44.78527
 61406261, 0.0641425, 0.1084101, -0.0336417, 0.07486238, 0.01213324, 0.03925242, -0.01093717, 0.03719873, -0.02076026, 0.8997759, 44.78527
 61606181, 0.01752611, 0.1122252, -0.02912753, 0.07486238, -0.002798223, 0.04007821, -0.009358258, 0.03719873, -0.02203017, 0.90005, 44.78527
 61806101, -0.02254358, 0.1119294, -0.02393443, 0.07486238, -0.01616634, 0.03833524, -0.007063784, 0.03719873, -0.02248386, 0.9001991, 44.78527
 62006021, -0.06014404, 0.1068625, -0.01884972, 0.07486238, -0.03050508, 0.03692133, -0.005585885, 0.03719873, -0.02259476, 0.9016953, 44.78527
 62205941, -0.1051435, 0.1026215, -0.01432148, 0.07486238, -0.04828174, 0.03511822, -0.003779166, 0.03719873, -0.02327795, 0.9045158, 44.78527
 62405861, -0.1550095, 0.09964347, -0.008109696, 0.07486238, -0.06383188, 0.03462633, -0.000835871, 0.03719873, -0.02464179, 0.9073407, 44.78527
 62605781, -0.1898088, 0.09847578, -0.0003019865, 0.07486238, -0.06960806, 0.03465064, 0.001587361, 0.03719873, -0.02648204, 0.9071878, 44.78527
 62806534, -0.194118, 0.09855415, 0.00433756, 0.07501738, -0.0667564, 0.03430392, 0.001303985, 0.03735372, -0.02822434, 0.9053089, 44.87799
 63006454, -0.1848929, 0.09549757, 0.003672088, 0.07501738, -0.06307635, 0.03284062, 0.0006705354, 0.03719873, -0.02971798, 0.9037845, 44.87799
 63206374, -0.1803793, 0.09209578, 0.002202226, 0.07486238, -0.06358906, 0.03162308, 0.001040996, 0.03719873, -0.03073169, 0.9029323, 44.78527
 63406294, -0.1787978, 0.08920907, 0.002587233, 0.07486238, -0.06217352, 0.03066763, 0.0003463027, 0.03719873, -0.03132782, 0.9019103, 44.78527
 63606214, -0.1772733, 0.08696357, 0.002532131, 0.07486238, -0.06274217, 0.03058696, 0.0008454849, 0.03719873, -0.03203624, 0.9013427, 44.78527
 63806134, -0.1781548, 0.08626474, 0.002162827, 0.07486238, -0.0627467, 0.02984593, 0.0005129966, 0.03719873, -0.03280965, 0.9008979, 44.78527
 64006054, -0.177156, 0.08388579, 0.003127947, 0.07486238, -0.06153139, 0.0291348, 0.001082289, 0.03719873, -0.03350504, 0.900079, 44.78527
 64205974, -0.1755501, 0.08151744, 0.003579753, 0.07486238, -0.06206676, 0.02806786, 0.00122036, 0.03719873, -0.03414328, 0.8999124, 44.78527
 64405894, -0.1784621, 0.07926656, 0.003447243, 0.07486238, -0.0641759, 0.02718455, 0.002085591, 0.03719873, -0.0345883, 0.9003362, 44.78527
 64605814, -0.181198, 0.07567331, 0.005138214, 0.07486238, -0.06261846, 0.0256559, 0.001965864, 0.03719873, -0.03483118, 0.8997613, 44.78527
 64806567, -0.1750656, 0.07324659, 0.005307834, 0.07501738, -0.06002779, 0.02547646, 0.001467732, 0.03735372, -0.03494092, 0.8991321, 44.87799
 65006487, -0.1690824, 0.07226796, 0.004385881, 0.07501738, -0.05823183, 0.02509557, 0.001608968, 0.03719873, -0.03506768, 0.8984669, 44.87799
 65206407, -0.1628129, 0.07038655, 0.003491403, 0.07486238, -0.05648356, 0.02470967, 0.000660632, 0.03719873, -0.03537367, 0.8982092, 44.78527
 65406327, -0.1574926, 0.06970735, 0.002418174, 0.07486238, -0.05327388, 0.02409545, 0.000910888, 0.03719873, -0.03559314, 0.897104, 44.78527
 65606247, -0.1454887, 0.0672067, 0.002511484, 0.07486238, -0.04819137, 0.02314357, 0.0008671439, 0.03719873, -0.03577549, 0.895646, 44.78527
 65806167, -0.1326264, 0.0648848, 0.002403037, 0.07486238, -0.04468522, 0.02259001, 0.001044363, 0.03719873, -0.03594739, 0.8945649, 44.78527
 66006087, -0.1236362, 0.06321979, 0.001906717, 0.07486238, -0.04172625, 0.02221753, 8.314382E-05, 0.03719873, -0.03614986, 0.8936647, 44.78527
 66206007, -0.1176557, 0.06262355, 0.0005580947, 0.07486238, -0.040637, 0.02174067, -9.200586E-05, 0.03719873, -0.03645075, 0.8933055, 44.78527
 66405927, -0.1143818, 0.06101768, -0.0007590546, 0.07486238, -0.03988093, 0.02117709, -0.0009083593, 0.03719873, -0.0366953, 0.8931798, 44.78527
 66605847, -0.1112776, 0.05912495, -0.0007818098, 0.07486238, -0.03739346, 0.02040436, -3.060547E-05, 0.03719873, -0.03663718, 0.89222, 44.78527
 66805767, -0.1025004, 0.05758241, -0.0001071537, 0.07486238, -0.03368887, 0.0201089, 0.0001954083, 0.03719873, -0.03646339, 0.8908117, 44.78527
 67006520, -0.09091784, 0.05662461, 0.00103714, 0.07501738, -0.02913403, 0.01991655, 0.001011778, 0.03735372, -0.03645889, 0.8892848, 44.87799
 67206440, -0.07728198, 0.05511235, 0.0003476001, 0.07501738, -0.02502731, 0.01880314, -0.0007633957, 0.03719873, -0.03665393, 0.8879168, 44.87799
 67406360, -0.06974124, 0.05355291, -0.001942771, 0.07486238, -0.02314684, 0.01862456, -0.0005693006, 0.03719873, -0.03682627, 0.8870119, 44.78527
 67606280, -0.06428507, 0.05226161, -0.0007936128, 0.07486238, -0.02156653, 0.01797397, -0.0001025195, 0.03719873, -0.03698834, 0.8860343, 44.78527
 67806200, -0.06014082, 0.05068772, -0.001380823, 0.07486238, -0.02076261, 0.01761698, -0.0001993097, 0.03719873, -0.03704154, 0.8855976, 44.78527
 68006120, -0.05921107, 0.04985934, -0.00176968, 0.07486238, -0.02081056, 0.01739499, -0.001093104, 0.03719873, -0.03704908, 0.8852109, 44.78527
 68206040, -0.05812968, 0.04827742, -0.002354111, 0.07486238, -0.02006549, 0.01693073, -0.0007583898, 0.03719873, -0.03680814, 0.884635, 44.78527
 68405960, -0.05609994, 0.04688762, -0.001822286, 0.07486238, -0.01946328, 0.01610497, -0.0003931046, 0.03719873, -0.03646592, 0.8841748, 44.78527
 68605880, -0.05646945, 0.04483887, -0.002066344, 0.07486238, -0.01998715, 0.0154628, -0.0005490275, 0.03719873, -0.03659676, 0.8841929, 44.78527
 68805800, -0.05595678, 0.04334773, -0.001707528, 0.07486238, -0.01915693, 0.01517782, -0.0002258279, 0.03719873, -0.03676819, 0.8836627, 44.78527
 69006553, -0.05342568, 0.04257964, -0.001494659, 0.07501738, -0.01832815, 0.01492143, -0.000982097, 0.03735372, -0.03692088, 0.8832181, 44.87799
 69206473, -0.05156827, 0.04226334, -0.002384174, 0.07501738, -0.01771636, 0.01495881, -0.0005608115, 0.03719873, -0.03704415, 0.8828233, 44.87799
 69406393, -0.05085391, 0.04236635, -0.002340798, 0.07486238, -0.01827817, 0.01496415, -0.001033532, 0.03719873, -0.03713559, 0.8829569, 44.78527
 69606313, -0.05101648, 0.04103556, -0.00228897, 0.07486238, -0.01723299, 0.01373415, -0.0005854577, 0.03719873, -0.03676908, 0.882499, 44.78527
 69806233, -0.04799658, 0.03810337, -0.001759711, 0.07486238, -0.01665652, 0.01296649, -0.0007340987, 0.03719873, -0.03601381, 0.8822272, 44.78527
 70006153, -0.04711227, 0.03627229, -0.002182583, 0.07486238, -0.01663931, 0.0123919, -0.0005137605, 0.03719873, -0.03573282, 0.8822465, 44.78527
 70206073, -0.04651828, 0.03474205, -0.00170995, 0.07486238, -0.01508953, 0.01201702, -0.0004507836, 0.03719873, -0.03584896, 0.8815506, 44.78527
 70405993, -0.04107293, 0.03346353, -0.001787488, 0.07486238, -0.01357002, 0.01141497, -0.001274887, 0.03719873, -0.0360035, 0.8810857, 44.78527
 70605913, -0.03887245, 0.03204522, -0.002885446, 0.07486238, -0.01443868, 0.01084684, -0.0007209694, 0.03719873, -0.03601421, 0.8812184, 44.78527
 70805833, -0.039499, 0.0304858, -0.001806627, 0.07486238, -0.01301108, 0.01042781, -0.0004172932, 0.03719873, -0.03589195, 0.8807465, 44.78527
 71006586, -0.03549979, 0.02897123, -0.001913151, 0.07501738, -0.01198753, 0.01010022, -0.0005222019, 0.03735372, -0.03571272, 0.8803538, 44.87799
 71206506, -0.03454512, 0.02771098, -0.002126253, 0.07501738, -0.01225614, 0.009353245, -0.0005232744, 0.03719873, -0.03559293, 0.8805401, 44.87799
 71406426, -0.03407984, 0.02603829, -0.001758092, 0.07486238, -0.01167546, 0.0087666, -0.0008245447, 0.03719873, -0.03553845, 0.8805111, 44.78527
 71606346, -0.0329926, 0.02441984, -0.003017968, 0.07486238, -0.01125734, 0.008106803, -0.001118536, 0.03719873, -0.03562758, 0.8801752, 44.78527
 71806266, -0.02936975, 0.02229531, -0.002615862, 0.07486238, -0.008841187, 0.007551567, -0.0005910081, 0.03719873, -0.03564379, 0.8794088, 44.78527
 72006186, -0.0221021, 0.02156569, -0.002306683, 0.07486238, -0.006019803, 0.007523878, -0.001624994, 0.03719873, -0.03553002, 0.8785835, 44.78527
 72206106, -0.01025506, 0.02162609, -0.003309862, 0.07486238, 0.005152224, 0.007501845, 0.001435103, 0.03719873, -0.03518472, 0.873246, 44.78527
 72406026, 0.03966406, 0.0201313, -0.001000031, 0.07486238, 0.02441814, 0.006313027, -0.0030946, 0.03719873, -0.03488598, 0.8671377, 44.78527
 72605946, 0.07466281, 0.01703417, -0.01181757, 0.07486238, 0.02799699, 0.005622756, -0.00573048, 0.03719873, -0.03485763, 0.8650826, 44.78527
 72805866, 0.07797668, 0.01664097, -0.01610092, 0.07486238, 0.02632521, 0.006255489, -0.006019636, 0.03719873, -0.03490251, 0.8641888, 44.78527
 73005786, 0.07005173, 0.0181746, -0.01554821, 0.07486238, 0.02170657, 0.006739071, -0.004633826, 0.03719873, -0.03498256, 0.863949, 44.78527
 73206539, 0.05367466, 0.01925878, -0.004584771, 0.07501738, 0.0150724, 0.007136215, 0.001143498, 0.03735372, -0.034991, 0.8640622, 44.87799
 73406459, -0.03872673, 0.02070676, -0.02498437, 0.07501738, -0.1267927, 0.009646918, -0.05213891, 0.03719873, -0.0366971, 0.9328516, 44.87799
 73606379, -0.8331655, 0.0422581, -0.1559579, 0.07486238, -0.4824802, 0.02086754, -0.02067687, 0.03719873, -0.03874022, 0.9954051, 44.78527
 73806299, -1.382471, 0.05905964, 0.009894501, 0.07486238, -0.4737288, 0.02029878, 0.02999672, 0.03719873, -0.03946203, 0.9986631, 44.78527
 74006219, -1.26413, 0.05398153, 0.08743702, 0.07486238, -0.3979215, 0.01673898, 0.02904689, 0.03719873, -0.04013377, 0.9984434, 44.78527
 74206139, -1.048315, 0.04454992, 0.07212184, 0.07486238, -0.3245635, 0.01422138, 0.01974117, 0.03719873, -0.04034245, 0.9977436, 44.78527
 74406059, -0.8514898, 0.03716108, 0.04415824, 0.07486238, -0.2617703, 0.0111213, 0.0103349, 0.03719873, -0.04026203, 0.9969294, 44.78527
 74605979, -0.6860965, 0.02934067, 0.0181734, 0.07486238, -0.2103278, 0.009073571, 0.001030166, 0.03719873, -0.0398564, 0.9961531, 44.78527
 74805899, -0.5499261, 0.02340547, -0.006567127, 0.07486238, -0.1677967, 0.006992929, -0.007482967, 0.03719873, -0.0392822, 0.9954628, 44.78527
 75005819, -0.4365617, 0.01791026, -0.02796935, 0.07486238, -0.1321717, 0.005284697, -0.01335936, 0.03719873, -0.03864888, 0.9948472, 44.78527
 75206572, -0.3423744, 0.01397713, -0.04301048, 0.07501738, -0.1023171, 0.004145478, -0.01737715, 0.03735372, -0.03793763, 0.994343, 44.87799
 75406492, -0.2612416, 0.01041424, -0.05456825, 0.07501738, -0.07631087, 0.002727462, -0.02200428, 0.03719873, -0.03716171, 0.9939385, 44.87799
 75606412, -0.1928061, 0.006503294, -0.06480948, 0.07486238, -0.05492234, 0.001495181, -0.02437133, 0.03719873, -0.03625254, 0.9935982, 44.78527
 75806332, -0.13523, 0.003011286, -0.06761079, 0.07486238, -0.03642448, 0.0001914565, -0.02266347, 0.03719873, -0.03520564, 0.9933398, 44.78527
 76006252, -0.08530909, 0.0002427918, -0.0700499, 0.07486238, -0.01944525, 6.553726E-05, -0.03342335, 0.03719873, -0.03398266, 0.9930266, 44.78527
 76206172, -0.02485129, -0.001698695, -0.1839022, 0.07486238, 0.008704502, -0.001537184, -0.107284, 0.03719873, -0.03223125, 0.9919114, 44.78527
 76406092, 0.05282401, -0.006188897, -0.3041787, 0.07486238, 0.03304595, -0.002944065, -0.09693458, 0.03719873, -0.02920822, 0.990226, 44.78527
 76606012, 0.1138664, -0.009736966, -0.2287085, 0.07486238, 0.04983414, -0.004015786, -0.05367162, 0.03719873, -0.02502155, 0.9886934, 44.78527
 76805932, 0.1522919, -0.01208235, -0.1061602, 0.07486238, 0.05864563, -0.00467627, -0.01251194, 0.03719873, -0.02084079, 0.9877961, 44.78527
 77005852, 0.1696928, -0.01336174, 0.004220921, 0.07486238, 0.06124445, -0.004869603, 0.02110145, 0.03719873, -0.01794388, 0.9875489, 44.78527
 77205772, 0.1737304, -0.01377283, 0.08634867, 0.07486238, 0.06077813, -0.005037111, 0.04262508, 0.03719873, -0.01692945, 0.9877272, 44.78527
 77406525, 0.1718113, -0.01381244, 0.1430641, 0.07501738, 0.05921689, -0.004824129, 0.06478477, 0.03735372, -0.0172447, 0.9880899, 44.87799
 77606445, 0.1640545, -0.01302622, 0.2173796, 0.07501738, 0.05593339, -0.004402769, 0.09127609, 0.03719873, -0.01797667, 0.9885424, 44.87799
 77806365, 0.1556848, -0.0125894, 0.2762012, 0.07486238, 0.05305386, -0.004412451, 0.1048618, 0.03719873, -0.01832004, 0.9890198, 44.78527
 78006285, 0.1480498, -0.01251726, 0.3214855, 0.07486238, 0.05063155, -0.004499691, 0.1253755, 0.03719873, -0.01795078, 0.9895086, 44.78527
 78206205, 0.1409983, -0.01220619, 0.3680386, 0.07486238, 0.04832876, -0.004311456, 0.1348101, 0.03719873, -0.01697349, 0.9900043, 44.78527
 78406125, 0.135217, -0.01241798, 0.3930645, 0.07486238, 0.04622214, -0.004407864, 0.1428965, 0.03719873, -0.01584709, 0.9905175, 44.78527
 78606045, 0.1295336, -0.01208069, 0.417783, 0.07486238, 0.04430444, -0.004165122, 0.1538637, 0.03719873, -0.01486615, 0.9910135, 44.78527
 78805965, 0.1237636, -0.01185026, 0.4447363, 0.07486238, 0.04296529, -0.004167331, 0.1547665, 0.03719873, -0.01424463, 0.9915124, 44.78527
 79005885, 0.1242291, -0.0120013, 0.4103243, 0.07486238, 0.04476199, -0.004257427, 0.1257438, 0.03719873, -0.01378577, 0.9919606, 44.78527
 79205805, 0.1296178, -0.01285856, 0.3237525, 0.07486238, 0.04688746, -0.004950778, 0.09403348, 0.03719873, -0.01331354, 0.9924221, 44.78527
 79406558, 0.1353525, -0.0139523, 0.2341947, 0.07501738, 0.04863111, -0.005243012, 0.06183053, 0.03735372, -0.01295503, 0.9928843, 44.87799
 79606478, 0.1393544, -0.01444095, 0.1383289, 0.07501738, 0.04989488, -0.004916083, 0.02694452, 0.03719873, -0.01260773, 0.993342, 44.87799
 79806398, 0.1431216, -0.014435, 0.04339566, 0.07486238, 0.05142542, -0.005420194, -0.002700768, 0.03719873, -0.01218463, 0.9937739, 44.78527
 80006318, 0.1450127, -0.01471068, -0.02818447, 0.07486238, 0.05092815, -0.005165967, -0.02102008, 0.03719873, -0.01168596, 0.9942044, 44.78527
 80206238, 0.1436349, -0.01480634, -0.07407904, 0.07486238, 0.04984673, -0.005288827, -0.0336621, 0.03719873, -0.01112071, 0.9946176, 44.78527
 80406158, 0.140344, -0.01460646, -0.106017, 0.07486238, 0.04866382, -0.00500272, -0.04220246, 0.03719873, -0.01052313, 0.9950294, 44.78527
 80606078, 0.1360844, -0.01450374, -0.1266075, 0.07486238, 0.0468045, -0.005313389, -0.04701877, 0.03719873, -0.009909316, 0.9954481, 44.78527
 80805998, 0.1302985, -0.01499095, -0.1360975, 0.07486238, 0.04437431, -0.005279527, -0.04790815, 0.03719873, -0.009262598, 0.9958513, 44.78527
 81005918, 0.1230389, -0.01479645, -0.1322034, 0.07486238, 0.04167502, -0.005029071, -0.04458488, 0.03719873, -0.008643837, 0.9962325, 44.78527
 81205838, 0.1162151, -0.01420094, -0.1231593, 0.07486238, 0.03967953, -0.004875776, -0.04031709, 0.03719873, -0.008038084, 0.9965633, 44.78527
 81406591, 0.1107057, -0.01402143, -0.107492, 0.07501738, 0.037849, -0.005089714, -0.0333693, 0.03735372, -0.007516576, 0.9968698, 44.87799
 81606511, 0.1046265, -0.01366054, -0.08696592, 0.07501738, 0.03512906, -0.004382711, -0.026707, 0.03719873, -0.007017073, 0.9971596, 44.87799
 81806431, 0.0978252, -0.01241606, -0.06656101, 0.07486238, 0.03324923, -0.00427986, -0.01854241, 0.03719873, -0.006455156, 0.9974352, 44.78527
 82006351, 0.09251663, -0.01218786, -0.0465754, 0.07486238, 0.03155154, -0.00443617, -0.01349988, 0.03719873, -0.005829006, 0.9976786, 44.78527
 82206271, 0.08735821, -0.01178123, -0.03028911, 0.07486238, 0.02947398, -0.003864832, -0.006761081, 0.03719873, -0.005157521, 0.9979319, 44.78527
 82406191, 0.08201875, -0.01147765, -0.01375857, 0.07486238, 0.02813365, -0.004061216, -0.002064135, 0.03719873, -0.004531139, 0.9981544, 44.78527
 82606111, 0.0781423, -0.01153299, -0.0004360334, 0.07486238, 0.0268411, -0.004095277, 0.001785132, 0.03719873, -0.003916838, 0.9983283, 44.78527
 82806031, 0.07501289, -0.0110071, 0.009889198, 0.07486238, 0.02574489, -0.003852761, 0.004868252, 0.03719873, -0.003325861, 0.9985161, 44.78527
 83005951, 0.07152822, -0.01038887, 0.01668527, 0.07486238, 0.02450443, -0.00359034, 0.007425613, 0.03719873, -0.002774241, 0.9986797, 44.78527
 83205871, 0.06869954, -0.009992037, 0.02094894, 0.07486238, 0.02361455, -0.003433814, 0.007035876, 0.03719873, -0.002244791, 0.9988333, 44.78527
 83405791, 0.06610098, -0.009850466, 0.01943943, 0.07486238, 0.02287631, -0.003558318, 0.006545292, 0.03719873, -0.001714141, 0.9989616, 44.78527
 83606544, 0.06459004, -0.01018131, 0.01788116, 0.07501738, 0.02230397, -0.003694934, 0.006079665, 0.03735372, -0.001189843, 0.9990762, 44.87799
 83806464, 0.0627159, -0.009990687, 0.01662922, 0.07501738, 0.02163815, -0.003681611, 0.005492178, 0.03719873, -0.0006831094, 0.999182, 44.87799
 84006384, 0.06117661, -0.00988335, 0.01496194, 0.07486238, 0.02133216, -0.003432522, 0.005067775, 0.03719873, -0.0001786515, 0.9992794, 44.78527
 84206304, 0.06000352, -0.008497038, 0.0104441, 0.07486238, 0.02103779, -0.002385596, 0.001168319, 0.03719873, 0.0004675466, 0.9993634, 44.78527
 84406224, 0.05936055, -0.00708657, 0.002848083, 0.07486238, 0.02083951, -0.002737476, 0.0009396466, 0.03719873, 0.001205006, 0.9994332, 44.78527
 84606144, 0.05883514, -0.007379062, -0.001087465, 0.07486238, 0.02051831, -0.0023207, -0.002807996, 0.03719873, 0.001825135, 0.9995021, 44.78527
 84806064, 0.05818031, -0.006674279, -0.008221076, 0.07486238, 0.02048602, -0.002420041, -0.0029642, 0.03719873, 0.002374236, 0.9995613, 44.78527
 85005984, 0.05733724, -0.00694837, -0.007962665, 0.07486238, 0.01958315, -0.002739134, -0.002719674, 0.03719873, 0.002910447, 0.9996157, 44.78527
 85205904, 0.05627693, -0.007285256, -0.007932475, 0.07486238, 0.01987815, -0.002794493, -0.002657505, 0.03719873, 0.003433974, 0.9996652, 44.78527
 85405824, 0.05616943, -0.007616141, -0.007571249, 0.07486238, 0.01951766, -0.002406614, -0.002960745, 0.03719873, 0.003944912, 0.9997101, 44.78527
 85606577, 0.05547793, -0.007066133, -0.007655295, 0.07501738, 0.01947631, -0.002272124, -0.002248426, 0.03735372, 0.00446123, 0.9997509, 44.87799
 85806497, 0.054508, -0.006328222, -0.009571744, 0.07501738, 0.01874308, -0.001880016, -0.005316749, 0.03719873, 0.004971961, 0.999787, 44.87799
 86006417, 0.05371596, -0.005319684, -0.01491374, 0.07486238, 0.01894272, -0.00168769, -0.005904538, 0.03719873, 0.005436826, 0.9998145, 44.78527
 86206337, 0.05376994, -0.005179428, -0.0160726, 0.07486238, 0.01897841, -0.002036424, -0.00523184, 0.03719873, 0.005936338, 0.9998364, 44.78527
 86406257, 0.05393575, -0.00540482, -0.01507147, 0.07486238, 0.01900404, -0.001963675, -0.005063888, 0.03719873, 0.006419918, 0.9998561, 44.78527
 86606177, 0.0537805, -0.005591967, -0.01406967, 0.07486238, 0.01897065, -0.001583208, -0.004431868, 0.03719873, 0.006897751, 0.9998745, 44.78527
 86806097, 0.05372641, -0.004681682, -0.01127518, 0.07486238, 0.01894462, -0.001445825, -0.003156204, 0.03719873, 0.007787956, 0.9998869, 44.78527
 87006017, 0.0540899, -0.003734663, -0.008906208, 0.07486238, 0.01923427, -0.00107359, -0.002878463, 0.03719873, 0.008640368, 0.9998946, 44.78527
 87205937, 0.0546893, -0.003113834, -0.006905569, 0.07486238, 0.01926732, -0.0007660876, -0.001245967, 0.03719873, 0.009092491, 0.9999032, 44.78527
 87405857, 0.05513879, -0.00232121, -0.002751346, 0.07486238, 0.01928732, -0.0007975126, -0.0007680597, 0.03719873, 0.00936057, 0.9999141, 44.78527
 87605777, 0.054801, -0.001897537, -0.002364764, 0.07486238, 0.0194098, -0.0005225054, -0.0009426589, 0.03719873, 0.009617186, 0.9999231, 44.78527
 87806530, 0.05533702, -0.001247442, -0.002715447, 0.07501738, 0.01946312, -0.0003680698, -0.001329919, 0.03735372, 0.009862281, 0.9999297, 44.87799
 88006450, 0.05607207, -0.001161927, -0.002561074, 0.07501738, 0.02021997, -0.0005276412, -0.0007759828, 0.03719873, 0.01012838, 0.9999304, 44.87799
 88206370, 0.05839103, -0.001502347, -0.002327259, 0.07486238, 0.02120133, -0.0007122146, -0.001049599, 0.03719873, 0.01039242, 0.9999301, 44.78527
 88406290, 0.06093576, -0.001860333, -0.002596872, 0.07486238, 0.02161677, -0.0006469155, -0.0007010979, 0.03719873, 0.01064756, 0.9999299, 44.78527
 88606210, 0.06245448, -0.002372309, -0.002406777, 0.07486238, 0.0227653, -0.0008986781, -0.001024683, 0.03719873, 0.01090233, 0.9999295, 44.78527
 88806130, 0.06479196, -0.00290577, -0.00462575, 0.07486238, 0.02310039, -0.001163158, -0.001819477, 0.03719873, 0.01162409, 0.9999238, 44.78527
 89006050, 0.06602518, -0.003322321, -0.004034327, 0.07486238, 0.02343475, -0.001320941, -0.001059333, 0.03719873, 0.01287125, 0.9999106, 44.78527
 89205970, 0.06703728, -0.003912178, -0.003421909, 0.07486238, 0.02381804, -0.001410209, -0.001505691, 0.03719873, 0.01398889, 0.999898, 44.78527
 89405890, 0.06763598, -0.004135571, -0.005346753, 0.07486238, 0.02397784, -0.001495467, -0.001963437, 0.03719873, 0.01433444, 0.9998948, 44.78527
 89605810, 0.0681918, -0.003668942, -0.004478136, 0.07486238, 0.02408348, -0.001291903, -0.0009222442, 0.03719873, 0.0139089, 0.9999018, 44.78527
 89806563, 0.06925349, -0.003211236, -0.00251924, 0.07501738, 0.02454294, -0.001032811, -0.000910107, 0.03735372, 0.01338651, 0.9999095, 44.87799
 90006483, 0.06995165, -0.002099904, -0.002578118, 0.07501738, 0.02505839, -0.0003164174, -0.001084503, 0.03719873, 0.0128689, 0.9999168, 44.87799
