TimeUS,CGpN,CGpE,CGpD,CGpe,PGpN,PGpE,PGpD,PGpe
 8040949, 0, 0, 0, 2.5, 0, 0, 0, 0
 8220877, 0, 0, 0, 2.5, 0, 0, 0, 2.5
 8420797, 0, 0, 0, 2.5, 0, 0, 0, 2.5
 8620717, 0, 0, 0, 2.5, 0, 0, 0, 2.5
 8820637, 0, 0, 0, 2.5, 0, 0, 0, 2.5
 9020557, 0, 0, 0, 2.5, 0, 0, 0, 2.5
 9220477, 0, 0, 0, 2.5, 0, 0, 0, 2.5
 9420397, 0, 0, 0, 2.5, 0, 0, 0, 2.5
 9620317, 0, 0, 0, 2.5, 0, 0, 0, 2.5
 9820237, 0, 0, 0, 2.5, 0, 0, 0, 2.5
 10020157, 0, 0, 0, 2.5, 0, 0, 0, 2.5
 10220910, 0, 0, 0, 2.5, 0, 0, 0, 2.5
 10420830, 0, 0, 0, 2.5, 0, 0, 0, 2.5
 10620750, 0, 0, 0, 2.5, 0, 0, 0, 2.5
 10820670, 0, 0, 0, 2.5, 0, 0, 0, 2.5
 11020590, 0, 0, 0, 2.5, 0, 0, 0, 2.5
 11220510, 0, 0, 0, 2.5, 0, 0, 0, 2.5
 11420430, 0, 0, 0, 2.5, 0, 0, 0, 2.5
 11620350, 0, 0, 0, 2.5, 0, 0, 0, 2.5
 11820270, 0, 0, 0, 2.5, 0, 0, 0, 2.5
 12020190, 0, 0, 0, 2.5, 0, 0, 0, 2.5
 12220943, 0, 0, 0, 2.5, 0, 0, 0, 2.5
 12420863, 0, 0, 0, 2.5, 0, 0, 0, 2.5
 12620783, 0, 0, 0, 2.5, 0, 0, 0, 2.5
 12820703, 0, 0, 0, 2.5, 0, 0, 0, 2.5
 13020623, 0, 0, 0, 2.5, 0, 0, 0, 2.5
 13220543, 0, 0, 0, 2.5, 0, 0, 0, 2.5
 13420463, 0, 0, 0, 2.5, 0, 0, 0, 2.5
 13620383, 0, 0, 0, 2.5, 0, 0, 0, 2.5
 13820303, 0, 0, 0, 2.5, 0, 0, 0, 2.5
 14020223, 0, 0, 0, 2.5, 0, 0, 0, 2.5
 14220976, 0, 0, 0, 2.5, 0, 0, 0, 2.5
 14420896, 0, 0, 0, 2.5, 0, 0, 0, 2.5
 14620816, 0, 0, 0, 2.5, 0, 0, 0, 2.5
 14820736, 0, 0, 0, 2.5, 0, 0, 0, 2.5
 15020656, 0, 0, 0, 2.5, 0, 0, 0, 2.5
 15220576, 0, 0, 0, 2.5, 0, 0, 0, 2.5
 15420496, 0, 0, 0, 2.5, 0, 0, 0, 2.5
 15620416, 0, 0, 0, 2.5, 0, 0, 0, 2.5
 15820336, 0, 0, 0, 2.5, 0, 0, 0, 2.5
 16020256, 0, 0, 0, 2.5, 0, 0, 0, 2.5
 16220176, 0, 0, 0, 2.5, 0, 0, 0, 2.5
 16420929, 0, 0, 0, 2.5, 0, 0, 0, 2.5
 16620849, 0, 0, 0, 2.5, 0, 0, 0, 2.5
 16820769, 0, 0, 0, 2.5, 0, 0, 0, 2.5
 17020689, 0, 0, 0, 2.5, 0, 0, 0, 2.5
 17220609, 0, 0, 0, 2.5, 0, 0, 0, 2.5
 17420529, 0, 0, 0, 2.5, 0, 0, 0, 2.5
 17620449, 0, 0, 0, 2.5, 0, 0, 0, 2.5
 17820369, 0, 0, 0, 2.5, 0, 0, 0, 2.5
 18020289, 0, 0, 0, 2.5, 0, 0, 0, 2.5
 18220209, 0, 0, 0, 2.5, 0, 0, 0, 2.5
 18420962, 0, 0, 0, 2.5, 0, 0, 0, 2.5
 18620882, 0, 0, 0, 2.5, 0, 0, 0, 2.5
 18820802, 0, 0, 0, 2.5, 0, 0, 0, 2.5
 19020722, 0, 0, 0, 2.5, 0, 0, 0, 2.5
 19220642, 0, 0, 0, 2.5, 0, 0, 0, 2.5
 19420562, 0, 0, 0, 2.5, 0, 0, 0, 2.5
 19620482, 0, 0, 0, 2.5, 0, 0, 0, 2.5
 19820402, 0, 0, 0, 2.5, 0, 0, 0, 2.5
 20020322, 0, 0, 0, 2.5, 0, 0, 0, 2.5
 20220242, 0, 0, 0, 2.5, 0, 0, 0, 2.5
 20420162, 0, 0, 0, 2.5, 0, 0, 0, 2.5
 20620915, 0, 0, 0, 2.5, 0, 0, 0, 2.5
 20820835, 0.01, -0.001, 0, 2.5, 0, 0, 0, 2.5
 21020755, 0.251, -0.026, 0, 2.5, 0.01, -0.001, 0, 2.5
 21220675, 0.943, -0.09900001, 0.012, 2.5, 0.251, -0.026, 0, 2.5
 21420595, 2.108, -0.22, 0.038, 2.5, 0.943, -0.09900001, 0.012, 2.5
 21620515, 3.719, -0.391, 0.07600001, 2.5, 2.108, -0.22, 0.038, 2.5
 21820435, 5.726, -0.6020001, 0.126, 2.5, 3.719, -0.391, 0.07600001, 2.5
 22020355, 7.846, -0.8240001, 0.185, 2.5, 5.726, -0.6020001, 0.126, 2.5
 22220275, 9.822001, -1.033, 0.244, 2.5, 7.846, -0.8240001, 0.185, 2.5
 22420195, 11.589, -1.218, 0.278, 2.5, 9.822001, -1.033, 0.244, 2.5
 22620948, 13.135, -1.378, 0.207, 2.5, 11.589, -1.218, 0.278, 2.5
 22820868, 14.475, -1.522, 0.273, 2.5, 13.135, -1.378, 0.207, 2.5
 23020788, 16.232, -1.704, -0.396, 2.5, 14.475, -1.522, 0.273, 2.5
 23220708, 17.911, -1.886, -2.131, 2.5, 16.232, -1.704, -0.396, 2.5
 23420628, 19.269, -2.04, -2.875, 2.5, 17.911, -1.886, -2.131, 2.5
 23620548, 20.547, -2.179, -2.966, 2.5, 19.269, -2.04, -2.875, 2.5
 23820468, 21.757, -2.32, -3.073, 2.5, 20.547, -2.179, -2.966, 2.5
 24020388, 22.77, -2.439, -3.537, 2.5, 21.757, -2.32, -3.073, 2.5
 24220308, 23.608, -2.541, -4.076, 2.5, 22.77, -2.439, -3.537, 2.5
 24420228, 24.285, -2.8, -4.496, 2.5, 23.608, -2.541, -4.076, 2.5
 24620148, 24.745, -3.107, -4.884, 2.5, 24.285, -2.8, -4.496, 2.5
 24820901, 25.035, -3.322, -5.038, 2.5, 24.745, -3.107, -4.884, 2.5
 25020821, 25.19, -3.508, -5.139, 2.5, 25.035, -3.322, -5.038, 2.5
 25220741, 25.257, -3.768, -5.158, 2.5, 25.19, -3.508, -5.139, 2.5
 25420661, 25.283, -4.014, -5.154, 2.5, 25.257, -3.768, -5.158, 2.5
 25620581, 25.253, -4.251, -5.175, 2.5, 25.283, -4.014, -5.154, 2.5
 25820501, 25.19, -4.493, -5.199, 2.5, 25.253, -4.251, -5.175, 2.5
 26020421, 25.101, -4.708, -5.229, 2.5, 25.19, -4.493, -5.199, 2.5
 26220341, 25.011, -4.889, -5.21, 2.5, 25.101, -4.708, -5.229, 2.5
 26420261, 24.918, -5.067, -5.155, 2.5, 25.011, -4.889, -5.21, 2.5
 26620181, 24.811, -5.23, -5.075, 2.5, 24.918, -5.067, -5.155, 2.5
 26820934, 24.489, -5.34, -4.951, 2.5, 24.811, -5.23, -5.075, 2.5
 27020854, 23.804, -5.378, -4.724, 2.5, 24.489, -5.34, -4.951, 2.5
 27220774, 23.046, -5.376, -4.472, 2.5, 23.804, -5.378, -4.724, 2.5
 27420694, 22.435, -5.388, -4.282, 2.5, 23.046, -5.376, -4.472, 2.5
 27620614, 21.984, -5.409, -4.033, 2.5, 22.435, -5.388, -4.282, 2.5
 27820534, 21.615, -5.448, -3.825, 2.5, 21.984, -5.409, -4.033, 2.5
 28020454, 21.296, -5.486, -3.633, 2.5, 21.615, -5.448, -3.825, 2.5
 28220374, 21.004, -5.527, -3.542, 2.5, 21.296, -5.486, -3.633, 2.5
 28420294, 20.725, -5.557, -3.472, 2.5, 21.004, -5.527, -3.542, 2.5
 28620214, 20.475, -5.579, -3.407, 2.5, 20.725, -5.557, -3.472, 2.5
 28820967, 20.251, -5.588, -3.344, 2.5, 20.475, -5.579, -3.407, 2.5
 29020887, 20.118, -5.618, -3.266, 2.5, 20.251, -5.588, -3.344, 2.5
 29220807, 19.909, -5.62, -3.168, 2.5, 20.118, -5.618, -3.266, 2.5
 29420727, 19.669, -5.607, -3.101, 2.5, 19.909, -5.62, -3.168, 2.5
 29620647, 19.435, -5.584, -3.043, 2.5, 19.669, -5.607, -3.101, 2.5
 29820567, 19.221, -5.546, -2.964, 2.5, 19.435, -5.584, -3.043, 2.5
 30020487, 19.019, -5.512, -2.853, 2.5, 19.221, -5.546, -2.964, 2.5
 30220407, 18.82, -5.481, -2.798, 2.5, 19.019, -5.512, -2.853, 2.5
 30420327, 18.648, -5.452, -2.709, 2.5, 18.82, -5.481, -2.798, 2.5
 30620247, 18.79, -5.574, -0.749, 2.5, 18.648, -5.452, -2.709, 2.5
 30820167, 18.712, -5.794, 4.154, 2.5, 18.79, -5.574, -0.749, 2.5
 31020920, 18.449, -5.967, 7.704, 2.5, 18.712, -5.794, 4.154, 2.5
 31220840, 19.618, -5.651, 7.7, 2.5, 18.449, -5.967, 7.704, 2.5
 31420760, 21.376, -5.047, 5.598, 2.5, 19.618, -5.651, 7.7, 2.5
 31620680, 22.612, -4.62, 4.239, 2.5, 21.376, -5.047, 5.598, 2.5
 31820600, 23.389, -4.515, 4.609, 2.5, 22.612, -4.62, 4.239, 2.5
 32020520, 23.97, -4.562, 5.691, 2.5, 23.389, -4.515, 4.609, 2.5
 32220440, 24.649, -4.476, 6.123, 2.5, 23.97, -4.562, 5.691, 2.5
 32420360, 25.543, -4.179, 5.404, 2.5, 24.649, -4.476, 6.123, 2.5
 32620280, 26.44, -3.69, 3.855, 2.5, 25.543, -4.179, 5.404, 2.5
 32820200, 27.102, -3.226, 2.528, 2.5, 26.44, -3.69, 3.855, 2.5
 33020953, 27.581, -2.891, 1.702, 2.5, 27.102, -3.226, 2.528, 2.5
 33220873, 27.935, -2.673, 1.236, 2.5, 27.581, -2.891, 1.702, 2.5
 33420793, 28.227, -2.475, 0.812, 2.5, 27.935, -2.673, 1.236, 2.5
 33620713, 28.466, -2.248, 0.35, 2.5, 28.227, -2.475, 0.812, 2.5
 33820633, 28.675, -2.001, -0.105, 2.5, 28.466, -2.248, 0.35, 2.5
 34020553, 28.847, -1.758, -0.563, 2.5, 28.675, -2.001, -0.105, 2.5
 34220473, 29.011, -1.526, -0.9580001, 2.5, 28.847, -1.758, -0.563, 2.5
 34420393, 29.163, -1.376, -1.198, 2.5, 29.011, -1.526, -0.9580001, 2.5
 34620313, 29.297, -1.247, -1.405, 2.5, 29.163, -1.376, -1.198, 2.5
 34820233, 29.412, -1.104, -1.669, 2.5, 29.297, -1.247, -1.405, 2.5
 35020153, 29.506, -0.966, -1.973, 2.5, 29.412, -1.104, -1.669, 2.5
 35220906, 29.594, -0.807, -2.203, 2.5, 29.506, -0.966, -1.973, 2.5
 35420826, 29.663, -0.701, -2.416, 2.5, 29.594, -0.807, -2.203, 2.5
 35620746, 29.703, -0.601, -2.61, 2.5, 29.663, -0.701, -2.416, 2.5
 35820666, 29.745, -0.485, -2.702, 2.5, 29.703, -0.601, -2.61, 2.5
 36020586, 29.743, -0.39, -2.871, 2.5, 29.745, -0.485, -2.702, 2.5
 36220506, 29.741, -0.341, -2.905, 2.5, 29.743, -0.39, -2.871, 2.5
 36420426, 29.713, -0.281, -3.067, 2.5, 29.741, -0.341, -2.905, 2.5
 36620346, 29.686, -0.247, -3.065, 2.5, 29.713, -0.281, -3.067, 2.5
 36820266, 29.639, -0.203, -2.807, 2.5, 29.686, -0.247, -3.065, 2.5
 37020186, 29.507, -0.173, -2.517, 2.5, 29.639, -0.203, -2.807, 2.5
 37220939, 29.328, -0.141, -2.198, 2.5, 29.507, -0.173, -2.517, 2.5
 37420859, 29.125, -0.123, -1.93, 2.5, 29.328, -0.141, -2.198, 2.5
 37620779, 28.929, -0.13, -1.62, 2.5, 29.125, -0.123, -1.93, 2.5
 37820699, 28.741, -0.124, -1.294, 2.5, 28.929, -0.13, -1.62, 2.5
 38020619, 28.573, -0.094, -0.9530001, 2.5, 28.741, -0.124, -1.294, 2.5
 38220539, 28.421, -0.06900001, -0.677, 2.5, 28.573, -0.094, -0.9530001, 2.5
 38420459, 28.292, -0.063, -0.391, 2.5, 28.421, -0.06900001, -0.677, 2.5
 38620379, 28.182, -0.054, -0.118, 2.5, 28.292, -0.063, -0.391, 2.5
 38820299, 28.088, -0.032, -0.004, 2.5, 28.182, -0.054, -0.118, 2.5
 39020219, 28.011, -0.039, 0.083, 2.5, 28.088, -0.032, -0.004, 2.5
 39220972, 27.954, -0.049, 0.31, 2.5, 28.011, -0.039, 0.083, 2.5
 39420892, 27.905, -0.061, 0.442, 2.5, 27.954, -0.049, 0.31, 2.5
 39620812, 27.858, -0.067, 0.479, 2.5, 27.905, -0.061, 0.442, 2.5
 39820732, 27.816, -0.07300001, 0.595, 2.5, 27.858, -0.067, 0.479, 2.5
 40020652, 27.786, -0.08000001, 0.707, 2.5, 27.816, -0.07300001, 0.595, 2.5
 40220572, 27.781, -0.09500001, 0.744, 2.5, 27.786, -0.08000001, 0.707, 2.5
 40420492, 27.793, -0.136, 0.768, 2.5, 27.781, -0.09500001, 0.744, 2.5
 40620412, 27.808, -0.173, 0.7450001, 2.5, 27.793, -0.136, 0.768, 2.5
 40820332, 27.813, -0.219, 0.739, 2.5, 27.808, -0.173, 0.7450001, 2.5
 41020252, 27.822, -0.257, 0.724, 2.5, 27.813, -0.219, 0.739, 2.5
 41220172, 27.828, -0.279, 0.777, 2.5, 27.822, -0.257, 0.724, 2.5
 41420925, 27.845, -0.3, 0.8710001, 2.5, 27.828, -0.279, 0.777, 2.5
 41620845, 27.862, -0.337, 0.848, 2.5, 27.845, -0.3, 0.8710001, 2.5
 41820765, 27.874, -0.363, 0.811, 2.5, 27.862, -0.337, 0.848, 2.5
 42020685, 27.873, -0.408, 0.708, 2.5, 27.874, -0.363, 0.811, 2.5
 42220605, 27.867, -0.459, 0.669, 2.5, 27.873, -0.408, 0.708, 2.5
 42420525, 27.859, -0.498, 0.663, 2.5, 27.867, -0.459, 0.669, 2.5
 42620445, 27.857, -0.532, 0.733, 2.5, 27.859, -0.498, 0.663, 2.5
 42820365, 27.851, -0.578, 0.705, 2.5, 27.857, -0.532, 0.733, 2.5
 43020285, 27.865, -0.622, 0.6720001, 2.5, 27.851, -0.578, 0.705, 2.5
 43220205, 27.886, -0.643, 0.64, 2.5, 27.865, -0.622, 0.6720001, 2.5
 43420958, 27.893, -0.678, 0.596, 2.5, 27.886, -0.643, 0.64, 2.5
 43620878, 27.9, -0.714, 0.587, 2.5, 27.893, -0.678, 0.596, 2.5
 43820798, 27.905, -0.7360001, 0.572, 2.5, 27.9, -0.714, 0.587, 2.5
 44020718, 27.91, -0.752, 0.5840001, 2.5, 27.905, -0.7360001, 0.572, 2.5
 44220638, 27.919, -0.789, 0.54, 2.5, 27.91, -0.752, 0.5840001, 2.5
 44420558, 27.937, -0.853, 0.508, 2.5, 27.919, -0.789, 0.54, 2.5
 44620478, 27.957, -0.886, 0.485, 2.5, 27.937, -0.853, 0.508, 2.5
 44820398, 27.972, -0.9310001, 0.474, 2.5, 27.957, -0.886, 0.485, 2.5
 45020318, 27.991, -1.024, 0.492, 2.5, 27.972, -0.9310001, 0.474, 2.5
 45220238, 27.98, -1.507, 0.472, 2.5, 27.991, -1.024, 0.492, 2.5
 45420158, 27.977, -1.743, 0.388, 2.5, 27.98, -1.507, 0.472, 2.5
 45620911, 27.986, -1.433, 0.221, 2.5, 27.977, -1.743, 0.388, 2.5
 45820831, 28.018, -1.093, 0.283, 2.5, 27.986, -1.433, 0.221, 2.5
 46020751, 28.039, -0.9400001, 0.269, 2.5, 28.018, -1.093, 0.283, 2.5
 46220671, 28.056, -0.9250001, 0.244, 2.5, 28.039, -0.9400001, 0.269, 2.5
 46420591, 28.067, -0.933, 0.224, 2.5, 28.056, -0.9250001, 0.244, 2.5
 46620511, 28.083, -0.8930001, 0.276, 2.5, 28.067, -0.933, 0.224, 2.5
 46820431, 28.096, -0.816, 0.221, 2.5, 28.083, -0.8930001, 0.276, 2.5
 47020351, 28.112, -0.753, 0.144, 2.5, 28.096, -0.816, 0.221, 2.5
 47220271, 28.136, -0.698, 0.126, 2.5, 28.112, -0.753, 0.144, 2.5
 47420191, 28.153, -0.637, 0.155, 2.5, 28.136, -0.698, 0.126, 2.5
 47620944, 28.164, -0.569, 0.113, 2.5, 28.153, -0.637, 0.155, 2.5
 47820864, 28.18, -0.532, 0.03, 2.5, 28.164, -0.569, 0.113, 2.5
 48020784, 28.197, -0.472, -0.014, 2.5, 28.18, -0.532, 0.03, 2.5
 48220704, 28.215, -0.422, 0.011, 2.5, 28.197, -0.472, -0.014, 2.5
 48420624, 28.244, -0.373, 0.025, 2.5, 28.215, -0.422, 0.011, 2.5
 48620544, 28.264, -0.315, -0.058, 2.5, 28.244, -0.373, 0.025, 2.5
 48820464, 28.278, -0.284, -0.085, 2.5, 28.264, -0.315, -0.058, 2.5
 49020384, 28.293, -0.255, -0.136, 2.5, 28.278, -0.284, -0.085, 2.5
 49220304, 28.302, -0.213, -0.196, 2.5, 28.293, -0.255, -0.136, 2.5
 49420224, 28.309, -0.183, -0.112, 2.5, 28.302, -0.213, -0.196, 2.5
 49620977, 28.317, -0.154, -0.148, 2.5, 28.309, -0.183, -0.112, 2.5
 49820897, 28.336, -0.147, -0.221, 2.5, 28.317, -0.154, -0.148, 2.5
 50020817, 28.361, -0.137, -0.263, 2.5, 28.336, -0.147, -0.221, 2.5
 50220737, 28.374, -0.139, -0.257, 2.5, 28.361, -0.137, -0.263, 2.5
 50420657, 28.396, -0.122, -0.171, 2.5, 28.374, -0.139, -0.257, 2.5
 50620577, 28.416, -0.109, -0.195, 2.5, 28.396, -0.122, -0.171, 2.5
 50820497, 28.429, -0.087, -0.259, 2.5, 28.416, -0.109, -0.195, 2.5
 51020417, 28.453, -0.086, -0.322, 2.5, 28.429, -0.087, -0.259, 2.5
 51220337, 28.471, -0.09500001, -0.405, 2.5, 28.453, -0.086, -0.322, 2.5
 51420257, 28.48, -0.078, -0.399, 2.5, 28.471, -0.09500001, -0.405, 2.5
 51620177, 28.5, -0.09, -0.368, 2.5, 28.48, -0.078, -0.399, 2.5
 51820930, 28.513, -0.116, -0.319, 2.5, 28.5, -0.09, -0.368, 2.5
 52020850, 28.532, -0.126, -0.369, 2.5, 28.513, -0.116, -0.319, 2.5
 52220770, 28.539, -0.143, -0.401, 2.5, 28.532, -0.126, -0.369, 2.5
 52420690, 28.559, -0.142, -0.453, 2.5, 28.539, -0.143, -0.401, 2.5
 52620610, 28.586, -0.133, -0.455, 2.5, 28.559, -0.142, -0.453, 2.5
 52820530, 28.613, -0.17, -0.448, 2.5, 28.586, -0.133, -0.455, 2.5
 53020450, 28.63, -0.193, -0.462, 2.5, 28.613, -0.17, -0.448, 2.5
 53220370, 28.648, -0.212, -0.453, 2.5, 28.63, -0.193, -0.462, 2.5
 53420290, 28.661, -0.234, -0.502, 2.5, 28.648, -0.212, -0.453, 2.5
 53620210, 28.668, -0.249, -0.558, 2.5, 28.661, -0.234, -0.502, 2.5
 53820963, 28.672, -0.255, -0.553, 2.5, 28.668, -0.249, -0.558, 2.5
 54020883, 28.678, -0.288, -0.558, 2.5, 28.672, -0.255, -0.553, 2.5
 54220803, 28.682, -0.318, -0.526, 2.5, 28.678, -0.288, -0.558, 2.5
 54420723, 28.69, -0.341, -0.5, 2.5, 28.682, -0.318, -0.526, 2.5
 54620643, 28.703, -0.344, -0.432, 2.5, 28.69, -0.341, -0.5, 2.5
 54820563, 28.716, -0.33, -0.466, 2.5, 28.703, -0.344, -0.432, 2.5
 55020483, 28.738, -0.345, -0.482, 2.5, 28.716, -0.33, -0.466, 2.5
 55220403, 28.765, -0.376, -0.507, 2.5, 28.738, -0.345, -0.482, 2.5
 55420323, 28.788, -0.386, -0.468, 2.5, 28.765, -0.376, -0.507, 2.5
 55620243, 28.799, -0.401, -0.513, 2.5, 28.788, -0.386, -0.468, 2.5
 55820163, 28.813, -0.396, -0.482, 2.5, 28.799, -0.401, -0.513, 2.5
 56020916, 28.835, -0.404, -0.562, 2.5, 28.813, -0.396, -0.482, 2.5
 56220836, 28.862, -0.442, -0.6020001, 2.5, 28.835, -0.404, -0.562, 2.5
 56420756, 28.891, -0.465, -0.52, 2.5, 28.862, -0.442, -0.6020001, 2.5
 56620676, 28.922, -0.486, -0.444, 2.5, 28.891, -0.465, -0.52, 2.5
 56820596, 28.938, -0.476, -0.488, 2.5, 28.922, -0.486, -0.444, 2.5
 57020516, 28.939, -0.465, -0.518, 2.5, 28.938, -0.476, -0.488, 2.5
 57220436, 28.931, -0.469, -0.619, 2.5, 28.939, -0.465, -0.518, 2.5
 57420356, 28.933, -0.46, -0.673, 2.5, 28.931, -0.469, -0.619, 2.5
 57620276, 28.944, -0.488, -0.617, 2.5, 28.933, -0.46, -0.673, 2.5
 57820196, 28.959, -0.512, -0.548, 2.5, 28.944, -0.488, -0.617, 2.5
 58020949, 28.972, -0.507, -0.5100001, 2.5, 28.959, -0.512, -0.548, 2.5
 58220869, 28.985, -0.504, -0.5, 2.5, 28.972, -0.507, -0.5100001, 2.5
 58420789, 29.004, -0.5, -0.458, 2.5, 28.985, -0.504, -0.5, 2.5
 58620709, 29.018, -0.493, -0.528, 2.5, 29.004, -0.5, -0.458, 2.5
 58820629, 29.023, -0.504, -0.62, 2.5, 29.018, -0.493, -0.528, 2.5
 59020549, 29.02, -0.491, -0.553, 2.5, 29.023, -0.504, -0.62, 2.5
 59220469, 29.014, -0.46, -0.504, 2.5, 29.02, -0.491, -0.553, 2.5
 59420389, 29.006, -0.453, -0.433, 2.5, 29.014, -0.46, -0.504, 2.5
 59620309, 28.995, -0.449, -0.411, 2.5, 29.006, -0.453, -0.433, 2.5
 59820229, 28.99, -0.447, -0.425, 2.5, 28.995, -0.449, -0.411, 2.5
 60020149, 28.988, -0.436, -0.38, 2.5, 28.99, -0.447, -0.425, 2.5
 60220902, 28.99, -0.48, -0.438, 2.5, 28.988, -0.436, -0.38, 2.5
 60420822, 28.988, -0.491, -0.454, 2.5, 28.99, -0.48, -0.438, 2.5
 60620742, 28.995, -0.491, -0.364, 2.5, 28.988, -0.491, -0.454, 2.5
 60820662, 28.997, -0.496, -0.319, 2.5, 28.995, -0.491, -0.364, 2.5
 61020582, 28.995, -0.509, -0.343, 2.5, 28.997, -0.496, -0.319, 2.5
 61220502, 28.99, -0.499, -0.319, 2.5, 28.995, -0.509, -0.343, 2.5
 61420422, 28.988, -0.483, -0.336, 2.5, 28.99, -0.499, -0.319, 2.5
 61620342, 28.988, -0.492, -0.288, 2.5, 28.988, -0.483, -0.336, 2.5
 61820262, 28.993, -0.504, -0.23, 2.5, 28.988, -0.492, -0.288, 2.5
 62020182, 28.988, -0.491, -0.265, 2.5, 28.993, -0.504, -0.23, 2.5
 62220935, 28.972, -0.466, -0.296, 2.5, 28.988, -0.491, -0.265, 2.5
 62420855, 28.976, -0.441, -0.341, 2.5, 28.972, -0.466, -0.296, 2.5
 62620775, 28.972, -0.434, -0.398, 2.5, 28.976, -0.441, -0.341, 2.5
 62820695, 28.973, -0.401, -0.275, 2.5, 28.972, -0.434, -0.398, 2.5
 63020615, 28.973, -0.405, -0.183, 2.5, 28.973, -0.401, -0.275, 2.5
 63220535, 28.965, -0.418, -0.198, 2.5, 28.973, -0.405, -0.183, 2.5
 63420455, 28.95, -0.41, -0.269, 2.5, 28.965, -0.418, -0.198, 2.5
 63620375, 28.943, -0.397, -0.307, 2.5, 28.95, -0.41, -0.269, 2.5
 63820295, 28.949, -0.386, -0.287, 2.5, 28.943, -0.397, -0.307, 2.5
 64020215, 28.953, -0.384, -0.215, 2.5, 28.949, -0.386, -0.287, 2.5
 64220968, 28.957, -0.362, -0.122, 2.5, 28.953, -0.384, -0.215, 2.5
 64420888, 28.955, -0.373, -0.1, 2.5, 28.957, -0.362, -0.122, 2.5
 64620808, 28.954, -0.387, -0.202, 2.5, 28.955, -0.373, -0.1, 2.5
 64820728, 28.943, -0.397, -0.246, 2.5, 28.954, -0.387, -0.202, 2.5
 65020648, 28.934, -0.403, -0.235, 2.5, 28.943, -0.397, -0.246, 2.5
 65220568, 28.93, -0.406, -0.19, 2.5, 28.934, -0.403, -0.235, 2.5
 65420488, 28.929, -0.408, -0.13, 2.5, 28.93, -0.406, -0.19, 2.5
 65620408, 28.926, -0.408, -0.113, 2.5, 28.929, -0.408, -0.13, 2.5
 65820328, 28.925, -0.405, -0.081, 2.5, 28.926, -0.408, -0.113, 2.5
 66020248, 28.925, -0.402, -0.093, 2.5, 28.925, -0.405, -0.081, 2.5
 66220168, 28.923, -0.404, -0.129, 2.5, 28.925, -0.402, -0.093, 2.5
 66420921, 28.931, -0.386, -0.094, 2.5, 28.923, -0.404, -0.129, 2.5
 66620841, 28.956, -0.37, -0.049, 2.5, 28.931, -0.386, -0.094, 2.5
 66820761, 28.963, -0.366, -0.02, 2.5, 28.956, -0.37, -0.049, 2.5
 67020681, 28.974, -0.385, 0.001, 2.5, 28.963, -0.366, -0.02, 2.5
 67220601, 28.984, -0.39, 0.017, 2.5, 28.974, -0.385, 0.001, 2.5
 67420521, 28.988, -0.378, -0.03, 2.5, 28.984, -0.39, 0.017, 2.5
 67620441, 28.994, -0.364, -0.098, 2.5, 28.988, -0.378, -0.03, 2.5
 67820361, 28.991, -0.369, -0.139, 2.5, 28.994, -0.364, -0.098, 2.5
 68020281, 28.983, -0.387, -0.043, 2.5, 28.991, -0.369, -0.139, 2.5
 68220201, 28.984, -0.422, -0.018, 2.5, 28.983, -0.387, -0.043, 2.5
 68420954, 28.983, -0.463, -0.004, 2.5, 28.984, -0.422, -0.018, 2.5
 68620874, 28.969, -0.466, -0.143, 2.5, 28.983, -0.463, -0.004, 2.5
 68820794, 28.967, -0.47, -0.139, 2.5, 28.969, -0.466, -0.143, 2.5
 69020714, 28.966, -0.425, -0.155, 2.5, 28.967, -0.47, -0.139, 2.5
 69220634, 28.995, -0.6210001, -0.2, 2.5, 28.966, -0.425, -0.155, 2.5
 69420554, 29.121, -1.608, -0.131, 2.5, 28.995, -0.6210001, -0.2, 2.5
 69620474, 29.281, -3.231, -0.023, 2.5, 29.121, -1.608, -0.131, 2.5
 69820394, 29.221, -5.831, 0.102, 2.5, 29.281, -3.231, -0.023, 2.5
 70020314, 28.564, -9.465, 0.035, 2.5, 29.221, -5.831, 0.102, 2.5
 70220234, 26.885, -13.939, -0.625, 2.5, 28.564, -9.465, 0.035, 2.5
 70420154, 24.37, -18.107, -1.602, 2.5, 26.885, -13.939, -0.625, 2.5
 70620907, 21.701, -21.242, -2.366, 2.5, 24.37, -18.107, -1.602, 2.5
 70820827, 19.186, -23.532, -2.738, 2.5, 21.701, -21.242, -2.366, 2.5
 71020747, 16.742, -25.338, -2.878, 2.5, 19.186, -23.532, -2.738, 2.5
 71220667, 14.225, -26.841, -2.909, 2.5, 16.742, -25.338, -2.878, 2.5
 71420587, 11.582, -28.093, -2.928, 2.5, 14.225, -26.841, -2.909, 2.5
 71620507, 8.646001, -29.116, -3.092, 2.5, 11.582, -28.093, -2.928, 2.5
 71820427, 5.696, -29.804, -3.215, 2.5, 8.646001, -29.116, -3.092, 2.5
 72020347, 2.825, -30.197, -3.27, 2.5, 5.696, -29.804, -3.215, 2.5
 72220267, -0.07600001, -30.317, -3.298, 2.5, 2.825, -30.197, -3.27, 2.5
 72420187, -2.974, -30.157, -3.342, 2.5, -0.07600001, -30.317, -3.298, 2.5
 72620940, -5.881, -29.699, -3.419, 2.5, -2.974, -30.157, -3.342, 2.5
 72820860, -8.706, -28.968, -3.506, 2.5, -5.881, -29.699, -3.419, 2.5
 73020780, -11.439, -27.963, -3.603, 2.5, -8.706, -28.968, -3.506, 2.5
 73220700, -14.024, -26.725, -3.681, 2.5, -11.439, -27.963, -3.603, 2.5
 73420620, -16.462, -25.251, -3.779, 2.5, -14.024, -26.725, -3.681, 2.5
 73620540, -18.678, -23.611, -3.897, 2.5, -16.462, -25.251, -3.779, 2.5
 73820460, -20.659, -21.833, -4.018, 2.5, -18.678, -23.611, -3.897, 2.5
 74020380, -22.333, -20.058, -4.087, 2.5, -20.659, -21.833, -4.018, 2.5
 74220300, -23.762, -18.277, -4.165, 2.5, -22.333, -20.058, -4.087, 2.5
 74420220, -24.997, -16.459, -4.31, 2.5, -23.762, -18.277, -4.165, 2.5
 74620973, -25.99, -14.783, -4.34, 2.5, -24.997, -16.459, -4.31, 2.5
 74820893, -26.769, -13.263, -4.356, 2.5, -25.99, -14.783, -4.34, 2.5
 75020813, -27.417, -11.827, -4.343, 2.5, -26.769, -13.263, -4.356, 2.5
 75220733, -27.96, -10.411, -4.37, 2.5, -27.417, -11.827, -4.343, 2.5
 75420653, -28.393, -9.063001, -4.441, 2.5, -27.96, -10.411, -4.37, 2.5
 75620573, -28.731, -7.842, -4.484, 2.5, -28.393, -9.063001, -4.441, 2.5
 75820493, -28.987, -6.793, -4.443, 2.5, -28.731, -7.842, -4.484, 2.5
 76020413, -29.199, -5.875, -4.342, 2.5, -28.987, -6.793, -4.443, 2.5
 76220333, -29.365, -4.906, -4.381, 2.5, -29.199, -5.875, -4.342, 2.5
 76420253, -29.477, -3.958, -4.517, 2.5, -29.365, -4.906, -4.381, 2.5
 76620173, -29.564, -3.071, -4.596, 2.5, -29.477, -3.958, -4.517, 2.5
 76820926, -29.611, -2.314, -4.637, 2.5, -29.564, -3.071, -4.596, 2.5
 77020846, -29.647, -1.66, -4.635, 2.5, -29.611, -2.314, -4.637, 2.5
 77220766, -29.667, -1.092, -4.648, 2.5, -29.647, -1.66, -4.635, 2.5
 77420686, -29.667, -0.557, -4.692, 2.5, -29.667, -1.092, -4.648, 2.5
 77620606, -29.651, -0.042, -4.733, 2.5, -29.667, -0.557, -4.692, 2.5
 77820526, -29.63, 0.453, -4.79, 2.5, -29.651, -0.042, -4.733, 2.5
 78020446, -29.591, 0.892, -4.899, 2.5, -29.63, 0.453, -4.79, 2.5
 78220366, -29.552, 1.263, -4.966, 2.5, -29.591, 0.892, -4.899, 2.5
 78420286, -29.529, 1.566, -4.922, 2.5, -29.552, 1.263, -4.966, 2.5
 78620206, -29.511, 1.846, -4.887, 2.5, -29.529, 1.566, -4.922, 2.5
 78820959, -29.478, 2.12, -4.918, 2.5, -29.511, 1.846, -4.887, 2.5
 79020879, -29.44, 2.368, -5.004, 2.5, -29.478, 2.12, -4.918, 2.5
 79220799, -29.44, 2.569, -4.861, 2.5, -29.44, 2.368, -5.004, 2.5
 79420719, -29.4, 2.775, -4.941, 2.5, -29.44, 2.569, -4.861, 2.5
 79620639, -29.357, 2.964, -5.016, 2.5, -29.4, 2.775, -4.941, 2.5
 79820559, -29.319, 3.123, -5.038, 2.5, -29.357, 2.964, -5.016, 2.5
 80020479, -29.303, 3.248, -4.988, 2.5, -29.319, 3.123, -5.038, 2.5
 80220399, -29.286, 3.405, -4.997, 2.5, -29.303, 3.248, -4.988, 2.5
 80420319, -29.261, 3.55, -5.025, 2.5, -29.286, 3.405, -4.997, 2.5
 80620239, -29.226, 3.659, -5.105, 2.5, -29.261, 3.55, -5.025, 2.5
 80820159, -29.209, 3.752, -5.082, 2.5, -29.226, 3.659, -5.105, 2.5
 81020912, -29.213, 3.849, -4.959, 2.5, -29.209, 3.752, -5.082, 2.5
 81220832, -29.2, 3.95, -4.948, 2.5, -29.213, 3.849, -4.959, 2.5
 81420752, -29.143, 4.04, -5.164, 2.5, -29.2, 3.95, -4.948, 2.5
 81620672, -29.077, 4.141, -5.338, 2.5, -29.143, 4.04, -5.164, 2.5
 81820592, -29.067, 4.191, -5.28, 2.5, -29.077, 4.141, -5.338, 2.5
 82020512, -29.07, 4.249, -5.166, 2.5, -29.067, 4.191, -5.28, 2.5
 82220432, -29.08, 4.318, -5.059, 2.5, -29.07, 4.249, -5.166, 2.5
 82420352, -29.068, 4.382, -5.099, 2.5, -29.08, 4.318, -5.059, 2.5
 82620272, -29.045, 4.439, -5.124, 2.5, -29.068, 4.382, -5.099, 2.5
 82820192, -29.031, 4.493, -5.158, 2.5, -29.045, 4.439, -5.124, 2.5
 83020945, -29.021, 4.521, -5.196, 2.5, -29.031, 4.493, -5.158, 2.5
 83220865, -29.004, 4.543, -5.223, 2.5, -29.021, 4.521, -5.196, 2.5
 83420785, -29.017, 4.566, -5.125, 2.5, -29.004, 4.543, -5.223, 2.5
 83620705, -29.084, 4.601, -4.786, 2.5, -29.017, 4.566, -5.125, 2.5
 83820625, -29.159, 4.66, -4.456, 2.5, -29.084, 4.601, -4.786, 2.5
 84020545, -29.232, 4.704, -4.13, 2.5, -29.159, 4.66, -4.456, 2.5
 84220465, -29.21, 4.74, -4.018, 2.5, -29.232, 4.704, -4.13, 2.5
 84420385, -29.08, 4.757, -3.974, 2.5, -29.21, 4.74, -4.018, 2.5
 84620305, -28.912, 4.774, -3.763, 2.5, -29.08, 4.757, -3.974, 2.5
 84820225, -28.744, 4.767, -3.484, 2.5, -28.912, 4.774, -3.763, 2.5
 85020145, -28.574, 4.759, -3.104, 2.5, -28.744, 4.767, -3.484, 2.5
 85220898, -28.413, 4.729, -2.723, 2.5, -28.574, 4.759, -3.104, 2.5
 85420818, -28.242, 4.705, -2.517, 2.5, -28.413, 4.729, -2.723, 2.5
 85620738, -28.077, 4.711, -2.289, 2.5, -28.242, 4.705, -2.517, 2.5
 85820658, -27.941, 4.697, -1.992, 2.5, -28.077, 4.711, -2.289, 2.5
 86020578, -27.821, 4.668, -1.675, 2.5, -27.941, 4.697, -1.992, 2.5
 86220498, -27.708, 4.65, -1.487, 2.5, -27.821, 4.668, -1.675, 2.5
 86420418, -27.601, 4.643, -1.326, 2.5, -27.708, 4.65, -1.487, 2.5
 86620338, -27.502, 4.645, -1.18, 2.5, -27.601, 4.643, -1.326, 2.5
 86820258, -27.498, 4.657, -0.9440001, 2.5, -27.502, 4.645, -1.18, 2.5
 87020178, -27.484, 4.664, -0.625, 2.5, -27.498, 4.657, -0.9440001, 2.5
 87220931, -27.387, 4.666, -0.562, 2.5, -27.484, 4.664, -0.625, 2.5
 87420851, -27.286, 4.662, -0.609, 2.5, -27.387, 4.666, -0.562, 2.5
 87620771, -27.206, 4.659, -0.65, 2.5, -27.286, 4.662, -0.609, 2.5
 87820691, -27.156, 4.672, -0.453, 2.5, -27.206, 4.659, -0.65, 2.5
 88020611, -27.104, 4.676, -0.252, 2.5, -27.156, 4.672, -0.453, 2.5
 88220531, -27.067, 4.673, -0.144, 2.5, -27.104, 4.676, -0.252, 2.5
 88420451, -27.043, 4.681, -0.08800001, 2.5, -27.067, 4.673, -0.144, 2.5
 88620371, -27.021, 4.678, -0.058, 2.5, -27.043, 4.681, -0.08800001, 2.5
 88820291, -27.012, 4.693, -0.027, 2.5, -27.021, 4.678, -0.058, 2.5
 89020211, -27.021, 4.708, 0.031, 2.5, -27.012, 4.693, -0.027, 2.5
 89220964, -27.018, 4.713, 0.131, 2.5, -27.021, 4.708, 0.031, 2.5
 89420884, -27.019, 4.72, 0.187, 2.5, -27.018, 4.713, 0.131, 2.5
 89620804, -27.019, 4.725, 0.182, 2.5, -27.019, 4.72, 0.187, 2.5
 89820724, -27.013, 4.741, 0.191, 2.5, -27.019, 4.725, 0.182, 2.5
 90020644, -27.013, 4.733, 0.197, 2.5, -27.013, 4.741, 0.191, 2.5
 90220564, -27.013, 4.737, 0.217, 2.5, -27.013, 4.733, 0.197, 2.5
 90420484, -27.013, 4.753, 0.198, 2.5, -27.013, 4.737, 0.217, 2.5
 90620404, -27.022, 4.768, 0.233, 2.5, -27.013, 4.753, 0.198, 2.5
 90820324, -27.044, 4.779, 0.266, 2.5, -27.022, 4.768, 0.233, 2.5
 91020244, -27.05, 4.788, 0.24, 2.5, -27.044, 4.779, 0.266, 2.5
 91220164, -27.057, 4.796, 0.24, 2.5, -27.05, 4.788, 0.24, 2.5
 91420917, -27.07, 4.812, 0.244, 2.5, -27.057, 4.796, 0.24, 2.5
 91620837, -27.088, 4.828, 0.284, 2.5, -27.07, 4.812, 0.244, 2.5
 91820757, -27.105, 4.821, 0.238, 2.5, -27.088, 4.828, 0.284, 2.5
 92020677, -27.122, 4.821, 0.234, 2.5, -27.105, 4.821, 0.238, 2.5
 92220597, -27.138, 4.828, 0.203, 2.5, -27.122, 4.821, 0.234, 2.5
 92420517, -27.164, 4.838, 0.227, 2.5, -27.138, 4.828, 0.203, 2.5
 92620437, -27.191, 4.857, 0.243, 2.5, -27.164, 4.838, 0.227, 2.5
 92820357, -27.212, 4.887, 0.255, 2.5, -27.191, 4.857, 0.243, 2.5
 93020277, -27.235, 4.873, 0.199, 2.5, -27.212, 4.887, 0.255, 2.5
 93220197, -27.252, 4.875, 0.22, 2.5, -27.235, 4.873, 0.199, 2.5
 93420950, -27.281, 4.849, 0.196, 2.5, -27.252, 4.875, 0.22, 2.5
 93620870, -27.308, 4.839, 0.248, 2.5, -27.281, 4.849, 0.196, 2.5
 93820790, -27.32, 4.861, 0.243, 2.5, -27.308, 4.839, 0.248, 2.5
 94020710, -27.349, 4.871, 0.188, 2.5, -27.32, 4.861, 0.243, 2.5
 94220630, -27.372, 4.884, 0.182, 2.5, -27.349, 4.871, 0.188, 2.5
 94420550, -27.391, 4.896, 0.184, 2.5, -27.372, 4.884, 0.182, 2.5
 94620470, -27.405, 4.924, 0.225, 2.5, -27.391, 4.896, 0.184, 2.5
 94820390, -27.448, 4.928, 0.316, 2.5, -27.405, 4.924, 0.225, 2.5
 95020310, -27.478, 4.923, 0.251, 2.5, -27.448, 4.928, 0.316, 2.5
 95220230, -27.503, 4.924, 0.221, 2.5, -27.478, 4.923, 0.251, 2.5
 95420150, -27.531, 4.92, 0.105, 2.5, -27.503, 4.924, 0.221, 2.5
 95620903, -27.548, 4.939, 0.041, 2.5, -27.531, 4.92, 0.105, 2.5
 95820823, -27.556, 4.966, -0.014, 2.5, -27.548, 4.939, 0.041, 2.5
 96020743, -27.572, 4.949, 0.049, 2.5, -27.556, 4.966, -0.014, 2.5
 96220663, -27.581, 4.938, 0.098, 2.5, -27.572, 4.949, 0.049, 2.5
 96420583, -27.585, 4.936, 0.09200001, 2.5, -27.581, 4.938, 0.098, 2.5
 96620503, -27.59, 4.931, 0.017, 2.5, -27.585, 4.936, 0.09200001, 2.5
 96820423, -27.598, 4.92, -0.038, 2.5, -27.59, 4.931, 0.017, 2.5
 97020343, -27.609, 4.896, 0.029, 2.5, -27.598, 4.92, -0.038, 2.5
 97220263, -27.623, 4.865, 0.052, 2.5, -27.609, 4.896, 0.029, 2.5
 97420183, -27.634, 4.858, 0.118, 2.5, -27.623, 4.865, 0.052, 2.5
 97620936, -27.658, 4.862, 0.094, 2.5, -27.634, 4.858, 0.118, 2.5
 97820856, -27.682, 4.875, 0.108, 2.5, -27.658, 4.862, 0.094, 2.5
 98020776, -27.704, 4.887, 0.132, 2.5, -27.682, 4.875, 0.108, 2.5
 98220696, -27.729, 4.895, 0.122, 2.5, -27.704, 4.887, 0.132, 2.5
 98420616, -27.753, 4.89, 0.128, 2.5, -27.729, 4.895, 0.122, 2.5
 98620536, -27.765, 4.903, 0.017, 2.5, -27.753, 4.89, 0.128, 2.5
 98820456, -27.769, 4.896, -0.026, 2.5, -27.765, 4.903, 0.017, 2.5
 99020376, -27.775, 4.877, -0.006, 2.5, -27.769, 4.896, -0.026, 2.5
 99220296, -27.797, 4.864, 0.038, 2.5, -27.775, 4.877, -0.006, 2.5
 99420216, -27.816, 4.87, -0.026, 2.5, -27.797, 4.864, 0.038, 2.5
 99620969, -27.84, 4.869, -0.02, 2.5, -27.816, 4.87, -0.026, 2.5
 99820889, -27.866, 4.87, -0.028, 2.5, -27.84, 4.869, -0.02, 2.5
 100020809, -27.89, 4.855, -0.01, 2.5, -27.866, 4.87, -0.028, 2.5
 100220729, -27.911, 4.853, 0.021, 2.5, -27.89, 4.855, -0.01, 2.5
 100420649, -27.911, 4.849, 0.032, 2.5, -27.911, 4.853, 0.021, 2.5
 100620569, -27.923, 4.848, 0.005, 2.5, -27.911, 4.849, 0.032, 2.5
 100820489, -27.931, 4.85, -0.09100001, 2.5, -27.923, 4.848, 0.005, 2.5
 101020409, -27.926, 4.88, -0.137, 2.5, -27.931, 4.85, -0.09100001, 2.5
 101220329, -27.924, 4.904, -0.079, 2.5, -27.926, 4.88, -0.137, 2.5
 101420249, -27.932, 4.909, -0.033, 2.5, -27.924, 4.904, -0.079, 2.5
 101620169, -27.943, 4.884, 0.007, 2.5, -27.932, 4.909, -0.033, 2.5
 101820922, -27.951, 4.883, -0.01, 2.5, -27.943, 4.884, 0.007, 2.5
 102020842, -27.954, 4.891, -0.043, 2.5, -27.951, 4.883, -0.01, 2.5
 102220762, -27.956, 4.904, -0.082, 2.5, -27.954, 4.891, -0.043, 2.5
 102420682, -27.953, 4.928, -0.012, 2.5, -27.956, 4.904, -0.082, 2.5
 102620602, -27.958, 4.932, 0.072, 2.5, -27.953, 4.928, -0.012, 2.5
 102820522, -27.972, 4.937, 0.061, 2.5, -27.958, 4.932, 0.072, 2.5
 103020442, -27.998, 4.934, 0.035, 2.5, -27.972, 4.937, 0.061, 2.5
 103220362, -28.022, 4.925, 0.007, 2.5, -27.998, 4.934, 0.035, 2.5
 103420282, -28.043, 4.944, 0.011, 2.5, -28.022, 4.925, 0.007, 2.5
 103620202, -28.062, 4.936, 0.008, 2.5, -28.043, 4.944, 0.011, 2.5
 103820955, -28.07, 4.938, 0.009000001, 2.5, -28.062, 4.936, 0.008, 2.5
 104020875, -28.072, 4.939, -0.051, 2.5, -28.07, 4.938, 0.009000001, 2.5
 104220795, -28.082, 4.935, 0.02, 2.5, -28.072, 4.939, -0.051, 2.5
 104420715, -28.091, 4.933, 0.038, 2.5, -28.082, 4.935, 0.02, 2.5
 104620635, -28.093, 4.912, -0.001, 2.5, -28.091, 4.933, 0.038, 2.5
 104820555, -28.09, 4.921, -0.007, 2.5, -28.093, 4.912, -0.001, 2.5
 105020475, -28.092, 4.936, -0.053, 2.5, -28.09, 4.921, -0.007, 2.5
 105220395, -28.099, 4.952, -0.055, 2.5, -28.092, 4.936, -0.053, 2.5
 105420315, -28.108, 4.964, 0.015, 2.5, -28.099, 4.952, -0.055, 2.5
 105620235, -28.11, 4.985, -0.014, 2.5, -28.108, 4.964, 0.015, 2.5
 105820155, -28.113, 4.992, -0.043, 2.5, -28.11, 4.985, -0.014, 2.5
 106020908, -28.107, 5.005, -0.04, 2.5, -28.113, 4.992, -0.043, 2.5
 106220828, -28.111, 5.011, -0.002, 2.5, -28.107, 5.005, -0.04, 2.5
 106420748, -28.116, 5.005, 0.047, 2.5, -28.111, 5.011, -0.002, 2.5
 106620668, -28.131, 4.987, 0.085, 2.5, -28.116, 5.005, 0.047, 2.5
 106820588, -28.144, 4.967, 0.055, 2.5, -28.131, 4.987, 0.085, 2.5
 107020508, -28.162, 4.927, 0.019, 2.5, -28.144, 4.967, 0.055, 2.5
 107220428, -28.185, 4.932, 0.03, 2.5, -28.162, 4.927, 0.019, 2.5
 107420348, -28.198, 4.952, 0, 2.5, -28.185, 4.932, 0.03, 2.5
 107620268, -28.195, 4.963, -0.045, 2.5, -28.198, 4.952, 0, 2.5
 107820188, -28.198, 4.964, -0.067, 2.5, -28.195, 4.963, -0.045, 2.5
 108020941, -28.203, 4.972, 0.067, 2.5, -28.198, 4.964, -0.067, 2.5
 108220861, -28.208, 4.983, 0.087, 2.5, -28.203, 4.972, 0.067, 2.5
 108420781, -28.2, 4.967, -0.058, 2.5, -28.208, 4.983, 0.087, 2.5
 108620701, -28.204, 4.961, -0.131, 2.5, -28.2, 4.967, -0.058, 2.5
 108820621, -28.212, 4.987, -0.06900001, 2.5, -28.204, 4.961, -0.131, 2.5
 109020541, -28.216, 4.996, 0.028, 2.5, -28.212, 4.987, -0.06900001, 2.5
 109220461, -28.217, 4.978, 0.123, 2.5, -28.216, 4.996, 0.028, 2.5
 109420381, -28.212, 4.975, 0.07700001, 2.5, -28.217, 4.978, 0.123, 2.5
 109620301, -27.082, 4.761, 0.024, 2.5, -28.212, 4.975, 0.07700001, 2.5
 109820221, -25.398, 4.443, 0.06, 2.5, -27.082, 4.761, 0.024, 2.5
 110020974, -23.772, 4.146, 0.22, 2.5, -25.398, 4.443, 0.06, 2.5
