TimeUS,TPN,PN,DVN,TVN,VN,DAN,TAN,AN
104324451,0.06381525,0.09690607,1.93E-05,-0.03307152,-0.01953448,0.000985459,-0.2809446,-0.2788369
104424596,0.06383269,0.09425764,0.000483532,-0.02994142,0.00768149,0.0102826,-0.3127351,-0.2903996
104524546,0.06396241,0.09211191,0.002453066,-0.02569644,-0.009284003,0.03054223,-0.2703624,-0.2862378
104624465,0.06439973,0.09072064,0.006699156,-0.01962176,0.000596408,0.05447042,-0.2553719,-0.2790871
104724478,0.06538066,0.08835637,0.01333728,-0.009638426,0.01839976,0.07842028,-0.2166502,-0.2534239
104824529,0.06714164,0.08728562,0.022356,0.002212033,0.01153394,0.1023418,-0.1678983,-0.2217206
104924531,0.06991429,0.08739904,0.03373414,0.0162494,0.02031498,0.126211,-0.1464742,-0.1772611
105024520,0.07391886,0.08842098,0.04742797,0.03292586,-0.001741333,0.1499829,-0.06302132,-0.1376088
105124673,0.07936905,0.09141186,0.06339917,0.05135636,0.07706027,0.1736445,-0.06425854,-0.1029258
105224570,0.08647401,0.09639091,0.0816168,0.07169989,0.08521027,0.1971979,-0.06159586,-0.07683471
105324564,0.095435,0.1031393,0.1020458,0.09434149,0.05702949,0.2206398,0.01342022,-0.05064321
105424515,0.1064477,0.1110311,0.1246537,0.1200703,0.1182978,0.2439702,0.03864229,-0.01521835
105524563,0.1197027,0.122814,0.1494096,0.1462982,0.131249,0.2671908,0.05800457,0.00201457
105624448,0.1354006,0.1374889,0.1763095,0.1742212,0.1180841,0.2903246,0.105659,-0.01167195
105724559,0.1537503,0.1585872,0.205363,0.2005262,0.1904189,0.3133981,0.01345707,-0.0517807
105824495,0.1749627,0.1832362,0.2365795,0.228306,0.2392053,0.3364304,-0.01898048,-0.1038005
105924511,0.1992467,0.2126536,0.2699639,0.256557,0.3043242,0.3594328,-0.02048794,-0.09023933
106024688,0.226809,0.2452169,0.3055168,0.2871089,0.3361347,0.3824109,-0.008455086,0.003426507
106124503,0.2578539,0.2794828,0.3432357,0.3216068,0.3772631,0.4053675,0.03273361,0.1310533
106224509,0.2925996,0.317907,0.3831348,0.3578273,0.4309397,0.4283139,-0.02101059,0.2126366
106324525,0.3312796,0.3647465,0.4252409,0.3917741,0.4407805,0.451266,-0.02279377,0.2106041
106424592,0.3741344,0.4161105,0.4695696,0.4275934,0.5056019,0.4734716,-0.04308964,0.1585189
106524575,0.4213926,0.4790636,0.5158014,0.4581304,0.5636893,0.4884791,-0.07932682,0.0822914
106624521,0.4732231,0.5439991,0.5630301,0.4922542,0.5964764,0.4930421,-0.04558311,0.01105658
106724576,0.5296964,0.6184133,0.6104861,0.5217693,0.6263387,0.4927009,-0.08294845,-0.05041892
106824486,0.5908249,0.6930767,0.6577336,0.5554819,0.6671686,0.4859038,-0.07670257,-0.07404096
106924574,0.6565594,0.7672218,0.7038719,0.5932095,0.7131962,0.4683886,-0.04919983,-0.06662612
107024555,0.7267563,0.8429213,0.748051,0.6318861,0.7331884,0.4454485,-0.07094879,-0.06125931
107124512,0.801219,0.9264069,0.7900476,0.6648598,0.7771441,0.4222424,-0.1278846,-0.07323676
107224478,0.8797422,1.011124,0.8298479,0.6984665,0.7899156,0.3990064,-0.1391661,-0.09802587
107324495,0.962119,1.097535,0.8674413,0.7320254,0.8255466,0.3757413,-0.1629468,-0.09882511
107424404,1.048139,1.184562,0.9028178,0.7663948,0.8608047,0.3524484,-0.1295644,-0.09076075
107524517,1.137591,1.277815,0.9359679,0.7957435,0.8680291,0.3291289,-0.1751213,-0.1048587
107624547,1.23026,1.370981,0.9668819,0.8261608,0.9085445,0.3057837,-0.1905293,-0.1253367
107724489,1.325931,1.467401,0.9955519,0.8540824,0.9300274,0.2824139,-0.1987853,-0.1556364
107824541,1.424387,1.563947,1.021969,0.8824092,0.9375341,0.2590205,-0.1764545,-0.1679533
107924470,1.525409,1.664817,1.046126,0.9067179,0.9372817,0.2356043,-0.2007668,-0.186461
108024564,1.628776,1.765457,1.068015,0.931334,0.9715664,0.2121663,-0.2636516,-0.1936653
108124660,1.734263,1.867863,1.087628,0.9540284,0.9913585,0.1887079,-0.2122432,-0.2103235
108224615,1.841641,1.969997,1.104959,0.9766024,0.9607912,0.1652313,-0.208618,-0.2213119
108324587,1.950669,2.069834,1.119999,1.000834,0.993777,0.1417406,-0.201019,-0.2086266
108424485,2.061116,2.170217,1.132743,1.023642,1.006378,0.1182378,-0.2136466,-0.2048109
108524565,2.172755,2.270265,1.143187,1.045676,1.014063,0.09472343,-0.1957425,-0.2165767
108624421,2.285349,2.370857,1.151328,1.06582,1.053946,0.07119971,-0.2288796,-0.2188595
108724587,2.398658,2.470494,1.157161,1.085325,1.000223,0.04767004,-0.1720252,-0.2147861
108824550,2.512449,2.570897,1.160689,1.102241,1.052597,0.02439499,-0.2059155,-0.1965524
108924484,2.626501,2.670994,1.16214,1.117647,1.055439,0.006835781,-0.2083996,-0.1956344
109024502,2.740635,2.772688,1.162407,1.130353,1.04582,0.000345026,-0.2031676,-0.2042395
109124488,2.854795,2.880642,1.16241,1.136562,1.095238,-0.000183579,-0.2785241,-0.216974
109224511,2.968948,2.989277,1.162204,1.141875,1.081908,-0.005628298,-0.2450268,-0.2300965
109324491,3.083038,3.099166,1.16093,1.144802,1.098282,-0.0221119,-0.2667096,-0.2504376
109424552,3.196913,3.210199,1.15764,1.144354,1.09117,-0.04520002,-0.3191665,-0.2681087
109524634,3.310381,3.321465,1.152043,1.140959,1.098664,-0.06875061,-0.3577633,-0.2954334
109624594,3.423224,3.432095,1.144109,1.135238,1.094782,-0.09372957,-0.4039236,-0.3287511
109724442,3.535193,3.542839,1.132763,1.125117,1.088438,-0.1443332,-0.4616962,-0.3624673
109824560,3.645791,3.652664,1.114142,1.107269,1.054589,-0.2412855,-0.520102,-0.4340441
109924460,3.754098,3.760494,1.084478,1.078082,1.079397,-0.3622402,-0.7483628,-0.536546
110024570,3.858958,3.865741,1.042786,1.036004,1.061063,-0.484347,-0.9031142,-0.6748202
110124534,3.959179,3.969645,0.9890313,0.9785647,0.9870935,-0.606527,-1.053498,-0.8359998
110224722,4.05356,4.069437,0.9231938,0.9073173,0.9565877,-0.7287775,-1.256403,-1.000267
110324533,4.140902,4.158446,0.8452544,0.8277108,0.8840539,-0.8510956,-1.401317,-1.143759
110424464,4.219998,4.240277,0.7551957,0.7349162,0.7788924,-0.9734787,-1.469945,-1.275334
110524536,4.289639,4.304509,0.6530007,0.6381307,0.6891967,-1.095924,-1.572098,-1.404836
110624502,4.348617,4.361914,0.5386527,0.5253556,0.6222248,-1.218429,-1.793301,-1.546355
110724515,4.395715,4.404947,0.4121375,0.4029053,0.4788691,-1.340992,-1.946489,-1.70558
110824453,4.429719,4.438612,0.2734395,0.2645476,0.327231,-1.463611,-2.06713,-1.863829
110924528,4.449411,4.453927,0.1225458,0.1180304,0.2181211,-1.586282,-2.209301,-2.007009
111024135,4.45357,4.458484,-0.04055611,-0.04547035,0.09478138,-1.709004,-2.404588,-2.162099
111124524,4.440972,4.440015,-0.2158794,-0.2149223,-0.06844785,-1.831776,-2.507374,-2.303796
111224544,4.410395,4.408235,-0.4034292,-0.4012689,-0.2977673,-1.954185,-2.654476,-2.437064
111324555,4.360622,4.356749,-0.6029329,-0.5990599,-0.4983904,-2.070105,-2.75734,-2.583959
111424637,4.290497,4.289339,-0.8134376,-0.8122791,-0.6792165,-2.174826,-2.98052,-2.74157
111524572,4.198967,4.198788,-1.034053,-1.033873,-0.8931558,-2.273831,-3.065455,-2.899905
111624524,4.085036,4.089436,-1.264311,-1.268711,-1.10193,-2.366355,-3.235989,-3.020522
111724560,3.947779,3.958764,-1.503259,-1.514245,-1.3333,-2.447632,-3.39021,-3.160989
111824466,3.78637,3.80427,-1.749995,-1.767895,-1.565122,-2.523322,-3.478961,-3.287122
111924537,3.600038,3.614012,-2.0043,-2.018274,-1.843743,-2.598814,-3.488942,-3.395682
112024461,3.388018,3.40205,-2.266175,-2.280206,-2.097886,-2.674327,-3.548997,-3.479043
112124506,3.149549,3.155746,-2.535621,-2.541818,-2.393523,-2.749687,-3.551824,-3.530995
112224480,2.883882,2.886049,-2.812102,-2.814268,-2.673146,-2.808623,-3.657992,-3.580996
112324678,2.59044,2.579391,-3.092338,-3.08129,-2.933699,-2.821821,-3.621703,-3.626331
112424477,2.26907,2.250877,-3.372006,-3.353813,-3.216483,-2.801652,-3.632561,-3.625268
112524556,1.91992,1.890595,-3.649437,-3.620112,-3.502184,-2.777811,-3.548527,-3.580401
112624522,1.543215,1.507366,-3.924555,-3.888705,-3.783541,-2.753965,-3.550452,-3.546603
112724619,1.139175,1.092581,-4.197357,-4.150764,-4.06662,-2.730115,-3.476826,-3.517474
112824520,0.7080228,0.6569682,-4.467842,-4.416788,-4.32715,-2.706259,-3.546627,-3.52057
112924499,0.2499811,0.1914439,-4.736003,-4.677466,-4.606015,-2.6824,-3.511216,-3.533704
113024574,-0.2347266,-0.292713,-5.001842,-4.943855,-4.822158,-2.658535,-3.6114,-3.561741
113124460,-0.7458715,-0.7986083,-5.265349,-5.212613,-5.09291,-2.634667,-3.723654,-3.618717
113224615,-1.283226,-1.324954,-5.526525,-5.484796,-5.298561,-2.610794,-3.875099,-3.692604
113324567,-1.846565,-1.866829,-5.785366,-5.765102,-5.510449,-2.586917,-3.992066,-3.801102
113424519,-2.435668,-2.430753,-6.041869,-6.046783,-5.735254,-2.563039,-4.096221,-3.911601
113524458,-3.05029,-3.021895,-6.296032,-6.324427,-5.995299,-2.539152,-4.122719,-4.009758
113624496,-3.690198,-3.633843,-6.547875,-6.604231,-6.244017,-2.51655,-4.154293,-4.085114
113724438,-4.355188,-4.265285,-6.797455,-6.887357,-6.501215,-2.488712,-4.263144,-4.150263
113824512,-5.044825,-4.922308,-7.042702,-7.165218,-6.743349,-2.426453,-4.298965,-4.21567
113924537,-5.758452,-5.602257,-7.27988,-7.436076,-6.997219,-2.331518,-4.225427,-4.231426
114024450,-6.495096,-6.307727,-7.507189,-7.694558,-7.244796,-2.231896,-4.168994,-4.207166
114124599,-7.253782,-7.036452,-7.724544,-7.941874,-7.47061,-2.132288,-4.156863,-4.164723
114224494,-8.03355,-7.789679,-7.931958,-8.175829,-7.701257,-2.032689,-4.079071,-4.125163
114324486,-8.833349,-8.557482,-8.12942,-8.405288,-7.928421,-1.933106,-4.100435,-4.10338
114424672,-9.65222,-9.348421,-8.316943,-8.620742,-8.112104,-1.833535,-4.046804,-4.097992
114524638,-10.48915,-10.15189,-8.494529,-8.831792,-8.316171,-1.733978,-4.048256,-4.082009
114624483,-11.34312,-10.9823,-8.662175,-9.023003,-8.479296,-1.634438,-4.047909,-4.068449
114724566,-12.2131,-11.81939,-8.81988,-9.213592,-8.66803,-1.534919,-4.021373,-4.061824
114824625,-13.09808,-12.67795,-8.967649,-9.387787,-8.828899,-1.435423,-4.004336,-4.045198
114924461,-13.99706,-13.545,-9.105489,-9.557549,-8.97266,-1.33595,-3.963966,-4.003587
115024608,-14.90906,-14.4335,-9.233406,-9.708975,-9.130613,-1.236498,-3.88214,-3.949777
115124529,-15.83313,-15.32354,-9.351412,-9.861002,-9.238412,-1.137064,-3.974344,-3.932413
115224461,-16.76825,-16.23916,-9.459511,-9.988602,-9.402111,-1.037649,-3.857185,-3.900265
115324503,-17.71346,-17.14972,-9.557712,-10.12146,-9.523261,-0.9382516,-3.904476,-3.890961
115424457,-18.66774,-18.0803,-9.646014,-10.23346,-9.611888,-0.8388749,-3.787129,-3.873359
115524533,-19.63013,-19.00797,-9.724426,-10.34658,-9.73775,-0.7395173,-3.809661,-3.844729
115624436,-20.59961,-19.9558,-9.792954,-10.43677,-9.815587,-0.6401798,-3.707747,-3.803486
115724557,-21.57524,-20.89961,-9.851604,-10.52724,-9.896988,-0.5408598,-3.730522,-3.77785
115824588,-22.55603,-21.8632,-9.900382,-10.59321,-9.990446,-0.4415575,-3.597883,-3.704628
115924565,-23.54112,-22.82064,-9.939298,-10.65978,-10.01654,-0.3422609,-3.63046,-3.659112
116024581,-24.52941,-23.79568,-9.968349,-10.70208,-10.09792,-0.242982,-3.461531,-3.605445
116124454,-25.52007,-24.76964,-9.987544,-10.73798,-10.13652,-0.1437065,-3.414088,-3.524052
116224565,-26.51216,-25.75453,-9.997155,-10.75479,-10.17573,-0.05454157,-3.320052,-3.457822
116324504,-27.50501,-26.7309,-9.99982,-10.77393,-10.21967,-0.007486232,-3.315928,-3.390013
116424480,-28.49809,-27.72269,-10,-10.77539,-10.25792,0,-3.240423,-3.325262
116524693,-29.49143,-28.70509,-10,-10.78635,-10.27515,0,-3.302277,-3.291213
116624552,-30.48505,-29.70254,-10,-10.78251,-10.29979,0,-3.245142,-3.271759
116724436,-31.4789,-30.69512,-10,-10.78378,-10.29554,0,-3.366853,-3.280997
116824518,-32.47299,-31.69642,-10,-10.77657,-10.33808,0,-3.311334,-3.301992
116924469,-33.46733,-32.69238,-10,-10.77495,-10.35174,0,-3.285424,-3.308797
117024544,-34.46189,-33.7019,-10,-10.75999,-10.37778,0,-3.184642,-3.278797
117124521,-35.45665,-34.70252,-10,-10.75413,-10.40973,0,-3.191619,-3.238868
117224514,-36.45163,-35.71666,-10,-10.73497,-10.42088,0,-3.173331,-3.206198
117324527,-37.4468,-36.72533,-10,-10.72147,-10.45408,0,-3.135355,-3.170264
117424503,-38.44216,-37.74623,-10,-10.69593,-10.47242,0,-3.037645,-3.123118
117524572,-39.4377,-38.75249,-10,-10.68521,-10.46007,0,-3.159021,-3.119853
117624539,-40.43341,-39.77605,-10,-10.65736,-10.46113,0,-3.081033,-3.104807
117724645,-41.42937,-40.78613,-10,-10.64324,-10.45475,0,-3.141705,-3.079796
117824583,-42.42539,-41.79299,-10,-10.6324,-10.4685,0,-3.099144,-3.093208
117924527,-43.42158,-42.79699,-10,-10.62459,-10.4612,0,-3.149086,-3.102962
118024567,-44.41798,-43.81365,-10,-10.60433,-10.48443,0,-3.012582,-3.083066
118124468,-45.41438,-44.8326,-10,-10.58178,-10.47138,0,-2.963896,-3.039067
118224489,-46.41108,-45.85752,-10,-10.55356,-10.50678,0,-2.848969,-2.980571
118324489,-47.40786,-46.87815,-10,-10.52971,-10.48685,0,-2.853469,-2.9194
118424484,-48.40464,-47.90792,-10,-10.49672,-10.51088,0,-2.725749,-2.863072
118524530,-49.40174,-48.92995,-10,-10.47179,-10.47089,0,-2.787318,-2.813251
118624633,-50.3989,-49.96037,-10,-10.43853,-10.48375,0,-2.727159,-2.761088
118724564,-51.39606,-50.98391,-10,-10.41215,-10.47285,0,-2.660152,-2.734518
118824511,-52.3934,-52.01363,-10,-10.37978,-10.47571,0,-2.635088,-2.699458
118924554,-53.39095,-53.03643,-10,-10.35452,-10.43487,0,-2.652283,-2.65097
119024589,-54.38849,-54.06614,-10,-10.32235,-10.41978,0,-2.529354,-2.600157
119124505,-55.38603,-55.08815,-10,-10.29789,-10.41866,0,-2.579286,-2.608202
119224548,-56.3838,-56.1154,-10,-10.2684,-10.38477,0,-2.524101,-2.573274
119324557,-57.38172,-57.13737,-10,-10.24435,-10.35208,0,-2.57099,-2.567195
119424503,-58.37965,-58.15969,-10,-10.21996,-10.34011,0,-2.531006,-2.550998
119524644,-59.37757,-59.18019,-10,-10.19738,-10.33103,0,-2.581599,-2.519543
119624556,-60.3755,-60.20325,-10,-10.17225,-10.31854,0,-2.522505,-2.528208
119724450,-61.37379,-61.22939,-10,-10.14439,-10.30951,8.08E-06,-2.386584,-2.479226
119824470,-62.37209,-62.25227,-9.999687,-10.1195,-10.26103,0.01121291,-2.489259,-2.464225
119924447,-63.37024,-63.27588,-9.996264,-10.09062,-10.21822,0.0657859,-2.379243,-2.457746
120024494,-64.36769,-64.30029,-9.985214,-10.05262,-10.20967,0.1590904,-2.104234,-2.337248
120124477,-65.36357,-65.31667,-9.96435,-10.01124,-10.21936,0.2589211,-1.96146,-2.200627
120224561,-66.35698,-66.33348,-9.933514,-9.957014,-10.15245,0.3587641,-1.811638,-2.04611
120324507,-67.34708,-67.34727,-9.892697,-9.892497,-10.14127,0.4586328,-1.602686,-1.883757
120424569,-68.33259,-68.35866,-9.841908,-9.815844,-10.07809,0.5585016,-1.478395,-1.705645
120524584,-69.31254,-69.35914,-9.781144,-9.734543,-9.985772,0.6583704,-1.394596,-1.564494
120624567,-70.28592,-70.35426,-9.710406,-9.642066,-9.890922,0.7582392,-1.244668,-1.421893
120724681,-71.25174,-71.34023,-9.629695,-9.541203,-9.844188,0.858108,-1.038872,-1.26467
120824628,-72.209,-72.32378,-9.53901,-9.424231,-9.73998,0.9579768,-0.8294047,-1.092328
120924519,-73.15671,-73.28989,-9.438352,-9.305173,-9.655526,1.057845,-0.6545675,-0.927847
121024543,-74.09422,-74.24734,-9.327674,-9.174549,-9.538249,1.157752,-0.5004587,-0.7573526
121124537,-75.02017,-75.19556,-9.207016,-9.031626,-9.397505,1.257659,-0.2936393,-0.5663238
121224525,-75.93358,-76.13196,-9.076376,-8.877997,-9.283449,1.357566,-0.1307509,-0.3891565
121324545,-76.83343,-77.0575,-8.935756,-8.711679,-9.139197,1.457473,0.08875381,-0.204333
121424495,-77.71873,-77.97256,-8.785153,-8.531325,-9.018045,1.55738,0.2499254,-0.01645018
121524517,-78.58849,-78.86713,-8.62457,-8.345927,-8.807701,1.657287,0.452294,0.1752885
121924453,-81.89213,-82.27982,-7.882421,-7.494726,-8.098881,2.056915,1.327793,1.011957
122124523,-83.42522,-83.86169,-7.451318,-7.014834,-7.686337,2.256791,1.855574,1.425058
122324584,-84.86825,-85.35695,-6.980513,-6.491812,-7.236214,2.446258,2.326605,1.906316
122424483,-85.5536,-86.07395,-6.733268,-6.212916,-6.99604,2.492908,2.404606,2.123606
122524586,-86.21408,-86.76756,-6.483574,-5.930088,-6.703215,2.5,2.438801,2.267295
122624603,-86.84959,-87.43224,-6.233711,-5.651065,-6.423481,2.5,2.550621,2.376241
122724542,-87.46014,-88.06593,-5.983849,-5.378058,-6.164449,2.5,2.585744,2.45619
122824736,-88.04571,-88.67155,-5.733986,-5.108146,-5.87987,2.5,2.629028,2.52243
122924456,-88.6063,-89.2514,-5.484123,-4.839026,-5.594059,2.5,2.623904,2.569626
123024473,-89.14193,-89.80355,-5.234261,-4.572639,-5.314637,2.5,2.575401,2.562383
123124527,-89.65257,-90.32689,-4.984398,-4.310081,-4.999274,2.5,2.609202,2.5583
123224526,-90.13827,-90.82017,-4.734535,-4.052641,-4.746917,2.5,2.69253,2.567785
123324501,-90.59896,-91.29787,-4.484673,-3.785767,-4.482056,2.5,2.906241,2.648733
123424532,-91.03471,-91.74576,-4.23481,-3.523755,-4.213254,2.5,2.896421,2.735559
123524609,-91.44547,-92.17503,-3.984947,-3.255387,-3.952909,2.5,2.986721,2.794101
123624504,-91.83125,-92.57214,-3.735085,-2.994186,-3.702768,2.5,3.058175,2.849045
123724475,-92.19208,-92.95281,-3.485222,-2.724489,-3.417166,2.499998,3.079895,2.913268
123824595,-92.52798,-93.30096,-3.235592,-2.462604,-3.083648,2.489802,2.85301,2.898497
123924525,-92.8391,-93.62354,-2.988875,-2.204442,-2.773627,2.43688,2.72805,2.79704
124024660,-93.12591,-93.91139,-2.749675,-1.964186,-2.46666,2.34416,2.585576,2.676232
124124523,-93.38927,-94.18169,-2.520296,-1.727874,-2.22155,2.244176,2.546992,2.588385
124224542,-93.63021,-94.41554,-2.300915,-1.515583,-1.961944,2.144193,2.244548,2.471856
124324486,-93.84971,-94.63641,-2.09153,-1.30483,-1.629761,2.04421,2.060205,2.317673
124424457,-94.04879,-94.82111,-1.892141,-1.119817,-1.420528,1.944227,1.824574,2.160612
124524576,-94.22839,-94.99767,-1.702749,-0.9334721,-1.211929,1.844244,1.829448,2.055649
124624457,-94.38961,-95.13972,-1.523354,-0.7732373,-0.9922047,1.74426,1.559509,1.932318
124724566,-94.53336,-95.28217,-1.353956,-0.6051376,-0.759493,1.644277,1.488794,1.792323
124824519,-94.66068,-95.39168,-1.194554,-0.4635581,-0.5851419,1.544294,1.328114,1.647166
124924635,-94.77258,-95.49921,-1.045149,-0.3185084,-0.4369066,1.444311,1.298381,1.522967
125024499,-94.87,-95.57632,-0.9057405,-0.1994222,-0.2818332,1.344328,1.05072,1.347954
125124505,-94.95402,-95.65584,-0.7763286,-0.07451225,-0.1622827,1.244344,1.0715,1.202423
125224554,-95.02558,-95.70564,-0.6569135,0.02314514,0.006615274,1.144361,0.7657299,1.032269
125324594,-95.0857,-95.76135,-0.5474949,0.1281594,0.05920628,1.044378,0.8863535,0.903354
125424521,-95.13541,-95.79093,-0.4480729,0.2074544,0.2005349,0.9443946,0.5833581,0.7924306
125524617,-95.17564,-95.83044,-0.3586476,0.2961571,0.2437224,0.8444114,0.6936747,0.7094569
125624471,-95.20746,-95.84543,-0.279219,0.3587498,0.3455383,0.7444282,0.479322,0.6311505
125724481,-95.2318,-95.87885,-0.2097919,0.4372686,0.3877883,0.6444526,0.5763968,0.5890591
125824647,-95.24973,-95.88834,-0.1503351,0.4882782,0.4220661,0.5444313,0.3703038,0.5236053
125924447,-95.26222,-95.91212,-0.1008824,0.5490199,0.4981203,0.4444099,0.3574192,0.4595322
126024524,-95.27027,-95.91155,-0.06143404,0.5798452,0.5270819,0.3443886,0.1188906,0.3550301
126124402,-95.27484,-95.92178,-0.03199006,0.6149533,0.5569661,0.2443672,0.09348071,0.2418689
126224508,-95.27699,-95.90993,-0.01255016,0.6203893,0.5902385,0.1443482,-0.1901316,0.1099546
126324491,-95.27769,-95.90992,-0.002841027,0.6293855,0.6437712,0.05446811,-0.1962454,0.002424672
126424499,-95.27781,-95.89136,-0.000176005,0.6133689,0.6402878,0.007299213,-0.2933893,-0.09909798
126524585,-95.27781,-95.89491,0,0.6170996,0.5800706,0,-0.08403704,-0.1248371
126624483,-95.27781,-95.88136,0,0.6035449,0.6070731,0,-0.1743653,-0.1118625
126724589,-95.27781,-95.88257,0,0.6047558,0.5726355,0,-0.0604073,-0.09698525
126824546,-95.27781,-95.87096,0,0.5931445,0.5724309,0,-0.1388016,-0.08684132
126924413,-95.27781,-95.8798,0,0.6019922,0.5511253,0,-0.01577978,-0.06626431
127024699,-95.27781,-95.87144,0,0.593623,0.5370726,0,-0.0610354,-0.04011018
127124447,-95.27781,-95.88157,0,0.6037598,0.5078552,0,0.09210662,0.009739245
127224594,-95.27781,-95.8743,0,0.5964844,0.490045,0,-0.03553929,0.03208996
127324540,-95.27781,-95.88204,0,0.6042285,0.5171266,0,0.03847208,0.05028591
127424553,-95.27781,-95.87205,0,0.5942383,0.5323206,0,-0.05798724,0.04571822
127524561,-95.27781,-95.87308,0,0.5952637,0.5121699,0,0.1069343,0.06455963
127624518,-95.27781,-95.8582,0,0.5803906,0.5043897,0,-0.01981805,0.06145059
127724418,-95.27781,-95.85728,0,0.5794727,0.5031283,0,0.06399098,0.07384639
127824484,-95.27781,-95.84061,0,0.5628027,0.4986573,0,-0.08320396,0.04020524
127924505,-95.27781,-95.84605,0,0.5682422,0.4982063,0,0.0790766,0.04954432
128024488,-95.27781,-95.83492,0,0.5571094,0.5132443,0,-0.02705658,0.05621165
128124443,-95.27781,-95.8345,0,0.5566894,0.485214,0,0.03800425,0.05737336
128224523,-95.27781,-95.81796,0,0.5401465,0.4702817,0,-0.07388699,0.005384178
128324566,-95.27781,-95.81585,0,0.5380371,0.4839882,0,-0.01982906,-4.83E-05
128424516,-95.27781,-95.79853,0,0.5207226,0.5002823,0,-0.09156431,0.000633282
128524688,-95.27781,-95.79575,0,0.5179394,0.4624863,0,0.01545097,0.000933
128624661,-95.27781,-95.77775,0,0.4999414,0.4551665,0,-0.06364523,-0.01883293
128724570,-95.27781,-95.77174,0,0.4939258,0.4513458,0,-0.006719891,-0.01378301
128824528,-95.27781,-95.75172,0,0.473916,0.4719833,0,-0.1417815,-0.04149626
128924417,-95.27781,-95.73728,0,0.4594727,0.4880043,0,-0.2248691,-0.1082789
129024454,-95.27781,-95.71008,0,0.4322656,0.4644397,0,-0.3219504,-0.1848486
129124687,-95.27781,-95.69409,0,0.4162793,0.4701197,0,-0.273092,-0.2209674
129224591,-95.27781,-95.66743,0,0.3896191,0.5035604,0,-0.3818771,-0.2525805
129324483,-95.27781,-95.65592,0,0.3781152,0.4678856,0,-0.2418901,-0.2489722
129424565,-95.27781,-95.6336,0,0.355791,0.4256622,0,-0.2993663,-0.2569011
129524538,-95.27781,-95.62479,0,0.3469824,0.4075568,0,-0.2618272,-0.2584484
129624504,-95.27781,-95.60491,0,0.3270996,0.4190333,0,-0.3602524,-0.2881055
129724465,-95.27781,-95.60215,0,0.3243359,0.402189,0,-0.2135708,-0.2781327
129824532,-95.27781,-95.58825,0,0.3104394,0.4262989,0,-0.3244449,-0.2756153
129924544,-95.27781,-95.5892,0,0.3113867,0.3411593,0,-0.1352471,-0.2495864
130024534,-95.27781,-95.57983,0,0.3020215,0.3073799,0,-0.1246472,-0.2152241
130124518,-95.27781,-95.58475,0,0.3069434,0.3046502,0,-0.07235878,-0.1690515
130224481,-95.27781,-95.5788,0,0.3009961,0.3111606,0,-0.1840249,-0.159628
130324591,-95.27781,-95.57999,0,0.3021777,0.3289174,0,-0.1919816,-0.1619679
130424527,-95.27781,-95.57014,0,0.292334,0.3125409,0,-0.256705,-0.1936505
130524674,-95.27781,-95.5729,2.44E-05,0.2951123,0.3040849,0.001690247,-0.1551176,-0.1976095
130624457,-95.27777,-95.56401,0.001269318,0.2875096,0.2867295,0.03088951,-0.1898168,-0.1993052
130724480,-95.27738,-95.56328,0.007817894,0.2937163,0.3099745,0.1074549,-0.06105059,-0.1718118
130824474,-95.27591,-95.55149,0.02343992,0.2990259,0.3520951,0.2064404,-0.03396629,-0.1183962
130924489,-95.27237,-95.54944,0.0490012,0.3260715,0.3177639,0.3061702,0.1898429,-0.01593718
131024525,-95.2658,-95.5359,0.08451279,0.3546104,0.3539934,0.4059106,0.243736,0.1119166
131124513,-95.25518,-95.52809,0.1299777,0.4028878,0.3655133,0.5056611,0.4854774,0.2551264
131224672,-95.23954,-95.50813,0.1853986,0.4539826,0.4207809,0.6054214,0.560827,0.4030308
131324535,-95.21786,-95.4864,0.2507784,0.5193135,0.4432124,0.7051912,0.7188649,0.5403712
131424515,-95.18916,-95.45159,0.3261194,0.588551,0.5154835,0.80497,0.7919667,0.6671445
131524558,-95.15245,-95.41205,0.4114241,0.6710237,0.6010402,0.9047574,0.8947756,0.7844449
131624529,-95.10672,-95.35719,0.5066945,0.757173,0.687051,1.004553,0.9752296,0.893793
131724500,-95.05097,-95.29909,0.6119334,0.8600487,0.7803469,1.104357,1.151221,1.037563
131824605,-94.98424,-95.22616,0.7271419,0.9690658,0.868894,1.204168,1.30661,1.189259
131924472,-94.90549,-95.14796,0.8523227,1.094793,0.9938399,1.303987,1.4955,1.365085
132024546,-94.81374,-95.05412,0.9874769,1.227858,1.101838,1.403813,1.669991,1.537066
132124566,-94.70799,-94.95041,1.132607,1.375019,1.207448,1.503646,1.838219,1.708069
132224519,-94.58726,-94.82858,1.287714,1.529032,1.368148,1.603485,1.869513,1.831463
132324440,-94.45052,-94.6991,1.4528,1.701374,1.53022,1.703331,2.042234,1.958335
132424505,-94.29681,-94.54621,1.627866,1.87727,1.735995,1.803183,2.040718,2.055281
132524557,-94.1251,-94.38056,1.812913,2.068382,1.917676,1.903041,2.049854,2.078903
132624483,-93.93439,-94.18698,2.007941,2.26053,2.145612,2.002903,2.0393,2.079071
132724475,-93.7237,-93.96494,2.212956,2.454196,2.4207,2.102772,1.951461,2.048589
132824511,-93.49203,-93.71489,2.427955,2.650816,2.671343,2.202646,1.94458,2.01738
132924475,-93.23838,-93.44598,2.652939,2.860547,2.869824,2.302524,2.12459,2.039969
133024614,-92.96174,-93.14977,2.887896,3.075933,3.116609,2.401112,2.168445,2.086361
133124513,-92.66116,-92.82974,3.131744,3.300328,3.38198,2.47388,2.201178,2.116461
133224572,-92.33591,-92.4826,3.380481,3.52717,3.600931,2.499013,2.223169,2.132325
133324662,-91.98574,-92.11314,3.630213,3.757615,3.871088,2.5,2.127323,2.110768
133424490,-91.61061,-91.71423,3.879959,3.983582,4.108056,2.5,2.121459,2.070594
133524542,-91.2105,-91.2978,4.129726,4.217021,4.347143,2.5,2.140084,2.064717
133624416,-90.78544,-90.85426,4.379494,4.448322,4.588104,2.5,2.138894,2.068611
133724549,-90.3354,-90.39213,4.629274,4.686002,4.816012,2.5,2.210168,2.118853
133824456,-89.86038,-89.90506,4.879065,4.923743,5.042059,2.5,2.268676,2.196592
133924514,-89.3604,-89.401,5.128856,5.169462,5.231144,2.5,2.378501,2.269228
134024450,-88.83543,-88.86928,5.378664,5.412511,5.444365,2.5,2.447096,2.343604
134124439,-88.28548,-88.32494,5.628479,5.667942,5.633891,2.5,2.610299,2.438594
134224492,-87.71056,-87.75534,5.878294,5.923069,5.868634,2.5,2.678047,2.538501
134324540,-87.11066,-87.16962,6.12812,6.187086,6.08343,2.5,2.798428,2.636481
134424555,-86.48576,-86.55804,6.377959,6.450244,6.300268,2.5,2.881406,2.743825
134524585,-85.83586,-85.92607,6.627795,6.718009,6.547621,2.498796,2.934774,2.839697
134624543,-85.16099,-85.26665,6.876578,6.982242,6.745492,2.472209,2.997084,2.897659
134724519,-84.46146,-84.58653,7.120316,7.245384,7.009104,2.397926,2.961748,2.94133
134824557,-83.73801,-83.87945,7.355075,7.49652,7.23668,2.299041,2.879776,2.938077
134924453,-82.99159,-83.14342,7.579858,7.731694,7.461446,2.199096,2.777556,2.888585
135024537,-82.2232,-82.3861,7.794652,7.957553,7.698047,2.099151,2.66882,2.815667
135124542,-81.43385,-81.61237,7.999457,8.177978,7.892158,1.999206,2.671696,2.747367
135224533,-80.62453,-80.81548,8.194274,8.385236,8.103231,1.899261,2.615299,2.699509
135324453,-79.79623,-80.00256,8.379101,8.585434,8.27899,1.799315,2.615646,2.661639
135424647,-78.94981,-79.16953,8.553969,8.77369,8.471358,1.699353,2.559943,2.630104
135524500,-78.0864,-78.31949,8.718847,8.951939,8.604341,1.599389,2.536682,2.588102
135624476,-77.20699,-77.45437,8.873733,9.121105,8.769469,1.499425,2.476309,2.540008
135724558,-76.31261,-76.58366,9.018624,9.289664,8.932069,1.39946,2.50989,2.513104
135824507,-75.40425,-75.70914,9.153523,9.458416,9.06293,1.299496,2.524321,2.538028
135924480,-74.4829,-74.80694,9.27843,9.602468,9.176017,1.199532,2.434192,2.521377
136024514,-73.54957,-73.89108,9.393344,9.734858,9.33853,1.099568,2.309025,2.453812
136124456,-72.60524,-72.96289,9.498265,9.855911,9.416724,0.9996039,2.242214,2.368865
136224507,-71.65092,-72.01883,9.593193,9.961094,9.555462,0.8996397,2.155958,2.264171
136324483,-70.68762,-71.06345,9.678128,10.05395,9.648615,0.7996756,2.056331,2.181742
136424593,-69.71632,-70.0956,9.753071,10.13234,9.761878,0.6997114,1.91626,2.084243
136524582,-68.73804,-69.12174,9.818021,10.20173,9.841362,0.5997472,1.793902,1.971474
136624554,-67.75376,-68.13221,9.872977,10.25143,9.910272,0.4997831,1.705073,1.853295
136724486,-66.76443,-67.14207,9.917944,10.29559,9.980969,0.3998133,1.615019,1.754796
136824534,-65.77097,-66.14528,9.95292,10.32723,10.0207,0.29983,1.573449,1.677279
136924417,-64.77451,-65.14984,9.9779,10.35323,10.0384,0.1998468,1.515569,1.599538
137024556,-63.77606,-64.14917,9.992898,10.366,10.06098,0.1009993,1.429995,1.528332
137124480,-62.77657,-63.1494,9.998939,10.37177,10.07142,0.02719358,1.384176,1.45829
137224518,-61.77678,-62.14135,9.999988,10.36456,10.07787,0.001119756,1.355601,1.408116
137324484,-60.77694,-61.14985,10,10.37291,10.07417,0,1.452125,1.413822
137424469,-59.77711,-60.15958,10,10.38248,10.07845,0,1.519071,1.455001
137524698,-58.77728,-59.16439,10,10.38712,10.09053,0,1.492216,1.496391
137624470,-57.77745,-58.16888,10,10.39143,10.06289,0,1.549498,1.520224
137724500,-56.77761,-57.16955,10,10.39194,10.10656,0,1.464043,1.522929
137824478,-55.77778,-56.16521,10,10.38743,10.07198,0,1.521396,1.497211
137924442,-54.77795,-55.15715,10,10.3792,10.13229,0,1.418489,1.47653
138024552,-53.77811,-54.14634,10,10.36823,10.14171,0,1.407,1.454225
138124523,-52.77829,-53.13033,10,10.35204,10.12617,0,1.431511,1.44004
138224545,-51.77845,-52.11665,10,10.3382,10.13863,0,1.349183,1.409564
138324526,-50.77862,-51.11005,10,10.33144,10.16648,0,1.369512,1.39105
138424606,-49.77879,-50.10093,10,10.32214,10.16548,0,1.378808,1.391049
138524494,-48.77895,-49.08549,10,10.30654,10.16138,0,1.310352,1.365542
138624436,-47.77912,-48.06794,10,10.28882,10.17734,0,1.260541,1.319466
138724471,-46.77929,-47.04561,10,10.26632,10.15816,0,1.230898,1.272861
138824480,-45.77946,-46.01748,10,10.23802,10.18441,0,1.126331,1.220458
138924426,-44.77962,-44.99761,10,10.21798,10.19493,0,1.156952,1.19052
139024536,-43.77979,-43.97829,10,10.19849,10.15186,0,1.187987,1.1817
139124485,-42.77996,-42.96188,10,10.18192,10.16013,0,1.196603,1.184369
139224533,-41.78012,-41.94616,10,10.16603,10.14695,0,1.20421,1.192986
139324572,-40.7803,-40.92445,10,10.14415,10.14682,0,1.148964,1.168525
139424497,-39.78046,-39.90532,10,10.12485,10.13221,0,1.145283,1.14478
139524606,-38.78063,-38.88938,10,10.10874,10.13193,0,1.106962,1.140529
139624689,-37.7808,-37.8761,10,10.0953,10.09336,0,1.201518,1.145026
139724572,-36.78097,-36.85883,10,10.07786,10.07239,0,1.158122,1.149946
139824473,-35.78114,-35.84835,10,10.06721,10.06045,0,1.14249,1.141439
140224514,-31.78181,-31.81444,10,10.03264,10.02376,0,1.156072,1.141015
140524546,-28.78231,-28.79021,10,10.0079,10.04113,0,1.022982,1.112607
140824490,-25.78333,-25.7637,9.990987,9.971353,10.02522,-0.1176663,0.9313378,1.027726
140924555,-24.78516,-24.75968,9.974253,9.948776,10.00793,-0.2173332,0.8125464,0.9429123
141024616,-23.78915,-23.75866,9.947525,9.917029,9.954133,-0.3173164,0.7002041,0.8351021
141124612,-22.79632,-22.76374,9.9108,9.878222,9.929563,-0.4172996,0.6365527,0.7299795
141224583,-21.80766,-21.76814,9.864079,9.824553,9.905717,-0.5172828,0.4320068,0.6338564
141324500,-20.82417,-20.78329,9.807362,9.766487,9.854253,-0.6172661,0.3260143,0.5165494
141424497,-19.84685,-19.80413,9.740646,9.697927,9.769679,-0.7172493,0.2483568,0.4029974
141524549,-18.8767,-18.82935,9.663936,9.616588,9.709491,-0.8172325,0.09819236,0.2863126
141624501,-17.91473,-17.86264,9.577228,9.525139,9.61076,-0.9172157,-0.01017189,0.1664837
141724629,-16.96191,-16.90793,9.480523,9.426539,9.485374,-1.017199,-0.08597176,0.05328089
141824613,-16.01927,-15.95801,9.373821,9.312563,9.423506,-1.117182,-0.2687342,-0.08638856
141924444,-15.0878,-15.02822,9.257124,9.197542,9.321774,-1.217165,-0.3879354,-0.205277
142024561,-14.16849,-14.10812,9.130429,9.070062,9.180529,-1.317149,-0.5293275,-0.3511426
142124428,-13.26235,-13.20545,8.993739,8.936841,9.076797,-1.417132,-0.6885196,-0.4921193
142224579,-12.37038,-12.30497,8.847051,8.781635,8.915452,-1.517115,-0.8512512,-0.6456613
142324570,-11.49356,-11.42072,8.690367,8.61752,8.792039,-1.617098,-1.067609,-0.809321
142424500,-10.63293,-10.55001,8.523685,8.440766,8.656989,-1.717081,-1.247665,-0.9872338
142524575,-9.789453,-9.689833,8.347007,8.247388,8.522267,-1.817065,-1.490185,-1.169227
142624482,-8.964141,-8.846221,8.160333,8.042413,8.317349,-1.917048,-1.679393,-1.392291
142724667,-8.157998,-8.028571,7.963663,7.834236,8.124532,-2.017031,-1.783443,-1.566043
142824457,-7.372012,-7.224279,7.756995,7.609262,7.943457,-2.117014,-1.993288,-1.733707
142924604,-6.607187,-6.447744,7.540331,7.380888,7.72295,-2.216997,-2.106161,-1.889125
143024414,-5.864531,-5.692392,7.31367,7.141531,7.460454,-2.316981,-2.200446,-2.018352
143124419,-5.145039,-4.958865,7.077057,6.890883,7.221694,-2.414287,-2.36733,-2.162755
143224495,-4.449638,-4.248628,6.831962,6.630951,7.01633,-2.48047,-2.533695,-2.310875
143324392,-3.779014,-3.570424,6.582671,6.374082,6.764966,-2.499671,-2.486544,-2.41072
143424449,-3.13335,-2.91663,6.332717,6.115997,6.472772,-2.5,-2.496338,-2.44506
143524540,-2.512676,-2.288495,6.082759,5.858578,6.20274,-2.5,-2.51767,-2.480763
143624544,-1.917012,-1.690594,5.832801,5.606383,5.95674,-2.5,-2.544708,-2.502878
143724475,-1.346318,-1.119444,5.582843,5.355968,5.693879,-2.5,-2.555701,-2.525131
143824365,-0.800625,-0.5683723,5.332885,5.100632,5.449616,-2.5,-2.628147,-2.552762
143924464,-0.2799219,-0.04246266,5.082927,4.845468,5.198539,-2.5,-2.711965,-2.615999
144024542,0.215791,0.4602181,4.832969,4.588542,4.949986,-2.5,-2.767524,-2.674243
144124480,0.6865137,0.9347269,4.583011,4.334797,4.707708,-2.5,-2.773142,-2.720133
144224607,1.132236,1.385567,4.333053,4.079722,4.463059,-2.5,-2.836569,-2.759355
144324445,1.552969,1.811468,4.083095,3.824595,4.189833,-2.5,-2.895133,-2.812271
144424522,1.948721,2.215556,3.833137,3.566301,3.952985,-2.5,-3.047908,-2.9053
144524605,2.319473,2.597002,3.583179,3.30565,3.732759,-2.5,-3.175117,-3.006432
144624383,2.665244,2.95499,3.333265,3.043518,3.499249,-2.497352,-3.291392,-3.118613
144724574,2.986064,3.288152,3.084857,2.782769,3.292446,-2.463671,-3.361166,-3.201201
144824531,3.282295,3.598521,2.84224,2.526013,3.0285,-2.382985,-3.300535,-3.223934
144924486,3.554717,3.884132,2.608949,2.279534,2.784425,-2.283338,-3.23141,-3.22235
145024490,3.804336,4.147855,2.385652,2.042132,2.544047,-2.183355,-3.170148,-3.179341
145124472,4.0321,4.389055,2.172351,1.815396,2.310443,-2.083372,-3.047729,-3.121706
145224495,4.239062,4.606181,1.969047,1.601929,2.099773,-1.983388,-2.959943,-3.060125
145324523,4.426181,4.801491,1.77574,1.40043,1.876252,-1.883405,-2.846584,-2.996017
145424515,4.594482,4.97561,1.592429,1.211301,1.649892,-1.783422,-2.716114,-2.924424
145524606,4.744941,5.129702,1.419115,1.034355,1.442263,-1.683439,-2.591792,-2.840004
145624547,4.878584,5.265329,1.255798,0.8690531,1.263806,-1.583456,-2.507024,-2.743448
145724681,4.996397,5.382163,1.102478,0.7167116,1.103107,-1.483472,-2.430356,-2.643924
145824563,5.099385,5.482465,0.9591534,0.576073,0.9567297,-1.383489,-2.284407,-2.513438
145924671,5.188535,5.561548,0.8258261,0.4528134,0.759394,-1.283506,-2.074401,-2.346406
146024519,5.264843,5.627472,0.7024953,0.3398665,0.6273623,-1.183523,-1.963642,-2.176509
146124508,5.329346,5.682298,0.5891613,0.236209,0.5096856,-1.08354,-1.869853,-2.041758
146224466,5.382998,5.725599,0.4858238,0.1432225,0.3968579,-0.9835563,-1.769773,-1.928951
146324521,5.426816,5.755208,0.3924831,0.06409199,0.2638036,-0.8835731,-1.594431,-1.81701
146424469,5.461816,5.775478,0.3091388,-0.004523315,0.183488,-0.7835899,-1.480585,-1.690525
146524664,5.488975,5.784429,0.2357783,-0.05967643,0.08113372,-0.6835876,-1.329228,-1.562518
146624479,5.509306,5.787169,0.1724071,-0.1054561,0.04909739,-0.5835662,-1.24475,-1.433923
146724530,5.523799,5.783756,0.1190401,-0.1409172,-0.03645907,-0.4835449,-1.092863,-1.310387
146824565,5.533457,5.775951,0.07567746,-0.1668171,-0.05544086,-0.3835236,-1.020139,-1.179628
146924475,5.539277,5.766218,0.04231913,-0.1846212,-0.08955023,-0.2835022,-0.9259597,-1.070193
147024228,5.542256,5.754361,0.01896483,-0.1931403,-0.1005232,-0.1834808,-0.8225568,-0.9721531
147124474,5.543398,5.742197,0.005570928,-0.1932273,-0.1507534,-0.08608788,-0.6747313,-0.8585485
147224602,5.543662,5.729417,0.000679898,-0.1850751,-0.1461901,-0.01968931,-0.5974114,-0.7483802
147324537,5.543672,5.716503,3.91E-06,-0.1728275,-0.1641219,-0.00033928,-0.5613984,-0.6725023
147424627,5.543682,5.703529,0,-0.1598474,-0.1407366,0,-0.5601895,-0.6147456
147524602,5.543682,5.696162,0,-0.1524805,-0.09464502,0,-0.656738,-0.5954986
147624506,5.543682,5.688713,0,-0.1450311,-0.09660503,0,-0.6310009,-0.6190954
147724448,5.543682,5.680035,0,-0.1363532,-0.0788397,0,-0.6255835,-0.629909
147824477,5.543682,5.671304,0,-0.1276227,-0.08569913,0,-0.588924,-0.6226776
147924443,5.543682,5.664824,0,-0.1211432,-0.1081268,0,-0.5809813,-0.6055915
148024647,5.543682,5.658332,0,-0.1146503,-0.07847617,0,-0.6371396,-0.6079815
148124519,5.543682,5.651015,0,-0.107334,-0.06783505,0,-0.5668597,-0.6000578
148224517,5.543682,5.642834,0,-0.09915283,-0.100148,0,-0.5229053,-0.5834337
148324529,5.543682,5.634984,0,-0.0913031,-0.1201026,0,-0.5046249,-0.5543837
148424469,5.543682,5.626773,0,-0.08309204,-0.08399239,0,-0.5074064,-0.5382226
148524563,5.543682,5.617065,0,-0.07338379,-0.07240496,0,-0.521695,-0.5362758
148624468,5.543682,5.607977,0,-0.06429565,-0.07212482,0,-0.4781826,-0.5315596
148724556,5.543682,5.602727,0,-0.05904541,-0.09470988,0,-0.5222881,-0.5302041
148824606,5.543682,5.597113,0,-0.0534314,-0.08225738,0,-0.4912262,-0.5279285
148924464,5.543682,5.589606,0,-0.04592407,-0.0518086,0,-0.4930014,-0.5127979
149024573,5.543682,5.582679,0,-0.0389978,-0.06370872,0,-0.512183,-0.506421
149224618,5.543682,5.57246,0,-0.02877808,-0.05805328,0,-0.512499,-0.5004602
149324531,5.543682,5.566073,0,-0.02239197,-0.07531469,0,-0.4696896,-0.4933963
149424487,5.543682,5.560219,0,-0.01653747,-0.08089297,0,-0.433843,-0.4868998
149524517,5.543682,5.555503,0,-0.01182129,-0.03024949,0,-0.4894569,-0.4830629
149624479,5.543682,5.55163,0,-0.007949218,-0.000813669,0,-0.5130367,-0.4893023
149724530,5.543682,5.547517,0,-0.003835449,-0.04313647,0,-0.4544586,-0.4942081
149824514,5.543682,5.544107,0,-0.000426025,-0.03402909,0,-0.4893197,-0.4905077
149924540,5.543682,5.542934,0,0.00074707,-0.02370797,0,-0.4964048,-0.4917964
150024570,5.543682,5.541739,0,0.001942749,-0.002176947,0,-0.5098494,-0.4950414
150124709,5.543682,5.546014,0,-0.002332764,-0.00613707,0,-0.5828114,-0.5074476
150224503,5.543682,5.550396,0,-0.006714477,-0.01628294,0,-0.6006182,-0.5404885
150324517,5.543682,5.555301,0,-0.01161926,-0.004562441,0,-0.6118135,-0.5570945
150424502,5.543682,5.559506,0,-0.01582458,-0.02351465,0,-0.5754461,-0.5644941
150524639,5.543682,5.561047,0,-0.01736572,-0.02674947,0,-0.5300615,-0.5582282
150624482,5.543682,5.562383,0,-0.01870178,0.005915193,0,-0.5261981,-0.5463378
150724526,5.543682,5.56462,0,-0.02093811,-0.003666457,0,-0.5499442,-0.5329303
150824597,5.543682,5.565639,0,-0.0219574,-0.01247616,0,-0.5040502,-0.5265575
150924426,5.543682,5.567669,0,-0.02398804,-0.004061491,0,-0.5522062,-0.51611
151024541,5.543682,5.568415,0,-0.02473328,-0.01902383,0,-0.5312137,-0.5203539
151124455,5.543682,5.572249,0,-0.02856812,0.001495116,0,-0.5980105,-0.5264433
151224522,5.543682,5.575112,0,-0.03143066,-0.02707345,0,-0.5522409,-0.5404254
151324478,5.543682,5.578418,0,-0.03473633,-0.04555463,0,-0.5460106,-0.5360905
151424486,5.543682,5.57987,0,-0.03618835,-0.01146751,0,-0.5436672,-0.5209928
151524539,5.543682,5.581977,0,-0.03829529,-0.03171978,0,-0.5653836,-0.5119256
151624518,5.543682,5.582782,0,-0.03910034,-0.0414703,0,-0.5617486,-0.5113447
151724541,5.543682,5.592312,0,-0.04863098,-0.01027326,0,-0.6607178,-0.5555861
151824613,5.543682,5.599387,0,-0.05570496,-0.04481573,0,-0.6577113,-0.6072009
151924670,5.543682,5.6113,0,-0.06761902,-0.01113708,0,-0.6773771,-0.6678359
152024573,5.543682,5.620135,0,-0.07645386,-0.01055212,0,-0.7180489,-0.6969226
152124452,5.543682,5.63052,0,-0.08683899,-0.02516995,0,-0.7283486,-0.6953768
152224682,5.543682,5.636979,0,-0.09329773,-0.0534916,0,-0.6403381,-0.6849515
152324420,5.543682,5.643338,0,-0.09965637,-0.05851646,0,-0.6634516,-0.6594157
152424546,5.543682,5.646154,0,-0.1024725,-0.02782441,0,-0.6733541,-0.6434572
152524588,5.543682,5.651667,0,-0.1079852,-0.05824404,0,-0.6783497,-0.6326081
152624479,5.543682,5.654073,0,-0.1103912,-0.06216169,0,-0.6652389,-0.6473088
152724472,5.543682,5.662183,0,-0.1185016,-0.07350976,0,-0.7307601,-0.6710677
152824532,5.543682,5.666012,0,-0.1223309,-0.07453742,0,-0.6851388,-0.6971471
152924459,5.543682,5.67257,0,-0.1288885,-0.073853,0,-0.7498299,-0.7405503
153024511,5.543682,5.675348,0,-0.1316669,-0.06819423,0,-0.7351642,-0.7485362
153124541,5.543682,5.682618,0,-0.1389361,-0.09079015,0,-0.7284709,-0.7539467
153224525,5.543682,5.686023,0,-0.1423419,-0.08940656,0,-0.7407826,-0.7411165
153324551,5.543682,5.695935,0,-0.1522534,-0.06617311,0,-0.809217,-0.7433739
153424493,5.543682,5.701026,0,-0.157345,-0.05115922,0,-0.8221294,-0.7685834
153524617,5.543682,5.714962,0,-0.1712811,-0.04737891,0,-0.8903556,-0.8025706
153624548,5.543682,5.72289,0,-0.179209,-0.06390779,0,-0.8796996,-0.8263277
153724661,5.543682,5.72706,0,-0.1833783,-0.09560622,0,-0.8224289,-0.8175949
153824545,5.543682,5.727721,0,-0.1840399,-0.1171183,0,-0.782279,-0.8030429
153924523,5.543682,5.730192,0,-0.18651,-0.1178051,0,-0.7831677,-0.7840899
154024514,5.543682,5.728061,0,-0.1843799,-0.1528078,0,-0.7233847,-0.773685
154124430,5.543682,5.728314,0,-0.1846326,-0.1218597,0,-0.7773812,-0.7644755
154224503,5.543682,5.723837,0,-0.1801556,-0.1201048,0,-0.7277178,-0.755477
154324672,5.543682,5.725197,0,-0.1815155,-0.1251137,0,-0.7722558,-0.755108
154424570,5.543682,5.721938,0,-0.1782562,-0.1365891,0,-0.7564555,-0.7484429
154524523,5.543682,5.717282,0,-0.1736005,-0.1574793,0,-0.7345486,-0.7321574
154624585,5.543682,5.709525,0,-0.1658435,-0.1722055,0,-0.6718286,-0.7126233
154724523,5.543682,5.700824,0,-0.1571423,-0.1454437,0,-0.6852244,-0.6958553
154824555,5.543682,5.689999,0,-0.1463178,-0.1441456,0,-0.6546009,-0.6780437
154924515,5.543682,5.679448,0,-0.1357666,-0.1386381,0,-0.6693932,-0.6592472
155024559,5.543682,5.667202,0,-0.1235199,-0.1490744,0,-0.6152465,-0.6409569
155124533,5.543682,5.65339,0,-0.1097082,-0.1703933,0,-0.5570572,-0.6225178
155224491,5.543682,5.639146,0,-0.09546448,-0.1414894,0,-0.5516932,-0.5951246
155324569,5.543682,5.626556,0,-0.08287475,-0.13295,0,-0.568605,-0.584218
155424529,5.543682,5.613116,0,-0.06943481,-0.116218,0,-0.5480791,-0.5645356
